{"status":true,"message":"","result":[{"server_id":9,"name":"Uncletopia | Atlanta | 1 | All Maps","name_short":"atl-1","host":"atl-1.us.uncletopia.com","port":27015,"enabled":true,"region":"us-east","cc":"us","latitude":33.753746,"longitude":-84.38633,"reserved":0,"last_update":"0001-01-01T00:00:00Z","name_a2s":"Uncletopia | Atlanta | 1 | All Maps","protocol":17,"map":"cp_process_final","folder":"tf","game":"Team Fortress","app_id":440,"player_count":24,"max_players":24,"Bots":0,"server_type":"Dedicated","server_os":"Linux","password":true,"vac":true,"version":"7757534","steam_id":85568392924469982,"keywords":["cp","nocrits","nodmgspread","uncletopia"],"game_id":440,"stv_port":27016,"stv_name":"Uncletopia | Atlanta | 1 | All Maps | STV","players":[{"user_id":719,"name":"messy_","steam_id":76561199095580664,"connected_time":4704000000000,"state":"active","ping":121},{"user_id":750,"name":"Intro Bonito","steam_id":76561198119478838,"connected_time":1063000000000,"state":"active","ping":56},{"user_id":744,"name":"David","steam_id":76561199187421416,"connected_time":2064000000000,"state":"active","ping":130},{"user_id":680,"name":"Sophie","steam_id":76561198170408057,"connected_time":7503000000000,"state":"active","ping":55},{"user_id":682,"name":"Oddball","steam_id":76561198040440984,"connected_time":7492000000000,"state":"active","ping":93},{"user_id":737,"name":"façade","steam_id":76561199157009256,"connected_time":2673000000000,"state":"active","ping":95},{"user_id":732,"name":"snoops","steam_id":76561197986760351,"connected_time":3043000000000,"state":"active","ping":75},{"user_id":710,"name":"morphine","steam_id":76561198072124799,"connected_time":5491000000000,"state":"active","ping":96},{"user_id":701,"name":"BIG HOG","steam_id":76561198079923652,"connected_time":6676000000000,"state":"active","ping":74},{"user_id":749,"name":"Shame","steam_id":76561198100490994,"connected_time":1400000000000,"state":"active","ping":61},{"user_id":764,"name":"xiii","steam_id":76561198079416036,"connected_time":866000000000,"state":"active","ping":76},{"user_id":763,"name":"kite","steam_id":76561198346516392,"connected_time":873000000000,"state":"active","ping":84},{"user_id":765,"name":"Onyx","steam_id":76561198275349640,"connected_time":861000000000,"state":"active","ping":74},{"user_id":766,"name":"thomasdee725!!!!","steam_id":76561199189526173,"connected_time":624000000000,"state":"active","ping":85},{"user_id":770,"name":"rose","steam_id":76561198048882285,"connected_time":135000000000,"state":"active","ping":62},{"user_id":745,"name":"yomo","steam_id":76561198063175935,"connected_time":2063000000000,"state":"active","ping":60},{"user_id":767,"name":"PerpetuaForever","steam_id":76561198347444353,"connected_time":199000000000,"state":"active","ping":72},{"user_id":722,"name":"bogginwater","steam_id":76561198155547142,"connected_time":4524000000000,"state":"active","ping":70},{"user_id":772,"name":"General Mischief","steam_id":76561198163825955,"connected_time":82000000000,"state":"active","ping":111},{"user_id":677,"name":"eish","steam_id":76561198089463603,"connected_time":7576000000000,"state":"active","ping":125},{"user_id":707,"name":"ennui","steam_id":76561198118428095,"connected_time":5572000000000,"state":"active","ping":76},{"user_id":762,"name":"freyja #LetsEat","steam_id":76561198249206656,"connected_time":903000000000,"state":"active","ping":88},{"user_id":734,"name":"p4ka","steam_id":76561198315291317,"connected_time":2858000000000,"state":"active","ping":79},{"user_id":331,"name":"lil hog","steam_id":76561199230929836,"connected_time":27474000000000,"state":"active","ping":80}]},{"server_id":104,"name":"Uncletopia | Atlanta | 2 | All Maps","name_short":"atl-2","host":"atl-1.us.uncletopia.com","port":27025,"enabled":true,"region":"us-east","cc":"us","latitude":33.753746,"longitude":-84.38633,"reserved":0,"last_update":"0001-01-01T00:00:00Z","name_a2s":"Uncletopia | Atlanta | 2 | All Maps","protocol":17,"map":"cp_dustbowl","folder":"tf","game":"Team Fortress","app_id":440,"player_count":16,"max_players":24,"Bots":0,"server_type":"Dedicated","server_os":"Linux","password":true,"vac":true,"version":"7757534","steam_id":85568392924469983,"keywords":["cp","nocrits","nodmgspread","uncletopia"],"game_id":440,"stv_port":27026,"stv_name":"Uncletopia | Atlanta | 2 | All Maps | STV","players":[{"user_id":394,"name":"J The Jounin","steam_id":76561198034583622,"connected_time":7526000000000,"state":"active","ping":57},{"user_id":478,"name":"Kestoro","steam_id":76561198283962266,"connected_time":1074000000000,"state":"active","ping":72},{"user_id":460,"name":"Broken Cereal√","steam_id":76561198087489795,"connected_time":2563000000000,"state":"active","ping":60},{"user_id":451,"name":"Healerblade","steam_id":76561197999816472,"connected_time":3328000000000,"state":"active","ping":104},{"user_id":486,"name":"What's his Name?","steam_id":76561198315533146,"connected_time":52000000000,"state":"active","ping":76},{"user_id":470,"name":"Mayor McCheese","steam_id":76561198055417680,"connected_time":1444000000000,"state":"active","ping":58},{"user_id":483,"name":"number 1 meowsynth lover","steam_id":76561198176887563,"connected_time":70000000000,"state":"active","ping":61},{"user_id":484,"name":"The Minigame","steam_id":76561198304963530,"connected_time":65000000000,"state":"spawning","ping":62},{"user_id":479,"name":"lokm","steam_id":76561198030374238,"connected_time":1073000000000,"state":"active","ping":111},{"user_id":473,"name":"Cirinio","steam_id":76561198083700067,"connected_time":1413000000000,"state":"active","ping":60},{"user_id":455,"name":"Carbonated Cocaine","steam_id":76561198110678966,"connected_time":2950000000000,"state":"active","ping":56},{"user_id":431,"name":"Blake...","steam_id":76561198064090974,"connected_time":4609000000000,"state":"active","ping":88},{"user_id":432,"name":"TheGamingGuru","steam_id":76561198356484354,"connected_time":4600000000000,"state":"active","ping":90},{"user_id":475,"name":"MonkeyDUzumaki","steam_id":76561198079426367,"connected_time":1389000000000,"state":"active","ping":57},{"user_id":476,"name":"Dat Boi","steam_id":76561198024552120,"connected_time":1389000000000,"state":"active","ping":54},{"user_id":477,"name":"♂♥ spum Burgler","steam_id":76561198158003907,"connected_time":1388000000000,"state":"active","ping":96}]},{"server_id":400,"name":"Uncletopia | Atlanta | 3 | Community","name_short":"atl-3","host":"atl-1.us.uncletopia.com","port":27035,"enabled":true,"region":"us-east","cc":"us","latitude":33.753746,"longitude":-84.38633,"reserved":0,"last_update":"0001-01-01T00:00:00Z","name_a2s":"Uncletopia | Atlanta | 3 | Community","protocol":17,"map":"workshop/cp_sulfur_rc2.ugc619869471","folder":"tf","game":"Team Fortress","app_id":440,"player_count":0,"max_players":24,"Bots":0,"server_type":"Dedicated","server_os":"Linux","password":true,"vac":true,"version":"7757534","steam_id":85568392924515187,"keywords":["cp","nocrits","nodmgspread","uncletopia"],"game_id":440,"stv_port":27036,"stv_name":"Uncletopia | Atlanta | 3 | Community | STV","players":null},{"server_id":401,"name":"Uncletopia | Atlanta | 4 | No Payload","name_short":"atl-4","host":"atl-1.us.uncletopia.com","port":27045,"enabled":true,"region":"us-east","cc":"us","latitude":33.753746,"longitude":-84.38633,"reserved":0,"last_update":"0001-01-01T00:00:00Z","name_a2s":"","protocol":0,"map":"","folder":"","game":"","app_id":0,"player_count":0,"max_players":0,"Bots":0,"server_type":"","server_os":"","password":false,"vac":false,"version":"","steam_id":0,"keywords":null,"game_id":0,"stv_port":0,"stv_name":"","players":null},{"server_id":2,"name":"Uncletopia | Chicago | 1 | All Maps","name_short":"chi-1","host":"chi-1.us.uncletopia.com","port":27015,"enabled":true,"region":"us-central","cc":"us","latitude":41.881832,"longitude":-87.62318,"reserved":0,"last_update":"0001-01-01T00:00:00Z","name_a2s":"Uncletopia | Chicago | 1 | All Maps","protocol":17,"map":"pl_borneo","folder":"tf","game":"Team Fortress","app_id":440,"player_count":24,"max_players":24,"Bots":0,"server_type":"Dedicated","server_os":"Linux","password":true,"vac":true,"version":"7757534","steam_id":85568392924469984,"keywords":["nocrits","nodmgspread","payload","uncletopia"],"game_id":440,"stv_port":27016,"stv_name":"Uncletopia | Chicago | 1 | All Maps | STV","players":[{"user_id":692,"name":"anonion","steam_id":76561198056477584,"connected_time":2107000000000,"state":"active","ping":89},{"user_id":713,"name":"ROGUE-PLANET","steam_id":76561198116023052,"connected_time":1348000000000,"state":"active","ping":69},{"user_id":690,"name":"MOOSE","steam_id":76561198025750153,"connected_time":2140000000000,"state":"active","ping":64},{"user_id":702,"name":"Viokik","steam_id":76561198408846602,"connected_time":1717000000000,"state":"active","ping":64},{"user_id":720,"name":"SimSamS6","steam_id":76561198847553887,"connected_time":670000000000,"state":"active","ping":61},{"user_id":691,"name":"tsun.","steam_id":76561198079488962,"connected_time":2111000000000,"state":"active","ping":92},{"user_id":680,"name":"my money washed like george","steam_id":76561198115458307,"connected_time":2612000000000,"state":"active","ping":105},{"user_id":722,"name":"Wardin","steam_id":76561198096881855,"connected_time":252000000000,"state":"active","ping":68},{"user_id":693,"name":"GIANT MOM","steam_id":76561198267057507,"connected_time":2102000000000,"state":"active","ping":86},{"user_id":719,"name":"c00kie","steam_id":76561198418178297,"connected_time":835000000000,"state":"active","ping":44},{"user_id":711,"name":"grahamcrunchycracker","steam_id":76561199037569525,"connected_time":1391000000000,"state":"active","ping":102},{"user_id":705,"name":"beta central","steam_id":76561198301876831,"connected_time":1531000000000,"state":"active","ping":59},{"user_id":708,"name":"bagel_man","steam_id":76561198164640460,"connected_time":1400000000000,"state":"active","ping":113},{"user_id":706,"name":"Thundermonkey (SMOKE)","steam_id":76561198017631728,"connected_time":1404000000000,"state":"active","ping":63},{"user_id":721,"name":"Skinny Pete","steam_id":76561198801608576,"connected_time":315000000000,"state":"active","ping":83},{"user_id":709,"name":"vokwa","steam_id":76561198160393432,"connected_time":1399000000000,"state":"active","ping":79},{"user_id":710,"name":"Kakyōin Noriaki","steam_id":76561198123809642,"connected_time":1399000000000,"state":"active","ping":70},{"user_id":698,"name":"PANOFPANS","steam_id":76561198064778159,"connected_time":1867000000000,"state":"active","ping":86},{"user_id":699,"name":"revo","steam_id":76561197967612606,"connected_time":1843000000000,"state":"active","ping":119},{"user_id":714,"name":"MankTKO","steam_id":76561198189421005,"connected_time":1149000000000,"state":"active","ping":59},{"user_id":715,"name":"wezeer","steam_id":76561198407577922,"connected_time":1121000000000,"state":"active","ping":64},{"user_id":685,"name":"mu","steam_id":76561197997530228,"connected_time":2329000000000,"state":"active","ping":103},{"user_id":697,"name":"willow","steam_id":76561198068266114,"connected_time":2028000000000,"state":"active","ping":74},{"user_id":651,"name":"PKBEAST_7","steam_id":76561198177136537,"connected_time":5235000000000,"state":"active","ping":100}]},{"server_id":106,"name":"Uncletopia | Chicago | 2 | All Maps","name_short":"chi-2","host":"chi-1.us.uncletopia.com","port":27025,"enabled":true,"region":"us-central","cc":"us","latitude":41.881832,"longitude":-87.62318,"reserved":0,"last_update":"0001-01-01T00:00:00Z","name_a2s":"Uncletopia | Chicago | 2 | All Maps","protocol":17,"map":"pl_frontier_final","folder":"tf","game":"Team Fortress","app_id":440,"player_count":24,"max_players":24,"Bots":0,"server_type":"Dedicated","server_os":"Linux","password":true,"vac":true,"version":"7757534","steam_id":85568392924469985,"keywords":["nocrits","nodmgspread","payload","uncletopia"],"game_id":440,"stv_port":27026,"stv_name":"Uncletopia | Chicago | 2 | All Maps | STV","players":[{"user_id":380,"name":"Ⓑ⓪⓪ⓣⓨⓒⓐⓚⓔⓢ","steam_id":76561198088776421,"connected_time":12099000000000,"state":"active","ping":65},{"user_id":448,"name":"Icat","steam_id":76561198123758854,"connected_time":6920000000000,"state":"active","ping":85},{"user_id":484,"name":"Omni","steam_id":76561198035774007,"connected_time":4188000000000,"state":"active","ping":84},{"user_id":520,"name":"American Dad","steam_id":76561198059711448,"connected_time":1469000000000,"state":"active","ping":71},{"user_id":492,"name":"EvilMrPotoo ｡◕‿◕｡","steam_id":76561198012566870,"connected_time":3376000000000,"state":"active","ping":60},{"user_id":510,"name":"soof","steam_id":76561198043762955,"connected_time":2117000000000,"state":"active","ping":57},{"user_id":507,"name":"gonk","steam_id":76561198061206732,"connected_time":2245000000000,"state":"active","ping":77},{"user_id":491,"name":"bobby peanstalk","steam_id":76561198040495463,"connected_time":3442000000000,"state":"active","ping":63},{"user_id":513,"name":"Bob Ross","steam_id":76561198398610272,"connected_time":1610000000000,"state":"active","ping":74},{"user_id":516,"name":"Seven76","steam_id":76561198075334888,"connected_time":1562000000000,"state":"active","ping":72},{"user_id":523,"name":"jingojay","steam_id":76561198878551745,"connected_time":477000000000,"state":"active","ping":124},{"user_id":524,"name":"just call me joe","steam_id":76561198043911582,"connected_time":476000000000,"state":"active","ping":64},{"user_id":525,"name":"bog","steam_id":76561198086008437,"connected_time":444000000000,"state":"active","ping":71},{"user_id":470,"name":"Thilo","steam_id":76561197987278784,"connected_time":5098000000000,"state":"active","ping":69},{"user_id":521,"name":"Pop","steam_id":76561199012562851,"connected_time":1104000000000,"state":"active","ping":97},{"user_id":528,"name":"merektd","steam_id":76561198123109185,"connected_time":380000000000,"state":"active","ping":60},{"user_id":488,"name":"Ka Xin Yu","steam_id":76561198057116531,"connected_time":4019000000000,"state":"active","ping":55},{"user_id":526,"name":"Keyboardbreaker","steam_id":76561198372836132,"connected_time":434000000000,"state":"active","ping":117},{"user_id":501,"name":"Seico Bass","steam_id":76561198123498500,"connected_time":2989000000000,"state":"active","ping":87},{"user_id":514,"name":"Zoot","steam_id":76561198121944243,"connected_time":1576000000000,"state":"active","ping":81},{"user_id":474,"name":"bredinstead","steam_id":76561199156464551,"connected_time":4777000000000,"state":"active","ping":58},{"user_id":529,"name":"Free1337","steam_id":76561198034160133,"connected_time":203000000000,"state":"active","ping":69},{"user_id":519,"name":"Donnie Blasto","steam_id":76561198043432005,"connected_time":1513000000000,"state":"active","ping":49},{"user_id":505,"name":"Pork and Beans but twice","steam_id":76561198843209969,"connected_time":2676000000000,"state":"active","ping":52}]},{"server_id":402,"name":"Uncletopia | Chicago | 3 | All Maps","name_short":"chi-3","host":"chi-1.us.uncletopia.com","port":27035,"enabled":true,"region":"us-central","cc":"us","latitude":41.881832,"longitude":-87.62318,"reserved":0,"last_update":"0001-01-01T00:00:00Z","name_a2s":"Uncletopia | Chicago | 3 | All Maps","protocol":17,"map":"pl_upward","folder":"tf","game":"Team Fortress","app_id":440,"player_count":24,"max_players":24,"Bots":0,"server_type":"Dedicated","server_os":"Linux","password":true,"vac":true,"version":"7757534","steam_id":85568392924515191,"keywords":["nocrits","nodmgspread","payload","uncletopia"],"game_id":440,"stv_port":27036,"stv_name":"Uncletopia | Chicago | 3 | All Maps | STV","players":[{"user_id":571,"name":"BusterScruggs","steam_id":76561198891626233,"connected_time":3200000000000,"state":"active","ping":59},{"user_id":592,"name":"Trainzack","steam_id":76561198009479333,"connected_time":1477000000000,"state":"active","ping":113},{"user_id":609,"name":"Mr. Lahey","steam_id":76561198049373818,"connected_time":90000000000,"state":"active","ping":89},{"user_id":606,"name":"Name","steam_id":76561199111748012,"connected_time":216000000000,"state":"active","ping":75},{"user_id":591,"name":"go touch keyboard","steam_id":76561198197388678,"connected_time":1608000000000,"state":"active","ping":90},{"user_id":554,"name":"Minerva Amadon","steam_id":76561198138543341,"connected_time":5219000000000,"state":"active","ping":60},{"user_id":546,"name":"John Brackenslov","steam_id":76561198108049799,"connected_time":5516000000000,"state":"active","ping":69},{"user_id":605,"name":"Løst","steam_id":76561198035677801,"connected_time":254000000000,"state":"active","ping":70},{"user_id":575,"name":"Anax Alter","steam_id":76561198110249546,"connected_time":2782000000000,"state":"active","ping":63},{"user_id":590,"name":"Titar Industries","steam_id":76561198143078476,"connected_time":1973000000000,"state":"active","ping":65},{"user_id":568,"name":"MidSobbes08","steam_id":76561199013101925,"connected_time":3681000000000,"state":"active","ping":98},{"user_id":551,"name":"J.G. Klaus","steam_id":76561198001111196,"connected_time":5334000000000,"state":"active","ping":64},{"user_id":588,"name":"BayanTheBear","steam_id":76561198134537476,"connected_time":2348000000000,"state":"active","ping":84},{"user_id":601,"name":"Purchase your tracks today","steam_id":76561198084422657,"connected_time":1044000000000,"state":"active","ping":85},{"user_id":555,"name":"Roaringburn","steam_id":76561198068018413,"connected_time":5110000000000,"state":"active","ping":89},{"user_id":579,"name":"Sudo","steam_id":76561198123714026,"connected_time":2676000000000,"state":"active","ping":113},{"user_id":604,"name":"riley ring leader frodo","steam_id":76561198154123084,"connected_time":265000000000,"state":"active","ping":97},{"user_id":608,"name":"yeyoi","steam_id":76561198069821885,"connected_time":209000000000,"state":"active","ping":71},{"user_id":598,"name":"Trogdor","steam_id":76561198121353181,"connected_time":1351000000000,"state":"active","ping":97},{"user_id":599,"name":"Crasson","steam_id":76561198034967708,"connected_time":1348000000000,"state":"active","ping":71},{"user_id":570,"name":"Murph1a","steam_id":76561198166339893,"connected_time":3431000000000,"state":"active","ping":110},{"user_id":602,"name":"Zestyflowmingo","steam_id":76561198037329523,"connected_time":910000000000,"state":"active","ping":71},{"user_id":583,"name":"Peppa Pig","steam_id":76561198257872736,"connected_time":2582000000000,"state":"active","ping":60},{"user_id":589,"name":"Xx-CostcoShopper-xX","steam_id":76561198066429444,"connected_time":2314000000000,"state":"active","ping":70}]},{"server_id":403,"name":"Uncletopia | Chicago | 4 | All Maps","name_short":"chi-4","host":"chi-1.us.uncletopia.com","port":27045,"enabled":true,"region":"us-central","cc":"us","latitude":41.881832,"longitude":-87.62318,"reserved":0,"last_update":"0001-01-01T00:00:00Z","name_a2s":"Uncletopia | Chicago | 4 | All Maps","protocol":17,"map":"cp_dustbowl","folder":"tf","game":"Team Fortress","app_id":440,"player_count":24,"max_players":24,"Bots":0,"server_type":"Dedicated","server_os":"Linux","password":true,"vac":true,"version":"7757534","steam_id":85568392924515193,"keywords":["cp","nocrits","nodmgspread","uncletopia"],"game_id":440,"stv_port":27046,"stv_name":"Uncletopia | Chicago | 4 | All Maps | STV","players":[{"user_id":432,"name":"LovingKindne2z","steam_id":76561199064932372,"connected_time":1847000000000,"state":"active","ping":93},{"user_id":388,"name":"Is the A770 any good?","steam_id":76561198069735882,"connected_time":4852000000000,"state":"active","ping":73},{"user_id":462,"name":"Chode Mode","steam_id":76561198353840477,"connected_time":486000000000,"state":"active","ping":46},{"user_id":454,"name":"Discourse","steam_id":76561198984286678,"connected_time":633000000000,"state":"active","ping":51},{"user_id":463,"name":"Twilight Princess","steam_id":76561198049460281,"connected_time":113000000000,"state":"active","ping":63},{"user_id":450,"name":"Kretim","steam_id":76561199204273483,"connected_time":1044000000000,"state":"active","ping":70},{"user_id":456,"name":"Grinntu","steam_id":76561198159922013,"connected_time":592000000000,"state":"active","ping":96},{"user_id":455,"name":"1-800-GHOST-DANCE","steam_id":76561198835430429,"connected_time":625000000000,"state":"active","ping":77},{"user_id":444,"name":"whateverdude22","steam_id":76561198142394470,"connected_time":1476000000000,"state":"active","ping":62},{"user_id":457,"name":"PoisonIvy","steam_id":76561198072384574,"connected_time":583000000000,"state":"active","ping":58},{"user_id":411,"name":"ole_diggy","steam_id":76561198970212746,"connected_time":3252000000000,"state":"active","ping":69},{"user_id":441,"name":"Dr_Spek","steam_id":76561198128667701,"connected_time":1757000000000,"state":"active","ping":58},{"user_id":464,"name":"C4K3","steam_id":76561197996963285,"connected_time":103000000000,"state":"active","ping":78},{"user_id":458,"name":"Stoa","steam_id":76561198332519926,"connected_time":528000000000,"state":"active","ping":85},{"user_id":465,"name":"TwizzstedLlama","steam_id":76561198054021548,"connected_time":68000000000,"state":"active","ping":74},{"user_id":447,"name":"Ket","steam_id":76561198241951244,"connected_time":1221000000000,"state":"active","ping":61},{"user_id":466,"name":"Djehuty","steam_id":76561197995758564,"connected_time":24000000000,"state":"active","ping":87},{"user_id":398,"name":"b4rry","steam_id":76561198365887154,"connected_time":4348000000000,"state":"active","ping":75},{"user_id":448,"name":"American Bread","steam_id":76561198325062089,"connected_time":1187000000000,"state":"active","ping":71},{"user_id":422,"name":"❤Breadshot (She)❤","steam_id":76561199005756738,"connected_time":2529000000000,"state":"active","ping":59},{"user_id":415,"name":"Hindmost","steam_id":76561199081837220,"connected_time":3170000000000,"state":"active","ping":85},{"user_id":460,"name":"Milk carton","steam_id":76561198967876347,"connected_time":520000000000,"state":"active","ping":103},{"user_id":461,"name":"chilis baby back ribs","steam_id":76561198813516435,"connected_time":510000000000,"state":"active","ping":105},{"user_id":426,"name":"blue drink","steam_id":76561199260739414,"connected_time":2474000000000,"state":"active","ping":78}]},{"server_id":36,"name":"Uncletopia | Chicago | 5 | All Maps","name_short":"chi-5","host":"chi-2.us.uncletopia.com","port":27015,"enabled":true,"region":"us-central","cc":"us","latitude":41.881832,"longitude":-87.62318,"reserved":0,"last_update":"0001-01-01T00:00:00Z","name_a2s":"Uncletopia | Chicago | 5 | All Maps","protocol":17,"map":"pl_frontier_final","folder":"tf","game":"Team Fortress","app_id":440,"player_count":24,"max_players":24,"Bots":0,"server_type":"Dedicated","server_os":"Linux","password":true,"vac":true,"version":"7757534","steam_id":85568392924866362,"keywords":["nocrits","nodmgspread","payload","uncletopia"],"game_id":440,"stv_port":27016,"stv_name":"Uncletopia | Chicago | 5 | All Maps | STV","players":[{"user_id":208,"name":"Sketchingtn","steam_id":76561198138873356,"connected_time":1739000000000,"state":"active","ping":110},{"user_id":158,"name":"Lick Blakely","steam_id":76561198095586296,"connected_time":5630000000000,"state":"active","ping":98},{"user_id":159,"name":"The Chimpston Man","steam_id":76561198042004122,"connected_time":5624000000000,"state":"active","ping":71},{"user_id":222,"name":"Rusted Cake","steam_id":76561198209755931,"connected_time":561000000000,"state":"active","ping":108},{"user_id":218,"name":"xxballfondlerxx","steam_id":76561197991546630,"connected_time":1529000000000,"state":"active","ping":52},{"user_id":221,"name":"cow","steam_id":76561198117331762,"connected_time":587000000000,"state":"active","ping":46},{"user_id":223,"name":"13£","steam_id":76561198425726464,"connected_time":555000000000,"state":"active","ping":81},{"user_id":226,"name":":)","steam_id":76561198070923665,"connected_time":155000000000,"state":"active","ping":83},{"user_id":209,"name":"drinkos","steam_id":76561198261556166,"connected_time":1731000000000,"state":"active","ping":37},{"user_id":211,"name":"Srattinee","steam_id":76561198199840395,"connected_time":1704000000000,"state":"active","ping":60},{"user_id":220,"name":"Chmiken","steam_id":76561199041966499,"connected_time":1107000000000,"state":"active","ping":108},{"user_id":161,"name":"marty","steam_id":76561199206164808,"connected_time":5619000000000,"state":"active","ping":71},{"user_id":197,"name":"Spectre","steam_id":76561198025652246,"connected_time":2881000000000,"state":"active","ping":54},{"user_id":225,"name":"Trash","steam_id":76561198358471281,"connected_time":235000000000,"state":"active","ping":75},{"user_id":206,"name":"WM1 PYRO","steam_id":76561198045893896,"connected_time":2019000000000,"state":"active","ping":111},{"user_id":202,"name":"sine","steam_id":76561198012038088,"connected_time":2404000000000,"state":"active","ping":57},{"user_id":180,"name":"Just Tyrone","steam_id":76561198031912345,"connected_time":4007000000000,"state":"active","ping":80},{"user_id":213,"name":"Rudy","steam_id":76561198013456828,"connected_time":1696000000000,"state":"active","ping":60},{"user_id":214,"name":"Cassius Money","steam_id":76561197979696414,"connected_time":1695000000000,"state":"active","ping":51},{"user_id":215,"name":"Stapler","steam_id":76561198099295077,"connected_time":1691000000000,"state":"active","ping":99},{"user_id":217,"name":"Solarin","steam_id":76561198006483758,"connected_time":1683000000000,"state":"active","ping":83},{"user_id":185,"name":"Fuzzy","steam_id":76561199100612353,"connected_time":3768000000000,"state":"active","ping":55},{"user_id":219,"name":"dailyspesh","steam_id":76561197988072369,"connected_time":1478000000000,"state":"active","ping":81},{"user_id":142,"name":"Dr. drippenstein","steam_id":76561198209380493,"connected_time":6363000000000,"state":"active","ping":66}]},{"server_id":37,"name":"Uncletopia | Chicago | 6 | All Maps","name_short":"chi-6","host":"chi-2.us.uncletopia.com","port":27025,"enabled":true,"region":"us-central","cc":"us","latitude":41.881832,"longitude":-87.62318,"reserved":0,"last_update":"0001-01-01T00:00:00Z","name_a2s":"Uncletopia | Chicago | 6 | All Maps","protocol":17,"map":"koth_viaduct","folder":"tf","game":"Team Fortress","app_id":440,"player_count":24,"max_players":24,"Bots":0,"server_type":"Dedicated","server_os":"Linux","password":true,"vac":true,"version":"7757534","steam_id":85568392924866363,"keywords":["cp","nocrits","nodmgspread","uncletopia"],"game_id":440,"stv_port":27026,"stv_name":"Uncletopia | Chicago | 6 | All Maps | STV","players":[{"user_id":724,"name":"moist priest","steam_id":76561198066823778,"connected_time":1438000000000,"state":"active","ping":85},{"user_id":711,"name":"Hero Smasher","steam_id":76561198150681669,"connected_time":1922000000000,"state":"active","ping":98},{"user_id":719,"name":"*","steam_id":76561198173047169,"connected_time":1730000000000,"state":"active","ping":54},{"user_id":689,"name":"Coms","steam_id":76561198204995668,"connected_time":3413000000000,"state":"active","ping":82},{"user_id":735,"name":"Ramble Jamble","steam_id":76561198357189275,"connected_time":643000000000,"state":"active","ping":71},{"user_id":726,"name":"Kyle H. McCloud","steam_id":76561198025050432,"connected_time":1252000000000,"state":"active","ping":86},{"user_id":713,"name":"sunny","steam_id":76561198069380992,"connected_time":1910000000000,"state":"active","ping":92},{"user_id":745,"name":"GiraffeMan","steam_id":76561198042104084,"connected_time":181000000000,"state":"active","ping":64},{"user_id":744,"name":"Aristotle Voulton","steam_id":76561198100174923,"connected_time":316000000000,"state":"active","ping":101},{"user_id":746,"name":"StretchySnail59","steam_id":76561198073535005,"connected_time":171000000000,"state":"active","ping":59},{"user_id":733,"name":"anonpain","steam_id":76561198081317092,"connected_time":672000000000,"state":"active","ping":54},{"user_id":742,"name":"TheCheeseWizard","steam_id":76561198058931315,"connected_time":393000000000,"state":"active","ping":57},{"user_id":687,"name":"Wiggleton Winkledink IV Esq.","steam_id":76561198009950045,"connected_time":3439000000000,"state":"active","ping":74},{"user_id":709,"name":"Also Known As Assteeth","steam_id":76561198049837377,"connected_time":2396000000000,"state":"active","ping":48},{"user_id":677,"name":"Maripoza","steam_id":76561198165727240,"connected_time":4978000000000,"state":"active","ping":62},{"user_id":748,"name":"bill","steam_id":76561199142779872,"connected_time":94000000000,"state":"active","ping":68},{"user_id":737,"name":"Shallow Gravey","steam_id":76561199142603215,"connected_time":614000000000,"state":"active","ping":85},{"user_id":716,"name":"Leaderofthe00fkins","steam_id":76561198281999872,"connected_time":1900000000000,"state":"active","ping":129},{"user_id":738,"name":"Starvin_Stalin_53","steam_id":76561199283087505,"connected_time":596000000000,"state":"active","ping":93},{"user_id":729,"name":"he munch","steam_id":76561198339644583,"connected_time":1138000000000,"state":"active","ping":54},{"user_id":704,"name":"Wingus","steam_id":76561198037998180,"connected_time":2889000000000,"state":"active","ping":66},{"user_id":722,"name":".9 lg","steam_id":76561198092238353,"connected_time":1498000000000,"state":"active","ping":75},{"user_id":706,"name":"Tower","steam_id":76561198099886700,"connected_time":2861000000000,"state":"active","ping":62},{"user_id":743,"name":"㋛ countblanc","steam_id":76561197993171771,"connected_time":367000000000,"state":"active","ping":54}]},{"server_id":38,"name":"Uncletopia | Chicago | 7 | Stopwatch Beta","name_short":"chi-7","host":"chi-2.us.uncletopia.com","port":27035,"enabled":true,"region":"us-central","cc":"us","latitude":41.881832,"longitude":-87.62318,"reserved":0,"last_update":"0001-01-01T00:00:00Z","name_a2s":"Uncletopia | Chicago | 7 | Stopwatch Beta","protocol":17,"map":"pl_barnblitz","folder":"tf","game":"Team Fortress","app_id":440,"player_count":0,"max_players":24,"Bots":0,"server_type":"Dedicated","server_os":"Linux","password":true,"vac":true,"version":"7757534","steam_id":85568392924866364,"keywords":["nocrits","nodmgspread","payload","uncletopia"],"game_id":440,"stv_port":27036,"stv_name":"Uncletopia | Chicago | 7 | Stopwatch Beta | STV","players":null},{"server_id":39,"name":"Uncletopia | Chicago | 8 | Community","name_short":"chi-8","host":"chi-2.us.uncletopia.com","port":27045,"enabled":true,"region":"us-central","cc":"us","latitude":41.881832,"longitude":-87.62318,"reserved":0,"last_update":"0001-01-01T00:00:00Z","name_a2s":"Uncletopia | Chicago | 8 | Community","protocol":17,"map":"workshop/koth_ashville_final.ugc2130459942","folder":"tf","game":"Team Fortress","app_id":440,"player_count":24,"max_players":24,"Bots":0,"server_type":"Dedicated","server_os":"Linux","password":true,"vac":true,"version":"7757534","steam_id":85568392924866365,"keywords":["cp","nocrits","nodmgspread","uncletopia"],"game_id":440,"stv_port":27046,"stv_name":"Uncletopia | Chicago | 8 | Community | STV","players":[{"user_id":337,"name":"Leyor","steam_id":76561199037658406,"connected_time":290000000000,"state":"spawning","ping":334},{"user_id":354,"name":"frankarules","steam_id":76561198857053322,"connected_time":9000000000,"state":"spawning","ping":189},{"user_id":329,"name":"Yosh","steam_id":76561198027078899,"connected_time":698000000000,"state":"spawning","ping":183},{"user_id":348,"name":"TheSquirrelofHuscurl","steam_id":76561198073379623,"connected_time":49000000000,"state":"spawning","ping":123},{"user_id":334,"name":"BubbaBasher","steam_id":76561198829909547,"connected_time":474000000000,"state":"spawning","ping":72},{"user_id":312,"name":"sylerrr","steam_id":76561198191198866,"connected_time":1416000000000,"state":"spawning","ping":108},{"user_id":315,"name":"Cyber Cylon","steam_id":76561198048972781,"connected_time":1269000000000,"state":"active","ping":88},{"user_id":291,"name":"Rari","steam_id":76561198128537564,"connected_time":3422000000000,"state":"spawning","ping":499},{"user_id":316,"name":"spearit5464","steam_id":76561199241807676,"connected_time":1268000000000,"state":"spawning","ping":129},{"user_id":317,"name":"i swallowed shampoo","steam_id":76561199262262606,"connected_time":1259000000000,"state":"spawning","ping":140},{"user_id":338,"name":"xAndrew","steam_id":76561199203948381,"connected_time":279000000000,"state":"spawning","ping":173},{"user_id":335,"name":"Superman123389","steam_id":76561198267472539,"connected_time":470000000000,"state":"spawning","ping":84},{"user_id":336,"name":"Simply Mystic","steam_id":76561198055495647,"connected_time":374000000000,"state":"active","ping":182},{"user_id":350,"name":"merchant","steam_id":76561198362916241,"connected_time":31000000000,"state":"spawning","ping":103},{"user_id":339,"name":"tighty walter whities","steam_id":76561199122915452,"connected_time":277000000000,"state":"spawning","ping":370},{"user_id":308,"name":"Unofficial","steam_id":76561198370071152,"connected_time":1725000000000,"state":"spawning","ping":190},{"user_id":351,"name":"Kid B8","steam_id":76561198086764710,"connected_time":30000000000,"state":"connecting","ping":160},{"user_id":288,"name":"most gayest lesban","steam_id":76561198039506482,"connected_time":3760000000000,"state":"active","ping":59},{"user_id":292,"name":"the dubious scoundrel","steam_id":76561199010773204,"connected_time":3353000000000,"state":"spawning","ping":213},{"user_id":347,"name":"Goofball","steam_id":76561198061211537,"connected_time":129000000000,"state":"spawning","ping":58},{"user_id":323,"name":"Adawnby","steam_id":76561198103057295,"connected_time":1146000000000,"state":"spawning","ping":83},{"user_id":352,"name":"Homura Simp","steam_id":76561198246080762,"connected_time":27000000000,"state":"spawning","ping":98},{"user_id":353,"name":"vanta","steam_id":76561198084317504,"connected_time":14000000000,"state":"spawning","ping":380},{"user_id":304,"name":"NotSoNorth","steam_id":76561198447292053,"connected_time":2543000000000,"state":"spawning","ping":225}]},{"server_id":8,"name":"Uncletopia | Dallas | 1 | All Maps","name_short":"dal-1","host":"dal-1.us.uncletopia.com","port":27015,"enabled":true,"region":"us-central","cc":"us","latitude":32.779167,"longitude":-96.80889,"reserved":0,"last_update":"0001-01-01T00:00:00Z","name_a2s":"Uncletopia | Dallas | 1 | All Maps","protocol":17,"map":"pl_badwater","folder":"tf","game":"Team Fortress","app_id":440,"player_count":24,"max_players":24,"Bots":0,"server_type":"Dedicated","server_os":"Linux","password":true,"vac":true,"version":"7757534","steam_id":85568392924469986,"keywords":["nocrits","nodmgspread","payload","uncletopia"],"game_id":440,"stv_port":27016,"stv_name":"Uncletopia | Dallas | 1 | All Maps | STV","players":[{"user_id":658,"name":"Minlit","steam_id":76561198205832799,"connected_time":3674000000000,"state":"active","ping":53},{"user_id":660,"name":"a Salty Individual","steam_id":76561197979951077,"connected_time":3641000000000,"state":"active","ping":133},{"user_id":734,"name":"Derply","steam_id":76561198871211642,"connected_time":800000000000,"state":"active","ping":371},{"user_id":732,"name":"lucks","steam_id":76561198362253931,"connected_time":853000000000,"state":"active","ping":54},{"user_id":628,"name":"Katzenwerfer","steam_id":76561198345464748,"connected_time":5305000000000,"state":"active","ping":87},{"user_id":659,"name":"sweatshirt","steam_id":76561198277477109,"connected_time":3657000000000,"state":"active","ping":66},{"user_id":703,"name":"「Jimbo Reference」","steam_id":76561198016078541,"connected_time":1759000000000,"state":"active","ping":86},{"user_id":544,"name":"mkl","steam_id":76561197986401685,"connected_time":10508000000000,"state":"active","ping":57},{"user_id":743,"name":"Sev","steam_id":76561198248814700,"connected_time":606000000000,"state":"active","ping":112},{"user_id":689,"name":"1 Great Wooden Dad","steam_id":76561198377126974,"connected_time":2145000000000,"state":"active","ping":87},{"user_id":741,"name":"only says gg if it was bad","steam_id":76561198073269122,"connected_time":630000000000,"state":"active","ping":86},{"user_id":656,"name":"Yords","steam_id":76561198027925729,"connected_time":3692000000000,"state":"active","ping":54},{"user_id":670,"name":"The Robot Menace","steam_id":76561198043390413,"connected_time":2867000000000,"state":"active","ping":51},{"user_id":654,"name":"Hovg9000.TV","steam_id":76561199191556710,"connected_time":3814000000000,"state":"active","ping":95},{"user_id":739,"name":"austintacious","steam_id":76561198054118061,"connected_time":705000000000,"state":"active","ping":73},{"user_id":655,"name":"panzerfaust13579","steam_id":76561198351615188,"connected_time":3748000000000,"state":"active","ping":96},{"user_id":724,"name":"Dank Ghost","steam_id":76561198400690889,"connected_time":1094000000000,"state":"active","ping":86},{"user_id":623,"name":"Stormtroper","steam_id":76561198251067522,"connected_time":5358000000000,"state":"active","ping":117},{"user_id":671,"name":"Roberto Del Fuego","steam_id":76561198043458554,"connected_time":2847000000000,"state":"active","ping":75},{"user_id":663,"name":"Propaniac Gaming ☑","steam_id":76561198133963270,"connected_time":3631000000000,"state":"active","ping":61},{"user_id":668,"name":"Ballista","steam_id":76561197983182562,"connected_time":3153000000000,"state":"active","ping":51},{"user_id":729,"name":"medome","steam_id":76561198399990744,"connected_time":986000000000,"state":"active","ping":122},{"user_id":745,"name":"Danger McHazard","steam_id":76561198059451274,"connected_time":532000000000,"state":"active","ping":79},{"user_id":742,"name":"Grinski","steam_id":76561198054787727,"connected_time":630000000000,"state":"active","ping":99}]},{"server_id":108,"name":"Uncletopia | Dallas | 2 | All Maps","name_short":"dal-2","host":"dal-1.us.uncletopia.com","port":27025,"enabled":true,"region":"us-central","cc":"us","latitude":32.779167,"longitude":-96.80889,"reserved":0,"last_update":"0001-01-01T00:00:00Z","name_a2s":"Uncletopia | Dallas | 2 | All Maps","protocol":17,"map":"cp_snakewater_final1","folder":"tf","game":"Team Fortress","app_id":440,"player_count":24,"max_players":24,"Bots":0,"server_type":"Dedicated","server_os":"Linux","password":true,"vac":true,"version":"7757534","steam_id":85568392924469988,"keywords":["cp","nocrits","nodmgspread","uncletopia"],"game_id":440,"stv_port":27026,"stv_name":"Uncletopia | Dallas | 2 | All Maps | STV","players":[{"user_id":678,"name":"License","steam_id":76561197967501494,"connected_time":141000000000,"state":"active","ping":69},{"user_id":671,"name":"summer_snowman","steam_id":76561198796697989,"connected_time":686000000000,"state":"active","ping":68},{"user_id":662,"name":"shannievan","steam_id":76561199229532901,"connected_time":1409000000000,"state":"active","ping":94},{"user_id":680,"name":"Milkius","steam_id":76561198401392472,"connected_time":112000000000,"state":"active","ping":90},{"user_id":679,"name":"Amish Supremacist","steam_id":76561198396181197,"connected_time":133000000000,"state":"active","ping":76},{"user_id":666,"name":"Arrluk","steam_id":76561198396679452,"connected_time":1057000000000,"state":"active","ping":62},{"user_id":663,"name":"YellerImp","steam_id":76561199221805167,"connected_time":1386000000000,"state":"active","ping":66},{"user_id":673,"name":"Raxberry","steam_id":76561198001546706,"connected_time":340000000000,"state":"active","ping":84},{"user_id":681,"name":"Heartgold","steam_id":76561199062592062,"connected_time":63000000000,"state":"active","ping":95},{"user_id":635,"name":"Hycanth","steam_id":76561197992512197,"connected_time":3572000000000,"state":"active","ping":92},{"user_id":643,"name":"Denim","steam_id":76561198035786964,"connected_time":3249000000000,"state":"active","ping":135},{"user_id":674,"name":"Lil' Dunky","steam_id":76561198163572748,"connected_time":339000000000,"state":"active","ping":98},{"user_id":636,"name":"Shazla Aquarius","steam_id":76561198013027728,"connected_time":3567000000000,"state":"active","ping":82},{"user_id":656,"name":"c · ͜·","steam_id":76561199215821942,"connected_time":1878000000000,"state":"active","ping":46},{"user_id":608,"name":"StrangerHYP","steam_id":76561198395336752,"connected_time":4670000000000,"state":"active","ping":87},{"user_id":609,"name":"Roland_Actual","steam_id":76561198103212376,"connected_time":4669000000000,"state":"active","ping":84},{"user_id":668,"name":"Deterrent","steam_id":76561198256763734,"connected_time":811000000000,"state":"active","ping":60},{"user_id":654,"name":"girl smell","steam_id":76561198118962168,"connected_time":2120000000000,"state":"active","ping":68},{"user_id":661,"name":"Dragorf2010","steam_id":76561199238402270,"connected_time":1431000000000,"state":"active","ping":77},{"user_id":642,"name":"Unlock The Shock (She/They)","steam_id":76561198823616667,"connected_time":3312000000000,"state":"active","ping":57},{"user_id":652,"name":"GUS","steam_id":76561198231626592,"connected_time":2342000000000,"state":"active","ping":113},{"user_id":664,"name":"canned worms","steam_id":76561198066288232,"connected_time":1367000000000,"state":"active","ping":79},{"user_id":677,"name":"duc","steam_id":76561199038072811,"connected_time":173000000000,"state":"active","ping":83},{"user_id":647,"name":"patam :)","steam_id":76561199139871691,"connected_time":2580000000000,"state":"active","ping":80}]},{"server_id":5,"name":"Uncletopia | Frankfurt | 1 | All Maps","name_short":"frk-1","host":"frk-1.de.uncletopia.com","port":27015,"enabled":true,"region":"eu","cc":"de","latitude":50.110924,"longitude":8.682127,"reserved":0,"last_update":"0001-01-01T00:00:00Z","name_a2s":"Uncletopia | Frankfurt | 1 | All Maps","protocol":17,"map":"koth_lakeside_final","folder":"tf","game":"Team Fortress","app_id":440,"player_count":0,"max_players":24,"Bots":0,"server_type":"Dedicated","server_os":"Linux","password":true,"vac":true,"version":"7757534","steam_id":85568392924469989,"keywords":["cp","nocrits","nodmgspread","uncletopia"],"game_id":440,"stv_port":27016,"stv_name":"Uncletopia | Frankfurt | 1 | All Maps | STV","players":null},{"server_id":110,"name":"Uncletopia | Frankfurt | 2 | All Maps","name_short":"frk-2","host":"frk-1.de.uncletopia.com","port":27025,"enabled":true,"region":"eu","cc":"de","latitude":50.110924,"longitude":8.682127,"reserved":0,"last_update":"0001-01-01T00:00:00Z","name_a2s":"Uncletopia | Frankfurt | 2 | All Maps","protocol":17,"map":"koth_lakeside_final","folder":"tf","game":"Team Fortress","app_id":440,"player_count":0,"max_players":24,"Bots":0,"server_type":"Dedicated","server_os":"Linux","password":true,"vac":true,"version":"7757534","steam_id":85568392924469990,"keywords":["cp","nocrits","nodmgspread","uncletopia"],"game_id":440,"stv_port":27026,"stv_name":"Uncletopia | Frankfurt | 2 | All Maps | STV","players":null},{"server_id":308,"name":"Uncletopia | Frankfurt | 3 | All Maps","name_short":"frk-3","host":"frk-1.de.uncletopia.com","port":27035,"enabled":true,"region":"eu","cc":"de","latitude":50.110924,"longitude":8.682127,"reserved":0,"last_update":"0001-01-01T00:00:00Z","name_a2s":"Uncletopia | Frankfurt | 3 | All Maps","protocol":17,"map":"koth_cascade","folder":"tf","game":"Team Fortress","app_id":440,"player_count":0,"max_players":24,"Bots":0,"server_type":"Dedicated","server_os":"Linux","password":true,"vac":true,"version":"7757534","steam_id":85568392924504274,"keywords":["cp","nocrits","nodmgspread","uncletopia"],"game_id":440,"stv_port":27036,"stv_name":"Uncletopia | Frankfurt | 3 | All Maps | STV","players":null},{"server_id":309,"name":"Uncletopia | Frankfurt | 4 | All Maps","name_short":"frk-4","host":"frk-1.de.uncletopia.com","port":27045,"enabled":true,"region":"eu","cc":"de","latitude":50.110924,"longitude":8.682127,"reserved":0,"last_update":"0001-01-01T00:00:00Z","name_a2s":"Uncletopia | Frankfurt | 4 | All Maps","protocol":17,"map":"cp_mountainlab","folder":"tf","game":"Team Fortress","app_id":440,"player_count":0,"max_players":24,"Bots":0,"server_type":"Dedicated","server_os":"Linux","password":true,"vac":true,"version":"7757534","steam_id":85568392924504275,"keywords":["cp","nocrits","nodmgspread","uncletopia"],"game_id":440,"stv_port":27046,"stv_name":"Uncletopia | Frankfurt | 4 | All Maps | STV","players":null},{"server_id":310,"name":"Uncletopia | Frankfurt | 5 | All Maps","name_short":"frk-5","host":"frk-1.de.uncletopia.com","port":27055,"enabled":true,"region":"eu","cc":"de","latitude":50.110924,"longitude":8.682127,"reserved":0,"last_update":"0001-01-01T00:00:00Z","name_a2s":"Uncletopia | Frankfurt | 5 | All Maps","protocol":17,"map":"pl_barnblitz","folder":"tf","game":"Team Fortress","app_id":440,"player_count":0,"max_players":24,"Bots":0,"server_type":"Dedicated","server_os":"Linux","password":true,"vac":true,"version":"7757534","steam_id":85568392924504277,"keywords":["nocrits","nodmgspread","payload","uncletopia"],"game_id":440,"stv_port":27056,"stv_name":"Uncletopia | Frankfurt | 5 | All Maps | STV","players":null},{"server_id":311,"name":"Uncletopia | Frankfurt | 6 | All Maps","name_short":"frk-6","host":"frk-1.de.uncletopia.com","port":27065,"enabled":true,"region":"eu","cc":"de","latitude":50.110924,"longitude":8.682127,"reserved":0,"last_update":"0001-01-01T00:00:00Z","name_a2s":"Uncletopia | Frankfurt | 6 | All Maps","protocol":17,"map":"pl_upward","folder":"tf","game":"Team Fortress","app_id":440,"player_count":0,"max_players":24,"Bots":0,"server_type":"Dedicated","server_os":"Linux","password":true,"vac":true,"version":"7757534","steam_id":85568392924504278,"keywords":["nocrits","nodmgspread","payload","uncletopia"],"game_id":440,"stv_port":27066,"stv_name":"Uncletopia | Frankfurt | 6 | All Maps | STV","players":null},{"server_id":23,"name":"Uncletopia | Frankfurt | 7 | Stopwatch Beta","name_short":"frk-7","host":"frk-1.de.uncletopia.com","port":27075,"enabled":true,"region":"eu","cc":"de","latitude":50.110924,"longitude":8.682127,"reserved":0,"last_update":"0001-01-01T00:00:00Z","name_a2s":"Uncletopia | Frankfurt | 7 | Stopwatch Beta","protocol":17,"map":"workshop/koth_ramjam_rc1.ugc459778887","folder":"tf","game":"Team Fortress","app_id":440,"player_count":0,"max_players":24,"Bots":0,"server_type":"Dedicated","server_os":"Linux","password":true,"vac":true,"version":"7757534","steam_id":85568392924742827,"keywords":["cp","nocrits","nodmgspread","uncletopia"],"game_id":440,"stv_port":27076,"stv_name":"Uncletopia | Frankfurt | 7 | Stopwatch Beta | STV","players":null},{"server_id":24,"name":"Uncletopia | Frankfurt | 8 | Community","name_short":"frk-8","host":"frk-1.de.uncletopia.com","port":27085,"enabled":true,"region":"eu","cc":"de","latitude":50.110924,"longitude":8.682127,"reserved":0,"last_update":"0001-01-01T00:00:00Z","name_a2s":"Uncletopia | Frankfurt | 8 | Community","protocol":17,"map":"workshop/pl_vigil_rc9.ugc1266210012","folder":"tf","game":"Team Fortress","app_id":440,"player_count":0,"max_players":24,"Bots":0,"server_type":"Dedicated","server_os":"Linux","password":true,"vac":true,"version":"7757534","steam_id":85568392924742828,"keywords":["nocrits","nodmgspread","payload","uncletopia"],"game_id":440,"stv_port":27086,"stv_name":"Uncletopia | Frankfurt | 8 | Community | STV","players":null},{"server_id":202,"name":"Uncletopia | Hong Kong | 1 | All Maps","name_short":"hgk-1","host":"hgk-1.hk.uncletopia.com","port":27015,"enabled":true,"region":"asia","cc":"hk","latitude":22.302711,"longitude":114.177216,"reserved":0,"last_update":"0001-01-01T00:00:00Z","name_a2s":"Uncletopia | Hong Kong | 1 | All Maps","protocol":17,"map":"pl_badwater","folder":"tf","game":"Team Fortress","app_id":440,"player_count":23,"max_players":24,"Bots":0,"server_type":"Dedicated","server_os":"Linux","password":true,"vac":true,"version":"7757534","steam_id":85568392924494504,"keywords":["nocrits","nodmgspread","payload","uncletopia"],"game_id":440,"stv_port":27016,"stv_name":"Uncletopia | Hong Kong | 1 | All Maps | STV","players":[{"user_id":15,"name":"(^^)","steam_id":76561199202109121,"connected_time":3719000000000,"state":"active","ping":75},{"user_id":16,"name":"MegaBomb","steam_id":76561199074950492,"connected_time":3642000000000,"state":"active","ping":107},{"user_id":49,"name":"_kobic","steam_id":76561199166938276,"connected_time":1206000000000,"state":"active","ping":61},{"user_id":18,"name":"Operate EX","steam_id":76561199351297136,"connected_time":3475000000000,"state":"active","ping":83},{"user_id":21,"name":"JDSFE","steam_id":76561198975490851,"connected_time":2872000000000,"state":"active","ping":107},{"user_id":50,"name":"Hay","steam_id":76561199438952901,"connected_time":1058000000000,"state":"active","ping":49},{"user_id":56,"name":"Gordon.Freeman","steam_id":76561198337746852,"connected_time":143000000000,"state":"active","ping":69},{"user_id":63,"name":"cloaker tf2","steam_id":76561198316010525,"connected_time":36000000000,"state":"active","ping":127},{"user_id":27,"name":"snow_dragon13","steam_id":76561199118439959,"connected_time":2475000000000,"state":"active","ping":71},{"user_id":30,"name":":)","steam_id":76561198437941450,"connected_time":2276000000000,"state":"active","ping":114},{"user_id":41,"name":"Mahoxen","steam_id":76561199121861959,"connected_time":1776000000000,"state":"active","ping":86},{"user_id":51,"name":"BOK","steam_id":76561198095872644,"connected_time":901000000000,"state":"active","ping":87},{"user_id":33,"name":"screaming sniper","steam_id":76561199085568674,"connected_time":2079000000000,"state":"active","ping":68},{"user_id":53,"name":"Mega 00F","steam_id":76561198962485791,"connected_time":562000000000,"state":"active","ping":134},{"user_id":36,"name":"プロゲーマー","steam_id":76561199017344476,"connected_time":1945000000000,"state":"active","ping":79},{"user_id":37,"name":"Kek","steam_id":76561199004616229,"connected_time":1903000000000,"state":"active","ping":96},{"user_id":38,"name":"Jumanji™","steam_id":76561198431664383,"connected_time":1840000000000,"state":"active","ping":63},{"user_id":55,"name":"defricatus","steam_id":76561199197027489,"connected_time":416000000000,"state":"active","ping":120},{"user_id":58,"name":"Panfoolery","steam_id":76561199042318535,"connected_time":140000000000,"state":"active","ping":96},{"user_id":64,"name":"StachfirullahPEEK 17 bitskins.c","steam_id":76561198241530712,"connected_time":13000000000,"state":"active","ping":62},{"user_id":60,"name":"In(e)","steam_id":76561198362097007,"connected_time":120000000000,"state":"active","ping":54},{"user_id":47,"name":"spinach (old mouse)","steam_id":76561198042539541,"connected_time":1422000000000,"state":"active","ping":85},{"user_id":62,"name":"shoe of obama","steam_id":76561198837668887,"connected_time":72000000000,"state":"active","ping":77}]},{"server_id":1,"name":"Uncletopia | Los Angeles | 1 | All Maps","name_short":"lax-1","host":"lax-1.us.uncletopia.com","port":27015,"enabled":true,"region":"us-west","cc":"us","latitude":33.94279,"longitude":-118.41004,"reserved":0,"last_update":"0001-01-01T00:00:00Z","name_a2s":"Uncletopia | Los Angeles | 1 | All Maps","protocol":17,"map":"pl_borneo","folder":"tf","game":"Team Fortress","app_id":440,"player_count":23,"max_players":24,"Bots":0,"server_type":"Dedicated","server_os":"Linux","password":true,"vac":true,"version":"7757534","steam_id":85568392924469991,"keywords":["nocrits","nodmgspread","payload","uncletopia"],"game_id":440,"stv_port":27016,"stv_name":"Uncletopia | Los Angeles | 1 | All Maps | STV","players":[{"user_id":479,"name":"NFL.com","steam_id":76561198113405376,"connected_time":2195000000000,"state":"active","ping":56},{"user_id":507,"name":"corbenis","steam_id":76561199012442511,"connected_time":639000000000,"state":"active","ping":48},{"user_id":503,"name":"bottle","steam_id":76561198451812135,"connected_time":953000000000,"state":"active","ping":105},{"user_id":510,"name":"soltuno","steam_id":76561198074430565,"connected_time":494000000000,"state":"active","ping":67},{"user_id":512,"name":"Aryze #SaveTF2","steam_id":76561198119561581,"connected_time":193000000000,"state":"active","ping":50},{"user_id":514,"name":"27 blends","steam_id":76561197997100185,"connected_time":6000000000,"state":"spawning","ping":45},{"user_id":483,"name":"Gold Member","steam_id":76561198054864682,"connected_time":2039000000000,"state":"active","ping":110},{"user_id":484,"name":"Gormungar","steam_id":76561198101969361,"connected_time":2033000000000,"state":"active","ping":114},{"user_id":453,"name":"Snorflex","steam_id":76561198141862965,"connected_time":4284000000000,"state":"active","ping":51},{"user_id":485,"name":"Tav","steam_id":76561198047679077,"connected_time":2032000000000,"state":"active","ping":100},{"user_id":423,"name":"Giga","steam_id":76561198057351539,"connected_time":6011000000000,"state":"active","ping":71},{"user_id":486,"name":"Sole Flux","steam_id":76561198351794131,"connected_time":2023000000000,"state":"active","ping":101},{"user_id":494,"name":"Unwavering Flavor","steam_id":76561198053306065,"connected_time":1105000000000,"state":"active","ping":79},{"user_id":495,"name":"SomeRandomBetaFish","steam_id":76561198827731399,"connected_time":1097000000000,"state":"active","ping":106},{"user_id":475,"name":"axellinag15","steam_id":76561199188113751,"connected_time":2514000000000,"state":"active","ping":119},{"user_id":487,"name":"Fuzzle_Buns","steam_id":76561198042336101,"connected_time":2022000000000,"state":"active","ping":120},{"user_id":496,"name":"Zach Reeee","steam_id":76561198096698210,"connected_time":1092000000000,"state":"active","ping":78},{"user_id":457,"name":"Peter, what are you doing?","steam_id":76561198066452726,"connected_time":4115000000000,"state":"active","ping":48},{"user_id":509,"name":"Meet The Kazoo","steam_id":76561199229748300,"connected_time":563000000000,"state":"active","ping":55},{"user_id":513,"name":"pentUpinaBlind♏","steam_id":76561198146684778,"connected_time":191000000000,"state":"active","ping":48},{"user_id":488,"name":"Froze","steam_id":76561198097561195,"connected_time":2020000000000,"state":"active","ping":115},{"user_id":489,"name":"Swilliam","steam_id":76561198401382210,"connected_time":2010000000000,"state":"active","ping":116},{"user_id":500,"name":"Chaffy2125","steam_id":76561198232839260,"connected_time":1068000000000,"state":"active","ping":179}]},{"server_id":112,"name":"Uncletopia | Los Angeles | 2 | All Maps","name_short":"lax-2","host":"lax-1.us.uncletopia.com","port":27025,"enabled":true,"region":"us-west","cc":"us","latitude":33.94279,"longitude":-118.41004,"reserved":0,"last_update":"0001-01-01T00:00:00Z","name_a2s":"Uncletopia | Los Angeles | 2 | All Maps","protocol":17,"map":"cp_dustbowl","folder":"tf","game":"Team Fortress","app_id":440,"player_count":24,"max_players":24,"Bots":0,"server_type":"Dedicated","server_os":"Linux","password":true,"vac":true,"version":"7757534","steam_id":85568392924469992,"keywords":["cp","nocrits","nodmgspread","uncletopia"],"game_id":440,"stv_port":27026,"stv_name":"Uncletopia | Los Angeles | 2 | All Maps | STV","players":[{"user_id":69,"name":"SpudBrain","steam_id":76561199236708672,"connected_time":4587000000000,"state":"active","ping":80},{"user_id":75,"name":"timmy20715","steam_id":76561198071715426,"connected_time":4140000000000,"state":"active","ping":190},{"user_id":88,"name":"Mom","steam_id":76561198207936000,"connected_time":3037000000000,"state":"active","ping":45},{"user_id":101,"name":"♥Cat in a Tub♥","steam_id":76561198170443243,"connected_time":1900000000000,"state":"active","ping":54},{"user_id":93,"name":"ledzeps","steam_id":76561198167924701,"connected_time":2585000000000,"state":"active","ping":98},{"user_id":116,"name":"knockback abuser","steam_id":76561198319442494,"connected_time":46000000000,"state":"active","ping":55},{"user_id":117,"name":"Biggest Dude In Town 4U","steam_id":76561198070281464,"connected_time":12000000000,"state":"active","ping":99},{"user_id":109,"name":"BigGoose","steam_id":76561198833281392,"connected_time":618000000000,"state":"active","ping":75},{"user_id":43,"name":"old birb man","steam_id":76561199410269097,"connected_time":5667000000000,"state":"active","ping":104},{"user_id":110,"name":"Dreamzapp","steam_id":76561199084936632,"connected_time":601000000000,"state":"active","ping":64},{"user_id":45,"name":"Goose","steam_id":76561198036774894,"connected_time":5644000000000,"state":"active","ping":85},{"user_id":74,"name":"Corpe","steam_id":76561198054490549,"connected_time":4157000000000,"state":"active","ping":88},{"user_id":108,"name":"Chrisscar","steam_id":76561198086298130,"connected_time":745000000000,"state":"active","ping":47},{"user_id":48,"name":"nori_420","steam_id":76561199117134203,"connected_time":5565000000000,"state":"active","ping":56},{"user_id":106,"name":"Doppelgänger","steam_id":76561198036730436,"connected_time":999000000000,"state":"active","ping":54},{"user_id":80,"name":"lilbooger559","steam_id":76561198119586577,"connected_time":3780000000000,"state":"active","ping":90},{"user_id":104,"name":"A Shiny Meat Bicycle","steam_id":76561198358757709,"connected_time":1219000000000,"state":"active","ping":120},{"user_id":82,"name":"Nix","steam_id":76561198123558058,"connected_time":3777000000000,"state":"active","ping":103},{"user_id":55,"name":"Ice cream sandwich","steam_id":76561198172748357,"connected_time":5416000000000,"state":"active","ping":56},{"user_id":96,"name":"cool beans","steam_id":76561198045758072,"connected_time":2458000000000,"state":"active","ping":59},{"user_id":107,"name":"Alice in Rubberland","steam_id":76561198087328346,"connected_time":988000000000,"state":"active","ping":92},{"user_id":63,"name":"19037189","steam_id":76561198053960810,"connected_time":5279000000000,"state":"active","ping":96},{"user_id":100,"name":"[El Fail] MR.BadassMCLee","steam_id":76561198043787818,"connected_time":1913000000000,"state":"active","ping":59},{"user_id":62,"name":"Butterton","steam_id":76561198833286517,"connected_time":5333000000000,"state":"active","ping":62}]},{"server_id":324,"name":"Uncletopia | Los Angeles | 3 | All Maps","name_short":"lax-3","host":"lax-1.us.uncletopia.com","port":27035,"enabled":true,"region":"us-west","cc":"us","latitude":33.94279,"longitude":-118.41004,"reserved":0,"last_update":"0001-01-01T00:00:00Z","name_a2s":"Uncletopia | Los Angeles | 3 | All Maps","protocol":17,"map":"cp_mountainlab","folder":"tf","game":"Team Fortress","app_id":440,"player_count":24,"max_players":24,"Bots":0,"server_type":"Dedicated","server_os":"Linux","password":true,"vac":true,"version":"7757534","steam_id":85568392924510198,"keywords":["cp","nocrits","nodmgspread","uncletopia"],"game_id":440,"stv_port":27036,"stv_name":"Uncletopia | Los Angeles | 3 | All Maps | STV","players":[{"user_id":289,"name":"McSpazatron","steam_id":76561198955942148,"connected_time":2794000000000,"state":"active","ping":120},{"user_id":286,"name":"SDL","steam_id":76561198859719985,"connected_time":3401000000000,"state":"active","ping":89},{"user_id":290,"name":"Flembrane","steam_id":76561197995328898,"connected_time":2711000000000,"state":"active","ping":34},{"user_id":319,"name":"Tort boi","steam_id":76561198125327110,"connected_time":848000000000,"state":"active","ping":73},{"user_id":323,"name":"jacix3 [gay wolfgirl]{she/it}","steam_id":76561198205004165,"connected_time":707000000000,"state":"active","ping":88},{"user_id":206,"name":"Neophyte","steam_id":76561198027183394,"connected_time":9559000000000,"state":"active","ping":93},{"user_id":311,"name":"oomper","steam_id":76561199189982701,"connected_time":934000000000,"state":"active","ping":116},{"user_id":326,"name":"HanakoToast","steam_id":76561198045233131,"connected_time":362000000000,"state":"active","ping":71},{"user_id":291,"name":"reymundo","steam_id":76561197989412830,"connected_time":2666000000000,"state":"active","ping":71},{"user_id":312,"name":"Who","steam_id":76561198089813517,"connected_time":933000000000,"state":"active","ping":118},{"user_id":304,"name":"krootonitron","steam_id":76561198114113037,"connected_time":1579000000000,"state":"active","ping":55},{"user_id":257,"name":"tweet","steam_id":76561198166515735,"connected_time":6119000000000,"state":"active","ping":57},{"user_id":324,"name":"Cherry_Grenadine","steam_id":76561198152281230,"connected_time":631000000000,"state":"active","ping":89},{"user_id":313,"name":"Raine","steam_id":76561199081937889,"connected_time":928000000000,"state":"active","ping":93},{"user_id":315,"name":"Empty","steam_id":76561198289696924,"connected_time":893000000000,"state":"active","ping":48},{"user_id":306,"name":"Sgt. Satire","steam_id":76561198104193483,"connected_time":1398000000000,"state":"active","ping":69},{"user_id":316,"name":"Joshzu","steam_id":76561198200521137,"connected_time":888000000000,"state":"active","ping":77},{"user_id":317,"name":"Zigadox","steam_id":76561198079813479,"connected_time":877000000000,"state":"active","ping":121},{"user_id":318,"name":"Dogg wader","steam_id":76561199090314340,"connected_time":863000000000,"state":"active","ping":98},{"user_id":299,"name":"tf3aflyingmouse","steam_id":76561198058134934,"connected_time":1971000000000,"state":"active","ping":80},{"user_id":325,"name":"Kamin","steam_id":76561198255299559,"connected_time":524000000000,"state":"active","ping":102},{"user_id":320,"name":"dabi","steam_id":76561198057179683,"connected_time":847000000000,"state":"active","ping":96},{"user_id":322,"name":"redboogies","steam_id":76561199043670226,"connected_time":825000000000,"state":"active","ping":91},{"user_id":288,"name":"Power Jake","steam_id":76561198051510260,"connected_time":3272000000000,"state":"active","ping":62}]},{"server_id":25,"name":"Uncletopia | Los Angeles | 4 | Stopwatch Beta","name_short":"lax-4","host":"lax-1.us.uncletopia.com","port":27045,"enabled":true,"region":"us-west","cc":"us","latitude":33.94279,"longitude":-118.41004,"reserved":0,"last_update":"0001-01-01T00:00:00Z","name_a2s":"Uncletopia | Los Angeles | 4 | Stopwatch Beta","protocol":17,"map":"pl_swiftwater_final1","folder":"tf","game":"Team Fortress","app_id":440,"player_count":0,"max_players":24,"Bots":0,"server_type":"Dedicated","server_os":"Linux","password":true,"vac":true,"version":"7757534","steam_id":85568392924510199,"keywords":["nocrits","nodmgspread","payload","uncletopia"],"game_id":440,"stv_port":27046,"stv_name":"Uncletopia | Los Angeles | 4 | Stopwatch Beta | STV","players":null},{"server_id":11,"name":"Uncletopia | London | 1 | All Maps","name_short":"lon-1","host":"lon-1.uk.uncletopia.com","port":27015,"enabled":true,"region":"eu","cc":"gb","latitude":51.509865,"longitude":-0.118092,"reserved":0,"last_update":"0001-01-01T00:00:00Z","name_a2s":"Uncletopia | London | 1 | All Maps","protocol":17,"map":"pl_barnblitz","folder":"tf","game":"Team Fortress","app_id":440,"player_count":2,"max_players":24,"Bots":0,"server_type":"Dedicated","server_os":"Linux","password":true,"vac":true,"version":"7757534","steam_id":85568392924367362,"keywords":["nocrits","nodmgspread","payload","uncletopia"],"game_id":440,"stv_port":27016,"stv_name":"Uncletopia | London | 1 | All Maps | STV","players":[{"user_id":909,"name":"josie","steam_id":76561198170848553,"connected_time":563000000000,"state":"active","ping":178},{"user_id":910,"name":"Kjat","steam_id":76561198839433592,"connected_time":76000000000,"state":"active","ping":60}]},{"server_id":114,"name":"Uncletopia | London | 2 | All Maps","name_short":"lon-2","host":"lon-1.uk.uncletopia.com","port":27025,"enabled":true,"region":"eu","cc":"gb","latitude":51.509865,"longitude":-0.118092,"reserved":0,"last_update":"0001-01-01T00:00:00Z","name_a2s":"Uncletopia | London | 2 | All Maps","protocol":17,"map":"ctf_2fort","folder":"tf","game":"Team Fortress","app_id":440,"player_count":0,"max_players":24,"Bots":0,"server_type":"Dedicated","server_os":"Linux","password":true,"vac":true,"version":"7757534","steam_id":85568392924470941,"keywords":["ctf","nocrits","nodmgspread","uncletopia"],"game_id":440,"stv_port":27026,"stv_name":"Uncletopia | London | 2 | All Maps | STV","players":null},{"server_id":320,"name":"Uncletopia | London | 3 | All Maps","name_short":"lon-3","host":"lon-1.uk.uncletopia.com","port":27035,"enabled":true,"region":"eu","cc":"gb","latitude":51.509865,"longitude":-0.118092,"reserved":0,"last_update":"0001-01-01T00:00:00Z","name_a2s":"Uncletopia | London | 3 | All Maps","protocol":17,"map":"pl_upward","folder":"tf","game":"Team Fortress","app_id":440,"player_count":24,"max_players":24,"Bots":0,"server_type":"Dedicated","server_os":"Linux","password":true,"vac":true,"version":"7757534","steam_id":85568392924510192,"keywords":["nocrits","nodmgspread","payload","uncletopia"],"game_id":440,"stv_port":27036,"stv_name":"Uncletopia | London | 3 | All Maps | STV","players":[{"user_id":685,"name":"Sir.Troveson","steam_id":76561198079744713,"connected_time":3602000000000,"state":"active","ping":66},{"user_id":723,"name":"Noodle","steam_id":76561198306486695,"connected_time":353000000000,"state":"active","ping":70},{"user_id":727,"name":"Just_Chilling","steam_id":76561198036712229,"connected_time":90000000000,"state":"active","ping":58},{"user_id":725,"name":"Hyperek","steam_id":76561198130797464,"connected_time":217000000000,"state":"active","ping":77},{"user_id":658,"name":"Panique","steam_id":76561197993239675,"connected_time":5207000000000,"state":"active","ping":54},{"user_id":680,"name":"Postmand Per","steam_id":76561198114985331,"connected_time":3748000000000,"state":"active","ping":46},{"user_id":716,"name":"Deadlycow","steam_id":76561197980761347,"connected_time":866000000000,"state":"active","ping":68},{"user_id":713,"name":"icy_spicy","steam_id":76561199481524657,"connected_time":1288000000000,"state":"active","ping":80},{"user_id":657,"name":"New","steam_id":76561198402195911,"connected_time":5256000000000,"state":"active","ping":106},{"user_id":720,"name":"dec","steam_id":76561198009660168,"connected_time":617000000000,"state":"active","ping":47},{"user_id":728,"name":"iwns morlo-^","steam_id":76561198249301650,"connected_time":57000000000,"state":"active","ping":45},{"user_id":724,"name":"Flamey","steam_id":76561198304303030,"connected_time":258000000000,"state":"active","ping":52},{"user_id":718,"name":"Cormac","steam_id":76561197996394376,"connected_time":802000000000,"state":"active","ping":58},{"user_id":642,"name":"Lord Giacomo","steam_id":76561198039352216,"connected_time":6675000000000,"state":"active","ping":47},{"user_id":683,"name":"SaltySugar","steam_id":76561198171209758,"connected_time":3692000000000,"state":"active","ping":41},{"user_id":706,"name":"zoinks!","steam_id":76561198068645362,"connected_time":1984000000000,"state":"active","ping":44},{"user_id":715,"name":"Sakari","steam_id":76561197997811299,"connected_time":925000000000,"state":"active","ping":72},{"user_id":697,"name":"cooler bones","steam_id":76561199480942903,"connected_time":2476000000000,"state":"active","ping":75},{"user_id":667,"name":"Hoxton","steam_id":76561198129209505,"connected_time":4804000000000,"state":"active","ping":80},{"user_id":693,"name":"DDUUCCKK","steam_id":76561198141953050,"connected_time":3214000000000,"state":"active","ping":57},{"user_id":698,"name":"xTheDarkLight","steam_id":76561198239128298,"connected_time":2443000000000,"state":"active","ping":60},{"user_id":699,"name":"XPullaHiiri","steam_id":76561198031652375,"connected_time":2442000000000,"state":"active","ping":90},{"user_id":714,"name":"Labia in Fishnets","steam_id":76561198061382104,"connected_time":992000000000,"state":"active","ping":53},{"user_id":722,"name":"kırmızıgözler","steam_id":76561198116986693,"connected_time":578000000000,"state":"active","ping":93}]},{"server_id":321,"name":"Uncletopia | London | 4 | All Maps","name_short":"lon-4","host":"lon-1.uk.uncletopia.com","port":27045,"enabled":true,"region":"eu","cc":"gb","latitude":51.509865,"longitude":-0.118092,"reserved":0,"last_update":"0001-01-01T00:00:00Z","name_a2s":"Uncletopia | London | 4 | All Maps","protocol":17,"map":"koth_highpass","folder":"tf","game":"Team Fortress","app_id":440,"player_count":0,"max_players":24,"Bots":0,"server_type":"Dedicated","server_os":"Linux","password":true,"vac":true,"version":"7757534","steam_id":85568392924510193,"keywords":["cp","nocrits","nodmgspread","uncletopia"],"game_id":440,"stv_port":27046,"stv_name":"Uncletopia | London | 4 | All Maps | STV","players":null},{"server_id":21,"name":"Uncletopia | London | 5 | All Maps","name_short":"lon-5","host":"lon-1.uk.uncletopia.com","port":27055,"enabled":true,"region":"eu","cc":"gb","latitude":51.509865,"longitude":-0.118092,"reserved":0,"last_update":"0001-01-01T00:00:00Z","name_a2s":"Uncletopia | London | 5 | All Maps","protocol":17,"map":"koth_viaduct","folder":"tf","game":"Team Fortress","app_id":440,"player_count":0,"max_players":24,"Bots":0,"server_type":"Dedicated","server_os":"Linux","password":true,"vac":true,"version":"7757534","steam_id":85568392924742829,"keywords":["cp","nocrits","nodmgspread","uncletopia"],"game_id":440,"stv_port":27056,"stv_name":"Uncletopia | London | 5 | All Maps | STV","players":null},{"server_id":22,"name":"Uncletopia | London | 6 | All Maps","name_short":"lon-6","host":"lon-1.uk.uncletopia.com","port":27065,"enabled":true,"region":"eu","cc":"gb","latitude":51.509865,"longitude":-0.118092,"reserved":0,"last_update":"0001-01-01T00:00:00Z","name_a2s":"Uncletopia | London | 6 | All Maps","protocol":17,"map":"cp_snakewater_final1","folder":"tf","game":"Team Fortress","app_id":440,"player_count":0,"max_players":24,"Bots":0,"server_type":"Dedicated","server_os":"Linux","password":true,"vac":true,"version":"7757534","steam_id":85568392924742830,"keywords":["cp","nocrits","nodmgspread","uncletopia"],"game_id":440,"stv_port":27066,"stv_name":"Uncletopia | London | 6 | All Maps | STV","players":null},{"server_id":40,"name":"Uncletopia | London | 7 | No Payload","name_short":"lon-7","host":"lon-1.uk.uncletopia.com","port":27075,"enabled":true,"region":"eu","cc":"gb","latitude":51.509865,"longitude":-0.118092,"reserved":0,"last_update":"0001-01-01T00:00:00Z","name_a2s":"Uncletopia | London | 7 | No Payload","protocol":17,"map":"ctf_well","folder":"tf","game":"Team Fortress","app_id":440,"player_count":0,"max_players":24,"Bots":0,"server_type":"Dedicated","server_os":"Linux","password":true,"vac":true,"version":"7757534","steam_id":85568392924964314,"keywords":["ctf","nocrits","nodmgspread","uncletopia"],"game_id":440,"stv_port":27076,"stv_name":"Uncletopia | London | 7 | No Payload | STV","players":null},{"server_id":41,"name":"Uncletopia | London | 8 | Community","name_short":"lon-8","host":"lon-1.uk.uncletopia.com","port":27085,"enabled":true,"region":"eu","cc":"gb","latitude":51.509865,"longitude":-0.118092,"reserved":0,"last_update":"0001-01-01T00:00:00Z","name_a2s":"Uncletopia | London | 8 | Community","protocol":17,"map":"workshop/koth_bagel_rc6.ugc2514036946","folder":"tf","game":"Team Fortress","app_id":440,"player_count":0,"max_players":24,"Bots":0,"server_type":"Dedicated","server_os":"Linux","password":true,"vac":true,"version":"7757534","steam_id":85568392924964315,"keywords":["cp","nocrits","nodmgspread","uncletopia"],"game_id":440,"stv_port":27086,"stv_name":"Uncletopia | London | 8 | Community | STV","players":null},{"server_id":300,"name":"Uncletopia | Montréal | 1 | All Maps","name_short":"mtl-1","host":"mtl-1.ca.uncletopia.com","port":27015,"enabled":true,"region":"us-east","cc":"ca","latitude":45.50889,"longitude":-73.56167,"reserved":0,"last_update":"0001-01-01T00:00:00Z","name_a2s":"Uncletopia | Montréal | 1 | All Maps","protocol":17,"map":"cp_steel","folder":"tf","game":"Team Fortress","app_id":440,"player_count":24,"max_players":24,"Bots":0,"server_type":"Dedicated","server_os":"Linux","password":true,"vac":true,"version":"7757534","steam_id":85568392924500087,"keywords":["cp","nocrits","nodmgspread","uncletopia"],"game_id":440,"stv_port":27016,"stv_name":"Uncletopia | Montréal | 1 | All Maps | STV","players":[{"user_id":149,"name":"Triple-Edged","steam_id":76561198308472155,"connected_time":8672000000000,"state":"active","ping":46},{"user_id":211,"name":"Remmy","steam_id":76561198268857418,"connected_time":1191000000000,"state":"active","ping":73},{"user_id":226,"name":"twink sniper zaddY","steam_id":76561198283687382,"connected_time":384000000000,"state":"active","ping":99},{"user_id":212,"name":"V. G. Sunderland","steam_id":76561198161839980,"connected_time":1179000000000,"state":"active","ping":56},{"user_id":223,"name":"Comrade Oliver","steam_id":76561198362323469,"connected_time":671000000000,"state":"active","ping":91},{"user_id":140,"name":"Uwu Micster","steam_id":76561198843890616,"connected_time":9242000000000,"state":"active","ping":81},{"user_id":213,"name":"Token","steam_id":76561198067814426,"connected_time":1070000000000,"state":"active","ping":95},{"user_id":214,"name":"bit","steam_id":76561198993740818,"connected_time":956000000000,"state":"active","ping":74},{"user_id":122,"name":"The Pencil Cunts","steam_id":76561198272606252,"connected_time":10487000000000,"state":"active","ping":78},{"user_id":182,"name":"Ghost Mountain","steam_id":76561198273383183,"connected_time":5634000000000,"state":"active","ping":76},{"user_id":215,"name":"Jerry Kool-Aid","steam_id":76561198030281560,"connected_time":956000000000,"state":"active","ping":86},{"user_id":150,"name":"StrangeFace","steam_id":76561198821118643,"connected_time":8671000000000,"state":"active","ping":69},{"user_id":151,"name":"BEES","steam_id":76561198811545874,"connected_time":8666000000000,"state":"active","ping":45},{"user_id":220,"name":"slammer128","steam_id":76561198055070225,"connected_time":731000000000,"state":"active","ping":145},{"user_id":152,"name":"Codcruiser17","steam_id":76561199118698384,"connected_time":8644000000000,"state":"active","ping":59},{"user_id":208,"name":"theghazinator","steam_id":76561198188027695,"connected_time":1576000000000,"state":"active","ping":48},{"user_id":190,"name":"Queso2469","steam_id":76561197993024580,"connected_time":3697000000000,"state":"active","ping":60},{"user_id":227,"name":"Spag Hekki","steam_id":76561198207579353,"connected_time":109000000000,"state":"active","ping":99},{"user_id":217,"name":"PizzaThot","steam_id":76561198278237289,"connected_time":929000000000,"state":"active","ping":106},{"user_id":225,"name":"simp lowce","steam_id":76561198089370342,"connected_time":444000000000,"state":"active","ping":52},{"user_id":221,"name":"Jones","steam_id":76561198046037216,"connected_time":682000000000,"state":"active","ping":106},{"user_id":222,"name":"☼ Lv. 99","steam_id":76561198074180953,"connected_time":676000000000,"state":"active","ping":56},{"user_id":191,"name":"Lspan","steam_id":76561199002806208,"connected_time":3672000000000,"state":"active","ping":140},{"user_id":224,"name":"live skull reaction","steam_id":76561198130098823,"connected_time":665000000000,"state":"active","ping":52}]},{"server_id":301,"name":"Uncletopia | Montréal | 2 | All Maps","name_short":"mtl-2","host":"mtl-1.ca.uncletopia.com","port":27025,"enabled":true,"region":"us-east","cc":"ca","latitude":45.50889,"longitude":-73.56167,"reserved":0,"last_update":"0001-01-01T00:00:00Z","name_a2s":"Uncletopia | Montréal | 2 | All Maps","protocol":17,"map":"cp_dustbowl","folder":"tf","game":"Team Fortress","app_id":440,"player_count":0,"max_players":24,"Bots":0,"server_type":"Dedicated","server_os":"Linux","password":true,"vac":true,"version":"7757534","steam_id":85568392924500088,"keywords":["cp","nocrits","nodmgspread","uncletopia"],"game_id":440,"stv_port":27026,"stv_name":"Uncletopia | Montréal | 2 | All Maps | STV","players":null},{"server_id":302,"name":"Uncletopia | Montréal | 3 | All Maps","name_short":"mtl-3","host":"mtl-1.ca.uncletopia.com","port":27035,"enabled":true,"region":"us-east","cc":"ca","latitude":45.50889,"longitude":-73.56167,"reserved":0,"last_update":"0001-01-01T00:00:00Z","name_a2s":"Uncletopia | Montréal | 3 | All Maps","protocol":17,"map":"pl_snowycoast","folder":"tf","game":"Team Fortress","app_id":440,"player_count":19,"max_players":24,"Bots":0,"server_type":"Dedicated","server_os":"Linux","password":true,"vac":true,"version":"7757534","steam_id":85568392924500089,"keywords":["cp","nocrits","nodmgspread","uncletopia"],"game_id":440,"stv_port":27036,"stv_name":"Uncletopia | Montréal | 3 | All Maps | STV","players":[{"user_id":125,"name":"Grilled Jizo","steam_id":76561199250875340,"connected_time":1227000000000,"state":"connecting","ping":124},{"user_id":146,"name":"who is gavin?","steam_id":76561198069415057,"connected_time":18000000000,"state":"connecting","ping":72},{"user_id":110,"name":"NUKAHOLIC","steam_id":76561198095051652,"connected_time":2220000000000,"state":"connecting","ping":185},{"user_id":133,"name":"Penis Scout 2","steam_id":76561198801467075,"connected_time":917000000000,"state":"connecting","ping":105},{"user_id":102,"name":"SkyGhost","steam_id":76561198271474593,"connected_time":2623000000000,"state":"connecting","ping":80},{"user_id":143,"name":"small troll","steam_id":76561198327079359,"connected_time":135000000000,"state":"connecting","ping":112},{"user_id":90,"name":"Procrastinado","steam_id":76561198122349307,"connected_time":4000000000000,"state":"connecting","ping":170},{"user_id":147,"name":"American Foreign Policy","steam_id":76561198050272534,"connected_time":7000000000,"state":"connecting","ping":57},{"user_id":148,"name":"Reaganomics","steam_id":76561198036907593,"connected_time":5000000000,"state":"connecting","ping":65},{"user_id":145,"name":"kiviviviviviviviviviviviviviviv","steam_id":76561198838223023,"connected_time":44000000000,"state":"connecting","ping":63},{"user_id":104,"name":"barbiegirl","steam_id":76561198213450215,"connected_time":2532000000000,"state":"connecting","ping":77},{"user_id":122,"name":"Krusty Nut","steam_id":76561198120637924,"connected_time":1451000000000,"state":"connecting","ping":67},{"user_id":144,"name":"let me cook","steam_id":76561198075858067,"connected_time":114000000000,"state":"connecting","ping":69},{"user_id":113,"name":"Colin102004","steam_id":76561198202384334,"connected_time":2135000000000,"state":"connecting","ping":60},{"user_id":107,"name":"AquaEclipse","steam_id":76561198225964744,"connected_time":2299000000000,"state":"connecting","ping":77},{"user_id":119,"name":"MFNNS","steam_id":76561198057868006,"connected_time":1944000000000,"state":"connecting","ping":60},{"user_id":134,"name":"derdds","steam_id":76561198034339940,"connected_time":899000000000,"state":"connecting","ping":60},{"user_id":109,"name":"thomdionqwe","steam_id":76561198152723693,"connected_time":2279000000000,"state":"connecting","ping":56},{"user_id":131,"name":"snark","steam_id":76561198132980859,"connected_time":1013000000000,"state":"connecting","ping":67}]},{"server_id":303,"name":"Uncletopia | Montréal | 4 | No Payload","name_short":"mtl-4","host":"mtl-1.ca.uncletopia.com","port":27045,"enabled":true,"region":"us-east","cc":"ca","latitude":45.50889,"longitude":-73.56167,"reserved":0,"last_update":"0001-01-01T00:00:00Z","name_a2s":"Uncletopia | Montréal | 4 | No Payload","protocol":17,"map":"plr_pipeline","folder":"tf","game":"Team Fortress","app_id":440,"player_count":0,"max_players":24,"Bots":0,"server_type":"Dedicated","server_os":"Linux","password":true,"vac":true,"version":"7757534","steam_id":85568392924500090,"keywords":["nocrits","nodmgspread","payload","uncletopia"],"game_id":440,"stv_port":27046,"stv_name":"Uncletopia | Montréal | 4 | No Payload | STV","players":null},{"server_id":13,"name":"Uncletopia | New York City | 1 | All Maps","name_short":"nyc-1","host":"nyc-1.us.uncletopia.com","port":27015,"enabled":true,"region":"us-east","cc":"us","latitude":40.73061,"longitude":-73.93524,"reserved":0,"last_update":"0001-01-01T00:00:00Z","name_a2s":"Uncletopia | New York City | 1 | All Maps","protocol":17,"map":"pl_borneo","folder":"tf","game":"Team Fortress","app_id":440,"player_count":23,"max_players":24,"Bots":0,"server_type":"Dedicated","server_os":"Linux","password":true,"vac":true,"version":"7757534","steam_id":85568392924469993,"keywords":["nocrits","nodmgspread","payload","uncletopia"],"game_id":440,"stv_port":27016,"stv_name":"Uncletopia | New York City | 1 | All Maps | STV","players":[{"user_id":610,"name":"Vladimir Chirgin","steam_id":76561198170035235,"connected_time":6121000000000,"state":"active","ping":61},{"user_id":697,"name":"Sniper","steam_id":76561199482262282,"connected_time":392000000000,"state":"active","ping":54},{"user_id":675,"name":"monkey","steam_id":76561198966980576,"connected_time":2386000000000,"state":"active","ping":41},{"user_id":700,"name":"Phocae (She/Her)","steam_id":76561199317584594,"connected_time":14000000000,"state":"active","ping":62},{"user_id":677,"name":"Whole Wheat Lemon","steam_id":76561199025265182,"connected_time":1738000000000,"state":"active","ping":57},{"user_id":692,"name":"werecat","steam_id":76561198005091213,"connected_time":788000000000,"state":"active","ping":44},{"user_id":688,"name":"Lochanside","steam_id":76561198137080309,"connected_time":889000000000,"state":"active","ping":114},{"user_id":678,"name":"Hautboi","steam_id":76561199012329221,"connected_time":1535000000000,"state":"active","ping":73},{"user_id":689,"name":"Stoopnagle","steam_id":76561198011942560,"connected_time":853000000000,"state":"active","ping":102},{"user_id":666,"name":"Psychosis","steam_id":76561198078659070,"connected_time":3163000000000,"state":"active","ping":74},{"user_id":669,"name":"Lin","steam_id":76561198143746480,"connected_time":3063000000000,"state":"active","ping":123},{"user_id":673,"name":"Girox","steam_id":76561198009921751,"connected_time":2539000000000,"state":"active","ping":54},{"user_id":620,"name":"Professional Clicker","steam_id":76561199210799428,"connected_time":5721000000000,"state":"active","ping":46},{"user_id":683,"name":"goopshit","steam_id":76561198126489501,"connected_time":1274000000000,"state":"active","ping":56},{"user_id":674,"name":"Draco6257","steam_id":76561199147322448,"connected_time":2537000000000,"state":"active","ping":34},{"user_id":691,"name":"Defiant Statement.","steam_id":76561199101373436,"connected_time":838000000000,"state":"active","ping":69},{"user_id":695,"name":"QuackenBurd","steam_id":76561198090275762,"connected_time":590000000000,"state":"active","ping":70},{"user_id":701,"name":"FakeBot","steam_id":76561197961193303,"connected_time":12000000000,"state":"spawning","ping":119},{"user_id":684,"name":"viper","steam_id":76561198839942937,"connected_time":1245000000000,"state":"active","ping":71},{"user_id":699,"name":"Slashes","steam_id":76561197968573499,"connected_time":25000000000,"state":"spawning","ping":196},{"user_id":685,"name":"lil homie gay ass","steam_id":76561198044804626,"connected_time":1241000000000,"state":"active","ping":75},{"user_id":680,"name":"government assigned catgirl","steam_id":76561198833468802,"connected_time":1387000000000,"state":"active","ping":86},{"user_id":679,"name":"soda","steam_id":76561198298839281,"connected_time":1508000000000,"state":"active","ping":111}]},{"server_id":14,"name":"Uncletopia | New York City | 2 | All Maps","name_short":"nyc-2","host":"nyc-1.us.uncletopia.com","port":27025,"enabled":true,"region":"us-east","cc":"us","latitude":40.73061,"longitude":-73.93524,"reserved":0,"last_update":"0001-01-01T00:00:00Z","name_a2s":"Uncletopia | New York City | 2 | All Maps","protocol":17,"map":"pl_borneo","folder":"tf","game":"Team Fortress","app_id":440,"player_count":24,"max_players":24,"Bots":0,"server_type":"Dedicated","server_os":"Linux","password":true,"vac":true,"version":"7757534","steam_id":85568392924469994,"keywords":["nocrits","nodmgspread","payload","uncletopia"],"game_id":440,"stv_port":27026,"stv_name":"Uncletopia | New York City | 2 | All Maps | STV","players":[{"user_id":604,"name":"flappyflap2","steam_id":76561198285048973,"connected_time":10543000000000,"state":"active","ping":39},{"user_id":737,"name":"Strangelove","steam_id":76561198353773611,"connected_time":276000000000,"state":"active","ping":81},{"user_id":707,"name":"Marijuanaut","steam_id":76561198069814977,"connected_time":1832000000000,"state":"active","ping":59},{"user_id":731,"name":"Sewer Mermaid","steam_id":76561198021342773,"connected_time":603000000000,"state":"active","ping":77},{"user_id":626,"name":"(no monitor) ayylien","steam_id":76561198042127970,"connected_time":9370000000000,"state":"active","ping":74},{"user_id":732,"name":"Cluwn","steam_id":76561198001336085,"connected_time":600000000000,"state":"active","ping":80},{"user_id":709,"name":"CrunchCisco","steam_id":76561199162724832,"connected_time":1823000000000,"state":"active","ping":85},{"user_id":686,"name":"Pixel","steam_id":76561198076564393,"connected_time":3717000000000,"state":"active","ping":49},{"user_id":739,"name":"Vaudeville Villain","steam_id":76561199212093339,"connected_time":52000000000,"state":"active","ping":88},{"user_id":703,"name":"slayer of commies","steam_id":76561199260467614,"connected_time":2188000000000,"state":"active","ping":94},{"user_id":736,"name":"Noxinara ♪","steam_id":76561198055522900,"connected_time":506000000000,"state":"active","ping":76},{"user_id":653,"name":"Wimojimo12","steam_id":76561198370459596,"connected_time":6673000000000,"state":"active","ping":54},{"user_id":645,"name":"cheeser","steam_id":76561198281772700,"connected_time":7027000000000,"state":"active","ping":43},{"user_id":720,"name":"silver_lama","steam_id":76561198101132894,"connected_time":1471000000000,"state":"active","ping":63},{"user_id":729,"name":"a table","steam_id":76561198158461279,"connected_time":736000000000,"state":"active","ping":101},{"user_id":727,"name":"Zixzs","steam_id":76561198055504126,"connected_time":801000000000,"state":"active","ping":69},{"user_id":725,"name":"Duo34","steam_id":76561198000464258,"connected_time":931000000000,"state":"active","ping":71},{"user_id":652,"name":"wool","steam_id":76561198869689933,"connected_time":6717000000000,"state":"active","ping":49},{"user_id":719,"name":"Ludcmorais","steam_id":76561198359217809,"connected_time":1557000000000,"state":"active","ping":179},{"user_id":723,"name":"S O L I D","steam_id":76561198086095072,"connected_time":1003000000000,"state":"active","ping":88},{"user_id":728,"name":"Super D Duper","steam_id":76561198078203677,"connected_time":797000000000,"state":"active","ping":54},{"user_id":721,"name":"BasicPeaches","steam_id":76561198190890150,"connected_time":1454000000000,"state":"active","ping":61},{"user_id":735,"name":"Sam","steam_id":76561198043918040,"connected_time":586000000000,"state":"active","ping":90},{"user_id":717,"name":"self-cannibalizing customer. \ufffd\ufffd","steam_id":76561198294013916,"connected_time":1710000000000,"state":"active","ping":46}]},{"server_id":15,"name":"Uncletopia | New York City | 3 | Stopwatch Beta","name_short":"nyc-3","host":"nyc-1.us.uncletopia.com","port":27035,"enabled":true,"region":"us-east","cc":"us","latitude":40.73061,"longitude":-73.93524,"reserved":0,"last_update":"0001-01-01T00:00:00Z","name_a2s":"Uncletopia | New York City | 3 | Stopwatch Beta","protocol":17,"map":"workshop/koth_ramjam_rc1.ugc459778887","folder":"tf","game":"Team Fortress","app_id":440,"player_count":5,"max_players":24,"Bots":0,"server_type":"Dedicated","server_os":"Linux","password":true,"vac":true,"version":"7757534","steam_id":85568392924742820,"keywords":["cp","nocrits","nodmgspread","uncletopia"],"game_id":440,"stv_port":27036,"stv_name":"Uncletopia | New York City | 3 | Stopwatch Beta | STV","players":[{"user_id":20,"name":"Joomer","steam_id":76561199004458271,"connected_time":2149000000000,"state":"active","ping":78},{"user_id":29,"name":"God's Drunkest Driver","steam_id":76561198165175875,"connected_time":292000000000,"state":"active","ping":65},{"user_id":24,"name":"seems_fishy","steam_id":76561199028846656,"connected_time":1729000000000,"state":"active","ping":48},{"user_id":30,"name":"Loleo","steam_id":76561198348132374,"connected_time":243000000000,"state":"active","ping":70},{"user_id":27,"name":"Vzlæd","steam_id":76561198044192839,"connected_time":964000000000,"state":"active","ping":31}]},{"server_id":16,"name":"Uncletopia | New York City | 4 | Community","name_short":"nyc-4","host":"nyc-1.us.uncletopia.com","port":27045,"enabled":true,"region":"us-east","cc":"us","latitude":40.73061,"longitude":-73.93524,"reserved":0,"last_update":"0001-01-01T00:00:00Z","name_a2s":"Uncletopia | New York City | 4 | Community","protocol":17,"map":"workshop/koth_synthetic_rc6a.ugc1549817316","folder":"tf","game":"Team Fortress","app_id":440,"player_count":2,"max_players":24,"Bots":0,"server_type":"Dedicated","server_os":"Linux","password":true,"vac":true,"version":"7757534","steam_id":85568392924742821,"keywords":["cp","nocrits","nodmgspread","uncletopia"],"game_id":440,"stv_port":27046,"stv_name":"Uncletopia | New York City | 4 | Community | STV","players":[{"user_id":32,"name":"PK_hardsight","steam_id":76561199446160699,"connected_time":219000000000,"state":"active","ping":89},{"user_id":33,"name":"danidevito","steam_id":76561199192708764,"connected_time":216000000000,"state":"active","ping":93}]},{"server_id":142,"name":"Uncletopia | São Paulo | 1 | All Maps","name_short":"sao-1","host":"sao-1.br.uncletopia.com","port":27015,"enabled":true,"region":"sa","cc":"br","latitude":-23.533773,"longitude":-46.62529,"reserved":0,"last_update":"0001-01-01T00:00:00Z","name_a2s":"Uncletopia | São Paulo | 1 | All Maps","protocol":17,"map":"cp_altitude","folder":"tf","game":"Team Fortress","app_id":440,"player_count":0,"max_players":24,"Bots":0,"server_type":"Dedicated","server_os":"Linux","password":true,"vac":true,"version":"7757534","steam_id":85568392924469996,"keywords":["cp","nocrits","nodmgspread","uncletopia"],"game_id":440,"stv_port":27016,"stv_name":"Uncletopia | São Paulo | 1 | All Maps | STV","players":null},{"server_id":143,"name":"Uncletopia | São Paulo | 2 | All Maps","name_short":"sao-2","host":"sao-2.br.uncletopia.com","port":27015,"enabled":true,"region":"sa","cc":"br","latitude":-23.533773,"longitude":-46.62529,"reserved":0,"last_update":"0001-01-01T00:00:00Z","name_a2s":"Uncletopia | São Paulo | 2 | All Maps","protocol":17,"map":"cp_process_final","folder":"tf","game":"Team Fortress","app_id":440,"player_count":0,"max_players":24,"Bots":0,"server_type":"Dedicated","server_os":"Linux","password":true,"vac":true,"version":"7757534","steam_id":85568392924485349,"keywords":["cp","nocrits","nodmgspread","uncletopia"],"game_id":440,"stv_port":27016,"stv_name":"Uncletopia | São Paulo | 2 | All Maps | STV","players":null},{"server_id":7,"name":"Uncletopia | Seattle | 1 | All Maps","name_short":"sea-1","host":"sea-1.us.uncletopia.com","port":27015,"enabled":true,"region":"us-west","cc":"us","latitude":47.608013,"longitude":-122.33517,"reserved":0,"last_update":"0001-01-01T00:00:00Z","name_a2s":"Uncletopia | Seattle | 1 | All Maps","protocol":17,"map":"cp_altitude","folder":"tf","game":"Team Fortress","app_id":440,"player_count":24,"max_players":24,"Bots":0,"server_type":"Dedicated","server_os":"Linux","password":true,"vac":true,"version":"7757534","steam_id":85568392924469997,"keywords":["cp","nocrits","nodmgspread","uncletopia"],"game_id":440,"stv_port":27016,"stv_name":"Uncletopia | Seattle | 1 | All Maps | STV","players":[{"user_id":571,"name":"Luca","steam_id":76561198125087140,"connected_time":7545000000000,"state":"active","ping":45},{"user_id":622,"name":"Themasterman75","steam_id":76561199385573293,"connected_time":2519000000000,"state":"active","ping":72},{"user_id":621,"name":"Humble Homunculus","steam_id":76561198052507878,"connected_time":2629000000000,"state":"active","ping":45},{"user_id":627,"name":"idarmed","steam_id":76561198420064361,"connected_time":2290000000000,"state":"active","ping":116},{"user_id":612,"name":"DIGGY","steam_id":76561198991238982,"connected_time":3310000000000,"state":"active","ping":55},{"user_id":626,"name":"✪ TedBear2142 ✪","steam_id":76561198006481210,"connected_time":2343000000000,"state":"active","ping":145},{"user_id":634,"name":"Lazy-assed Prophet","steam_id":76561198214400452,"connected_time":1551000000000,"state":"active","ping":74},{"user_id":639,"name":"K.A.R.M.A.","steam_id":76561198240750142,"connected_time":962000000000,"state":"active","ping":68},{"user_id":599,"name":"Snippykeegan","steam_id":76561198274529343,"connected_time":4684000000000,"state":"active","ping":65},{"user_id":631,"name":"club_ted","steam_id":76561197997180003,"connected_time":2108000000000,"state":"active","ping":52},{"user_id":641,"name":"Ever, in a million years","steam_id":76561197998238522,"connected_time":517000000000,"state":"active","ping":132},{"user_id":607,"name":"Arsonist Goose","steam_id":76561198147441830,"connected_time":3658000000000,"state":"active","ping":67},{"user_id":629,"name":"Quarter Cheese","steam_id":76561198115814588,"connected_time":2141000000000,"state":"active","ping":46},{"user_id":598,"name":"yaboismitty","steam_id":76561199130187442,"connected_time":4781000000000,"state":"active","ping":89},{"user_id":640,"name":"Master_kotu","steam_id":76561199437959320,"connected_time":809000000000,"state":"active","ping":74},{"user_id":632,"name":"Kick Down Door 6:00AM TUCK☃RO","steam_id":76561197976146738,"connected_time":2096000000000,"state":"active","ping":137},{"user_id":642,"name":"Tideflat","steam_id":76561198179850851,"connected_time":489000000000,"state":"active","ping":83},{"user_id":643,"name":"DefectiveWarhead","steam_id":76561198067746049,"connected_time":123000000000,"state":"active","ping":44},{"user_id":633,"name":"Pugzilla","steam_id":76561198108088960,"connected_time":2092000000000,"state":"active","ping":115},{"user_id":564,"name":"MCman","steam_id":76561198412110305,"connected_time":8046000000000,"state":"active","ping":78},{"user_id":637,"name":"Corzap","steam_id":76561198086030373,"connected_time":1034000000000,"state":"active","ping":65},{"user_id":615,"name":"Smile","steam_id":76561198110008786,"connected_time":3238000000000,"state":"active","ping":54},{"user_id":635,"name":"Lambchop","steam_id":76561198043900363,"connected_time":1551000000000,"state":"active","ping":75},{"user_id":638,"name":"bbbbb","steam_id":76561198095480838,"connected_time":1033000000000,"state":"active","ping":45}]},{"server_id":119,"name":"Uncletopia | Seattle | 2 | All Maps","name_short":"sea-2","host":"sea-1.us.uncletopia.com","port":27025,"enabled":true,"region":"us-west","cc":"us","latitude":47.608013,"longitude":-122.33517,"reserved":0,"last_update":"0001-01-01T00:00:00Z","name_a2s":"Uncletopia | Seattle | 2 | All Maps","protocol":17,"map":"pl_frontier_final","folder":"tf","game":"Team Fortress","app_id":440,"player_count":24,"max_players":24,"Bots":0,"server_type":"Dedicated","server_os":"Linux","password":true,"vac":true,"version":"7757534","steam_id":85568392924469998,"keywords":["nocrits","nodmgspread","payload","uncletopia"],"game_id":440,"stv_port":27026,"stv_name":"Uncletopia | Seattle | 2 | All Maps | STV","players":[{"user_id":527,"name":"scamper","steam_id":76561199093768105,"connected_time":3469000000000,"state":"active","ping":75},{"user_id":544,"name":"IPLAYTHECAST","steam_id":76561199013705323,"connected_time":2192000000000,"state":"active","ping":112},{"user_id":564,"name":"MakutaArty1987","steam_id":76561199048865492,"connected_time":531000000000,"state":"active","ping":101},{"user_id":583,"name":"♥ur :3 medic gf♥ (51ref/hr)","steam_id":76561198816778484,"connected_time":80000000000,"state":"active","ping":96},{"user_id":560,"name":"Willy Wonker","steam_id":76561198082944789,"connected_time":1460000000000,"state":"active","ping":81},{"user_id":568,"name":"Grim","steam_id":76561198158911860,"connected_time":368000000000,"state":"active","ping":58},{"user_id":566,"name":"pandy fackler","steam_id":76561198833099152,"connected_time":457000000000,"state":"active","ping":59},{"user_id":584,"name":"YahYeeterson","steam_id":76561198120480906,"connected_time":54000000000,"state":"spawning","ping":62},{"user_id":579,"name":"Camohno","steam_id":76561198283519918,"connected_time":169000000000,"state":"active","ping":72},{"user_id":571,"name":"Ash_Follow3","steam_id":76561199150479264,"connected_time":285000000000,"state":"active","ping":158},{"user_id":572,"name":"xX_DankSkeleton_Xx","steam_id":76561198038526431,"connected_time":277000000000,"state":"active","ping":94},{"user_id":576,"name":"blue_tristan03","steam_id":76561199468377688,"connected_time":242000000000,"state":"active","ping":67},{"user_id":537,"name":"TheCowledWiz","steam_id":76561198016735868,"connected_time":2732000000000,"state":"active","ping":48},{"user_id":577,"name":"Green_GarBear","steam_id":76561199468912415,"connected_time":239000000000,"state":"active","ping":75},{"user_id":561,"name":"Feldspaten","steam_id":76561199122059102,"connected_time":862000000000,"state":"active","ping":75},{"user_id":574,"name":"GOON","steam_id":76561198327993003,"connected_time":261000000000,"state":"active","ping":63},{"user_id":578,"name":"Sink","steam_id":76561198192420249,"connected_time":173000000000,"state":"active","ping":88},{"user_id":563,"name":"2j psych ward boiwife","steam_id":76561198206752128,"connected_time":700000000000,"state":"active","ping":152},{"user_id":575,"name":"DomTheBomb07","steam_id":76561199153949548,"connected_time":254000000000,"state":"active","ping":137},{"user_id":580,"name":"brisky","steam_id":76561198827846832,"connected_time":168000000000,"state":"active","ping":84},{"user_id":554,"name":"MisterManne","steam_id":76561198106598600,"connected_time":2026000000000,"state":"active","ping":59},{"user_id":581,"name":"Glitz by Joeyy","steam_id":76561198443433169,"connected_time":144000000000,"state":"active","ping":68},{"user_id":555,"name":"=Silver=","steam_id":76561198292307127,"connected_time":2009000000000,"state":"active","ping":70},{"user_id":582,"name":"Sheev Palpatine","steam_id":76561198252332430,"connected_time":94000000000,"state":"active","ping":93}]},{"server_id":406,"name":"Uncletopia | Seattle | 3 | Stopwatch Beta","name_short":"sea-3","host":"sea-1.us.uncletopia.com","port":27035,"enabled":true,"region":"us-west","cc":"us","latitude":47.608013,"longitude":-122.33517,"reserved":0,"last_update":"0001-01-01T00:00:00Z","name_a2s":"Uncletopia | Seattle | 3 | Stopwatch Beta","protocol":17,"map":"workshop/koth_clearcut_b15.ugc2107050255","folder":"tf","game":"Team Fortress","app_id":440,"player_count":0,"max_players":24,"Bots":0,"server_type":"Dedicated","server_os":"Linux","password":true,"vac":true,"version":"7757534","steam_id":85568392924515217,"keywords":["cp","nocrits","nodmgspread","uncletopia"],"game_id":440,"stv_port":27036,"stv_name":"Uncletopia | Seattle | 3 | Stopwatch Beta | STV","players":null},{"server_id":17,"name":"Uncletopia | San Francisco | 1 | All Maps","name_short":"sfo-1","host":"sfo-1.us.uncletopia.com","port":27015,"enabled":true,"region":"us-west","cc":"us","latitude":37.77397,"longitude":-122.4313,"reserved":0,"last_update":"0001-01-01T00:00:00Z","name_a2s":"Uncletopia | San Francisco | 1 | All Maps","protocol":17,"map":"cp_dustbowl","folder":"tf","game":"Team Fortress","app_id":440,"player_count":24,"max_players":24,"Bots":0,"server_type":"Dedicated","server_os":"Linux","password":true,"vac":true,"version":"7757534","steam_id":85568392924469999,"keywords":["cp","nocrits","nodmgspread","uncletopia"],"game_id":440,"stv_port":27016,"stv_name":"Uncletopia | San Francisco | 1 | All Maps | STV","players":[{"user_id":308,"name":"RaixaR","steam_id":76561198025289430,"connected_time":1397000000000,"state":"active","ping":78},{"user_id":305,"name":"cow","steam_id":76561199037601292,"connected_time":1799000000000,"state":"active","ping":82},{"user_id":271,"name":"wlfgng","steam_id":76561198316639499,"connected_time":3094000000000,"state":"active","ping":31},{"user_id":291,"name":"SirSkellyKing","steam_id":76561198313097751,"connected_time":2449000000000,"state":"active","ping":100},{"user_id":312,"name":"k1tty","steam_id":76561198869348268,"connected_time":750000000000,"state":"active","ping":51},{"user_id":309,"name":"sustavo cring","steam_id":76561198053306936,"connected_time":1229000000000,"state":"active","ping":110},{"user_id":313,"name":"BasedGod","steam_id":76561198061177973,"connected_time":730000000000,"state":"active","ping":46},{"user_id":314,"name":"poage","steam_id":76561199067205225,"connected_time":727000000000,"state":"active","ping":44},{"user_id":311,"name":"ｐｒｏｆｅ ｉｓａ","steam_id":76561198106966849,"connected_time":936000000000,"state":"active","ping":109},{"user_id":269,"name":"Wormy","steam_id":76561198191608170,"connected_time":3135000000000,"state":"active","ping":102},{"user_id":315,"name":"james","steam_id":76561198133591664,"connected_time":675000000000,"state":"active","ping":126},{"user_id":294,"name":"The Crunch","steam_id":76561198124835922,"connected_time":2393000000000,"state":"active","ping":103},{"user_id":274,"name":"Sweattadpole","steam_id":76561199456100100,"connected_time":3006000000000,"state":"active","ping":133},{"user_id":306,"name":"Lots0","steam_id":76561198043143145,"connected_time":1646000000000,"state":"active","ping":100},{"user_id":316,"name":"Rafl","steam_id":76561198055222756,"connected_time":656000000000,"state":"active","ping":75},{"user_id":319,"name":"TrueDragonNoodle","steam_id":76561198041908961,"connected_time":599000000000,"state":"active","ping":75},{"user_id":288,"name":"Genghis Khan","steam_id":76561198218558897,"connected_time":2761000000000,"state":"active","ping":118},{"user_id":300,"name":"Lord Scrubling","steam_id":76561198263744445,"connected_time":2216000000000,"state":"active","ping":85},{"user_id":318,"name":"Khronakal","steam_id":76561199047228098,"connected_time":634000000000,"state":"active","ping":78},{"user_id":278,"name":"shaberally","steam_id":76561198920545247,"connected_time":2981000000000,"state":"active","ping":101},{"user_id":260,"name":"king louis xiv","steam_id":76561198419470351,"connected_time":3858000000000,"state":"active","ping":53},{"user_id":320,"name":"big car","steam_id":76561198067082350,"connected_time":232000000000,"state":"active","ping":45},{"user_id":295,"name":"LordKrx","steam_id":76561198393807717,"connected_time":2359000000000,"state":"active","ping":94},{"user_id":284,"name":"Spaceman","steam_id":76561198349305249,"connected_time":2835000000000,"state":"active","ping":77}]},{"server_id":18,"name":"Uncletopia | San Francisco | 2 | All Maps","name_short":"sfo-2","host":"sfo-1.us.uncletopia.com","port":27025,"enabled":true,"region":"us-west","cc":"us","latitude":37.77397,"longitude":-122.4313,"reserved":0,"last_update":"0001-01-01T00:00:00Z","name_a2s":"Uncletopia | San Francisco | 2 | All Maps","protocol":17,"map":"ctf_2fort","folder":"tf","game":"Team Fortress","app_id":440,"player_count":24,"max_players":24,"Bots":0,"server_type":"Dedicated","server_os":"Linux","password":true,"vac":true,"version":"7757534","steam_id":85568392924470000,"keywords":["ctf","nocrits","nodmgspread","uncletopia"],"game_id":440,"stv_port":27026,"stv_name":"Uncletopia | San Francisco | 2 | All Maps | STV","players":[{"user_id":181,"name":"Geon","steam_id":76561199006239194,"connected_time":2963000000000,"state":"active","ping":70},{"user_id":198,"name":"Mr defrost","steam_id":76561198322125657,"connected_time":1721000000000,"state":"active","ping":83},{"user_id":214,"name":"SD","steam_id":76561198217410988,"connected_time":593000000000,"state":"active","ping":46},{"user_id":196,"name":"The Super Mario Bros. Movie","steam_id":76561198871692156,"connected_time":2221000000000,"state":"active","ping":73},{"user_id":220,"name":"poop gaming","steam_id":76561197997341630,"connected_time":154000000000,"state":"active","ping":67},{"user_id":197,"name":"particle man","steam_id":76561198009659690,"connected_time":1821000000000,"state":"active","ping":55},{"user_id":154,"name":"certainlysim","steam_id":76561199092352335,"connected_time":5392000000000,"state":"active","ping":89},{"user_id":211,"name":"SpinnerSpecial","steam_id":76561198065661869,"connected_time":744000000000,"state":"active","ping":75},{"user_id":219,"name":"Buswolley","steam_id":76561197995205571,"connected_time":194000000000,"state":"active","ping":42},{"user_id":186,"name":"Engynier Gaimeang (F2P)","steam_id":76561199013888779,"connected_time":2858000000000,"state":"active","ping":59},{"user_id":221,"name":"NewsPePe","steam_id":76561198135499490,"connected_time":88000000000,"state":"active","ping":117},{"user_id":195,"name":"Dani","steam_id":76561198348012378,"connected_time":2238000000000,"state":"active","ping":124},{"user_id":121,"name":"CollDragon","steam_id":76561198067534450,"connected_time":7965000000000,"state":"active","ping":114},{"user_id":139,"name":"rimbl","steam_id":76561198150137369,"connected_time":7138000000000,"state":"active","ping":57},{"user_id":149,"name":"Nightlygalad","steam_id":76561198170693990,"connected_time":5910000000000,"state":"active","ping":60},{"user_id":224,"name":"wsn010203","steam_id":76561198816475183,"connected_time":25000000000,"state":"spawning","ping":214},{"user_id":222,"name":"Baraka","steam_id":76561198863047164,"connected_time":39000000000,"state":"active","ping":57},{"user_id":193,"name":"DragonHunter994","steam_id":76561199076203907,"connected_time":2425000000000,"state":"active","ping":104},{"user_id":216,"name":"Barton","steam_id":76561198203088523,"connected_time":428000000000,"state":"active","ping":88},{"user_id":223,"name":"Sonny","steam_id":76561198042243689,"connected_time":31000000000,"state":"active","ping":36},{"user_id":207,"name":"Space_Cowboy","steam_id":76561198202240772,"connected_time":1257000000000,"state":"active","ping":96},{"user_id":217,"name":"Amogous Supreme","steam_id":76561198025476774,"connected_time":340000000000,"state":"active","ping":57},{"user_id":194,"name":"An Alien Mango","steam_id":76561198864823970,"connected_time":2399000000000,"state":"active","ping":82},{"user_id":205,"name":"DraconicApprentice","steam_id":76561199192401120,"connected_time":1335000000000,"state":"active","ping":76}]},{"server_id":19,"name":"Uncletopia | San Francisco | 3 | Stopwatch Beta","name_short":"sfo-3","host":"sfo-1.us.uncletopia.com","port":27035,"enabled":true,"region":"us-west","cc":"us","latitude":37.77397,"longitude":-122.4313,"reserved":0,"last_update":"0001-01-01T00:00:00Z","name_a2s":"Uncletopia | San Francisco | 3 | Stopwatch Beta","protocol":17,"map":"koth_highpass","folder":"tf","game":"Team Fortress","app_id":440,"player_count":0,"max_players":24,"Bots":0,"server_type":"Dedicated","server_os":"Linux","password":true,"vac":true,"version":"7757534","steam_id":85568392924742824,"keywords":["cp","nocrits","nodmgspread","uncletopia"],"game_id":440,"stv_port":27036,"stv_name":"Uncletopia | San Francisco | 3 | Stopwatch Beta | STV","players":null},{"server_id":20,"name":"Uncletopia | San Francisco | 4 | Community","name_short":"sfo-4","host":"sfo-1.us.uncletopia.com","port":27045,"enabled":true,"region":"us-west","cc":"us","latitude":37.77397,"longitude":-122.4313,"reserved":0,"last_update":"0001-01-01T00:00:00Z","name_a2s":"Uncletopia | San Francisco | 4 | Community","protocol":17,"map":"workshop/cp_bruhstbowl_b5.ugc2878604990","folder":"tf","game":"Team Fortress","app_id":440,"player_count":0,"max_players":24,"Bots":0,"server_type":"Dedicated","server_os":"Linux","password":true,"vac":true,"version":"7757534","steam_id":85568392924742826,"keywords":["cp","nocrits","nodmgspread","uncletopia"],"game_id":440,"stv_port":27046,"stv_name":"Uncletopia | San Francisco | 4 | Community | STV","players":null},{"server_id":141,"name":"Uncletopia | Sydney | 1 | All Maps","name_short":"syd-1","host":"syd-1.au.uncletopia.com","port":27015,"enabled":true,"region":"au","cc":"au","latitude":-33.865143,"longitude":151.2099,"reserved":0,"last_update":"0001-01-01T00:00:00Z","name_a2s":"Uncletopia | Sydney | 1 | All Maps","protocol":17,"map":"koth_highpass","folder":"tf","game":"Team Fortress","app_id":440,"player_count":5,"max_players":24,"Bots":0,"server_type":"Dedicated","server_os":"Linux","password":true,"vac":true,"version":"7757534","steam_id":85568392924470001,"keywords":["cp","nocrits","nodmgspread","uncletopia"],"game_id":440,"stv_port":27016,"stv_name":"Uncletopia | Sydney | 1 | All Maps | STV","players":[{"user_id":39,"name":"[insertname]","steam_id":76561198434485938,"connected_time":331000000000,"state":"active","ping":83},{"user_id":30,"name":"The Bisoneer Tf2","steam_id":76561199446773766,"connected_time":1609000000000,"state":"active","ping":99},{"user_id":31,"name":"GattlingGoose","steam_id":76561199021498300,"connected_time":1591000000000,"state":"active","ping":70},{"user_id":40,"name":"Verbally Disabled (F2P)","steam_id":76561199417923156,"connected_time":23000000000,"state":"active","ping":59},{"user_id":34,"name":"Sir Bigg","steam_id":76561199080759165,"connected_time":1078000000000,"state":"active","ping":68}]},{"server_id":123,"name":"Uncletopia | Sydney | 2 | All Maps","name_short":"syd-2","host":"syd-1.au.uncletopia.com","port":27025,"enabled":true,"region":"au","cc":"au","latitude":-33.865143,"longitude":151.2099,"reserved":0,"last_update":"0001-01-01T00:00:00Z","name_a2s":"Uncletopia | Sydney | 2 | All Maps","protocol":17,"map":"cp_steel","folder":"tf","game":"Team Fortress","app_id":440,"player_count":18,"max_players":24,"Bots":0,"server_type":"Dedicated","server_os":"Linux","password":true,"vac":true,"version":"7757534","steam_id":85568392924470002,"keywords":["cp","nocrits","nodmgspread","uncletopia"],"game_id":440,"stv_port":27026,"stv_name":"Uncletopia | Sydney | 2 | All Maps | STV","players":[{"user_id":176,"name":"Local Trash Expert","steam_id":76561198145598622,"connected_time":914000000000,"state":"active","ping":80},{"user_id":179,"name":"Raboot","steam_id":76561199076889222,"connected_time":559000000000,"state":"active","ping":66},{"user_id":116,"name":"whiteshaq","steam_id":76561198131988811,"connected_time":5653000000000,"state":"active","ping":46},{"user_id":180,"name":"perturb","steam_id":76561198085124297,"connected_time":558000000000,"state":"active","ping":59},{"user_id":189,"name":"Nawor","steam_id":76561198087419337,"connected_time":174000000000,"state":"active","ping":47},{"user_id":52,"name":"Chooka","steam_id":76561197992307814,"connected_time":9722000000000,"state":"active","ping":60},{"user_id":181,"name":"RagedPlague","steam_id":76561198208507111,"connected_time":551000000000,"state":"active","ping":39},{"user_id":161,"name":"Original Dog","steam_id":76561198046480594,"connected_time":2249000000000,"state":"active","ping":71},{"user_id":175,"name":"Comic Sans G","steam_id":76561198036184916,"connected_time":954000000000,"state":"active","ping":78},{"user_id":190,"name":"₮Ɇ₴₮ł₵ɄⱠØⱤɄ₥","steam_id":76561199349964541,"connected_time":76000000000,"state":"active","ping":70},{"user_id":184,"name":"doctor morbin' (real)","steam_id":76561199365241695,"connected_time":395000000000,"state":"active","ping":131},{"user_id":186,"name":"Paula","steam_id":76561198010688399,"connected_time":373000000000,"state":"active","ping":71},{"user_id":191,"name":"NexGenInsanity","steam_id":76561198109801641,"connected_time":52000000000,"state":"active","ping":67},{"user_id":163,"name":"Patadam","steam_id":76561198143786902,"connected_time":2036000000000,"state":"active","ping":56},{"user_id":193,"name":"timeworn (gamer)","steam_id":76561199386094919,"connected_time":35000000000,"state":"spawning","ping":32},{"user_id":159,"name":"Enchanted Cat","steam_id":76561198866538028,"connected_time":2291000000000,"state":"active","ping":84},{"user_id":129,"name":"*akolai","steam_id":76561198075366402,"connected_time":4764000000000,"state":"active","ping":43},{"user_id":174,"name":"FrOStY","steam_id":76561198088155805,"connected_time":1043000000000,"state":"active","ping":74}]},{"server_id":395,"name":"Uncletopia | Sydney | 3 | All Maps","name_short":"syd-3","host":"syd-1.au.uncletopia.com","port":27035,"enabled":true,"region":"au","cc":"au","latitude":-33.865143,"longitude":151.2099,"reserved":0,"last_update":"0001-01-01T00:00:00Z","name_a2s":"Uncletopia | Sydney | 3 | All Maps","protocol":17,"map":"cp_sunshine","folder":"tf","game":"Team Fortress","app_id":440,"player_count":7,"max_players":24,"Bots":0,"server_type":"Dedicated","server_os":"Linux","password":true,"vac":true,"version":"7757534","steam_id":85568392925194467,"keywords":["cp","nocrits","nodmgspread","uncletopia"],"game_id":440,"stv_port":27036,"stv_name":"Uncletopia | Sydney | 3 | All Maps | STV","players":[{"user_id":11,"name":"mixyad3","steam_id":76561198046461767,"connected_time":557000000000,"state":"active","ping":54},{"user_id":12,"name":"Nah moment","steam_id":76561198869190432,"connected_time":551000000000,"state":"active","ping":57},{"user_id":13,"name":"bobo","steam_id":76561198156622144,"connected_time":549000000000,"state":"active","ping":45},{"user_id":14,"name":"Maxy","steam_id":76561198063462160,"connected_time":495000000000,"state":"active","ping":31},{"user_id":15,"name":"henry","steam_id":76561198127414048,"connected_time":494000000000,"state":"active","ping":36},{"user_id":16,"name":"ziah","steam_id":76561198159375596,"connected_time":481000000000,"state":"active","ping":56},{"user_id":17,"name":"Haste","steam_id":76561198173155142,"connected_time":374000000000,"state":"active","ping":60}]},{"server_id":396,"name":"Uncletopia | Sydney | 4 | All Maps","name_short":"syd-4","host":"syd-1.au.uncletopia.com","port":27045,"enabled":true,"region":"au","cc":"au","latitude":-33.865143,"longitude":151.2099,"reserved":0,"last_update":"0001-01-01T00:00:00Z","name_a2s":"Uncletopia | Sydney | 4 | All Maps","protocol":17,"map":"koth_highpass","folder":"tf","game":"Team Fortress","app_id":440,"player_count":0,"max_players":24,"Bots":0,"server_type":"Dedicated","server_os":"Linux","password":true,"vac":true,"version":"7757534","steam_id":85568392925397958,"keywords":["cp","nocrits","nodmgspread","uncletopia"],"game_id":440,"stv_port":27046,"stv_name":"Uncletopia | Sydney | 4 | All Maps | STV","players":null},{"server_id":58,"name":"Uncletopia | Sydney | 5 | Stopwatch Beta","name_short":"syd-5","host":"syd-1.au.uncletopia.com","port":27055,"enabled":true,"region":"au","cc":"au","latitude":-33.865143,"longitude":151.2099,"reserved":0,"last_update":"0001-01-01T00:00:00Z","name_a2s":"Uncletopia | Sydney | 5 | Stopwatch Beta","protocol":17,"map":"workshop/pl_summercoast_rc8e.ugc1761528829","folder":"tf","game":"Team Fortress","app_id":440,"player_count":0,"max_players":24,"Bots":0,"server_type":"Dedicated","server_os":"Linux","password":true,"vac":true,"version":"7757534","steam_id":85568392925397959,"keywords":["nocrits","nodmgspread","payload","uncletopia"],"game_id":440,"stv_port":27056,"stv_name":"Uncletopia | Sydney | 5 | Stopwatch Beta | STV","players":null},{"server_id":59,"name":"Uncletopia | Sydney | 6 | Community","name_short":"syd-6","host":"syd-1.au.uncletopia.com","port":27065,"enabled":true,"region":"au","cc":"au","latitude":-33.865143,"longitude":151.2099,"reserved":0,"last_update":"0001-01-01T00:00:00Z","name_a2s":"Uncletopia | Sydney | 6 | Community","protocol":17,"map":"workshop/pl_corrode_rc2.ugc546577989","folder":"tf","game":"Team Fortress","app_id":440,"player_count":0,"max_players":24,"Bots":0,"server_type":"Dedicated","server_os":"Linux","password":true,"vac":true,"version":"7757534","steam_id":85568392925397960,"keywords":["nocrits","nodmgspread","payload","uncletopia"],"game_id":440,"stv_port":27066,"stv_name":"Uncletopia | Sydney | 6 | Community | STV","players":null},{"server_id":49,"name":"Uncletopia | Warsaw | 1 | All Maps","name_short":"waw-1","host":"waw-1.pl.uncletopia.com","port":27015,"enabled":true,"region":"eu","cc":"pl","latitude":52.2297,"longitude":21.017532,"reserved":0,"last_update":"0001-01-01T00:00:00Z","name_a2s":"","protocol":0,"map":"","folder":"","game":"","app_id":0,"player_count":0,"max_players":0,"Bots":0,"server_type":"","server_os":"","password":false,"vac":false,"version":"","steam_id":0,"keywords":null,"game_id":0,"stv_port":0,"stv_name":"","players":null},{"server_id":50,"name":"Uncletopia | Warsaw | 2 | All Maps","name_short":"waw-2","host":"waw-1.pl.uncletopia.com","port":27025,"enabled":true,"region":"eu","cc":"pl","latitude":52.2297,"longitude":21.017532,"reserved":0,"last_update":"0001-01-01T00:00:00Z","name_a2s":"Uncletopia | Warsaw | 2 | All Maps","protocol":17,"map":"koth_cascade","folder":"tf","game":"Team Fortress","app_id":440,"player_count":0,"max_players":24,"Bots":0,"server_type":"Dedicated","server_os":"Linux","password":true,"vac":true,"version":"7757534","steam_id":85568392925397851,"keywords":["cp","nocrits","nodmgspread","uncletopia"],"game_id":440,"stv_port":27026,"stv_name":"Uncletopia | Warsaw | 2 | All Maps | STV","players":null},{"server_id":51,"name":"Uncletopia | Warsaw | 3 | All Maps","name_short":"waw-3","host":"waw-1.pl.uncletopia.com","port":27035,"enabled":true,"region":"eu","cc":"pl","latitude":52.2297,"longitude":21.017532,"reserved":0,"last_update":"0001-01-01T00:00:00Z","name_a2s":"Uncletopia | Warsaw | 3 | All Maps","protocol":17,"map":"koth_viaduct","folder":"tf","game":"Team Fortress","app_id":440,"player_count":0,"max_players":24,"Bots":0,"server_type":"Dedicated","server_os":"Linux","password":true,"vac":true,"version":"7757534","steam_id":85568392925397852,"keywords":["cp","nocrits","nodmgspread","uncletopia"],"game_id":440,"stv_port":27036,"stv_name":"Uncletopia | Warsaw | 3 | All Maps | STV","players":null},{"server_id":52,"name":"Uncletopia | Warsaw | 4 | All Maps","name_short":"waw-4","host":"waw-1.pl.uncletopia.com","port":27045,"enabled":true,"region":"eu","cc":"pl","latitude":52.2297,"longitude":21.017532,"reserved":0,"last_update":"0001-01-01T00:00:00Z","name_a2s":"Uncletopia | Warsaw | 4 | All Maps","protocol":17,"map":"koth_highpass","folder":"tf","game":"Team Fortress","app_id":440,"player_count":0,"max_players":24,"Bots":0,"server_type":"Dedicated","server_os":"Linux","password":true,"vac":true,"version":"7757534","steam_id":85568392925397853,"keywords":["cp","nocrits","nodmgspread","uncletopia"],"game_id":440,"stv_port":27046,"stv_name":"Uncletopia | Warsaw | 4 | All Maps | STV","players":null},{"server_id":53,"name":"Uncletopia | Warsaw | 5 | Stopwatch Beta","name_short":"waw-5","host":"waw-1.pl.uncletopia.com","port":27055,"enabled":true,"region":"eu","cc":"pl","latitude":52.2297,"longitude":21.017532,"reserved":0,"last_update":"0001-01-01T00:00:00Z","name_a2s":"Uncletopia | Warsaw | 5 | Stopwatch Beta","protocol":17,"map":"pl_borneo","folder":"tf","game":"Team Fortress","app_id":440,"player_count":0,"max_players":24,"Bots":0,"server_type":"Dedicated","server_os":"Linux","password":true,"vac":true,"version":"7757534","steam_id":85568392925397854,"keywords":["nocrits","nodmgspread","payload","uncletopia"],"game_id":440,"stv_port":27056,"stv_name":"Uncletopia | Warsaw | 5 | Stopwatch Beta | STV","players":null},{"server_id":54,"name":"Uncletopia | Warsaw | 6 | Community","name_short":"waw-6","host":"waw-1.pl.uncletopia.com","port":27065,"enabled":true,"region":"eu","cc":"pl","latitude":52.2297,"longitude":21.017532,"reserved":0,"last_update":"0001-01-01T00:00:00Z","name_a2s":"Uncletopia | Warsaw | 6 | Community","protocol":17,"map":"koth_lakeside_final","folder":"tf","game":"Team Fortress","app_id":440,"player_count":0,"max_players":24,"Bots":0,"server_type":"Dedicated","server_os":"Linux","password":true,"vac":true,"version":"7757534","steam_id":85568392925397856,"keywords":["cp","nocrits","nodmgspread","uncletopia"],"game_id":440,"stv_port":27066,"stv_name":"Uncletopia | Warsaw | 6 | Community | STV","players":null}]}