{"status":true,"message":"","result":[{"server_id":9,"name":"Uncletopia | Atlanta | 1 | All Maps","name_short":"atl-1","host":"atl-1.us.uncletopia.com","port":27015,"enabled":true,"region":"us-east","cc":"us","latitude":33.753746,"longitude":-84.38633,"reserved":0,"last_update":"0001-01-01T00:00:00Z","name_a2s":"Uncletopia | Atlanta | 1 | All Maps","protocol":17,"map":"pl_pier","folder":"tf","game":"Team Fortress","app_id":440,"player_count":24,"max_players":24,"Bots":0,"server_type":"Dedicated","server_os":"Linux","password":true,"vac":true,"version":"7961495","steam_id":85568392924469982,"keywords":["nocrits","nodmgspread","payload","uncletopia"],"game_id":440,"stv_port":27016,"stv_name":"Uncletopia | Atlanta | 1 | All Maps | STV","players":[{"user_id":35,"name":"Fuzzy Toast","steam_id":76561198028067781,"connected_time":848000000000,"state":"active","ping":75},{"user_id":8,"name":"Ricky-Dicky Doo-Da Grimes","steam_id":76561198016095410,"connected_time":2205000000000,"state":"active","ping":59},{"user_id":47,"name":"HarryjusttHarry","steam_id":76561198982810452,"connected_time":255000000000,"state":"active","ping":82},{"user_id":46,"name":"Obelisk","steam_id":76561198049416866,"connected_time":273000000000,"state":"active","ping":51},{"user_id":32,"name":"MaybeMars","steam_id":76561198084736804,"connected_time":1039000000000,"state":"active","ping":60},{"user_id":13,"name":"gametram","steam_id":76561199129180186,"connected_time":1724000000000,"state":"active","ping":149},{"user_id":14,"name":"Jitters","steam_id":76561198078898336,"connected_time":1612000000000,"state":"active","ping":60},{"user_id":15,"name":"Poo","steam_id":76561198265144507,"connected_time":1521000000000,"state":"active","ping":72},{"user_id":44,"name":"Oxygen User","steam_id":76561199111975528,"connected_time":591000000000,"state":"active","ping":64},{"user_id":17,"name":"hazel (she/her)","steam_id":76561198879911815,"connected_time":1499000000000,"state":"active","ping":54},{"user_id":40,"name":"Cat on Your Porch","steam_id":76561197979078330,"connected_time":767000000000,"state":"active","ping":77},{"user_id":48,"name":"Bob","steam_id":76561198059258610,"connected_time":243000000000,"state":"active","ping":101},{"user_id":37,"name":"lapi","steam_id":76561198302976864,"connected_time":800000000000,"state":"active","ping":60},{"user_id":49,"name":"Talented","steam_id":76561198800259660,"connected_time":240000000000,"state":"active","ping":51},{"user_id":50,"name":"TheBrocklobster","steam_id":76561198039682984,"connected_time":176000000000,"state":"active","ping":97},{"user_id":25,"name":"Steak-Pocketer","steam_id":76561198277651410,"connected_time":1292000000000,"state":"active","ping":45},{"user_id":26,"name":"Metal Silver","steam_id":76561198422159570,"connected_time":1265000000000,"state":"active","ping":63},{"user_id":52,"name":"yomommasabitch","steam_id":76561198323217150,"connected_time":78000000000,"state":"active","ping":58},{"user_id":29,"name":"Jaflampe","steam_id":76561198175827647,"connected_time":1167000000000,"state":"active","ping":51},{"user_id":51,"name":"normal","steam_id":76561198133712839,"connected_time":154000000000,"state":"active","ping":62},{"user_id":45,"name":"Degree","steam_id":76561198059812393,"connected_time":346000000000,"state":"active","ping":75},{"user_id":43,"name":"Sinta","steam_id":76561198098398841,"connected_time":667000000000,"state":"active","ping":60},{"user_id":41,"name":"FrameTrash","steam_id":76561199167260122,"connected_time":762000000000,"state":"active","ping":70},{"user_id":42,"name":"WaldyrH","steam_id":76561199185989504,"connected_time":743000000000,"state":"active","ping":174}]},{"server_id":104,"name":"Uncletopia | Atlanta | 2 | All Maps","name_short":"atl-2","host":"atl-1.us.uncletopia.com","port":27025,"enabled":true,"region":"us-east","cc":"us","latitude":33.753746,"longitude":-84.38633,"reserved":0,"last_update":"0001-01-01T00:00:00Z","name_a2s":"Uncletopia | Atlanta | 2 | All Maps","protocol":17,"map":"cp_badlands","folder":"tf","game":"Team Fortress","app_id":440,"player_count":0,"max_players":24,"Bots":0,"server_type":"Dedicated","server_os":"Linux","password":true,"vac":true,"version":"7961495","steam_id":85568392924469983,"keywords":["cp","nocrits","nodmgspread","uncletopia"],"game_id":440,"stv_port":27026,"stv_name":"Uncletopia | Atlanta | 2 | All Maps | STV","players":null},{"server_id":400,"name":"Uncletopia | Atlanta | 3 | Stopwatch","name_short":"atl-3","host":"atl-1.us.uncletopia.com","port":27035,"enabled":true,"region":"us-east","cc":"us","latitude":33.753746,"longitude":-84.38633,"reserved":0,"last_update":"0001-01-01T00:00:00Z","name_a2s":"Uncletopia | Atlanta | 3 | Stopwatch","protocol":17,"map":"workshop/koth_ashville_final.ugc2130459942","folder":"tf","game":"Team Fortress","app_id":440,"player_count":0,"max_players":24,"Bots":0,"server_type":"Dedicated","server_os":"Linux","password":true,"vac":true,"version":"7961495","steam_id":85568392924515187,"keywords":["cp","nocrits","nodmgspread","uncletopia"],"game_id":440,"stv_port":27036,"stv_name":"Uncletopia | Atlanta | 3 | Stopwatch | STV","players":null},{"server_id":401,"name":"Uncletopia | Atlanta | 4 | Community","name_short":"atl-4","host":"atl-1.us.uncletopia.com","port":27045,"enabled":true,"region":"us-east","cc":"us","latitude":33.753746,"longitude":-84.38633,"reserved":0,"last_update":"0001-01-01T00:00:00Z","name_a2s":"Uncletopia | Atlanta | 4 | Community","protocol":17,"map":"workshop/koth_bagel_rc6.ugc2514036946","folder":"tf","game":"Team Fortress","app_id":440,"player_count":0,"max_players":24,"Bots":0,"server_type":"Dedicated","server_os":"Linux","password":true,"vac":true,"version":"7961495","steam_id":85568392924515188,"keywords":["cp","nocrits","nodmgspread","uncletopia"],"game_id":440,"stv_port":27046,"stv_name":"Uncletopia | Atlanta | 4 | Community | STV","players":null},{"server_id":2,"name":"Uncletopia | Chicago | 1 | All Maps","name_short":"chi-1","host":"chi-1.us.uncletopia.com","port":27015,"enabled":true,"region":"us-central","cc":"us","latitude":41.881832,"longitude":-87.62318,"reserved":0,"last_update":"0001-01-01T00:00:00Z","name_a2s":"Uncletopia | Chicago | 1 | All Maps","protocol":17,"map":"koth_harvest_final","folder":"tf","game":"Team Fortress","app_id":440,"player_count":24,"max_players":24,"Bots":0,"server_type":"Dedicated","server_os":"Linux","password":true,"vac":true,"version":"7961495","steam_id":85568392924469984,"keywords":["cp","nocrits","nodmgspread","uncletopia"],"game_id":440,"stv_port":27016,"stv_name":"Uncletopia | Chicago | 1 | All Maps | STV","players":[{"user_id":10,"name":"Slab civilnetworks.net","steam_id":76561198968032452,"connected_time":6399000000000,"state":"active","ping":67},{"user_id":41,"name":"cupsovietxeno","steam_id":76561198997539399,"connected_time":4112000000000,"state":"active","ping":107},{"user_id":17,"name":"Nassu","steam_id":76561198147367577,"connected_time":5575000000000,"state":"active","ping":56},{"user_id":61,"name":"Tala\u003c3","steam_id":76561198169200739,"connected_time":2057000000000,"state":"active","ping":48},{"user_id":75,"name":"Jonathan","steam_id":76561199066653753,"connected_time":598000000000,"state":"active","ping":68},{"user_id":51,"name":"BlueZombieBlood","steam_id":76561198123590661,"connected_time":2484000000000,"state":"active","ping":53},{"user_id":52,"name":"Reckless Klondike","steam_id":76561198060904416,"connected_time":2472000000000,"state":"active","ping":63},{"user_id":70,"name":"cfamadas","steam_id":76561199055881965,"connected_time":1046000000000,"state":"active","ping":76},{"user_id":36,"name":"Orange Mann Bad","steam_id":76561198021126964,"connected_time":4516000000000,"state":"active","ping":103},{"user_id":21,"name":"the tryhard sniper","steam_id":76561199499971556,"connected_time":5090000000000,"state":"active","ping":78},{"user_id":22,"name":"capybara","steam_id":76561198798828328,"connected_time":4987000000000,"state":"active","ping":46},{"user_id":72,"name":"Gnaash","steam_id":76561198940657194,"connected_time":772000000000,"state":"active","ping":90},{"user_id":79,"name":"Tobo","steam_id":76561198085846393,"connected_time":2000000000,"state":"spawning","ping":72},{"user_id":25,"name":"JohnFMX","steam_id":76561198175608097,"connected_time":4876000000000,"state":"active","ping":71},{"user_id":59,"name":"Jason","steam_id":76561198107058140,"connected_time":2372000000000,"state":"active","ping":57},{"user_id":69,"name":"Cbv isifjfofienentlgod","steam_id":76561198304661367,"connected_time":1416000000000,"state":"active","ping":70},{"user_id":58,"name":"rune simpa","steam_id":76561198046174848,"connected_time":2392000000000,"state":"active","ping":113},{"user_id":78,"name":"Zozbieta","steam_id":76561198010336265,"connected_time":305000000000,"state":"active","ping":84},{"user_id":71,"name":"Big Yoshi","steam_id":76561199160576376,"connected_time":842000000000,"state":"active","ping":114},{"user_id":77,"name":"AMD Ryzen #SaveTF2","steam_id":76561198181028110,"connected_time":373000000000,"state":"active","ping":60},{"user_id":32,"name":"Reginald the Deceased Gentleman","steam_id":76561198322068512,"connected_time":4692000000000,"state":"active","ping":124},{"user_id":74,"name":"Sleepy Brady","steam_id":76561198867378129,"connected_time":747000000000,"state":"active","ping":58},{"user_id":65,"name":"Shark In Awe","steam_id":76561198032663494,"connected_time":1851000000000,"state":"active","ping":72},{"user_id":63,"name":"Brasinklepagrinkle","steam_id":76561198191431427,"connected_time":1915000000000,"state":"active","ping":90}]},{"server_id":106,"name":"Uncletopia | Chicago | 2 | All Maps","name_short":"chi-2","host":"chi-1.us.uncletopia.com","port":27025,"enabled":true,"region":"us-central","cc":"us","latitude":41.881832,"longitude":-87.62318,"reserved":0,"last_update":"0001-01-01T00:00:00Z","name_a2s":"Uncletopia | Chicago | 2 | All Maps","protocol":17,"map":"cp_metalworks","folder":"tf","game":"Team Fortress","app_id":440,"player_count":19,"max_players":24,"Bots":0,"server_type":"Dedicated","server_os":"Linux","password":true,"vac":true,"version":"7961495","steam_id":85568392924469985,"keywords":["cp","nocrits","nodmgspread","uncletopia"],"game_id":440,"stv_port":27026,"stv_name":"Uncletopia | Chicago | 2 | All Maps | STV","players":[{"user_id":159,"name":"I shit myself","steam_id":76561199174310124,"connected_time":1365000000000,"state":"active","ping":51},{"user_id":122,"name":"lesbian jolyne cujoh","steam_id":76561198988918229,"connected_time":4719000000000,"state":"active","ping":73},{"user_id":33,"name":"KrashBoomBang","steam_id":76561199002978777,"connected_time":11340000000000,"state":"active","ping":60},{"user_id":178,"name":"Dopteros","steam_id":76561198096732072,"connected_time":133000000000,"state":"active","ping":102},{"user_id":165,"name":"Mr. Tickle","steam_id":76561198126684647,"connected_time":1010000000000,"state":"active","ping":60},{"user_id":179,"name":"BigPapaBrogan","steam_id":76561199012814165,"connected_time":92000000000,"state":"active","ping":60},{"user_id":177,"name":"your moms car","steam_id":76561199389283507,"connected_time":165000000000,"state":"active","ping":55},{"user_id":162,"name":"beep","steam_id":76561199096448766,"connected_time":1132000000000,"state":"active","ping":59},{"user_id":180,"name":"Sweet Tooth","steam_id":76561198830158092,"connected_time":82000000000,"state":"active","ping":103},{"user_id":181,"name":"Aleks Degtyarev","steam_id":76561197993568810,"connected_time":81000000000,"state":"active","ping":154},{"user_id":182,"name":"MeatGrinderGuy(Vegans Beware)","steam_id":76561198833470398,"connected_time":63000000000,"state":"active","ping":74},{"user_id":183,"name":"general.b","steam_id":76561198162480519,"connected_time":52000000000,"state":"active","ping":58},{"user_id":79,"name":"airy","steam_id":76561198174632198,"connected_time":8364000000000,"state":"active","ping":74},{"user_id":176,"name":":*****HAPPY:","steam_id":76561198060869411,"connected_time":377000000000,"state":"active","ping":54},{"user_id":184,"name":"Chinny","steam_id":76561198159950565,"connected_time":8000000000,"state":"spawning","ping":123},{"user_id":149,"name":"nikeshoe92","steam_id":76561197973093864,"connected_time":2782000000000,"state":"active","ping":74},{"user_id":89,"name":"El Bondin","steam_id":76561198820792434,"connected_time":7040000000000,"state":"active","ping":100},{"user_id":157,"name":"Medi","steam_id":76561198160010984,"connected_time":1544000000000,"state":"active","ping":81},{"user_id":170,"name":"tlar","steam_id":76561198060117460,"connected_time":647000000000,"state":"active","ping":36}]},{"server_id":402,"name":"Uncletopia | Chicago | 3 | All Maps","name_short":"chi-3","host":"chi-1.us.uncletopia.com","port":27035,"enabled":true,"region":"us-central","cc":"us","latitude":41.881832,"longitude":-87.62318,"reserved":0,"last_update":"0001-01-01T00:00:00Z","name_a2s":"Uncletopia | Chicago | 3 | All Maps","protocol":17,"map":"plr_pipeline","folder":"tf","game":"Team Fortress","app_id":440,"player_count":0,"max_players":24,"Bots":0,"server_type":"Dedicated","server_os":"Linux","password":true,"vac":true,"version":"7961495","steam_id":85568392924515191,"keywords":["nocrits","nodmgspread","payload","uncletopia"],"game_id":440,"stv_port":27036,"stv_name":"Uncletopia | Chicago | 3 | All Maps | STV","players":null},{"server_id":403,"name":"Uncletopia | Chicago | 4 | All Maps","name_short":"chi-4","host":"chi-1.us.uncletopia.com","port":27045,"enabled":true,"region":"us-central","cc":"us","latitude":41.881832,"longitude":-87.62318,"reserved":0,"last_update":"0001-01-01T00:00:00Z","name_a2s":"Uncletopia | Chicago | 4 | All Maps","protocol":17,"map":"pl_badwater","folder":"tf","game":"Team Fortress","app_id":440,"player_count":24,"max_players":24,"Bots":0,"server_type":"Dedicated","server_os":"Linux","password":true,"vac":true,"version":"7961495","steam_id":85568392924515193,"keywords":["nocrits","nodmgspread","payload","uncletopia"],"game_id":440,"stv_port":27046,"stv_name":"Uncletopia | Chicago | 4 | All Maps | STV","players":[{"user_id":56,"name":"a table","steam_id":76561198158461279,"connected_time":552000000000,"state":"active","ping":69},{"user_id":54,"name":"Drapph","steam_id":76561199384213314,"connected_time":672000000000,"state":"active","ping":51},{"user_id":32,"name":"twitch.tv/kegaman_","steam_id":76561198043632775,"connected_time":2373000000000,"state":"active","ping":103},{"user_id":39,"name":"everything is a lie (wake up)","steam_id":76561198144436132,"connected_time":1987000000000,"state":"active","ping":57},{"user_id":57,"name":"on my backup mouse","steam_id":76561198072179483,"connected_time":550000000000,"state":"active","ping":91},{"user_id":9,"name":"Popeyes Employee","steam_id":76561198157341489,"connected_time":3297000000000,"state":"active","ping":99},{"user_id":50,"name":"fresco","steam_id":76561199101199477,"connected_time":1082000000000,"state":"active","ping":55},{"user_id":48,"name":"TB7","steam_id":76561198064423214,"connected_time":1661000000000,"state":"active","ping":53},{"user_id":15,"name":"Chechens Spotted","steam_id":76561199028910893,"connected_time":2800000000000,"state":"active","ping":121},{"user_id":37,"name":"nscd","steam_id":76561198153262786,"connected_time":2194000000000,"state":"active","ping":89},{"user_id":58,"name":"Max_Attack","steam_id":76561198944028607,"connected_time":523000000000,"state":"active","ping":102},{"user_id":47,"name":"Orage","steam_id":76561198394946407,"connected_time":1732000000000,"state":"active","ping":75},{"user_id":46,"name":"AckWhack","steam_id":76561199060503258,"connected_time":1758000000000,"state":"active","ping":99},{"user_id":52,"name":"Mr_sir132","steam_id":76561198125278692,"connected_time":908000000000,"state":"active","ping":125},{"user_id":44,"name":"Tim Williams","steam_id":76561198177327059,"connected_time":1891000000000,"state":"active","ping":59},{"user_id":66,"name":"Prsm","steam_id":76561198053344995,"connected_time":40000000000,"state":"active","ping":58},{"user_id":65,"name":"dr peppah chug!","steam_id":76561198068835693,"connected_time":216000000000,"state":"active","ping":93},{"user_id":59,"name":"hyazz","steam_id":76561199100342013,"connected_time":488000000000,"state":"active","ping":103},{"user_id":60,"name":"the keebler","steam_id":76561199486326945,"connected_time":456000000000,"state":"active","ping":79},{"user_id":27,"name":"Jump Man","steam_id":76561199201209407,"connected_time":2527000000000,"state":"active","ping":63},{"user_id":61,"name":"-SL- Jeb Bush Liberation Army","steam_id":76561198046050045,"connected_time":440000000000,"state":"active","ping":61},{"user_id":29,"name":"blast a hoe","steam_id":76561198294281809,"connected_time":2491000000000,"state":"active","ping":92},{"user_id":45,"name":"jorjor wells","steam_id":76561199073429082,"connected_time":1876000000000,"state":"active","ping":67},{"user_id":63,"name":"Marley","steam_id":76561198067663021,"connected_time":381000000000,"state":"active","ping":140}]},{"server_id":36,"name":"Uncletopia | Chicago | 5 | All Maps","name_short":"chi-5","host":"chi-2.us.uncletopia.com","port":27015,"enabled":true,"region":"us-central","cc":"us","latitude":41.881832,"longitude":-87.62318,"reserved":0,"last_update":"0001-01-01T00:00:00Z","name_a2s":"Uncletopia | Chicago | 5 | All Maps","protocol":17,"map":"pl_borneo","folder":"tf","game":"Team Fortress","app_id":440,"player_count":0,"max_players":24,"Bots":0,"server_type":"Dedicated","server_os":"Linux","password":true,"vac":true,"version":"7961495","steam_id":85568392924866362,"keywords":["nocrits","nodmgspread","payload","uncletopia"],"game_id":440,"stv_port":27016,"stv_name":"Uncletopia | Chicago | 5 | All Maps | STV","players":null},{"server_id":37,"name":"Uncletopia | Chicago | 6 | All Maps","name_short":"chi-6","host":"chi-2.us.uncletopia.com","port":27025,"enabled":true,"region":"us-central","cc":"us","latitude":41.881832,"longitude":-87.62318,"reserved":0,"last_update":"0001-01-01T00:00:00Z","name_a2s":"Uncletopia | Chicago | 6 | All Maps","protocol":17,"map":"ctf_turbine","folder":"tf","game":"Team Fortress","app_id":440,"player_count":0,"max_players":24,"Bots":0,"server_type":"Dedicated","server_os":"Linux","password":true,"vac":true,"version":"7961495","steam_id":85568392924866363,"keywords":["ctf","nocrits","nodmgspread","uncletopia"],"game_id":440,"stv_port":27026,"stv_name":"Uncletopia | Chicago | 6 | All Maps | STV","players":null},{"server_id":38,"name":"Uncletopia | Chicago | 7 | Stopwatch","name_short":"chi-7","host":"chi-2.us.uncletopia.com","port":27035,"enabled":true,"region":"us-central","cc":"us","latitude":41.881832,"longitude":-87.62318,"reserved":0,"last_update":"0001-01-01T00:00:00Z","name_a2s":"Uncletopia | Chicago | 7 | Stopwatch","protocol":17,"map":"cp_snakewater_final1","folder":"tf","game":"Team Fortress","app_id":440,"player_count":0,"max_players":24,"Bots":0,"server_type":"Dedicated","server_os":"Linux","password":true,"vac":true,"version":"7961495","steam_id":85568392924866364,"keywords":["cp","nocrits","nodmgspread","uncletopia"],"game_id":440,"stv_port":27036,"stv_name":"Uncletopia | Chicago | 7 | Stopwatch | STV","players":null},{"server_id":39,"name":"Uncletopia | Chicago | 8 | Community","name_short":"chi-8","host":"chi-2.us.uncletopia.com","port":27045,"enabled":true,"region":"us-central","cc":"us","latitude":41.881832,"longitude":-87.62318,"reserved":0,"last_update":"0001-01-01T00:00:00Z","name_a2s":"Uncletopia | Chicago | 8 | Community","protocol":17,"map":"workshop/koth_slaughter_rc1.ugc1712845210","folder":"tf","game":"Team Fortress","app_id":440,"player_count":0,"max_players":24,"Bots":0,"server_type":"Dedicated","server_os":"Linux","password":true,"vac":true,"version":"7961495","steam_id":85568392924866365,"keywords":["cp","nocrits","nodmgspread","uncletopia"],"game_id":440,"stv_port":27046,"stv_name":"Uncletopia | Chicago | 8 | Community | STV","players":null},{"server_id":8,"name":"Uncletopia | Dallas | 1 | All Maps","name_short":"dal-1","host":"dal-1.us.uncletopia.com","port":27015,"enabled":true,"region":"us-central","cc":"us","latitude":32.779167,"longitude":-96.80889,"reserved":0,"last_update":"0001-01-01T00:00:00Z","name_a2s":"Uncletopia | Dallas | 1 | All Maps","protocol":17,"map":"cp_sunshine","folder":"tf","game":"Team Fortress","app_id":440,"player_count":0,"max_players":24,"Bots":0,"server_type":"Dedicated","server_os":"Linux","password":true,"vac":true,"version":"7961495","steam_id":85568392924469986,"keywords":["cp","nocrits","nodmgspread","uncletopia"],"game_id":440,"stv_port":27016,"stv_name":"Uncletopia | Dallas | 1 | All Maps | STV","players":null},{"server_id":108,"name":"Uncletopia | Dallas | 2 | All Maps","name_short":"dal-2","host":"dal-1.us.uncletopia.com","port":27025,"enabled":true,"region":"us-central","cc":"us","latitude":32.779167,"longitude":-96.80889,"reserved":0,"last_update":"0001-01-01T00:00:00Z","name_a2s":"Uncletopia | Dallas | 2 | All Maps","protocol":17,"map":"cp_mountainlab","folder":"tf","game":"Team Fortress","app_id":440,"player_count":0,"max_players":24,"Bots":0,"server_type":"Dedicated","server_os":"Linux","password":true,"vac":true,"version":"7961495","steam_id":85568392924469988,"keywords":["cp","nocrits","nodmgspread","uncletopia"],"game_id":440,"stv_port":27026,"stv_name":"Uncletopia | Dallas | 2 | All Maps | STV","players":null},{"server_id":404,"name":"Uncletopia | Dallas | 3 | All Maps","name_short":"dal-3","host":"dal-1.us.uncletopia.com","port":27035,"enabled":true,"region":"us-central","cc":"us","latitude":32.779167,"longitude":-96.80889,"reserved":0,"last_update":"0001-01-01T00:00:00Z","name_a2s":"Uncletopia | Dallas | 3 | All Maps","protocol":17,"map":"cp_coldfront","folder":"tf","game":"Team Fortress","app_id":440,"player_count":0,"max_players":24,"Bots":0,"server_type":"Dedicated","server_os":"Linux","password":true,"vac":true,"version":"7961495","steam_id":85568392924515219,"keywords":["cp","nocrits","nodmgspread","uncletopia"],"game_id":440,"stv_port":27036,"stv_name":"Uncletopia | Dallas | 3 | All Maps | STV","players":null},{"server_id":405,"name":"Uncletopia | Dallas | 4 | Community","name_short":"dal-4","host":"dal-1.us.uncletopia.com","port":27045,"enabled":true,"region":"us-central","cc":"us","latitude":32.779167,"longitude":-96.80889,"reserved":0,"last_update":"0001-01-01T00:00:00Z","name_a2s":"Uncletopia | Dallas | 4 | Community","protocol":17,"map":"workshop/koth_synthetic_rc6a.ugc1549817316","folder":"tf","game":"Team Fortress","app_id":440,"player_count":0,"max_players":24,"Bots":0,"server_type":"Dedicated","server_os":"Linux","password":true,"vac":true,"version":"7961495","steam_id":85568392924515220,"keywords":["cp","nocrits","nodmgspread","uncletopia"],"game_id":440,"stv_port":27046,"stv_name":"Uncletopia | Dallas | 4 | Community | STV","players":null},{"server_id":5,"name":"Uncletopia | Frankfurt | 1 | All Maps","name_short":"frk-1","host":"frk-1.de.uncletopia.com","port":27015,"enabled":true,"region":"eu","cc":"de","latitude":50.110924,"longitude":8.682127,"reserved":0,"last_update":"0001-01-01T00:00:00Z","name_a2s":"Uncletopia | Frankfurt | 1 | All Maps","protocol":17,"map":"pl_swiftwater_final1","folder":"tf","game":"Team Fortress","app_id":440,"player_count":22,"max_players":24,"Bots":0,"server_type":"Dedicated","server_os":"Linux","password":true,"vac":true,"version":"7961495","steam_id":85568392924469989,"keywords":["nocrits","nodmgspread","payload","uncletopia"],"game_id":440,"stv_port":27016,"stv_name":"Uncletopia | Frankfurt | 1 | All Maps | STV","players":[{"user_id":340,"name":"ballsack","steam_id":76561198973232202,"connected_time":4271000000000,"state":"active","ping":90},{"user_id":408,"name":"Woman (Real)","steam_id":76561199151823932,"connected_time":203000000000,"state":"active","ping":63},{"user_id":400,"name":"d00bie","steam_id":76561198025295218,"connected_time":1165000000000,"state":"active","ping":55},{"user_id":409,"name":"zak","steam_id":76561197998895428,"connected_time":62000000000,"state":"active","ping":53},{"user_id":394,"name":"PENGUN","steam_id":76561199015156956,"connected_time":1369000000000,"state":"active","ping":98},{"user_id":366,"name":"GodsDrunkestDemo","steam_id":76561199503913861,"connected_time":2782000000000,"state":"active","ping":85},{"user_id":406,"name":"Gregor Samsa","steam_id":76561198973069177,"connected_time":324000000000,"state":"active","ping":52},{"user_id":392,"name":"rafisiedi","steam_id":76561199073496494,"connected_time":1490000000000,"state":"active","ping":73},{"user_id":390,"name":"Cringegnere","steam_id":76561198315827194,"connected_time":1592000000000,"state":"active","ping":64},{"user_id":398,"name":"Chopperson_","steam_id":76561198873728497,"connected_time":1208000000000,"state":"active","ping":98},{"user_id":399,"name":"DribSitoop","steam_id":76561198020597104,"connected_time":1198000000000,"state":"active","ping":57},{"user_id":403,"name":"MR BUBBLES","steam_id":76561198019005259,"connected_time":901000000000,"state":"active","ping":89},{"user_id":407,"name":"KingsCastle44","steam_id":76561198343256870,"connected_time":309000000000,"state":"active","ping":136},{"user_id":391,"name":"Cat cake0","steam_id":76561199048486574,"connected_time":1587000000000,"state":"active","ping":59},{"user_id":376,"name":"the grongle","steam_id":76561198989398023,"connected_time":2218000000000,"state":"active","ping":105},{"user_id":401,"name":"Play slowly, pls","steam_id":76561198006463587,"connected_time":1139000000000,"state":"active","ping":128},{"user_id":377,"name":"veki","steam_id":76561199059047474,"connected_time":2184000000000,"state":"active","ping":64},{"user_id":381,"name":"Jahusi!*","steam_id":76561197992445165,"connected_time":1983000000000,"state":"active","ping":51},{"user_id":402,"name":"Saul Badman","steam_id":76561199013233409,"connected_time":995000000000,"state":"active","ping":64},{"user_id":347,"name":"goldenmoon101","steam_id":76561198051043759,"connected_time":4137000000000,"state":"active","ping":71},{"user_id":386,"name":"Kristall_54","steam_id":76561199405759756,"connected_time":1869000000000,"state":"active","ping":65},{"user_id":387,"name":"scott steiners strongest warrio","steam_id":76561198148888622,"connected_time":1869000000000,"state":"active","ping":71}]},{"server_id":110,"name":"Uncletopia | Frankfurt | 2 | All Maps","name_short":"frk-2","host":"frk-1.de.uncletopia.com","port":27025,"enabled":true,"region":"eu","cc":"de","latitude":50.110924,"longitude":8.682127,"reserved":0,"last_update":"0001-01-01T00:00:00Z","name_a2s":"Uncletopia | Frankfurt | 2 | All Maps","protocol":17,"map":"pl_upward","folder":"tf","game":"Team Fortress","app_id":440,"player_count":24,"max_players":24,"Bots":0,"server_type":"Dedicated","server_os":"Linux","password":true,"vac":true,"version":"7961495","steam_id":85568392924469990,"keywords":["nocrits","nodmgspread","payload","uncletopia"],"game_id":440,"stv_port":27026,"stv_name":"Uncletopia | Frankfurt | 2 | All Maps | STV","players":[{"user_id":349,"name":"Tomomomomo","steam_id":76561198038753162,"connected_time":428000000000,"state":"active","ping":82},{"user_id":340,"name":"Sakata Gintoki","steam_id":76561198339980449,"connected_time":1086000000000,"state":"active","ping":67},{"user_id":297,"name":"LordTrap.exe","steam_id":76561198318089716,"connected_time":4240000000000,"state":"active","ping":64},{"user_id":348,"name":"LEGEND FUMO.","steam_id":76561198061033903,"connected_time":583000000000,"state":"active","ping":45},{"user_id":289,"name":"tube sock","steam_id":76561198073576350,"connected_time":4758000000000,"state":"active","ping":72},{"user_id":324,"name":"Sebyz","steam_id":76561198062641710,"connected_time":2230000000000,"state":"active","ping":48},{"user_id":325,"name":"busgrabb","steam_id":76561198055768465,"connected_time":2223000000000,"state":"active","ping":72},{"user_id":316,"name":"CEO of Racism","steam_id":76561198042317958,"connected_time":2769000000000,"state":"active","ping":60},{"user_id":269,"name":"Xx_Dr. Benjamin Stoner_xX","steam_id":76561198796374683,"connected_time":5621000000000,"state":"active","ping":75},{"user_id":344,"name":"Dictatorial Karelian","steam_id":76561198196736457,"connected_time":819000000000,"state":"active","ping":74},{"user_id":350,"name":"medicinal man","steam_id":76561198202668788,"connected_time":387000000000,"state":"active","ping":79},{"user_id":351,"name":"Dankstein","steam_id":76561198122662378,"connected_time":292000000000,"state":"active","ping":60},{"user_id":341,"name":"XPullaHiiri","steam_id":76561198031652375,"connected_time":980000000000,"state":"active","ping":76},{"user_id":270,"name":"Drojdier","steam_id":76561198080789836,"connected_time":5565000000000,"state":"active","ping":83},{"user_id":354,"name":"lore312","steam_id":76561198169043492,"connected_time":170000000000,"state":"active","ping":52},{"user_id":345,"name":"„ÄéDorarhim„Äè","steam_id":76561198220232352,"connected_time":817000000000,"state":"active","ping":59},{"user_id":346,"name":"‚ô£–ì–µ–Ω—Å–µ–∫ –ü–æ–Ω–æ—Å–∞","steam_id":76561198796404149,"connected_time":802000000000,"state":"active","ping":88},{"user_id":329,"name":"Rumpiel","steam_id":76561198254303347,"connected_time":2014000000000,"state":"active","ping":68},{"user_id":353,"name":"tiamat","steam_id":76561198116027948,"connected_time":184000000000,"state":"active","ping":64},{"user_id":352,"name":"hwleo","steam_id":76561198090848620,"connected_time":262000000000,"state":"active","ping":88},{"user_id":331,"name":"Moses","steam_id":76561198257652671,"connected_time":2013000000000,"state":"active","ping":59},{"user_id":334,"name":"Ê†∏nucleone„ÉÑ","steam_id":76561198099372569,"connected_time":1818000000000,"state":"active","ping":60},{"user_id":333,"name":"G_raff","steam_id":76561199048512726,"connected_time":1999000000000,"state":"active","ping":78},{"user_id":336,"name":"DrExplosive","steam_id":76561198063678579,"connected_time":1515000000000,"state":"active","ping":69}]},{"server_id":308,"name":"Uncletopia | Frankfurt | 3 | All Maps","name_short":"frk-3","host":"frk-1.de.uncletopia.com","port":27035,"enabled":true,"region":"eu","cc":"de","latitude":50.110924,"longitude":8.682127,"reserved":0,"last_update":"0001-01-01T00:00:00Z","name_a2s":"Uncletopia | Frankfurt | 3 | All Maps","protocol":17,"map":"koth_highpass","folder":"tf","game":"Team Fortress","app_id":440,"player_count":0,"max_players":24,"Bots":0,"server_type":"Dedicated","server_os":"Linux","password":true,"vac":true,"version":"7961495","steam_id":85568392924504274,"keywords":["cp","nocrits","nodmgspread","uncletopia"],"game_id":440,"stv_port":27036,"stv_name":"Uncletopia | Frankfurt | 3 | All Maps | STV","players":null},{"server_id":309,"name":"Uncletopia | Frankfurt | 4 | All Maps","name_short":"frk-4","host":"frk-1.de.uncletopia.com","port":27045,"enabled":true,"region":"eu","cc":"de","latitude":50.110924,"longitude":8.682127,"reserved":0,"last_update":"0001-01-01T00:00:00Z","name_a2s":"Uncletopia | Frankfurt | 4 | All Maps","protocol":17,"map":"pl_pier","folder":"tf","game":"Team Fortress","app_id":440,"player_count":11,"max_players":24,"Bots":0,"server_type":"Dedicated","server_os":"Linux","password":true,"vac":true,"version":"7961495","steam_id":85568392924504275,"keywords":["nocrits","nodmgspread","payload","uncletopia"],"game_id":440,"stv_port":27046,"stv_name":"Uncletopia | Frankfurt | 4 | All Maps | STV","players":[{"user_id":301,"name":"val","steam_id":76561198324316160,"connected_time":246000000000,"state":"active","ping":57},{"user_id":290,"name":"Metzgermeister","steam_id":76561198115145974,"connected_time":1513000000000,"state":"active","ping":45},{"user_id":302,"name":"CAR DOOR","steam_id":76561198055283295,"connected_time":50000000000,"state":"active","ping":46},{"user_id":244,"name":"Seal","steam_id":76561198244988552,"connected_time":4598000000000,"state":"active","ping":74},{"user_id":303,"name":"Lucky_Bambr","steam_id":76561198401330527,"connected_time":31000000000,"state":"active","ping":103},{"user_id":289,"name":"main weapon machine broke","steam_id":76561198041329823,"connected_time":1562000000000,"state":"active","ping":60},{"user_id":239,"name":"[P-roc] Cmm Bert","steam_id":76561198016658674,"connected_time":4976000000000,"state":"active","ping":53},{"user_id":296,"name":"Gr8gy","steam_id":76561198801350782,"connected_time":947000000000,"state":"active","ping":74},{"user_id":298,"name":"goofy goober","steam_id":76561198068054530,"connected_time":846000000000,"state":"active","ping":60},{"user_id":206,"name":"[P-roc] BadJacKS","steam_id":76561197972666377,"connected_time":7636000000000,"state":"active","ping":57},{"user_id":291,"name":"Spinya","steam_id":76561198086653667,"connected_time":1447000000000,"state":"active","ping":80}]},{"server_id":310,"name":"Uncletopia | Frankfurt | 5 | All Maps","name_short":"frk-5","host":"frk-1.de.uncletopia.com","port":27055,"enabled":true,"region":"eu","cc":"de","latitude":50.110924,"longitude":8.682127,"reserved":0,"last_update":"0001-01-01T00:00:00Z","name_a2s":"Uncletopia | Frankfurt | 5 | All Maps","protocol":17,"map":"cp_process_final","folder":"tf","game":"Team Fortress","app_id":440,"player_count":4,"max_players":24,"Bots":0,"server_type":"Dedicated","server_os":"Linux","password":true,"vac":true,"version":"7961495","steam_id":85568392924504277,"keywords":["cp","nocrits","nodmgspread","uncletopia"],"game_id":440,"stv_port":27056,"stv_name":"Uncletopia | Frankfurt | 5 | All Maps | STV","players":[{"user_id":320,"name":"Lag","steam_id":76561198159360376,"connected_time":72000000000,"state":"spawning","ping":93},{"user_id":301,"name":"DeBozMann_","steam_id":76561198266876790,"connected_time":1002000000000,"state":"spawning","ping":66},{"user_id":299,"name":"—Ç–æ—á–Ω–æ –ø—Ä–æ–≤–µ—Ä–µ–Ω–æ","steam_id":76561198005742337,"connected_time":1058000000000,"state":"spawning","ping":65},{"user_id":308,"name":"Rather Competent Gibus","steam_id":76561199008809107,"connected_time":732000000000,"state":"spawning","ping":73}]},{"server_id":311,"name":"Uncletopia | Frankfurt | 6 | All Maps","name_short":"frk-6","host":"frk-1.de.uncletopia.com","port":27065,"enabled":true,"region":"eu","cc":"de","latitude":50.110924,"longitude":8.682127,"reserved":0,"last_update":"0001-01-01T00:00:00Z","name_a2s":"Uncletopia | Frankfurt | 6 | All Maps","protocol":17,"map":"pl_frontier_final","folder":"tf","game":"Team Fortress","app_id":440,"player_count":23,"max_players":24,"Bots":0,"server_type":"Dedicated","server_os":"Linux","password":true,"vac":true,"version":"7961495","steam_id":85568392924504278,"keywords":["nocrits","nodmgspread","payload","uncletopia"],"game_id":440,"stv_port":27066,"stv_name":"Uncletopia | Frankfurt | 6 | All Maps | STV","players":[{"user_id":65,"name":"Gator","steam_id":76561198065624683,"connected_time":6660000000000,"state":"active","ping":70},{"user_id":88,"name":"Float Wires","steam_id":76561199012916857,"connected_time":4298000000000,"state":"active","ping":84},{"user_id":140,"name":"zinzyk","steam_id":76561198128011822,"connected_time":812000000000,"state":"active","ping":60},{"user_id":130,"name":"‚ò¶ –ó–í–ï–† ‚ò¶","steam_id":76561198001174470,"connected_time":1590000000000,"state":"active","ping":48},{"user_id":142,"name":"Vidrox","steam_id":76561199217854983,"connected_time":700000000000,"state":"active","ping":75},{"user_id":143,"name":"Optimist 50","steam_id":76561198039631442,"connected_time":562000000000,"state":"active","ping":79},{"user_id":150,"name":"YuraGreek","steam_id":76561198050182252,"connected_time":38000000000,"state":"active","ping":75},{"user_id":19,"name":"Darkf065","steam_id":76561199029257202,"connected_time":8273000000000,"state":"active","ping":96},{"user_id":129,"name":"Koss","steam_id":76561198033316239,"connected_time":1636000000000,"state":"active","ping":75},{"user_id":89,"name":"Lark","steam_id":76561198066937447,"connected_time":4212000000000,"state":"active","ping":111},{"user_id":135,"name":"Spectator","steam_id":76561198158608309,"connected_time":1294000000000,"state":"active","ping":78},{"user_id":138,"name":"Imperial City Guard","steam_id":76561198083355845,"connected_time":1105000000000,"state":"active","ping":58},{"user_id":145,"name":"Tre3","steam_id":76561198054795379,"connected_time":341000000000,"state":"active","ping":54},{"user_id":26,"name":"IHaveConsumed50KmofMeth","steam_id":76561199221172552,"connected_time":8212000000000,"state":"active","ping":59},{"user_id":139,"name":"Toasty5050","steam_id":76561198073540881,"connected_time":935000000000,"state":"active","ping":43},{"user_id":144,"name":"SegzyBae","steam_id":76561198802322294,"connected_time":452000000000,"state":"active","ping":68},{"user_id":114,"name":"New_SteFano_","steam_id":76561198448642353,"connected_time":2362000000000,"state":"active","ping":65},{"user_id":151,"name":"Doriian","steam_id":76561198071438810,"connected_time":23000000000,"state":"active","ping":81},{"user_id":49,"name":"GRAR","steam_id":76561199122186818,"connected_time":7490000000000,"state":"active","ping":184},{"user_id":147,"name":"wodiw21","steam_id":76561199092252177,"connected_time":323000000000,"state":"active","ping":72},{"user_id":119,"name":"Gr!mm","steam_id":76561197984846175,"connected_time":2119000000000,"state":"active","ping":81},{"user_id":149,"name":"Rimx","steam_id":76561198053034840,"connected_time":84000000000,"state":"active","ping":82},{"user_id":148,"name":"Siegmeyer","steam_id":76561198328543549,"connected_time":267000000000,"state":"active","ping":80}]},{"server_id":23,"name":"Uncletopia | Frankfurt | 7 | Stopwatch","name_short":"frk-7","host":"frk-1.de.uncletopia.com","port":27075,"enabled":true,"region":"eu","cc":"de","latitude":50.110924,"longitude":8.682127,"reserved":0,"last_update":"0001-01-01T00:00:00Z","name_a2s":"Uncletopia | Frankfurt | 7 | Stopwatch","protocol":17,"map":"koth_highpass","folder":"tf","game":"Team Fortress","app_id":440,"player_count":0,"max_players":24,"Bots":0,"server_type":"Dedicated","server_os":"Linux","password":true,"vac":true,"version":"7961495","steam_id":85568392924742827,"keywords":["cp","nocrits","nodmgspread","uncletopia"],"game_id":440,"stv_port":27076,"stv_name":"Uncletopia | Frankfurt | 7 | Stopwatch | STV","players":null},{"server_id":24,"name":"Uncletopia | Frankfurt | 8 | Community","name_short":"frk-8","host":"frk-1.de.uncletopia.com","port":27085,"enabled":true,"region":"eu","cc":"de","latitude":50.110924,"longitude":8.682127,"reserved":0,"last_update":"0001-01-01T00:00:00Z","name_a2s":"Uncletopia | Frankfurt | 8 | Community","protocol":17,"map":"workshop/koth_ashville_final.ugc2130459942","folder":"tf","game":"Team Fortress","app_id":440,"player_count":0,"max_players":24,"Bots":0,"server_type":"Dedicated","server_os":"Linux","password":true,"vac":true,"version":"7961495","steam_id":85568392924742828,"keywords":["cp","nocrits","nodmgspread","uncletopia"],"game_id":440,"stv_port":27086,"stv_name":"Uncletopia | Frankfurt | 8 | Community | STV","players":null},{"server_id":202,"name":"Uncletopia | Hong Kong | 1 | All Maps","name_short":"hgk-1","host":"hgk-1.hk.uncletopia.com","port":27015,"enabled":true,"region":"asia","cc":"hk","latitude":22.302711,"longitude":114.177216,"reserved":0,"last_update":"0001-01-01T00:00:00Z","name_a2s":"Uncletopia | Hong Kong | 1 | All Maps","protocol":17,"map":"pl_snowycoast","folder":"tf","game":"Team Fortress","app_id":440,"player_count":24,"max_players":24,"Bots":0,"server_type":"Dedicated","server_os":"Linux","password":true,"vac":true,"version":"7961495","steam_id":85568392924494504,"keywords":["nocrits","nodmgspread","payload","uncletopia"],"game_id":440,"stv_port":27016,"stv_name":"Uncletopia | Hong Kong | 1 | All Maps | STV","players":[{"user_id":949,"name":"STARDUST","steam_id":76561198843556568,"connected_time":593000000000,"state":"active","ping":39},{"user_id":926,"name":"PhantomReaper","steam_id":76561199058312643,"connected_time":3222000000000,"state":"active","ping":105},{"user_id":947,"name":"ur nuts r not safe","steam_id":76561199146847474,"connected_time":683000000000,"state":"active","ping":43},{"user_id":959,"name":"Hay","steam_id":76561199438952901,"connected_time":182000000000,"state":"active","ping":41},{"user_id":915,"name":"Momoxhien","steam_id":76561198414997429,"connected_time":5259000000000,"state":"active","ping":61},{"user_id":954,"name":"SiomaiSiomai","steam_id":76561198999007223,"connected_time":301000000000,"state":"active","ping":69},{"user_id":944,"name":"750+ hours on bdsm simulator","steam_id":76561199086487373,"connected_time":1043000000000,"state":"active","ping":60},{"user_id":955,"name":"tiden2000","steam_id":76561198092969425,"connected_time":262000000000,"state":"active","ping":70},{"user_id":861,"name":"Pillboi","steam_id":76561198011172886,"connected_time":10086000000000,"state":"active","ping":43},{"user_id":940,"name":"Gab","steam_id":76561198863909723,"connected_time":1788000000000,"state":"active","ping":63},{"user_id":952,"name":"E","steam_id":76561199173781370,"connected_time":304000000000,"state":"active","ping":104},{"user_id":941,"name":"ryder","steam_id":76561198797699056,"connected_time":1701000000000,"state":"active","ping":103},{"user_id":942,"name":"Averblu","steam_id":76561199480939609,"connected_time":1280000000000,"state":"active","ping":80},{"user_id":912,"name":"ÍπÄÍ¥ëÎßå","steam_id":76561198295279503,"connected_time":5471000000000,"state":"active","ping":106},{"user_id":920,"name":"p1st0n","steam_id":76561198992723983,"connected_time":4614000000000,"state":"active","ping":89},{"user_id":957,"name":"Jun-char","steam_id":76561198126774704,"connected_time":211000000000,"state":"active","ping":87},{"user_id":950,"name":"Skyler White yo","steam_id":76561198895193247,"connected_time":311000000000,"state":"active","ping":85},{"user_id":948,"name":"UZ","steam_id":76561198179320563,"connected_time":665000000000,"state":"active","ping":63},{"user_id":934,"name":"Mystery cheese üßÄ","steam_id":76561198304002409,"connected_time":2176000000000,"state":"active","ping":78},{"user_id":928,"name":"Variety","steam_id":76561198047396742,"connected_time":3215000000000,"state":"active","ping":60},{"user_id":857,"name":"ivy","steam_id":76561198400698408,"connected_time":10119000000000,"state":"active","ping":93},{"user_id":953,"name":"ÊØç„ÅÆËÇâÂõ£Â≠ê@hao123.com","steam_id":76561198069561896,"connected_time":303000000000,"state":"active","ping":45},{"user_id":958,"name":"I'm Mr Frog","steam_id":76561198186615466,"connected_time":210000000000,"state":"active","ping":130},{"user_id":880,"name":"TomCat","steam_id":76561198133744053,"connected_time":7807000000000,"state":"active","ping":120}]},{"server_id":1,"name":"Uncletopia | Los Angeles | 1 | All Maps","name_short":"lax-1","host":"lax-1.us.uncletopia.com","port":27015,"enabled":true,"region":"us-west","cc":"us","latitude":33.94279,"longitude":-118.41004,"reserved":0,"last_update":"0001-01-01T00:00:00Z","name_a2s":"Uncletopia | Los Angeles | 1 | All Maps","protocol":17,"map":"cp_gorge","folder":"tf","game":"Team Fortress","app_id":440,"player_count":0,"max_players":24,"Bots":0,"server_type":"Dedicated","server_os":"Linux","password":true,"vac":true,"version":"7961495","steam_id":85568392924469991,"keywords":["cp","nocrits","nodmgspread","uncletopia"],"game_id":440,"stv_port":27016,"stv_name":"Uncletopia | Los Angeles | 1 | All Maps | STV","players":null},{"server_id":112,"name":"Uncletopia | Los Angeles | 2 | All Maps","name_short":"lax-2","host":"lax-1.us.uncletopia.com","port":27025,"enabled":true,"region":"us-west","cc":"us","latitude":33.94279,"longitude":-118.41004,"reserved":0,"last_update":"0001-01-01T00:00:00Z","name_a2s":"Uncletopia | Los Angeles | 2 | All Maps","protocol":17,"map":"koth_cascade","folder":"tf","game":"Team Fortress","app_id":440,"player_count":0,"max_players":24,"Bots":0,"server_type":"Dedicated","server_os":"Linux","password":true,"vac":true,"version":"7961495","steam_id":85568392924469992,"keywords":["cp","nocrits","nodmgspread","uncletopia"],"game_id":440,"stv_port":27026,"stv_name":"Uncletopia | Los Angeles | 2 | All Maps | STV","players":null},{"server_id":324,"name":"Uncletopia | Los Angeles | 3 | All Maps","name_short":"lax-3","host":"lax-1.us.uncletopia.com","port":27035,"enabled":true,"region":"us-west","cc":"us","latitude":33.94279,"longitude":-118.41004,"reserved":0,"last_update":"0001-01-01T00:00:00Z","name_a2s":"Uncletopia | Los Angeles | 3 | All Maps","protocol":17,"map":"pl_hoodoo_final","folder":"tf","game":"Team Fortress","app_id":440,"player_count":0,"max_players":24,"Bots":0,"server_type":"Dedicated","server_os":"Linux","password":true,"vac":true,"version":"7961495","steam_id":85568392924510198,"keywords":["nocrits","nodmgspread","payload","uncletopia"],"game_id":440,"stv_port":27036,"stv_name":"Uncletopia | Los Angeles | 3 | All Maps | STV","players":null},{"server_id":25,"name":"Uncletopia | Los Angeles | 4 | Stopwatch","name_short":"lax-4","host":"lax-1.us.uncletopia.com","port":27045,"enabled":true,"region":"us-west","cc":"us","latitude":33.94279,"longitude":-118.41004,"reserved":0,"last_update":"0001-01-01T00:00:00Z","name_a2s":"Uncletopia | Los Angeles | 4 | Stopwatch","protocol":17,"map":"cp_metalworks","folder":"tf","game":"Team Fortress","app_id":440,"player_count":2,"max_players":24,"Bots":0,"server_type":"Dedicated","server_os":"Linux","password":true,"vac":true,"version":"7961495","steam_id":85568392924510199,"keywords":["cp","nocrits","nodmgspread","uncletopia"],"game_id":440,"stv_port":27046,"stv_name":"Uncletopia | Los Angeles | 4 | Stopwatch | STV","players":[{"user_id":3,"name":"BECAUSE YOU'RE BLACK","steam_id":76561199093893813,"connected_time":1714000000000,"state":"active","ping":188},{"user_id":4,"name":"ProSlayer77","steam_id":76561199435273618,"connected_time":1705000000000,"state":"active","ping":178}]},{"server_id":11,"name":"Uncletopia | London | 1 | All Maps","name_short":"lon-1","host":"lon-1.uk.uncletopia.com","port":27015,"enabled":true,"region":"eu","cc":"gb","latitude":51.509865,"longitude":-0.118092,"reserved":0,"last_update":"0001-01-01T00:00:00Z","name_a2s":"Uncletopia | London | 1 | All Maps","protocol":17,"map":"cp_dustbowl","folder":"tf","game":"Team Fortress","app_id":440,"player_count":24,"max_players":24,"Bots":0,"server_type":"Dedicated","server_os":"Linux","password":true,"vac":true,"version":"7961495","steam_id":85568392924367362,"keywords":["cp","nocrits","nodmgspread","uncletopia"],"game_id":440,"stv_port":27016,"stv_name":"Uncletopia | London | 1 | All Maps | STV","players":[{"user_id":482,"name":"Umme","steam_id":76561198053809566,"connected_time":5323000000000,"state":"connecting","ping":76},{"user_id":568,"name":"ramedlaV^^","steam_id":76561198074352339,"connected_time":8000000000,"state":"connecting","ping":94},{"user_id":552,"name":"Carlo","steam_id":76561198276491098,"connected_time":990000000000,"state":"connecting","ping":88},{"user_id":557,"name":"AuwNina","steam_id":76561198128231464,"connected_time":610000000000,"state":"connecting","ping":75},{"user_id":564,"name":"Penis Gaming","steam_id":76561199198623988,"connected_time":53000000000,"state":"connecting","ping":143},{"user_id":544,"name":"gnarly business","steam_id":76561198832688767,"connected_time":1249000000000,"state":"connecting","ping":53},{"user_id":501,"name":"Slifer the Egyptian God Furry","steam_id":76561198062255803,"connected_time":4195000000000,"state":"connecting","ping":94},{"user_id":513,"name":"bluecheesemints","steam_id":76561199490357988,"connected_time":3463000000000,"state":"connecting","ping":65},{"user_id":541,"name":"mertefe","steam_id":76561199237126613,"connected_time":1708000000000,"state":"connecting","ping":115},{"user_id":512,"name":"GoblinGaming","steam_id":76561198360395476,"connected_time":3608000000000,"state":"connecting","ping":38},{"user_id":539,"name":"rmz.ssj","steam_id":76561198329613930,"connected_time":1755000000000,"state":"connecting","ping":60},{"user_id":558,"name":"Destinys","steam_id":76561198056132894,"connected_time":548000000000,"state":"connecting","ping":75},{"user_id":499,"name":"Nurse Hanged","steam_id":76561198207533335,"connected_time":4310000000000,"state":"connecting","ping":103},{"user_id":560,"name":"ChikChak","steam_id":76561198010518376,"connected_time":370000000000,"state":"connecting","ping":75},{"user_id":569,"name":"Mich2L","steam_id":76561198015423985,"connected_time":1000000000,"state":"connecting","ping":261},{"user_id":523,"name":"Ullr","steam_id":76561198140547483,"connected_time":3084000000000,"state":"connecting","ping":48},{"user_id":553,"name":"Dark^^","steam_id":76561198036241064,"connected_time":985000000000,"state":"connecting","ping":94},{"user_id":535,"name":"trite","steam_id":76561197983765323,"connected_time":1983000000000,"state":"connecting","ping":51},{"user_id":538,"name":"Tyler\u0026Fingers","steam_id":76561198085154485,"connected_time":1831000000000,"state":"connecting","ping":178},{"user_id":517,"name":"cl_skinnyboi 1","steam_id":76561198042864708,"connected_time":3253000000000,"state":"connecting","ping":56},{"user_id":549,"name":"Amandus","steam_id":76561198036281079,"connected_time":1071000000000,"state":"connecting","ping":90},{"user_id":561,"name":"(1)KnugenIV","steam_id":76561198127091993,"connected_time":154000000000,"state":"connecting","ping":109},{"user_id":437,"name":"Anri Okita's Massive Milkers","steam_id":76561199186352720,"connected_time":7827000000000,"state":"connecting","ping":81},{"user_id":555,"name":"Meannaise","steam_id":76561198353496134,"connected_time":708000000000,"state":"connecting","ping":68}]},{"server_id":114,"name":"Uncletopia | London | 2 | All Maps","name_short":"lon-2","host":"lon-1.uk.uncletopia.com","port":27025,"enabled":true,"region":"eu","cc":"gb","latitude":51.509865,"longitude":-0.118092,"reserved":0,"last_update":"0001-01-01T00:00:00Z","name_a2s":"Uncletopia | London | 2 | All Maps","protocol":17,"map":"koth_harvest_final","folder":"tf","game":"Team Fortress","app_id":440,"player_count":24,"max_players":24,"Bots":0,"server_type":"Dedicated","server_os":"Linux","password":true,"vac":true,"version":"7961495","steam_id":85568392924470941,"keywords":["cp","nocrits","nodmgspread","uncletopia"],"game_id":440,"stv_port":27026,"stv_name":"Uncletopia | London | 2 | All Maps | STV","players":[{"user_id":285,"name":"Doe Chompski","steam_id":76561199019412162,"connected_time":2756000000000,"state":"active","ping":50},{"user_id":269,"name":"goofster","steam_id":76561199052275857,"connected_time":3996000000000,"state":"active","ping":119},{"user_id":310,"name":"AgentFluffy","steam_id":76561198007676366,"connected_time":866000000000,"state":"active","ping":78},{"user_id":286,"name":"steck","steam_id":76561197973948113,"connected_time":2740000000000,"state":"active","ping":66},{"user_id":302,"name":"georgeosenton","steam_id":76561199156549255,"connected_time":1130000000000,"state":"active","ping":46},{"user_id":263,"name":"john","steam_id":76561198136500519,"connected_time":4426000000000,"state":"active","ping":56},{"user_id":291,"name":"sam_","steam_id":76561198814734120,"connected_time":2597000000000,"state":"active","ping":106},{"user_id":314,"name":"Veltek","steam_id":76561198112681438,"connected_time":82000000000,"state":"active","ping":82},{"user_id":287,"name":"Who?","steam_id":76561198271901063,"connected_time":2724000000000,"state":"active","ping":56},{"user_id":296,"name":"Gardvord","steam_id":76561198120715753,"connected_time":2302000000000,"state":"active","ping":62},{"user_id":253,"name":"Smartest Person In the Universe","steam_id":76561199444636848,"connected_time":4949000000000,"state":"active","ping":51},{"user_id":312,"name":"chrronicle","steam_id":76561198145535413,"connected_time":411000000000,"state":"active","ping":48},{"user_id":303,"name":"oslninja8","steam_id":76561199407528463,"connected_time":1129000000000,"state":"active","ping":47},{"user_id":304,"name":"Reiyo the Interloper","steam_id":76561198155092485,"connected_time":1111000000000,"state":"active","ping":62},{"user_id":276,"name":"I shitted my a$$","steam_id":76561198981017406,"connected_time":3538000000000,"state":"active","ping":75},{"user_id":248,"name":"Creative","steam_id":76561198835034247,"connected_time":5560000000000,"state":"active","ping":84},{"user_id":292,"name":"Zod","steam_id":76561197970504146,"connected_time":2588000000000,"state":"active","ping":154},{"user_id":264,"name":"RiX","steam_id":76561197969053733,"connected_time":4410000000000,"state":"active","ping":47},{"user_id":308,"name":"Sholunan","steam_id":76561198062435739,"connected_time":976000000000,"state":"active","ping":59},{"user_id":281,"name":"Wayan","steam_id":76561198354695464,"connected_time":3082000000000,"state":"active","ping":130},{"user_id":311,"name":"StaigerDuck","steam_id":76561199190706582,"connected_time":696000000000,"state":"active","ping":124},{"user_id":297,"name":"Beep","steam_id":76561198151248575,"connected_time":2297000000000,"state":"active","ping":60},{"user_id":298,"name":"Bortas","steam_id":76561197972282153,"connected_time":2293000000000,"state":"active","ping":61},{"user_id":313,"name":"Bill Carr","steam_id":76561198110033943,"connected_time":398000000000,"state":"active","ping":37}]},{"server_id":320,"name":"Uncletopia | London | 3 | All Maps","name_short":"lon-3","host":"lon-1.uk.uncletopia.com","port":27035,"enabled":true,"region":"eu","cc":"gb","latitude":51.509865,"longitude":-0.118092,"reserved":0,"last_update":"0001-01-01T00:00:00Z","name_a2s":"Uncletopia | London | 3 | All Maps","protocol":17,"map":"pl_swiftwater_final1","folder":"tf","game":"Team Fortress","app_id":440,"player_count":24,"max_players":24,"Bots":0,"server_type":"Dedicated","server_os":"Linux","password":true,"vac":true,"version":"7961495","steam_id":85568392924510192,"keywords":["nocrits","nodmgspread","payload","uncletopia"],"game_id":440,"stv_port":27036,"stv_name":"Uncletopia | London | 3 | All Maps | STV","players":[{"user_id":183,"name":"bruh","steam_id":76561198109262927,"connected_time":1239000000000,"state":"active","ping":79},{"user_id":133,"name":"VolcanicArts","steam_id":76561198063453246,"connected_time":3067000000000,"state":"active","ping":50},{"user_id":191,"name":"Jemes","steam_id":76561198055620906,"connected_time":369000000000,"state":"active","ping":63},{"user_id":146,"name":"KEYMASTER","steam_id":76561199053214638,"connected_time":2642000000000,"state":"active","ping":56},{"user_id":157,"name":"powej","steam_id":76561198056381418,"connected_time":2424000000000,"state":"active","ping":42},{"user_id":149,"name":"m909","steam_id":76561198279621400,"connected_time":2630000000000,"state":"active","ping":102},{"user_id":168,"name":"co","steam_id":76561198188225497,"connected_time":2230000000000,"state":"active","ping":45},{"user_id":152,"name":"G/3","steam_id":76561198234844188,"connected_time":2519000000000,"state":"active","ping":54},{"user_id":178,"name":"gagalak","steam_id":76561198089979108,"connected_time":1508000000000,"state":"active","ping":104},{"user_id":184,"name":"I jazzed myself","steam_id":76561198203016603,"connected_time":1118000000000,"state":"active","ping":47},{"user_id":116,"name":"Severeburrito16","steam_id":76561198353155991,"connected_time":3904000000000,"state":"active","ping":119},{"user_id":173,"name":"Nurdbot","steam_id":76561197972640060,"connected_time":2143000000000,"state":"active","ping":45},{"user_id":189,"name":"compact disc","steam_id":76561198154677956,"connected_time":407000000000,"state":"active","ping":70},{"user_id":171,"name":"GrosFumiste","steam_id":76561198850134909,"connected_time":2195000000000,"state":"active","ping":46},{"user_id":185,"name":"Breddie Mercury","steam_id":76561198804590384,"connected_time":829000000000,"state":"active","ping":74},{"user_id":186,"name":"Cobalt","steam_id":76561198349228196,"connected_time":672000000000,"state":"active","ping":41},{"user_id":142,"name":"Plop_","steam_id":76561198112567921,"connected_time":2783000000000,"state":"active","ping":41},{"user_id":154,"name":"Magiprest","steam_id":76561197998450712,"connected_time":2501000000000,"state":"active","ping":90},{"user_id":187,"name":"^1MARAMA PALEX","steam_id":76561198311372563,"connected_time":666000000000,"state":"active","ping":75},{"user_id":164,"name":"General Grievous","steam_id":76561198087800030,"connected_time":2275000000000,"state":"active","ping":43},{"user_id":177,"name":"Toesd","steam_id":76561198204887501,"connected_time":1814000000000,"state":"active","ping":146},{"user_id":160,"name":"Haha?","steam_id":76561198056882245,"connected_time":2397000000000,"state":"active","ping":41},{"user_id":190,"name":"‰∏ÄÈæôÈ©¨","steam_id":76561198364121077,"connected_time":403000000000,"state":"active","ping":88},{"user_id":176,"name":"kluri","steam_id":76561198084518962,"connected_time":1840000000000,"state":"active","ping":81}]},{"server_id":321,"name":"Uncletopia | London | 4 | All Maps","name_short":"lon-4","host":"lon-1.uk.uncletopia.com","port":27045,"enabled":true,"region":"eu","cc":"gb","latitude":51.509865,"longitude":-0.118092,"reserved":0,"last_update":"0001-01-01T00:00:00Z","name_a2s":"Uncletopia | London | 4 | All Maps","protocol":17,"map":"koth_harvest_final","folder":"tf","game":"Team Fortress","app_id":440,"player_count":23,"max_players":24,"Bots":0,"server_type":"Dedicated","server_os":"Linux","password":true,"vac":true,"version":"7961495","steam_id":85568392924510193,"keywords":["cp","nocrits","nodmgspread","uncletopia"],"game_id":440,"stv_port":27046,"stv_name":"Uncletopia | London | 4 | All Maps | STV","players":[{"user_id":201,"name":"sussy gussy","steam_id":76561198079461874,"connected_time":1311000000000,"state":"active","ping":52},{"user_id":110,"name":"Swayer","steam_id":76561198056192460,"connected_time":7267000000000,"state":"active","ping":54},{"user_id":194,"name":"F","steam_id":76561199149462792,"connected_time":1461000000000,"state":"active","ping":51},{"user_id":191,"name":"New Guy","steam_id":76561199440597717,"connected_time":1522000000000,"state":"active","ping":121},{"user_id":209,"name":"Milk","steam_id":76561198125876588,"connected_time":873000000000,"state":"active","ping":40},{"user_id":192,"name":"APenjuin","steam_id":76561198169007976,"connected_time":1522000000000,"state":"active","ping":55},{"user_id":195,"name":"1 toke 4 mars bars","steam_id":76561198056460000,"connected_time":1452000000000,"state":"active","ping":45},{"user_id":210,"name":"lozov.evgen","steam_id":76561199177203324,"connected_time":644000000000,"state":"active","ping":82},{"user_id":197,"name":"copium","steam_id":76561198138603048,"connected_time":1425000000000,"state":"active","ping":65},{"user_id":199,"name":"swayze","steam_id":76561198141744030,"connected_time":1408000000000,"state":"active","ping":54},{"user_id":200,"name":"Rusted","steam_id":76561198310605286,"connected_time":1397000000000,"state":"active","ping":55},{"user_id":217,"name":"Jara.","steam_id":76561197992207165,"connected_time":11000000000,"state":"active","ping":87},{"user_id":215,"name":"Witcher","steam_id":76561198073550998,"connected_time":72000000000,"state":"active","ping":61},{"user_id":182,"name":"Razef","steam_id":76561198030309484,"connected_time":2398000000000,"state":"active","ping":52},{"user_id":213,"name":"pwp","steam_id":76561198444325631,"connected_time":329000000000,"state":"active","ping":74},{"user_id":205,"name":"cof","steam_id":76561199128417805,"connected_time":1265000000000,"state":"active","ping":41},{"user_id":73,"name":"bird?","steam_id":76561199050758491,"connected_time":10414000000000,"state":"active","ping":45},{"user_id":186,"name":"Bill_nye_epic","steam_id":76561199216249214,"connected_time":2036000000000,"state":"active","ping":142},{"user_id":211,"name":"FunnyFungusMan","steam_id":76561198885583082,"connected_time":557000000000,"state":"active","ping":65},{"user_id":207,"name":"Spellhance","steam_id":76561198063093495,"connected_time":1243000000000,"state":"active","ping":61},{"user_id":216,"name":"mimek","steam_id":76561198072690572,"connected_time":21000000000,"state":"spawning","ping":88},{"user_id":176,"name":"Jeffrey Harpen","steam_id":76561199073314677,"connected_time":2922000000000,"state":"active","ping":68},{"user_id":212,"name":"scarfweather","steam_id":76561198121331836,"connected_time":464000000000,"state":"active","ping":54}]},{"server_id":21,"name":"Uncletopia | London | 5 | All Maps","name_short":"lon-5","host":"lon-1.uk.uncletopia.com","port":27055,"enabled":true,"region":"eu","cc":"gb","latitude":51.509865,"longitude":-0.118092,"reserved":0,"last_update":"0001-01-01T00:00:00Z","name_a2s":"Uncletopia | London | 5 | All Maps","protocol":17,"map":"pl_snowycoast","folder":"tf","game":"Team Fortress","app_id":440,"player_count":24,"max_players":24,"Bots":0,"server_type":"Dedicated","server_os":"Linux","password":true,"vac":true,"version":"7961495","steam_id":85568392924742829,"keywords":["nocrits","nodmgspread","payload","uncletopia"],"game_id":440,"stv_port":27056,"stv_name":"Uncletopia | London | 5 | All Maps | STV","players":[{"user_id":16,"name":"(„Éà„Éº„Çπ„Éà)Toast","steam_id":76561199243331140,"connected_time":1367000000000,"state":"active","ping":140},{"user_id":13,"name":"Deemask√©","steam_id":76561199225833593,"connected_time":1584000000000,"state":"active","ping":47},{"user_id":17,"name":"Gym teacher","steam_id":76561198382706733,"connected_time":1027000000000,"state":"active","ping":71},{"user_id":15,"name":"RXQ","steam_id":76561199423258992,"connected_time":1462000000000,"state":"active","ping":175},{"user_id":21,"name":"Tx_madmash","steam_id":76561198924656512,"connected_time":942000000000,"state":"active","ping":113},{"user_id":19,"name":"Tomato","steam_id":76561199124472513,"connected_time":957000000000,"state":"active","ping":105},{"user_id":44,"name":"little al","steam_id":76561199101813776,"connected_time":18000000000,"state":"active","ping":38},{"user_id":22,"name":"Whiteford","steam_id":76561198360513994,"connected_time":904000000000,"state":"active","ping":42},{"user_id":23,"name":"Miedzan","steam_id":76561198405250516,"connected_time":901000000000,"state":"active","ping":86},{"user_id":24,"name":"Skrankly","steam_id":76561199001837576,"connected_time":893000000000,"state":"active","ping":59},{"user_id":25,"name":"\u003cGNGWD\u003e Neonicus","steam_id":76561197992607709,"connected_time":867000000000,"state":"active","ping":66},{"user_id":32,"name":"Welder","steam_id":76561198355300561,"connected_time":618000000000,"state":"active","ping":71},{"user_id":29,"name":"Hamhog","steam_id":76561198353967566,"connected_time":675000000000,"state":"active","ping":118},{"user_id":28,"name":"vulcria","steam_id":76561199106145058,"connected_time":786000000000,"state":"active","ping":52},{"user_id":30,"name":"ThatTFguy","steam_id":76561198056794321,"connected_time":674000000000,"state":"active","ping":45},{"user_id":43,"name":"cuddles","steam_id":76561198805181599,"connected_time":48000000000,"state":"active","ping":45},{"user_id":34,"name":"Average Idiot #SaveTF2","steam_id":76561198770890078,"connected_time":307000000000,"state":"active","ping":30},{"user_id":36,"name":"smiley","steam_id":76561198042245117,"connected_time":263000000000,"state":"active","ping":73},{"user_id":37,"name":"psu","steam_id":76561198094652091,"connected_time":258000000000,"state":"active","ping":82},{"user_id":38,"name":"mudmonkeyofbrazil","steam_id":76561199508067959,"connected_time":231000000000,"state":"active","ping":110},{"user_id":39,"name":"alwayshornywhiteboy","steam_id":76561197961536592,"connected_time":222000000000,"state":"active","ping":174},{"user_id":40,"name":"...","steam_id":76561199102883421,"connected_time":207000000000,"state":"active","ping":121},{"user_id":41,"name":"Lunarian","steam_id":76561198055811259,"connected_time":185000000000,"state":"active","ping":55},{"user_id":42,"name":"Michael","steam_id":76561198003146906,"connected_time":157000000000,"state":"active","ping":46}]},{"server_id":22,"name":"Uncletopia | London | 6 | All Maps","name_short":"lon-6","host":"lon-1.uk.uncletopia.com","port":27065,"enabled":true,"region":"eu","cc":"gb","latitude":51.509865,"longitude":-0.118092,"reserved":0,"last_update":"0001-01-01T00:00:00Z","name_a2s":"Uncletopia | London | 6 | All Maps","protocol":17,"map":"cp_sunshine","folder":"tf","game":"Team Fortress","app_id":440,"player_count":0,"max_players":24,"Bots":0,"server_type":"Dedicated","server_os":"Linux","password":true,"vac":true,"version":"7961495","steam_id":85568392924742830,"keywords":["cp","nocrits","nodmgspread","uncletopia"],"game_id":440,"stv_port":27066,"stv_name":"Uncletopia | London | 6 | All Maps | STV","players":null},{"server_id":40,"name":"Uncletopia | London | 7 | Stopwatch","name_short":"lon-7","host":"lon-1.uk.uncletopia.com","port":27075,"enabled":true,"region":"eu","cc":"gb","latitude":51.509865,"longitude":-0.118092,"reserved":0,"last_update":"0001-01-01T00:00:00Z","name_a2s":"Uncletopia | London | 7 | Stopwatch","protocol":17,"map":"pl_swiftwater_final1","folder":"tf","game":"Team Fortress","app_id":440,"player_count":0,"max_players":24,"Bots":0,"server_type":"Dedicated","server_os":"Linux","password":true,"vac":true,"version":"7961495","steam_id":85568392924964314,"keywords":["nocrits","nodmgspread","payload","uncletopia"],"game_id":440,"stv_port":27076,"stv_name":"Uncletopia | London | 7 | Stopwatch | STV","players":null},{"server_id":41,"name":"Uncletopia | London | 8 | Community","name_short":"lon-8","host":"lon-1.uk.uncletopia.com","port":27085,"enabled":true,"region":"eu","cc":"gb","latitude":51.509865,"longitude":-0.118092,"reserved":0,"last_update":"0001-01-01T00:00:00Z","name_a2s":"Uncletopia | London | 8 | Community","protocol":17,"map":"workshop/cp_villa_b19.ugc2113052569","folder":"tf","game":"Team Fortress","app_id":440,"player_count":0,"max_players":24,"Bots":0,"server_type":"Dedicated","server_os":"Linux","password":true,"vac":true,"version":"7961495","steam_id":85568392924964315,"keywords":["cp","nocrits","nodmgspread","uncletopia"],"game_id":440,"stv_port":27086,"stv_name":"Uncletopia | London | 8 | Community | STV","players":null},{"server_id":300,"name":"Uncletopia | Montr√©al | 1 | One Thousand Uncles","name_short":"mtl-1","host":"mtl-1.ca.uncletopia.com","port":27015,"enabled":true,"region":"us-east","cc":"ca","latitude":45.50889,"longitude":-73.56167,"reserved":0,"last_update":"0001-01-01T00:00:00Z","name_a2s":"Uncletopia | Montr√©al | 1 | One Thousand Uncles","protocol":17,"map":"pl_chilly","folder":"tf","game":"Team Fortress","app_id":440,"player_count":0,"max_players":32,"Bots":0,"server_type":"Dedicated","server_os":"Linux","password":true,"vac":true,"version":"7961495","steam_id":85568392924500087,"keywords":["alltalk","danepve","increased_maxplayers","norespawntime","payload","uncletopia"],"game_id":440,"stv_port":0,"stv_name":"","players":null},{"server_id":301,"name":"Uncletopia | Montr√©al | 2 | One Thousand Uncles","name_short":"mtl-2","host":"mtl-1.ca.uncletopia.com","port":27025,"enabled":true,"region":"us-east","cc":"ca","latitude":45.50889,"longitude":-73.56167,"reserved":0,"last_update":"0001-01-01T00:00:00Z","name_a2s":"Uncletopia | Montr√©al | 2 | One Thousand Uncles","protocol":17,"map":"pl_chilly","folder":"tf","game":"Team Fortress","app_id":440,"player_count":18,"max_players":32,"Bots":16,"server_type":"Dedicated","server_os":"Linux","password":true,"vac":true,"version":"7961495","steam_id":85568392924500088,"keywords":["alltalk","bots","danepve","increased_maxplayers","norespawntime","payload","uncletopia"],"game_id":440,"stv_port":0,"stv_name":"","players":[{"user_id":2,"name":"judesro","steam_id":76561198352244888,"connected_time":547000000000,"state":"active","ping":35},{"user_id":19,"name":"CTHUWU","steam_id":76561198012388926,"connected_time":370000000000,"state":"active","ping":56}]},{"server_id":302,"name":"Uncletopia | Montr√©al | 3 | One Thousand Uncles","name_short":"mtl-3","host":"mtl-1.ca.uncletopia.com","port":27035,"enabled":true,"region":"us-east","cc":"ca","latitude":45.50889,"longitude":-73.56167,"reserved":0,"last_update":"0001-01-01T00:00:00Z","name_a2s":"Uncletopia | Montr√©al | 3 | One Thousand Uncles","protocol":17,"map":"pl_upward","folder":"tf","game":"Team Fortress","app_id":440,"player_count":27,"max_players":32,"Bots":16,"server_type":"Dedicated","server_os":"Linux","password":true,"vac":true,"version":"7961495","steam_id":85568392924500089,"keywords":["alltalk","bots","danepve","increased_maxplayers","norespawntime","payload","uncletopia"],"game_id":440,"stv_port":0,"stv_name":"","players":[{"user_id":26,"name":"bakkhertz","steam_id":76561198046745579,"connected_time":2795000000000,"state":"active","ping":77},{"user_id":41,"name":"bloodinked","steam_id":76561198206769645,"connected_time":75000000000,"state":"active","ping":115},{"user_id":25,"name":"Cyan","steam_id":76561198430871842,"connected_time":3931000000000,"state":"active","ping":49},{"user_id":28,"name":"G1busMann","steam_id":76561199231410186,"connected_time":1955000000000,"state":"active","ping":317},{"user_id":22,"name":"Duckman","steam_id":76561198256238125,"connected_time":3997000000000,"state":"active","ping":157},{"user_id":36,"name":"\u003c blank \u003e","steam_id":76561199383789041,"connected_time":505000000000,"state":"active","ping":166},{"user_id":37,"name":"Nari","steam_id":76561199220038535,"connected_time":438000000000,"state":"active","ping":68},{"user_id":31,"name":"3thernet jak","steam_id":76561198327395213,"connected_time":1742000000000,"state":"active","ping":86},{"user_id":34,"name":"Fucking Maui","steam_id":76561199254527341,"connected_time":1484000000000,"state":"active","ping":125},{"user_id":40,"name":"Dawoud621","steam_id":76561198125279021,"connected_time":335000000000,"state":"active","ping":62}]},{"server_id":13,"name":"Uncletopia | New York City | 1 | All Maps","name_short":"nyc-1","host":"nyc-1.us.uncletopia.com","port":27015,"enabled":true,"region":"us-east","cc":"us","latitude":40.73061,"longitude":-73.93524,"reserved":0,"last_update":"0001-01-01T00:00:00Z","name_a2s":"Uncletopia | New York City | 1 | All Maps","protocol":17,"map":"pl_snowycoast","folder":"tf","game":"Team Fortress","app_id":440,"player_count":24,"max_players":24,"Bots":0,"server_type":"Dedicated","server_os":"Linux","password":true,"vac":true,"version":"7961495","steam_id":85568392924469993,"keywords":["nocrits","nodmgspread","payload","uncletopia"],"game_id":440,"stv_port":27016,"stv_name":"Uncletopia | New York City | 1 | All Maps | STV","players":[{"user_id":130,"name":"shaderoses","steam_id":76561198070800500,"connected_time":5723000000000,"state":"active","ping":58},{"user_id":203,"name":"guy","steam_id":76561198079925551,"connected_time":474000000000,"state":"active","ping":49},{"user_id":207,"name":"Mipsiek","steam_id":76561198164013471,"connected_time":422000000000,"state":"active","ping":37},{"user_id":71,"name":"gaming elliptical","steam_id":76561198013456569,"connected_time":11599000000000,"state":"active","ping":69},{"user_id":205,"name":"you forgot the sauce","steam_id":76561198387016713,"connected_time":458000000000,"state":"active","ping":45},{"user_id":179,"name":"Sunshine","steam_id":76561198885528098,"connected_time":2420000000000,"state":"active","ping":60},{"user_id":81,"name":"Remzy","steam_id":76561199239412094,"connected_time":10770000000000,"state":"active","ping":123},{"user_id":105,"name":"LumberjackElf","steam_id":76561198009681391,"connected_time":7841000000000,"state":"active","ping":58},{"user_id":178,"name":"Gotta Move That Gear Up","steam_id":76561197993467034,"connected_time":2483000000000,"state":"active","ping":75},{"user_id":208,"name":"Sire Salty","steam_id":76561198079639072,"connected_time":167000000000,"state":"active","ping":54},{"user_id":193,"name":"pea ttv/peabeanz","steam_id":76561198119551968,"connected_time":1487000000000,"state":"active","ping":50},{"user_id":202,"name":"Dareu","steam_id":76561198081781710,"connected_time":502000000000,"state":"active","ping":47},{"user_id":190,"name":"fffffffffffffffffffffffffffreyj","steam_id":76561198249206656,"connected_time":2080000000000,"state":"active","ping":68},{"user_id":139,"name":"‚ô• Tomboy ‚ô•","steam_id":76561198069881436,"connected_time":5235000000000,"state":"active","ping":81},{"user_id":199,"name":"cloaker","steam_id":76561199453618642,"connected_time":1357000000000,"state":"active","ping":60},{"user_id":201,"name":"giant_dork","steam_id":76561199105606956,"connected_time":1043000000000,"state":"active","ping":53},{"user_id":59,"name":"erm...","steam_id":76561198043684960,"connected_time":13085000000000,"state":"active","ping":88},{"user_id":167,"name":"corntent","steam_id":76561198824847948,"connected_time":3069000000000,"state":"active","ping":46},{"user_id":180,"name":"sleepyhead","steam_id":76561198070859040,"connected_time":2371000000000,"state":"active","ping":118},{"user_id":195,"name":"mostly ham","steam_id":76561199479937232,"connected_time":1385000000000,"state":"active","ping":58},{"user_id":200,"name":"AprilB0rnSt0rm","steam_id":76561199135214335,"connected_time":1313000000000,"state":"active","ping":71},{"user_id":181,"name":"lynt","steam_id":76561198988333976,"connected_time":2359000000000,"state":"active","ping":57},{"user_id":192,"name":"Baron von Whoopsie","steam_id":76561197996691013,"connected_time":1662000000000,"state":"active","ping":56},{"user_id":204,"name":"Iz good","steam_id":76561198040202732,"connected_time":474000000000,"state":"active","ping":81}]},{"server_id":14,"name":"Uncletopia | New York City | 2 | All Maps","name_short":"nyc-2","host":"nyc-1.us.uncletopia.com","port":27025,"enabled":true,"region":"us-east","cc":"us","latitude":40.73061,"longitude":-73.93524,"reserved":0,"last_update":"0001-01-01T00:00:00Z","name_a2s":"Uncletopia | New York City | 2 | All Maps","protocol":17,"map":"cp_granary","folder":"tf","game":"Team Fortress","app_id":440,"player_count":1,"max_players":24,"Bots":0,"server_type":"Dedicated","server_os":"Linux","password":true,"vac":true,"version":"7961495","steam_id":85568392924469994,"keywords":["cp","nocrits","nodmgspread","uncletopia"],"game_id":440,"stv_port":27026,"stv_name":"Uncletopia | New York City | 2 | All Maps | STV","players":[{"user_id":12,"name":"thefanchick","steam_id":76561199092414034,"connected_time":727000000000,"state":"active","ping":45}]},{"server_id":15,"name":"Uncletopia | New York City | 3 | Stopwatch","name_short":"nyc-3","host":"nyc-1.us.uncletopia.com","port":27035,"enabled":true,"region":"us-east","cc":"us","latitude":40.73061,"longitude":-73.93524,"reserved":0,"last_update":"0001-01-01T00:00:00Z","name_a2s":"Uncletopia | New York City | 3 | Stopwatch","protocol":17,"map":"cp_gullywash_final1","folder":"tf","game":"Team Fortress","app_id":440,"player_count":0,"max_players":24,"Bots":0,"server_type":"Dedicated","server_os":"Linux","password":true,"vac":true,"version":"7961495","steam_id":85568392924742820,"keywords":["cp","nocrits","nodmgspread","uncletopia"],"game_id":440,"stv_port":27036,"stv_name":"Uncletopia | New York City | 3 | Stopwatch | STV","players":null},{"server_id":16,"name":"Uncletopia | New York City | 4 | Community","name_short":"nyc-4","host":"nyc-1.us.uncletopia.com","port":27045,"enabled":true,"region":"us-east","cc":"us","latitude":40.73061,"longitude":-73.93524,"reserved":0,"last_update":"0001-01-01T00:00:00Z","name_a2s":"Uncletopia | New York City | 4 | Community","protocol":17,"map":"workshop/cp_indulge.ugc528106646","folder":"tf","game":"Team Fortress","app_id":440,"player_count":0,"max_players":24,"Bots":0,"server_type":"Dedicated","server_os":"Linux","password":true,"vac":true,"version":"7961495","steam_id":85568392924742821,"keywords":["cp","nocrits","nodmgspread","uncletopia"],"game_id":440,"stv_port":27046,"stv_name":"Uncletopia | New York City | 4 | Community | STV","players":null},{"server_id":142,"name":"Uncletopia | S√£o Paulo | 1 | All Maps","name_short":"sao-1","host":"sao-1.br.uncletopia.com","port":27015,"enabled":true,"region":"sa","cc":"br","latitude":-23.533773,"longitude":-46.62529,"reserved":0,"last_update":"0001-01-01T00:00:00Z","name_a2s":"Uncletopia | S√£o Paulo | 1 | All Maps","protocol":17,"map":"cp_granary","folder":"tf","game":"Team Fortress","app_id":440,"player_count":0,"max_players":24,"Bots":0,"server_type":"Dedicated","server_os":"Linux","password":true,"vac":true,"version":"7961495","steam_id":85568392924469996,"keywords":["cp","nocrits","nodmgspread","uncletopia"],"game_id":440,"stv_port":27016,"stv_name":"Uncletopia | S√£o Paulo | 1 | All Maps | STV","players":null},{"server_id":143,"name":"Uncletopia | S√£o Paulo | 2 | Community","name_short":"sao-2","host":"sao-2.br.uncletopia.com","port":27015,"enabled":true,"region":"sa","cc":"br","latitude":-23.533773,"longitude":-46.62529,"reserved":0,"last_update":"0001-01-01T00:00:00Z","name_a2s":"Uncletopia | S√£o Paulo | 2 | Community","protocol":17,"map":"workshop/cp_croissant_final.ugc458840209","folder":"tf","game":"Team Fortress","app_id":440,"player_count":0,"max_players":24,"Bots":0,"server_type":"Dedicated","server_os":"Linux","password":true,"vac":true,"version":"7961495","steam_id":85568392924485349,"keywords":["cp","nocrits","nodmgspread","uncletopia"],"game_id":440,"stv_port":27016,"stv_name":"Uncletopia | S√£o Paulo | 2 | Community | STV","players":null},{"server_id":7,"name":"Uncletopia | Seattle | 1 | All Maps","name_short":"sea-1","host":"sea-1.us.uncletopia.com","port":27015,"enabled":true,"region":"us-west","cc":"us","latitude":47.608013,"longitude":-122.33517,"reserved":0,"last_update":"0001-01-01T00:00:00Z","name_a2s":"Uncletopia | Seattle | 1 | All Maps","protocol":17,"map":"cp_sunshine","folder":"tf","game":"Team Fortress","app_id":440,"player_count":23,"max_players":24,"Bots":0,"server_type":"Dedicated","server_os":"Linux","password":true,"vac":true,"version":"7961495","steam_id":85568392924469997,"keywords":["cp","nocrits","nodmgspread","uncletopia"],"game_id":440,"stv_port":27016,"stv_name":"Uncletopia | Seattle | 1 | All Maps | STV","players":[{"user_id":8,"name":"GoofyGrimace","steam_id":76561198330423246,"connected_time":3626000000000,"state":"active","ping":104},{"user_id":37,"name":"BNHynes","steam_id":76561199037101915,"connected_time":830000000000,"state":"active","ping":45},{"user_id":9,"name":"TeaLeaft","steam_id":76561198337834107,"connected_time":3285000000000,"state":"active","ping":45},{"user_id":50,"name":"MaDeuce","steam_id":76561198110732835,"connected_time":216000000000,"state":"active","ping":60},{"user_id":46,"name":"abc123","steam_id":76561199177831971,"connected_time":493000000000,"state":"active","ping":109},{"user_id":11,"name":"goos  e","steam_id":76561198036774894,"connected_time":2461000000000,"state":"active","ping":56},{"user_id":13,"name":"redarcher42","steam_id":76561199027887687,"connected_time":2302000000000,"state":"active","ping":72},{"user_id":14,"name":"SibilantSerpent","steam_id":76561198154488754,"connected_time":2241000000000,"state":"active","ping":45},{"user_id":15,"name":"Laurbler","steam_id":76561198132094572,"connected_time":1997000000000,"state":"active","ping":75},{"user_id":16,"name":"Zetta","steam_id":76561198045710113,"connected_time":1996000000000,"state":"active","ping":86},{"user_id":35,"name":"RexCreeper456","steam_id":76561199319578396,"connected_time":1053000000000,"state":"active","ping":101},{"user_id":19,"name":"Little Linguine","steam_id":76561198816986370,"connected_time":1833000000000,"state":"active","ping":44},{"user_id":20,"name":"Username","steam_id":76561198198918781,"connected_time":1809000000000,"state":"active","ping":83},{"user_id":21,"name":"·¥ø·¥∫·¥≥ G Ä…™·¥ç·¥†…™ ô·¥ás","steam_id":76561198065621941,"connected_time":1794000000000,"state":"active","ping":45},{"user_id":51,"name":"boo_thefeared","steam_id":76561198127967685,"connected_time":141000000000,"state":"active","ping":189},{"user_id":23,"name":"brg","steam_id":76561197998415548,"connected_time":1695000000000,"state":"active","ping":95},{"user_id":24,"name":"Oktayey","steam_id":76561198143213426,"connected_time":1597000000000,"state":"active","ping":61},{"user_id":47,"name":"Perfume Department","steam_id":76561198128299594,"connected_time":431000000000,"state":"active","ping":80},{"user_id":26,"name":"G. Howard Dee","steam_id":76561198058382812,"connected_time":1528000000000,"state":"active","ping":76},{"user_id":52,"name":"‚ù§To Lazy‚ù§","steam_id":76561198164211904,"connected_time":3000000000,"state":"spawning","ping":72},{"user_id":44,"name":"dog","steam_id":76561198263873491,"connected_time":606000000000,"state":"active","ping":91},{"user_id":45,"name":"artemisjackson2","steam_id":76561199094686268,"connected_time":581000000000,"state":"active","ping":103},{"user_id":49,"name":"Slurpolini","steam_id":76561198011941931,"connected_time":287000000000,"state":"active","ping":79}]},{"server_id":119,"name":"Uncletopia | Seattle | 2 | All Maps","name_short":"sea-2","host":"sea-1.us.uncletopia.com","port":27025,"enabled":true,"region":"us-west","cc":"us","latitude":47.608013,"longitude":-122.33517,"reserved":0,"last_update":"0001-01-01T00:00:00Z","name_a2s":"Uncletopia | Seattle | 2 | All Maps","protocol":17,"map":"koth_lakeside_final","folder":"tf","game":"Team Fortress","app_id":440,"player_count":0,"max_players":24,"Bots":0,"server_type":"Dedicated","server_os":"Linux","password":true,"vac":true,"version":"7961495","steam_id":85568392924469998,"keywords":["cp","nocrits","nodmgspread","uncletopia"],"game_id":440,"stv_port":27026,"stv_name":"Uncletopia | Seattle | 2 | All Maps | STV","players":null},{"server_id":406,"name":"Uncletopia | Seattle | 3 | Stopwatch","name_short":"sea-3","host":"sea-1.us.uncletopia.com","port":27035,"enabled":true,"region":"us-west","cc":"us","latitude":47.608013,"longitude":-122.33517,"reserved":0,"last_update":"0001-01-01T00:00:00Z","name_a2s":"Uncletopia | Seattle | 3 | Stopwatch","protocol":17,"map":"cp_gullywash_final1","folder":"tf","game":"Team Fortress","app_id":440,"player_count":0,"max_players":24,"Bots":0,"server_type":"Dedicated","server_os":"Linux","password":true,"vac":true,"version":"7961495","steam_id":85568392924515217,"keywords":["cp","nocrits","nodmgspread","uncletopia"],"game_id":440,"stv_port":27036,"stv_name":"Uncletopia | Seattle | 3 | Stopwatch | STV","players":null},{"server_id":17,"name":"Uncletopia | San Francisco | 1 | All Maps","name_short":"sfo-1","host":"sfo-1.us.uncletopia.com","port":27015,"enabled":true,"region":"us-west","cc":"us","latitude":37.77397,"longitude":-122.4313,"reserved":0,"last_update":"0001-01-01T00:00:00Z","name_a2s":"Uncletopia | San Francisco | 1 | All Maps","protocol":17,"map":"koth_highpass","folder":"tf","game":"Team Fortress","app_id":440,"player_count":0,"max_players":24,"Bots":0,"server_type":"Dedicated","server_os":"Linux","password":true,"vac":true,"version":"7961495","steam_id":85568392924469999,"keywords":["cp","nocrits","nodmgspread","uncletopia"],"game_id":440,"stv_port":27016,"stv_name":"Uncletopia | San Francisco | 1 | All Maps | STV","players":null},{"server_id":18,"name":"Uncletopia | San Francisco | 2 | All Maps","name_short":"sfo-2","host":"sfo-1.us.uncletopia.com","port":27025,"enabled":true,"region":"us-west","cc":"us","latitude":37.77397,"longitude":-122.4313,"reserved":0,"last_update":"0001-01-01T00:00:00Z","name_a2s":"Uncletopia | San Francisco | 2 | All Maps","protocol":17,"map":"pl_badwater","folder":"tf","game":"Team Fortress","app_id":440,"player_count":0,"max_players":24,"Bots":0,"server_type":"Dedicated","server_os":"Linux","password":true,"vac":true,"version":"7961495","steam_id":85568392924470000,"keywords":["nocrits","nodmgspread","payload","uncletopia"],"game_id":440,"stv_port":27026,"stv_name":"Uncletopia | San Francisco | 2 | All Maps | STV","players":null},{"server_id":19,"name":"Uncletopia | San Francisco | 3 | Stopwatch","name_short":"sfo-3","host":"sfo-1.us.uncletopia.com","port":27035,"enabled":true,"region":"us-west","cc":"us","latitude":37.77397,"longitude":-122.4313,"reserved":0,"last_update":"0001-01-01T00:00:00Z","name_a2s":"Uncletopia | San Francisco | 3 | Stopwatch","protocol":17,"map":"workshop/koth_product_final.ugc454272353","folder":"tf","game":"Team Fortress","app_id":440,"player_count":0,"max_players":24,"Bots":0,"server_type":"Dedicated","server_os":"Linux","password":true,"vac":true,"version":"7961495","steam_id":85568392924742824,"keywords":["cp","nocrits","nodmgspread","uncletopia"],"game_id":440,"stv_port":27036,"stv_name":"Uncletopia | San Francisco | 3 | Stopwatch | STV","players":null},{"server_id":20,"name":"Uncletopia | San Francisco | 4 | Community","name_short":"sfo-4","host":"sfo-1.us.uncletopia.com","port":27045,"enabled":true,"region":"us-west","cc":"us","latitude":37.77397,"longitude":-122.4313,"reserved":0,"last_update":"0001-01-01T00:00:00Z","name_a2s":"Uncletopia | San Francisco | 4 | Community","protocol":17,"map":"workshop/cp_mannbase_rc2a.ugc1900737467","folder":"tf","game":"Team Fortress","app_id":440,"player_count":0,"max_players":24,"Bots":0,"server_type":"Dedicated","server_os":"Linux","password":true,"vac":true,"version":"7961495","steam_id":85568392924742826,"keywords":["cp","nocrits","nodmgspread","uncletopia"],"game_id":440,"stv_port":27046,"stv_name":"Uncletopia | San Francisco | 4 | Community | STV","players":null},{"server_id":141,"name":"Uncletopia | Sydney | 1 | All Maps","name_short":"syd-1","host":"syd-1.au.uncletopia.com","port":27015,"enabled":true,"region":"au","cc":"au","latitude":-33.865143,"longitude":151.2099,"reserved":0,"last_update":"0001-01-01T00:00:00Z","name_a2s":"Uncletopia | Sydney | 1 | All Maps","protocol":17,"map":"koth_cascade","folder":"tf","game":"Team Fortress","app_id":440,"player_count":0,"max_players":24,"Bots":0,"server_type":"Dedicated","server_os":"Linux","password":true,"vac":true,"version":"7961495","steam_id":85568392924470001,"keywords":["cp","nocrits","nodmgspread","uncletopia"],"game_id":440,"stv_port":27016,"stv_name":"Uncletopia | Sydney | 1 | All Maps | STV","players":null},{"server_id":123,"name":"Uncletopia | Sydney | 2 | All Maps","name_short":"syd-2","host":"syd-1.au.uncletopia.com","port":27025,"enabled":true,"region":"au","cc":"au","latitude":-33.865143,"longitude":151.2099,"reserved":0,"last_update":"0001-01-01T00:00:00Z","name_a2s":"Uncletopia | Sydney | 2 | All Maps","protocol":17,"map":"pl_badwater","folder":"tf","game":"Team Fortress","app_id":440,"player_count":3,"max_players":24,"Bots":0,"server_type":"Dedicated","server_os":"Linux","password":true,"vac":true,"version":"7961495","steam_id":85568392924470002,"keywords":["nocrits","nodmgspread","payload","uncletopia"],"game_id":440,"stv_port":27026,"stv_name":"Uncletopia | Sydney | 2 | All Maps | STV","players":[{"user_id":268,"name":"Biggus dickus","steam_id":76561199025730132,"connected_time":3172000000000,"state":"active","ping":99},{"user_id":269,"name":"Chuckle Nuts","steam_id":76561199245376828,"connected_time":3155000000000,"state":"active","ping":78},{"user_id":271,"name":"maryisaac","steam_id":76561199430188202,"connected_time":520000000000,"state":"active","ping":308}]},{"server_id":395,"name":"Uncletopia | Sydney | 3 | All Maps","name_short":"syd-3","host":"syd-1.au.uncletopia.com","port":27035,"enabled":true,"region":"au","cc":"au","latitude":-33.865143,"longitude":151.2099,"reserved":0,"last_update":"0001-01-01T00:00:00Z","name_a2s":"Uncletopia | Sydney | 3 | All Maps","protocol":17,"map":"koth_highpass","folder":"tf","game":"Team Fortress","app_id":440,"player_count":0,"max_players":24,"Bots":0,"server_type":"Dedicated","server_os":"Linux","password":true,"vac":true,"version":"7961495","steam_id":85568392925194467,"keywords":["cp","nocrits","nodmgspread","uncletopia"],"game_id":440,"stv_port":27036,"stv_name":"Uncletopia | Sydney | 3 | All Maps | STV","players":null},{"server_id":396,"name":"Uncletopia | Sydney | 4 | All Maps","name_short":"syd-4","host":"syd-1.au.uncletopia.com","port":27045,"enabled":true,"region":"au","cc":"au","latitude":-33.865143,"longitude":151.2099,"reserved":0,"last_update":"0001-01-01T00:00:00Z","name_a2s":"Uncletopia | Sydney | 4 | All Maps","protocol":17,"map":"pl_badwater","folder":"tf","game":"Team Fortress","app_id":440,"player_count":0,"max_players":24,"Bots":0,"server_type":"Dedicated","server_os":"Linux","password":true,"vac":true,"version":"7961495","steam_id":85568392925397958,"keywords":["nocrits","nodmgspread","payload","uncletopia"],"game_id":440,"stv_port":27046,"stv_name":"Uncletopia | Sydney | 4 | All Maps | STV","players":null},{"server_id":58,"name":"Uncletopia | Sydney | 5 | Stopwatch","name_short":"syd-5","host":"syd-1.au.uncletopia.com","port":27055,"enabled":true,"region":"au","cc":"au","latitude":-33.865143,"longitude":151.2099,"reserved":0,"last_update":"0001-01-01T00:00:00Z","name_a2s":"Uncletopia | Sydney | 5 | Stopwatch","protocol":17,"map":"workshop/koth_ashville_final.ugc2130459942","folder":"tf","game":"Team Fortress","app_id":440,"player_count":0,"max_players":24,"Bots":0,"server_type":"Dedicated","server_os":"Linux","password":true,"vac":true,"version":"7961495","steam_id":85568392925397959,"keywords":["cp","nocrits","nodmgspread","uncletopia"],"game_id":440,"stv_port":27056,"stv_name":"Uncletopia | Sydney | 5 | Stopwatch | STV","players":null},{"server_id":59,"name":"Uncletopia | Sydney | 6 | Community","name_short":"syd-6","host":"syd-1.au.uncletopia.com","port":27065,"enabled":true,"region":"au","cc":"au","latitude":-33.865143,"longitude":151.2099,"reserved":0,"last_update":"0001-01-01T00:00:00Z","name_a2s":"Uncletopia | Sydney | 6 | Community","protocol":17,"map":"workshop/koth_product_final.ugc454272353","folder":"tf","game":"Team Fortress","app_id":440,"player_count":0,"max_players":24,"Bots":0,"server_type":"Dedicated","server_os":"Linux","password":true,"vac":true,"version":"7961495","steam_id":85568392925397960,"keywords":["cp","nocrits","nodmgspread","uncletopia"],"game_id":440,"stv_port":27066,"stv_name":"Uncletopia | Sydney | 6 | Community | STV","players":null},{"server_id":49,"name":"Uncletopia | Warsaw | 1 | One Thousand Uncles","name_short":"waw-1","host":"waw-1.pl.uncletopia.com","port":27015,"enabled":true,"region":"eu","cc":"pl","latitude":52.2297,"longitude":21.017532,"reserved":0,"last_update":"0001-01-01T00:00:00Z","name_a2s":"Uncletopia | Warsaw | 1 | One Thousand Uncles","protocol":17,"map":"pl_upward","folder":"tf","game":"Team Fortress","app_id":440,"player_count":29,"max_players":32,"Bots":16,"server_type":"Dedicated","server_os":"Linux","password":true,"vac":true,"version":"7961495","steam_id":85568392925397850,"keywords":["alltalk","bots","danepve","increased_maxplayers","norespawntime","payload","uncletopia"],"game_id":440,"stv_port":0,"stv_name":"","players":[{"user_id":544,"name":"JayMaloney","steam_id":76561198050173547,"connected_time":1186000000000,"state":"active","ping":74},{"user_id":545,"name":"Hotheadmonty","steam_id":76561198065884050,"connected_time":1095000000000,"state":"active","ping":75},{"user_id":558,"name":"SonOfDiscordiA","steam_id":76561198143261671,"connected_time":41000000000,"state":"active","ping":103},{"user_id":506,"name":"me","steam_id":76561198055512527,"connected_time":3758000000000,"state":"active","ping":74},{"user_id":519,"name":"CryptoSV","steam_id":76561197995784509,"connected_time":2341000000000,"state":"active","ping":72},{"user_id":509,"name":"other players , my one weakness","steam_id":76561199114792310,"connected_time":3188000000000,"state":"active","ping":53},{"user_id":521,"name":"Grenouillator","steam_id":76561197991694500,"connected_time":2139000000000,"state":"active","ping":84},{"user_id":497,"name":"SansaKissa326","steam_id":76561199189803939,"connected_time":5282000000000,"state":"active","ping":85},{"user_id":522,"name":"Supermanhandsy","steam_id":76561198396336470,"connected_time":1883000000000,"state":"active","ping":196},{"user_id":554,"name":"Jared","steam_id":76561198020432651,"connected_time":555000000000,"state":"active","ping":147},{"user_id":549,"name":"Zodaick","steam_id":76561198083662129,"connected_time":911000000000,"state":"active","ping":70},{"user_id":499,"name":"turknaskooyun","steam_id":76561199222306117,"connected_time":5127000000000,"state":"active","ping":116},{"user_id":551,"name":"LUKE [PL]","steam_id":76561198307059549,"connected_time":795000000000,"state":"active","ping":61}]},{"server_id":50,"name":"Uncletopia | Warsaw | 2 | One Thousand Uncles","name_short":"waw-2","host":"waw-1.pl.uncletopia.com","port":27025,"enabled":true,"region":"eu","cc":"pl","latitude":52.2297,"longitude":21.017532,"reserved":0,"last_update":"0001-01-01T00:00:00Z","name_a2s":"Uncletopia | Warsaw | 2 | One Thousand Uncles","protocol":17,"map":"pl_snowycoast","folder":"tf","game":"Team Fortress","app_id":440,"player_count":19,"max_players":32,"Bots":16,"server_type":"Dedicated","server_os":"Linux","password":true,"vac":true,"version":"7961495","steam_id":85568392925397851,"keywords":["alltalk","bots","danepve","increased_maxplayers","norespawntime","payload","uncletopia"],"game_id":440,"stv_port":0,"stv_name":"","players":[{"user_id":181,"name":"Honaaa","steam_id":76561198963798694,"connected_time":2421000000000,"state":"active","ping":57},{"user_id":198,"name":"ÓÑ¶The BaphometÓÑ§","steam_id":76561198051424707,"connected_time":2197000000000,"state":"active","ping":190},{"user_id":205,"name":"ZharMeny","steam_id":76561199086841610,"connected_time":396000000000,"state":"active","ping":103}]},{"server_id":51,"name":"Uncletopia | Warsaw | 3 | All Maps","name_short":"waw-3","host":"waw-1.pl.uncletopia.com","port":27035,"enabled":true,"region":"eu","cc":"pl","latitude":52.2297,"longitude":21.017532,"reserved":0,"last_update":"0001-01-01T00:00:00Z","name_a2s":"Uncletopia | Warsaw | 3 | All Maps","protocol":17,"map":"pl_barnblitz","folder":"tf","game":"Team Fortress","app_id":440,"player_count":0,"max_players":24,"Bots":0,"server_type":"Dedicated","server_os":"Linux","password":true,"vac":true,"version":"7961495","steam_id":85568392925397852,"keywords":["nocrits","nodmgspread","payload","uncletopia"],"game_id":440,"stv_port":27036,"stv_name":"Uncletopia | Warsaw | 3 | All Maps | STV","players":null},{"server_id":52,"name":"Uncletopia | Warsaw | 4 | All Maps","name_short":"waw-4","host":"waw-1.pl.uncletopia.com","port":27045,"enabled":true,"region":"eu","cc":"pl","latitude":52.2297,"longitude":21.017532,"reserved":0,"last_update":"0001-01-01T00:00:00Z","name_a2s":"Uncletopia | Warsaw | 4 | All Maps","protocol":17,"map":"pl_borneo","folder":"tf","game":"Team Fortress","app_id":440,"player_count":0,"max_players":24,"Bots":0,"server_type":"Dedicated","server_os":"Linux","password":true,"vac":true,"version":"7961495","steam_id":85568392925397853,"keywords":["nocrits","nodmgspread","payload","uncletopia"],"game_id":440,"stv_port":27046,"stv_name":"Uncletopia | Warsaw | 4 | All Maps | STV","players":null},{"server_id":53,"name":"Uncletopia | Warsaw | 5 | Stopwatch","name_short":"waw-5","host":"waw-1.pl.uncletopia.com","port":27055,"enabled":true,"region":"eu","cc":"pl","latitude":52.2297,"longitude":21.017532,"reserved":0,"last_update":"0001-01-01T00:00:00Z","name_a2s":"Uncletopia | Warsaw | 5 | Stopwatch","protocol":17,"map":"workshop/koth_bagel_rc6.ugc2514036946","folder":"tf","game":"Team Fortress","app_id":440,"player_count":0,"max_players":24,"Bots":0,"server_type":"Dedicated","server_os":"Linux","password":true,"vac":true,"version":"7961495","steam_id":85568392925397854,"keywords":["cp","nocrits","nodmgspread","uncletopia"],"game_id":440,"stv_port":27056,"stv_name":"Uncletopia | Warsaw | 5 | Stopwatch | STV","players":null},{"server_id":54,"name":"Uncletopia | Warsaw | 6 | Community","name_short":"waw-6","host":"waw-1.pl.uncletopia.com","port":27065,"enabled":true,"region":"eu","cc":"pl","latitude":52.2297,"longitude":21.017532,"reserved":0,"last_update":"0001-01-01T00:00:00Z","name_a2s":"Uncletopia | Warsaw | 6 | Community","protocol":17,"map":"workshop/koth_slaughter_rc1.ugc1712845210","folder":"tf","game":"Team Fortress","app_id":440,"player_count":0,"max_players":24,"Bots":0,"server_type":"Dedicated","server_os":"Linux","password":true,"vac":true,"version":"7961495","steam_id":85568392925397856,"keywords":["cp","nocrits","nodmgspread","uncletopia"],"game_id":440,"stv_port":27066,"stv_name":"Uncletopia | Warsaw | 6 | Community | STV","players":null}]}