{"status":true,"message":"","result":[{"server_id":9,"name":"Uncletopia | Atlanta | 1 | All Maps","name_short":"atl-1","host":"atl-1.us.uncletopia.com","port":27015,"enabled":true,"region":"us-east","cc":"us","latitude":33.753746,"longitude":-84.38633,"reserved":0,"last_update":"0001-01-01T00:00:00Z","name_a2s":"Uncletopia | Atlanta | 1 | All Maps","protocol":17,"map":"cp_altitude","folder":"tf","game":"Team Fortress","app_id":440,"player_count":1,"max_players":24,"Bots":0,"server_type":"Dedicated","server_os":"Linux","password":true,"vac":true,"version":"7757534","steam_id":85568392924469982,"keywords":["cp","nocrits","nodmgspread","uncletopia"],"game_id":440,"stv_port":27016,"stv_name":"Uncletopia | Atlanta | 1 | All Maps | STV","players":[{"user_id":754,"name":"VOGPogs69","steam_id":76561198375101195,"connected_time":12000000000,"state":"active","ping":81}]},{"server_id":400,"name":"Uncletopia | Atlanta | 3 | Community","name_short":"atl-3","host":"atl-1.us.uncletopia.com","port":27035,"enabled":true,"region":"us-east","cc":"us","latitude":33.753746,"longitude":-84.38633,"reserved":0,"last_update":"0001-01-01T00:00:00Z","name_a2s":"Uncletopia | Atlanta | 3 | Community","protocol":17,"map":"workshop/koth_bagel_rc6.ugc2514036946","folder":"tf","game":"Team Fortress","app_id":440,"player_count":2,"max_players":24,"Bots":0,"server_type":"Dedicated","server_os":"Linux","password":true,"vac":true,"version":"7757534","steam_id":85568392924515187,"keywords":["cp","nocrits","nodmgspread","uncletopia"],"game_id":440,"stv_port":27036,"stv_name":"Uncletopia | Atlanta | 3 | Community | STV","players":[{"user_id":189,"name":"chrischrischris3018@yahoo.com","steam_id":76561198137316053,"connected_time":2461000000000,"state":"active","ping":49},{"user_id":190,"name":"Jaymowe","steam_id":76561198353959514,"connected_time":2450000000000,"state":"active","ping":95}]},{"server_id":401,"name":"Uncletopia | Atlanta | 4 | No Payload","name_short":"atl-4","host":"atl-1.us.uncletopia.com","port":27045,"enabled":true,"region":"us-east","cc":"us","latitude":33.753746,"longitude":-84.38633,"reserved":0,"last_update":"0001-01-01T00:00:00Z","name_a2s":"","protocol":0,"map":"","folder":"","game":"","app_id":0,"player_count":0,"max_players":0,"Bots":0,"server_type":"","server_os":"","password":false,"vac":false,"version":"","steam_id":0,"keywords":null,"game_id":0,"stv_port":0,"stv_name":"","players":null},{"server_id":2,"name":"Uncletopia | Chicago | 1 | All Maps","name_short":"chi-1","host":"chi-1.us.uncletopia.com","port":27015,"enabled":true,"region":"us-central","cc":"us","latitude":41.881832,"longitude":-87.62318,"reserved":0,"last_update":"0001-01-01T00:00:00Z","name_a2s":"Uncletopia | Chicago | 1 | All Maps","protocol":17,"map":"pl_badwater","folder":"tf","game":"Team Fortress","app_id":440,"player_count":24,"max_players":24,"Bots":0,"server_type":"Dedicated","server_os":"Linux","password":true,"vac":true,"version":"7757534","steam_id":85568392924469984,"keywords":["nocrits","nodmgspread","payload","uncletopia"],"game_id":440,"stv_port":27016,"stv_name":"Uncletopia | Chicago | 1 | All Maps | STV","players":[{"user_id":611,"name":"Omega-Kiba","steam_id":76561198154594523,"connected_time":240000000000,"state":"active","ping":112},{"user_id":610,"name":"Who are the Gnomes?","steam_id":76561198251672386,"connected_time":262000000000,"state":"active","ping":47},{"user_id":604,"name":"Salt Shaman","steam_id":76561198015374828,"connected_time":514000000000,"state":"active","ping":76},{"user_id":573,"name":"Ye ( I Love Caulk ) West","steam_id":76561198068830312,"connected_time":2329000000000,"state":"active","ping":48},{"user_id":553,"name":"addrmicro","steam_id":76561198087101734,"connected_time":3495000000000,"state":"active","ping":82},{"user_id":600,"name":"Florist","steam_id":76561198009121060,"connected_time":684000000000,"state":"active","ping":90},{"user_id":587,"name":"NobodyMonkey","steam_id":76561198318360972,"connected_time":938000000000,"state":"active","ping":111},{"user_id":605,"name":"brodie","steam_id":76561198081303855,"connected_time":503000000000,"state":"active","ping":75},{"user_id":567,"name":"Dispenser (Twan)","steam_id":76561197991064908,"connected_time":3004000000000,"state":"active","ping":65},{"user_id":589,"name":"TimTam Tom","steam_id":76561198045988062,"connected_time":876000000000,"state":"active","ping":75},{"user_id":590,"name":"Scum!","steam_id":76561198051805219,"connected_time":874000000000,"state":"active","ping":59},{"user_id":591,"name":"DrankDuck","steam_id":76561198063146716,"connected_time":872000000000,"state":"active","ping":60},{"user_id":551,"name":"Wingz","steam_id":76561198135885865,"connected_time":3526000000000,"state":"active","ping":45},{"user_id":593,"name":"Colonel Chikara","steam_id":76561198010021087,"connected_time":851000000000,"state":"active","ping":98},{"user_id":594,"name":"squid game","steam_id":76561199248960166,"connected_time":832000000000,"state":"active","ping":90},{"user_id":607,"name":"rorywashere /ᐠ - ˕ -マ Ⳋ","steam_id":76561198065825165,"connected_time":466000000000,"state":"active","ping":113},{"user_id":555,"name":"BIG HOG","steam_id":76561198079923652,"connected_time":3433000000000,"state":"active","ping":75},{"user_id":584,"name":"dead moth in your lamp","steam_id":76561198069190432,"connected_time":1152000000000,"state":"active","ping":79},{"user_id":596,"name":"pyrotechnic","steam_id":76561198043558709,"connected_time":808000000000,"state":"active","ping":90},{"user_id":597,"name":"CΛM","steam_id":76561198023380573,"connected_time":725000000000,"state":"active","ping":51},{"user_id":606,"name":"rad","steam_id":76561198413125750,"connected_time":478000000000,"state":"active","ping":68},{"user_id":572,"name":"Hamster","steam_id":76561198079599992,"connected_time":2601000000000,"state":"active","ping":30},{"user_id":601,"name":"The Announcer's Feet","steam_id":76561199443456893,"connected_time":674000000000,"state":"active","ping":78},{"user_id":609,"name":"bodi","steam_id":76561199062396598,"connected_time":326000000000,"state":"active","ping":75}]},{"server_id":106,"name":"Uncletopia | Chicago | 2 | All Maps","name_short":"chi-2","host":"chi-1.us.uncletopia.com","port":27025,"enabled":true,"region":"us-central","cc":"us","latitude":41.881832,"longitude":-87.62318,"reserved":0,"last_update":"0001-01-01T00:00:00Z","name_a2s":"Uncletopia | Chicago | 2 | All Maps","protocol":17,"map":"cp_process_final","folder":"tf","game":"Team Fortress","app_id":440,"player_count":24,"max_players":24,"Bots":0,"server_type":"Dedicated","server_os":"Linux","password":true,"vac":true,"version":"7757534","steam_id":85568392924469985,"keywords":["cp","nocrits","nodmgspread","uncletopia"],"game_id":440,"stv_port":27026,"stv_name":"Uncletopia | Chicago | 2 | All Maps | STV","players":[{"user_id":367,"name":"The Assistant Regional Manager","steam_id":76561199221484936,"connected_time":560000000000,"state":"active","ping":109},{"user_id":326,"name":"Venom","steam_id":76561198067770671,"connected_time":2996000000000,"state":"active","ping":88},{"user_id":368,"name":"Ellis","steam_id":76561198993634489,"connected_time":519000000000,"state":"active","ping":103},{"user_id":327,"name":"Jyruu","steam_id":76561198060502830,"connected_time":2982000000000,"state":"active","ping":31},{"user_id":369,"name":"miner","steam_id":76561198073035221,"connected_time":513000000000,"state":"active","ping":55},{"user_id":366,"name":"Jesus Skelly","steam_id":76561198388292957,"connected_time":582000000000,"state":"active","ping":93},{"user_id":365,"name":"JORDO","steam_id":76561198014832479,"connected_time":676000000000,"state":"active","ping":47},{"user_id":343,"name":"Swifgz","steam_id":76561198162875756,"connected_time":2031000000000,"state":"active","ping":61},{"user_id":306,"name":"Thundermonkey (SMOKE)","steam_id":76561198017631728,"connected_time":4227000000000,"state":"active","ping":63},{"user_id":371,"name":"IzzyLightRay","steam_id":76561198837693740,"connected_time":416000000000,"state":"active","ping":73},{"user_id":372,"name":"Cheetose Intolerant","steam_id":76561198013399809,"connected_time":409000000000,"state":"active","ping":86},{"user_id":373,"name":"hehe","steam_id":76561198125913580,"connected_time":391000000000,"state":"active","ping":64},{"user_id":374,"name":"moid","steam_id":76561198453203619,"connected_time":347000000000,"state":"active","ping":102},{"user_id":378,"name":"aero","steam_id":76561198297202459,"connected_time":189000000000,"state":"active","ping":59},{"user_id":348,"name":"reni","steam_id":76561199192183787,"connected_time":1914000000000,"state":"active","ping":113},{"user_id":361,"name":"Bill","steam_id":76561198079860855,"connected_time":1263000000000,"state":"active","ping":70},{"user_id":376,"name":"Taco","steam_id":76561198158621392,"connected_time":282000000000,"state":"active","ping":61},{"user_id":355,"name":"neverseemeagain","steam_id":76561198062054335,"connected_time":1606000000000,"state":"active","ping":97},{"user_id":377,"name":"iceman","steam_id":76561198135397441,"connected_time":278000000000,"state":"active","ping":83},{"user_id":380,"name":"KaGawwy","steam_id":76561198090519590,"connected_time":118000000000,"state":"active","ping":60},{"user_id":357,"name":"cotton candy thief","steam_id":76561198058998371,"connected_time":1526000000000,"state":"active","ping":60},{"user_id":335,"name":"Capt.Swag","steam_id":76561198088340994,"connected_time":2635000000000,"state":"active","ping":76},{"user_id":381,"name":"bur","steam_id":76561198004231658,"connected_time":81000000000,"state":"active","ping":57},{"user_id":364,"name":"Pretty Boy Swag","steam_id":76561198083463877,"connected_time":1097000000000,"state":"active","ping":52}]},{"server_id":402,"name":"Uncletopia | Chicago | 3 | All Maps","name_short":"chi-3","host":"chi-1.us.uncletopia.com","port":27035,"enabled":true,"region":"us-central","cc":"us","latitude":41.881832,"longitude":-87.62318,"reserved":0,"last_update":"0001-01-01T00:00:00Z","name_a2s":"Uncletopia | Chicago | 3 | All Maps","protocol":17,"map":"cp_mountainlab","folder":"tf","game":"Team Fortress","app_id":440,"player_count":24,"max_players":24,"Bots":0,"server_type":"Dedicated","server_os":"Linux","password":true,"vac":true,"version":"7757534","steam_id":85568392924515191,"keywords":["cp","nocrits","nodmgspread","uncletopia"],"game_id":440,"stv_port":27036,"stv_name":"Uncletopia | Chicago | 3 | All Maps | STV","players":[{"user_id":639,"name":"Fargo","steam_id":76561198044703931,"connected_time":649000000000,"state":"active","ping":74},{"user_id":643,"name":"Rafl","steam_id":76561198055222756,"connected_time":70000000000,"state":"active","ping":65},{"user_id":644,"name":"Regular Dog","steam_id":76561198042898614,"connected_time":38000000000,"state":"active","ping":56},{"user_id":628,"name":"Amadeus","steam_id":76561198160047173,"connected_time":1736000000000,"state":"active","ping":90},{"user_id":614,"name":"CrystalClear","steam_id":76561198344276579,"connected_time":2001000000000,"state":"active","ping":104},{"user_id":617,"name":"CongorCongus","steam_id":76561198370278728,"connected_time":1956000000000,"state":"active","ping":100},{"user_id":600,"name":"Krellah","steam_id":76561198287045069,"connected_time":2514000000000,"state":"active","ping":50},{"user_id":635,"name":"Stormz64","steam_id":76561198239036482,"connected_time":1446000000000,"state":"active","ping":59},{"user_id":619,"name":"Fox","steam_id":76561198210894876,"connected_time":1832000000000,"state":"active","ping":78},{"user_id":620,"name":"Kohbold","steam_id":76561198996480140,"connected_time":1806000000000,"state":"active","ping":103},{"user_id":645,"name":"Shrimp Fact Expert","steam_id":76561198416991359,"connected_time":32000000000,"state":"active","ping":54},{"user_id":642,"name":"stanley","steam_id":76561198351416778,"connected_time":188000000000,"state":"active","ping":94},{"user_id":629,"name":"sTAPler","steam_id":76561198394008714,"connected_time":1726000000000,"state":"active","ping":118},{"user_id":601,"name":"sonic1394","steam_id":76561198054636788,"connected_time":2507000000000,"state":"active","ping":70},{"user_id":623,"name":"golf (backspin edition)","steam_id":76561198007464245,"connected_time":1787000000000,"state":"active","ping":75},{"user_id":604,"name":"Julia","steam_id":76561198175727790,"connected_time":2390000000000,"state":"active","ping":103},{"user_id":624,"name":"4 life","steam_id":76561198175961598,"connected_time":1780000000000,"state":"active","ping":115},{"user_id":640,"name":"Poppet","steam_id":76561198012301951,"connected_time":629000000000,"state":"active","ping":57},{"user_id":630,"name":"Post","steam_id":76561199029567289,"connected_time":1695000000000,"state":"active","ping":109},{"user_id":631,"name":"Sleep Drifter","steam_id":76561198282344959,"connected_time":1662000000000,"state":"active","ping":64},{"user_id":646,"name":"|AG| Level","steam_id":76561198063633592,"connected_time":15000000000,"state":"spawning","ping":64},{"user_id":632,"name":"scooterre","steam_id":76561198055068182,"connected_time":1646000000000,"state":"active","ping":62},{"user_id":633,"name":"caramelldansen","steam_id":76561198079632514,"connected_time":1639000000000,"state":"active","ping":57},{"user_id":634,"name":"My name is DICK","steam_id":76561198276038269,"connected_time":1632000000000,"state":"active","ping":83}]},{"server_id":403,"name":"Uncletopia | Chicago | 4 | All Maps","name_short":"chi-4","host":"chi-1.us.uncletopia.com","port":27045,"enabled":true,"region":"us-central","cc":"us","latitude":41.881832,"longitude":-87.62318,"reserved":0,"last_update":"0001-01-01T00:00:00Z","name_a2s":"Uncletopia | Chicago | 4 | All Maps","protocol":17,"map":"pl_upward","folder":"tf","game":"Team Fortress","app_id":440,"player_count":24,"max_players":24,"Bots":0,"server_type":"Dedicated","server_os":"Linux","password":true,"vac":true,"version":"7757534","steam_id":85568392924515193,"keywords":["nocrits","nodmgspread","payload","uncletopia"],"game_id":440,"stv_port":27046,"stv_name":"Uncletopia | Chicago | 4 | All Maps | STV","players":[{"user_id":982,"name":"Chappy","steam_id":76561198069167687,"connected_time":7185000000000,"state":"active","ping":61},{"user_id":1035,"name":"put fentanyl back in pepsi","steam_id":76561198238592900,"connected_time":1024000000000,"state":"active","ping":85},{"user_id":1001,"name":"JollyGreenGiant 8=D (‿ꜟ‿)","steam_id":76561198070768628,"connected_time":6598000000000,"state":"active","ping":74},{"user_id":1038,"name":"I am bad at sniper trust me","steam_id":76561198295280927,"connected_time":986000000000,"state":"active","ping":70},{"user_id":1019,"name":"Dr_Spek","steam_id":76561198128667701,"connected_time":2909000000000,"state":"active","ping":59},{"user_id":984,"name":"BigDeac","steam_id":76561198091237274,"connected_time":7171000000000,"state":"active","ping":57},{"user_id":1049,"name":"barnacle boy","steam_id":76561198003219831,"connected_time":89000000000,"state":"active","ping":75},{"user_id":676,"name":"Temujin","steam_id":76561198030936583,"connected_time":27492000000000,"state":"active","ping":48},{"user_id":1022,"name":"Vapeinhand","steam_id":76561198134439943,"connected_time":2842000000000,"state":"active","ping":67},{"user_id":1040,"name":"Decot","steam_id":76561198042016967,"connected_time":973000000000,"state":"active","ping":75},{"user_id":1043,"name":"The local hobo","steam_id":76561198289650060,"connected_time":922000000000,"state":"active","ping":83},{"user_id":991,"name":"Retrace","steam_id":76561198080620966,"connected_time":6875000000000,"state":"active","ping":68},{"user_id":1048,"name":"auurr","steam_id":76561198028572994,"connected_time":303000000000,"state":"active","ping":59},{"user_id":976,"name":"captainskullet","steam_id":76561198314597170,"connected_time":7919000000000,"state":"active","ping":65},{"user_id":1006,"name":"pathways","steam_id":76561198054832333,"connected_time":5110000000000,"state":"active","ping":48},{"user_id":1046,"name":"Dr. Krentis (Real)","steam_id":76561199422842675,"connected_time":344000000000,"state":"active","ping":109},{"user_id":1023,"name":"WillieMakit","steam_id":76561197985391684,"connected_time":2807000000000,"state":"active","ping":124},{"user_id":1002,"name":"rudy","steam_id":76561198088712799,"connected_time":6595000000000,"state":"active","ping":100},{"user_id":1014,"name":"eish","steam_id":76561198089463603,"connected_time":4260000000000,"state":"active","ping":125},{"user_id":1027,"name":"coolguy782","steam_id":76561198165212575,"connected_time":2698000000000,"state":"active","ping":62},{"user_id":997,"name":"Fury-bringer","steam_id":76561198042860511,"connected_time":6821000000000,"state":"active","ping":45},{"user_id":1028,"name":"Yongle","steam_id":76561198068591156,"connected_time":2682000000000,"state":"active","ping":55},{"user_id":1012,"name":"Rick O'Connell","steam_id":76561198140709878,"connected_time":4351000000000,"state":"active","ping":73},{"user_id":1034,"name":"如願","steam_id":76561198038486613,"connected_time":1497000000000,"state":"active","ping":60}]},{"server_id":36,"name":"Uncletopia | Chicago | 5 | All Maps","name_short":"chi-5","host":"chi-2.us.uncletopia.com","port":27015,"enabled":true,"region":"us-central","cc":"us","latitude":41.881832,"longitude":-87.62318,"reserved":0,"last_update":"0001-01-01T00:00:00Z","name_a2s":"Uncletopia | Chicago | 5 | All Maps","protocol":17,"map":"cp_mountainlab","folder":"tf","game":"Team Fortress","app_id":440,"player_count":0,"max_players":24,"Bots":0,"server_type":"Dedicated","server_os":"Linux","password":true,"vac":true,"version":"7757534","steam_id":85568392924866362,"keywords":["cp","nocrits","nodmgspread","uncletopia"],"game_id":440,"stv_port":27016,"stv_name":"Uncletopia | Chicago | 5 | All Maps | STV","players":null},{"server_id":37,"name":"Uncletopia | Chicago | 6 | All Maps","name_short":"chi-6","host":"chi-2.us.uncletopia.com","port":27025,"enabled":true,"region":"us-central","cc":"us","latitude":41.881832,"longitude":-87.62318,"reserved":0,"last_update":"0001-01-01T00:00:00Z","name_a2s":"Uncletopia | Chicago | 6 | All Maps","protocol":17,"map":"pl_frontier_final","folder":"tf","game":"Team Fortress","app_id":440,"player_count":0,"max_players":24,"Bots":0,"server_type":"Dedicated","server_os":"Linux","password":true,"vac":true,"version":"7757534","steam_id":85568392924866363,"keywords":["nocrits","nodmgspread","payload","uncletopia"],"game_id":440,"stv_port":27026,"stv_name":"Uncletopia | Chicago | 6 | All Maps | STV","players":null},{"server_id":38,"name":"Uncletopia | Chicago | 7 | Stopwatch Beta","name_short":"chi-7","host":"chi-2.us.uncletopia.com","port":27035,"enabled":true,"region":"us-central","cc":"us","latitude":41.881832,"longitude":-87.62318,"reserved":0,"last_update":"0001-01-01T00:00:00Z","name_a2s":"Uncletopia | Chicago | 7 | Stopwatch Beta","protocol":17,"map":"koth_viaduct","folder":"tf","game":"Team Fortress","app_id":440,"player_count":0,"max_players":24,"Bots":0,"server_type":"Dedicated","server_os":"Linux","password":true,"vac":true,"version":"7757534","steam_id":85568392924866364,"keywords":["cp","nocrits","nodmgspread","uncletopia"],"game_id":440,"stv_port":27036,"stv_name":"Uncletopia | Chicago | 7 | Stopwatch Beta | STV","players":null},{"server_id":39,"name":"Uncletopia | Chicago | 8 | Community","name_short":"chi-8","host":"chi-2.us.uncletopia.com","port":27045,"enabled":true,"region":"us-central","cc":"us","latitude":41.881832,"longitude":-87.62318,"reserved":0,"last_update":"0001-01-01T00:00:00Z","name_a2s":"Uncletopia | Chicago | 8 | Community","protocol":17,"map":"workshop/pl_cashworks_final1.ugc2904065412","folder":"tf","game":"Team Fortress","app_id":440,"player_count":0,"max_players":24,"Bots":0,"server_type":"Dedicated","server_os":"Linux","password":true,"vac":true,"version":"7757534","steam_id":85568392924866365,"keywords":["nocrits","nodmgspread","payload","uncletopia"],"game_id":440,"stv_port":27046,"stv_name":"Uncletopia | Chicago | 8 | Community | STV","players":null},{"server_id":8,"name":"Uncletopia | Dallas | 1 | All Maps","name_short":"dal-1","host":"dal-1.us.uncletopia.com","port":27015,"enabled":true,"region":"us-central","cc":"us","latitude":32.779167,"longitude":-96.80889,"reserved":0,"last_update":"0001-01-01T00:00:00Z","name_a2s":"Uncletopia | Dallas | 1 | All Maps","protocol":17,"map":"cp_mountainlab","folder":"tf","game":"Team Fortress","app_id":440,"player_count":21,"max_players":24,"Bots":0,"server_type":"Dedicated","server_os":"Linux","password":true,"vac":true,"version":"7757534","steam_id":85568392924469986,"keywords":["cp","nocrits","nodmgspread","uncletopia"],"game_id":440,"stv_port":27016,"stv_name":"Uncletopia | Dallas | 1 | All Maps | STV","players":[{"user_id":812,"name":"Outlander","steam_id":76561197998995746,"connected_time":797000000000,"state":"active","ping":95},{"user_id":816,"name":"Ballistic","steam_id":76561198149383604,"connected_time":105000000000,"state":"active","ping":68},{"user_id":813,"name":"Nikki","steam_id":76561199069832535,"connected_time":291000000000,"state":"active","ping":89},{"user_id":807,"name":"The Centurion","steam_id":76561198128952317,"connected_time":1400000000000,"state":"active","ping":82},{"user_id":801,"name":"the clown","steam_id":76561198427593796,"connected_time":1426000000000,"state":"active","ping":111},{"user_id":817,"name":"xXx DARK-SASUKE xXx (itachi)","steam_id":76561198083975056,"connected_time":67000000000,"state":"active","ping":134},{"user_id":780,"name":"SpazHero","steam_id":76561198021130008,"connected_time":1725000000000,"state":"active","ping":76},{"user_id":819,"name":"RazeSengoku","steam_id":76561199218201260,"connected_time":11000000000,"state":"spawning","ping":146},{"user_id":787,"name":"BurnN8or101","steam_id":76561198132668224,"connected_time":1543000000000,"state":"active","ping":75},{"user_id":788,"name":"FullMetalHanson","steam_id":76561198149565623,"connected_time":1541000000000,"state":"active","ping":75},{"user_id":811,"name":"FangisCat","steam_id":76561198957301047,"connected_time":1199000000000,"state":"active","ping":86},{"user_id":792,"name":"Scrux","steam_id":76561198129763115,"connected_time":1503000000000,"state":"active","ping":85},{"user_id":798,"name":"clayhasmelon","steam_id":76561198346826829,"connected_time":1451000000000,"state":"active","ping":97},{"user_id":794,"name":"ezra","steam_id":76561198431299182,"connected_time":1490000000000,"state":"active","ping":75},{"user_id":799,"name":"Axelfreeze14","steam_id":76561198436383913,"connected_time":1449000000000,"state":"active","ping":77},{"user_id":802,"name":"Rodenture","steam_id":76561199032202018,"connected_time":1418000000000,"state":"active","ping":110},{"user_id":803,"name":"loooooooooooooooooooooooooooooi","steam_id":76561198138934898,"connected_time":1408000000000,"state":"active","ping":62},{"user_id":814,"name":"Swaggys Weed","steam_id":76561198173473570,"connected_time":213000000000,"state":"active","ping":84},{"user_id":805,"name":"Frobel","steam_id":76561198089162070,"connected_time":1402000000000,"state":"active","ping":60},{"user_id":806,"name":"lostsilver","steam_id":76561199102771273,"connected_time":1401000000000,"state":"active","ping":70},{"user_id":758,"name":"CACTUS","steam_id":76561198327863229,"connected_time":4270000000000,"state":"active","ping":86}]},{"server_id":108,"name":"Uncletopia | Dallas | 2 | All Maps","name_short":"dal-2","host":"dal-1.us.uncletopia.com","port":27025,"enabled":true,"region":"us-central","cc":"us","latitude":32.779167,"longitude":-96.80889,"reserved":0,"last_update":"0001-01-01T00:00:00Z","name_a2s":"Uncletopia | Dallas | 2 | All Maps","protocol":17,"map":"pl_barnblitz","folder":"tf","game":"Team Fortress","app_id":440,"player_count":23,"max_players":24,"Bots":0,"server_type":"Dedicated","server_os":"Linux","password":true,"vac":true,"version":"7757534","steam_id":85568392924469988,"keywords":["nocrits","nodmgspread","payload","uncletopia"],"game_id":440,"stv_port":27026,"stv_name":"Uncletopia | Dallas | 2 | All Maps | STV","players":[{"user_id":587,"name":"Oranges","steam_id":76561198930256146,"connected_time":1505000000000,"state":"active","ping":64},{"user_id":569,"name":"Dinöbro","steam_id":76561198065597770,"connected_time":2915000000000,"state":"active","ping":60},{"user_id":558,"name":"the smiling zombie","steam_id":76561199246231090,"connected_time":3779000000000,"state":"active","ping":79},{"user_id":580,"name":"puke","steam_id":76561197999279693,"connected_time":2164000000000,"state":"active","ping":68},{"user_id":545,"name":"✌jayhyunpaefan","steam_id":76561198060052564,"connected_time":4149000000000,"state":"active","ping":70},{"user_id":576,"name":"Broken Cereal√","steam_id":76561198087489795,"connected_time":2235000000000,"state":"active","ping":77},{"user_id":577,"name":"Krow","steam_id":76561198010392099,"connected_time":2227000000000,"state":"active","ping":48},{"user_id":571,"name":"Red","steam_id":76561198031865869,"connected_time":2773000000000,"state":"active","ping":60},{"user_id":578,"name":"Arthur","steam_id":76561198075996414,"connected_time":2227000000000,"state":"active","ping":113},{"user_id":593,"name":"Banana","steam_id":76561199475231264,"connected_time":106000000000,"state":"active","ping":128},{"user_id":579,"name":"drdoofus123","steam_id":76561198016826181,"connected_time":2221000000000,"state":"active","ping":76},{"user_id":554,"name":"sora","steam_id":76561198094256973,"connected_time":3830000000000,"state":"active","ping":89},{"user_id":581,"name":"Jambi","steam_id":76561198846091685,"connected_time":2141000000000,"state":"active","ping":40},{"user_id":560,"name":"Prof. Eggnog","steam_id":76561198193389166,"connected_time":3731000000000,"state":"active","ping":101},{"user_id":544,"name":"giura","steam_id":76561197986794525,"connected_time":4200000000000,"state":"active","ping":81},{"user_id":592,"name":"ThisisSteve","steam_id":76561198420882318,"connected_time":311000000000,"state":"active","ping":84},{"user_id":588,"name":"Notation","steam_id":76561198119509319,"connected_time":617000000000,"state":"active","ping":60},{"user_id":582,"name":"Applesauce","steam_id":76561198049642811,"connected_time":2132000000000,"state":"active","ping":68},{"user_id":561,"name":"xZackAttack27x","steam_id":76561198035446639,"connected_time":3685000000000,"state":"active","ping":42},{"user_id":531,"name":"Joe Rogan","steam_id":76561198217887589,"connected_time":6036000000000,"state":"active","ping":94},{"user_id":573,"name":"brian enotown massacre","steam_id":76561198109901138,"connected_time":2435000000000,"state":"active","ping":100},{"user_id":583,"name":"Takareer","steam_id":76561198001751765,"connected_time":2120000000000,"state":"active","ping":84},{"user_id":591,"name":"Team Fartpiss Poo","steam_id":76561199163591880,"connected_time":353000000000,"state":"active","ping":116}]},{"server_id":5,"name":"Uncletopia | Frankfurt | 1 | All Maps","name_short":"frk-1","host":"frk-1.de.uncletopia.com","port":27015,"enabled":true,"region":"eu","cc":"de","latitude":50.110924,"longitude":8.682127,"reserved":0,"last_update":"0001-01-01T00:00:00Z","name_a2s":"Uncletopia | Frankfurt | 1 | All Maps","protocol":17,"map":"pl_badwater","folder":"tf","game":"Team Fortress","app_id":440,"player_count":0,"max_players":24,"Bots":0,"server_type":"Dedicated","server_os":"Linux","password":true,"vac":true,"version":"7757534","steam_id":85568392924469989,"keywords":["nocrits","nodmgspread","payload","uncletopia"],"game_id":440,"stv_port":27016,"stv_name":"Uncletopia | Frankfurt | 1 | All Maps | STV","players":null},{"server_id":110,"name":"Uncletopia | Frankfurt | 2 | All Maps","name_short":"frk-2","host":"frk-1.de.uncletopia.com","port":27025,"enabled":true,"region":"eu","cc":"de","latitude":50.110924,"longitude":8.682127,"reserved":0,"last_update":"0001-01-01T00:00:00Z","name_a2s":"Uncletopia | Frankfurt | 2 | All Maps","protocol":17,"map":"cp_altitude","folder":"tf","game":"Team Fortress","app_id":440,"player_count":0,"max_players":24,"Bots":0,"server_type":"Dedicated","server_os":"Linux","password":true,"vac":true,"version":"7757534","steam_id":85568392924469990,"keywords":["cp","nocrits","nodmgspread","uncletopia"],"game_id":440,"stv_port":27026,"stv_name":"Uncletopia | Frankfurt | 2 | All Maps | STV","players":null},{"server_id":308,"name":"Uncletopia | Frankfurt | 3 | All Maps","name_short":"frk-3","host":"frk-1.de.uncletopia.com","port":27035,"enabled":true,"region":"eu","cc":"de","latitude":50.110924,"longitude":8.682127,"reserved":0,"last_update":"0001-01-01T00:00:00Z","name_a2s":"Uncletopia | Frankfurt | 3 | All Maps","protocol":17,"map":"pl_barnblitz","folder":"tf","game":"Team Fortress","app_id":440,"player_count":0,"max_players":24,"Bots":0,"server_type":"Dedicated","server_os":"Linux","password":true,"vac":true,"version":"7757534","steam_id":85568392924504274,"keywords":["nocrits","nodmgspread","payload","uncletopia"],"game_id":440,"stv_port":27036,"stv_name":"Uncletopia | Frankfurt | 3 | All Maps | STV","players":null},{"server_id":309,"name":"Uncletopia | Frankfurt | 4 | All Maps","name_short":"frk-4","host":"frk-1.de.uncletopia.com","port":27045,"enabled":true,"region":"eu","cc":"de","latitude":50.110924,"longitude":8.682127,"reserved":0,"last_update":"0001-01-01T00:00:00Z","name_a2s":"Uncletopia | Frankfurt | 4 | All Maps","protocol":17,"map":"pl_pier","folder":"tf","game":"Team Fortress","app_id":440,"player_count":0,"max_players":24,"Bots":0,"server_type":"Dedicated","server_os":"Linux","password":true,"vac":true,"version":"7757534","steam_id":85568392924504275,"keywords":["nocrits","nodmgspread","payload","uncletopia"],"game_id":440,"stv_port":27046,"stv_name":"Uncletopia | Frankfurt | 4 | All Maps | STV","players":null},{"server_id":310,"name":"Uncletopia | Frankfurt | 5 | All Maps","name_short":"frk-5","host":"frk-1.de.uncletopia.com","port":27055,"enabled":true,"region":"eu","cc":"de","latitude":50.110924,"longitude":8.682127,"reserved":0,"last_update":"0001-01-01T00:00:00Z","name_a2s":"Uncletopia | Frankfurt | 5 | All Maps","protocol":17,"map":"cp_altitude","folder":"tf","game":"Team Fortress","app_id":440,"player_count":3,"max_players":24,"Bots":0,"server_type":"Dedicated","server_os":"Linux","password":true,"vac":true,"version":"7757534","steam_id":85568392924504277,"keywords":["cp","nocrits","nodmgspread","uncletopia"],"game_id":440,"stv_port":27056,"stv_name":"Uncletopia | Frankfurt | 5 | All Maps | STV","players":[{"user_id":3,"name":"Khajit","steam_id":76561198091213495,"connected_time":145000000000,"state":"active","ping":63},{"user_id":4,"name":"bloxino","steam_id":76561199181762195,"connected_time":21000000000,"state":"spawning","ping":245},{"user_id":5,"name":"Truegr","steam_id":76561198811912339,"connected_time":1000000000,"state":"spawning","ping":37}]},{"server_id":311,"name":"Uncletopia | Frankfurt | 6 | All Maps","name_short":"frk-6","host":"frk-1.de.uncletopia.com","port":27065,"enabled":true,"region":"eu","cc":"de","latitude":50.110924,"longitude":8.682127,"reserved":0,"last_update":"0001-01-01T00:00:00Z","name_a2s":"Uncletopia | Frankfurt | 6 | All Maps","protocol":17,"map":"pl_barnblitz","folder":"tf","game":"Team Fortress","app_id":440,"player_count":0,"max_players":24,"Bots":0,"server_type":"Dedicated","server_os":"Linux","password":true,"vac":true,"version":"7757534","steam_id":85568392924504278,"keywords":["nocrits","nodmgspread","payload","uncletopia"],"game_id":440,"stv_port":27066,"stv_name":"Uncletopia | Frankfurt | 6 | All Maps | STV","players":null},{"server_id":23,"name":"Uncletopia | Frankfurt | 7 | Stopwatch Beta","name_short":"frk-7","host":"frk-1.de.uncletopia.com","port":27075,"enabled":true,"region":"eu","cc":"de","latitude":50.110924,"longitude":8.682127,"reserved":0,"last_update":"0001-01-01T00:00:00Z","name_a2s":"Uncletopia | Frankfurt | 7 | Stopwatch Beta","protocol":17,"map":"pl_borneo","folder":"tf","game":"Team Fortress","app_id":440,"player_count":0,"max_players":24,"Bots":0,"server_type":"Dedicated","server_os":"Linux","password":true,"vac":true,"version":"7757534","steam_id":85568392924742827,"keywords":["nocrits","nodmgspread","payload","uncletopia"],"game_id":440,"stv_port":27076,"stv_name":"Uncletopia | Frankfurt | 7 | Stopwatch Beta | STV","players":null},{"server_id":24,"name":"Uncletopia | Frankfurt | 8 | Community","name_short":"frk-8","host":"frk-1.de.uncletopia.com","port":27085,"enabled":true,"region":"eu","cc":"de","latitude":50.110924,"longitude":8.682127,"reserved":0,"last_update":"0001-01-01T00:00:00Z","name_a2s":"Uncletopia | Frankfurt | 8 | Community","protocol":17,"map":"koth_viaduct","folder":"tf","game":"Team Fortress","app_id":440,"player_count":0,"max_players":24,"Bots":0,"server_type":"Dedicated","server_os":"Linux","password":true,"vac":true,"version":"7757534","steam_id":85568392924742828,"keywords":["cp","nocrits","nodmgspread","uncletopia"],"game_id":440,"stv_port":27086,"stv_name":"Uncletopia | Frankfurt | 8 | Community | STV","players":null},{"server_id":202,"name":"Uncletopia | Hong Kong | 1 | All Maps","name_short":"hgk-1","host":"hgk-1.hk.uncletopia.com","port":27015,"enabled":true,"region":"asia","cc":"hk","latitude":22.302711,"longitude":114.177216,"reserved":0,"last_update":"0001-01-01T00:00:00Z","name_a2s":"Uncletopia | Hong Kong | 1 | All Maps","protocol":17,"map":"koth_lakeside_final","folder":"tf","game":"Team Fortress","app_id":440,"player_count":0,"max_players":24,"Bots":0,"server_type":"Dedicated","server_os":"Linux","password":true,"vac":true,"version":"7757534","steam_id":85568392924494504,"keywords":["cp","nocrits","nodmgspread","uncletopia"],"game_id":440,"stv_port":27016,"stv_name":"Uncletopia | Hong Kong | 1 | All Maps | STV","players":null},{"server_id":1,"name":"Uncletopia | Los Angeles | 1 | All Maps","name_short":"lax-1","host":"lax-1.us.uncletopia.com","port":27015,"enabled":true,"region":"us-west","cc":"us","latitude":33.94279,"longitude":-118.41004,"reserved":0,"last_update":"0001-01-01T00:00:00Z","name_a2s":"Uncletopia | Los Angeles | 1 | All Maps","protocol":17,"map":"cp_process_final","folder":"tf","game":"Team Fortress","app_id":440,"player_count":24,"max_players":24,"Bots":0,"server_type":"Dedicated","server_os":"Linux","password":true,"vac":true,"version":"7757534","steam_id":85568392924469991,"keywords":["cp","nocrits","nodmgspread","uncletopia"],"game_id":440,"stv_port":27016,"stv_name":"Uncletopia | Los Angeles | 1 | All Maps | STV","players":[{"user_id":289,"name":"oil","steam_id":76561198099980149,"connected_time":3157000000000,"state":"active","ping":51},{"user_id":318,"name":"kool_aids3","steam_id":76561198314435679,"connected_time":177000000000,"state":"active","ping":56},{"user_id":297,"name":"Lyre","steam_id":76561198149409302,"connected_time":2177000000000,"state":"active","ping":94},{"user_id":314,"name":"nolife","steam_id":76561198414300607,"connected_time":266000000000,"state":"active","ping":59},{"user_id":299,"name":"Umega","steam_id":76561198173728517,"connected_time":2174000000000,"state":"active","ping":120},{"user_id":301,"name":"Arsonist Goose","steam_id":76561198147441830,"connected_time":2088000000000,"state":"active","ping":45},{"user_id":213,"name":"LX-24","steam_id":76561198016168993,"connected_time":7494000000000,"state":"active","ping":85},{"user_id":244,"name":"triple$ix","steam_id":76561198327156787,"connected_time":4539000000000,"state":"active","ping":99},{"user_id":309,"name":"poe","steam_id":76561198155720118,"connected_time":330000000000,"state":"active","ping":105},{"user_id":191,"name":"chanoc","steam_id":76561198026734746,"connected_time":9487000000000,"state":"active","ping":52},{"user_id":315,"name":"bodie._.","steam_id":76561198079474904,"connected_time":246000000000,"state":"active","ping":82},{"user_id":311,"name":"VidzCMC","steam_id":76561198848142973,"connected_time":321000000000,"state":"active","ping":113},{"user_id":316,"name":"Brock O'Brian","steam_id":76561198117839474,"connected_time":243000000000,"state":"active","ping":138},{"user_id":245,"name":"Mud (rip apetor)","steam_id":76561198356426602,"connected_time":4525000000000,"state":"active","ping":37},{"user_id":295,"name":"Antzen","steam_id":76561198041343470,"connected_time":2910000000000,"state":"active","ping":57},{"user_id":246,"name":"SHADOW (he/him)","steam_id":76561198207768148,"connected_time":4523000000000,"state":"active","ping":72},{"user_id":228,"name":"Gerbias","steam_id":76561198001002427,"connected_time":6000000000000,"state":"active","ping":61},{"user_id":247,"name":"zowey its yaoi","steam_id":76561198097637080,"connected_time":4517000000000,"state":"active","ping":99},{"user_id":303,"name":"Riske","steam_id":76561198115840568,"connected_time":2038000000000,"state":"active","ping":121},{"user_id":214,"name":"FROYO b4nny","steam_id":76561197970669109,"connected_time":7421000000000,"state":"active","ping":45},{"user_id":294,"name":"/r/circumcision","steam_id":76561198045926594,"connected_time":2960000000000,"state":"active","ping":68},{"user_id":223,"name":"Gundam Guy","steam_id":76561198178453993,"connected_time":6753000000000,"state":"active","ping":70},{"user_id":304,"name":"Rasputia","steam_id":76561198132051047,"connected_time":1947000000000,"state":"active","ping":77},{"user_id":317,"name":"cookie","steam_id":76561198114491752,"connected_time":209000000000,"state":"active","ping":49}]},{"server_id":112,"name":"Uncletopia | Los Angeles | 2 | All Maps","name_short":"lax-2","host":"lax-1.us.uncletopia.com","port":27025,"enabled":true,"region":"us-west","cc":"us","latitude":33.94279,"longitude":-118.41004,"reserved":0,"last_update":"0001-01-01T00:00:00Z","name_a2s":"Uncletopia | Los Angeles | 2 | All Maps","protocol":17,"map":"koth_lakeside_final","folder":"tf","game":"Team Fortress","app_id":440,"player_count":3,"max_players":24,"Bots":0,"server_type":"Dedicated","server_os":"Linux","password":true,"vac":true,"version":"7757534","steam_id":85568392924469992,"keywords":["cp","nocrits","nodmgspread","uncletopia"],"game_id":440,"stv_port":27026,"stv_name":"Uncletopia | Los Angeles | 2 | All Maps | STV","players":[{"user_id":145,"name":"Dimov","steam_id":76561198106046056,"connected_time":44000000000,"state":"active","ping":49},{"user_id":146,"name":"MisterT","steam_id":76561198079868873,"connected_time":35000000000,"state":"active","ping":50},{"user_id":147,"name":"MikuFan52","steam_id":76561198150699160,"connected_time":32000000000,"state":"active","ping":53}]},{"server_id":324,"name":"Uncletopia | Los Angeles | 3 | All Maps","name_short":"lax-3","host":"lax-1.us.uncletopia.com","port":27035,"enabled":true,"region":"us-west","cc":"us","latitude":33.94279,"longitude":-118.41004,"reserved":0,"last_update":"0001-01-01T00:00:00Z","name_a2s":"Uncletopia | Los Angeles | 3 | All Maps","protocol":17,"map":"koth_highpass","folder":"tf","game":"Team Fortress","app_id":440,"player_count":0,"max_players":24,"Bots":0,"server_type":"Dedicated","server_os":"Linux","password":true,"vac":true,"version":"7757534","steam_id":85568392924510198,"keywords":["cp","nocrits","nodmgspread","uncletopia"],"game_id":440,"stv_port":27036,"stv_name":"Uncletopia | Los Angeles | 3 | All Maps | STV","players":null},{"server_id":25,"name":"Uncletopia | Los Angeles | 4 | Stopwatch Beta","name_short":"lax-4","host":"lax-1.us.uncletopia.com","port":27045,"enabled":true,"region":"us-west","cc":"us","latitude":33.94279,"longitude":-118.41004,"reserved":0,"last_update":"0001-01-01T00:00:00Z","name_a2s":"Uncletopia | Los Angeles | 4 | Stopwatch Beta","protocol":17,"map":"workshop/koth_product_final.ugc454272353","folder":"tf","game":"Team Fortress","app_id":440,"player_count":0,"max_players":24,"Bots":0,"server_type":"Dedicated","server_os":"Linux","password":true,"vac":true,"version":"7757534","steam_id":85568392924510199,"keywords":["cp","nocrits","nodmgspread","uncletopia"],"game_id":440,"stv_port":27046,"stv_name":"Uncletopia | Los Angeles | 4 | Stopwatch Beta | STV","players":null},{"server_id":11,"name":"Uncletopia | London | 1 | All Maps","name_short":"lon-1","host":"lon-1.uk.uncletopia.com","port":27015,"enabled":true,"region":"eu","cc":"gb","latitude":51.509865,"longitude":-0.118092,"reserved":0,"last_update":"0001-01-01T00:00:00Z","name_a2s":"Uncletopia | London | 1 | All Maps","protocol":17,"map":"pl_thundermountain","folder":"tf","game":"Team Fortress","app_id":440,"player_count":24,"max_players":24,"Bots":0,"server_type":"Dedicated","server_os":"Linux","password":true,"vac":true,"version":"7757534","steam_id":85568392924367362,"keywords":["nocrits","nodmgspread","payload","uncletopia"],"game_id":440,"stv_port":27016,"stv_name":"Uncletopia | London | 1 | All Maps | STV","players":[{"user_id":39,"name":"knoB","steam_id":76561198173695818,"connected_time":542000000000,"state":"active","ping":74},{"user_id":45,"name":"Mizel G4Skins","steam_id":76561199226604824,"connected_time":258000000000,"state":"active","ping":118},{"user_id":46,"name":"NK","steam_id":76561198302662020,"connected_time":207000000000,"state":"active","ping":76},{"user_id":23,"name":"Sakari","steam_id":76561197997811299,"connected_time":2096000000000,"state":"active","ping":64},{"user_id":13,"name":"XfarisGamerX","steam_id":76561198367579380,"connected_time":2526000000000,"state":"active","ping":119},{"user_id":8,"name":"Pinky Fluffy Bunny","steam_id":76561198329913999,"connected_time":2554000000000,"state":"active","ping":47},{"user_id":9,"name":"2b","steam_id":76561199149307190,"connected_time":2550000000000,"state":"active","ping":78},{"user_id":37,"name":"fried","steam_id":76561198307522022,"connected_time":844000000000,"state":"active","ping":47},{"user_id":41,"name":"Cocane Concho","steam_id":76561198139690063,"connected_time":465000000000,"state":"active","ping":60},{"user_id":12,"name":"wiko","steam_id":76561198192182682,"connected_time":2542000000000,"state":"active","ping":103},{"user_id":14,"name":"FattyWizard","steam_id":76561198076105096,"connected_time":2520000000000,"state":"active","ping":75},{"user_id":42,"name":"Утилизатор","steam_id":76561198001490104,"connected_time":450000000000,"state":"active","ping":82},{"user_id":32,"name":"Steve Obi Wan Ben Larry Kenobi","steam_id":76561199154188122,"connected_time":1311000000000,"state":"active","ping":150},{"user_id":43,"name":"stun","steam_id":76561198276681691,"connected_time":392000000000,"state":"active","ping":41},{"user_id":47,"name":"Kali","steam_id":76561198070745106,"connected_time":205000000000,"state":"active","ping":61},{"user_id":24,"name":"Bonk","steam_id":76561198070248296,"connected_time":2083000000000,"state":"active","ping":76},{"user_id":25,"name":"trans werewolf","steam_id":76561198107235989,"connected_time":2010000000000,"state":"active","ping":72},{"user_id":26,"name":"DarkFady","steam_id":76561198179099523,"connected_time":1990000000000,"state":"active","ping":106},{"user_id":48,"name":"[ISD] 我喜欢大黑公鸡","steam_id":76561198267463398,"connected_time":119000000000,"state":"active","ping":64},{"user_id":28,"name":"wide appreciator","steam_id":76561198083286511,"connected_time":1890000000000,"state":"active","ping":52},{"user_id":50,"name":"Vancelot","steam_id":76561198050750089,"connected_time":100000000000,"state":"active","ping":82},{"user_id":51,"name":"dust","steam_id":76561198293557665,"connected_time":52000000000,"state":"active","ping":104},{"user_id":33,"name":"Saint","steam_id":76561198303326214,"connected_time":1297000000000,"state":"active","ping":86},{"user_id":36,"name":"true","steam_id":76561198031145243,"connected_time":845000000000,"state":"active","ping":75}]},{"server_id":114,"name":"Uncletopia | London | 2 | All Maps","name_short":"lon-2","host":"lon-1.uk.uncletopia.com","port":27025,"enabled":true,"region":"eu","cc":"gb","latitude":51.509865,"longitude":-0.118092,"reserved":0,"last_update":"0001-01-01T00:00:00Z","name_a2s":"Uncletopia | London | 2 | All Maps","protocol":17,"map":"pl_pier","folder":"tf","game":"Team Fortress","app_id":440,"player_count":0,"max_players":24,"Bots":0,"server_type":"Dedicated","server_os":"Linux","password":true,"vac":true,"version":"7757534","steam_id":85568392924470941,"keywords":["nocrits","nodmgspread","payload","uncletopia"],"game_id":440,"stv_port":27026,"stv_name":"Uncletopia | London | 2 | All Maps | STV","players":null},{"server_id":320,"name":"Uncletopia | London | 3 | All Maps","name_short":"lon-3","host":"lon-1.uk.uncletopia.com","port":27035,"enabled":true,"region":"eu","cc":"gb","latitude":51.509865,"longitude":-0.118092,"reserved":0,"last_update":"0001-01-01T00:00:00Z","name_a2s":"Uncletopia | London | 3 | All Maps","protocol":17,"map":"pl_swiftwater_final1","folder":"tf","game":"Team Fortress","app_id":440,"player_count":0,"max_players":24,"Bots":0,"server_type":"Dedicated","server_os":"Linux","password":true,"vac":true,"version":"7757534","steam_id":85568392924510192,"keywords":["nocrits","nodmgspread","payload","uncletopia"],"game_id":440,"stv_port":27036,"stv_name":"Uncletopia | London | 3 | All Maps | STV","players":null},{"server_id":321,"name":"Uncletopia | London | 4 | All Maps","name_short":"lon-4","host":"lon-1.uk.uncletopia.com","port":27045,"enabled":true,"region":"eu","cc":"gb","latitude":51.509865,"longitude":-0.118092,"reserved":0,"last_update":"0001-01-01T00:00:00Z","name_a2s":"Uncletopia | London | 4 | All Maps","protocol":17,"map":"pl_barnblitz","folder":"tf","game":"Team Fortress","app_id":440,"player_count":0,"max_players":24,"Bots":0,"server_type":"Dedicated","server_os":"Linux","password":true,"vac":true,"version":"7757534","steam_id":85568392924510193,"keywords":["nocrits","nodmgspread","payload","uncletopia"],"game_id":440,"stv_port":27046,"stv_name":"Uncletopia | London | 4 | All Maps | STV","players":null},{"server_id":21,"name":"Uncletopia | London | 5 | All Maps","name_short":"lon-5","host":"lon-1.uk.uncletopia.com","port":27055,"enabled":true,"region":"eu","cc":"gb","latitude":51.509865,"longitude":-0.118092,"reserved":0,"last_update":"0001-01-01T00:00:00Z","name_a2s":"Uncletopia | London | 5 | All Maps","protocol":17,"map":"pl_pier","folder":"tf","game":"Team Fortress","app_id":440,"player_count":0,"max_players":24,"Bots":0,"server_type":"Dedicated","server_os":"Linux","password":true,"vac":true,"version":"7757534","steam_id":85568392924742829,"keywords":["nocrits","nodmgspread","payload","uncletopia"],"game_id":440,"stv_port":27056,"stv_name":"Uncletopia | London | 5 | All Maps | STV","players":null},{"server_id":22,"name":"Uncletopia | London | 6 | All Maps","name_short":"lon-6","host":"lon-1.uk.uncletopia.com","port":27065,"enabled":true,"region":"eu","cc":"gb","latitude":51.509865,"longitude":-0.118092,"reserved":0,"last_update":"0001-01-01T00:00:00Z","name_a2s":"Uncletopia | London | 6 | All Maps","protocol":17,"map":"koth_highpass","folder":"tf","game":"Team Fortress","app_id":440,"player_count":0,"max_players":24,"Bots":0,"server_type":"Dedicated","server_os":"Linux","password":true,"vac":true,"version":"7757534","steam_id":85568392924742830,"keywords":["cp","nocrits","nodmgspread","uncletopia"],"game_id":440,"stv_port":27066,"stv_name":"Uncletopia | London | 6 | All Maps | STV","players":null},{"server_id":40,"name":"Uncletopia | London | 7 | No Payload","name_short":"lon-7","host":"lon-1.uk.uncletopia.com","port":27075,"enabled":true,"region":"eu","cc":"gb","latitude":51.509865,"longitude":-0.118092,"reserved":0,"last_update":"0001-01-01T00:00:00Z","name_a2s":"Uncletopia | London | 7 | No Payload","protocol":17,"map":"koth_highpass","folder":"tf","game":"Team Fortress","app_id":440,"player_count":0,"max_players":24,"Bots":0,"server_type":"Dedicated","server_os":"Linux","password":true,"vac":true,"version":"7757534","steam_id":85568392924964314,"keywords":["cp","nocrits","nodmgspread","uncletopia"],"game_id":440,"stv_port":27076,"stv_name":"Uncletopia | London | 7 | No Payload | STV","players":null},{"server_id":41,"name":"Uncletopia | London | 8 | Community","name_short":"lon-8","host":"lon-1.uk.uncletopia.com","port":27085,"enabled":true,"region":"eu","cc":"gb","latitude":51.509865,"longitude":-0.118092,"reserved":0,"last_update":"0001-01-01T00:00:00Z","name_a2s":"Uncletopia | London | 8 | Community","protocol":17,"map":"cp_altitude","folder":"tf","game":"Team Fortress","app_id":440,"player_count":0,"max_players":24,"Bots":0,"server_type":"Dedicated","server_os":"Linux","password":true,"vac":true,"version":"7757534","steam_id":85568392924964315,"keywords":["cp","nocrits","nodmgspread","uncletopia"],"game_id":440,"stv_port":27086,"stv_name":"Uncletopia | London | 8 | Community | STV","players":null},{"server_id":300,"name":"Uncletopia | Montréal | 1 | All Maps","name_short":"mtl-1","host":"mtl-1.ca.uncletopia.com","port":27015,"enabled":true,"region":"us-east","cc":"ca","latitude":45.50889,"longitude":-73.56167,"reserved":0,"last_update":"0001-01-01T00:00:00Z","name_a2s":"Uncletopia | Montréal | 1 | All Maps","protocol":17,"map":"cp_mountainlab","folder":"tf","game":"Team Fortress","app_id":440,"player_count":0,"max_players":24,"Bots":0,"server_type":"Dedicated","server_os":"Linux","password":true,"vac":true,"version":"7757534","steam_id":85568392924500087,"keywords":["cp","nocrits","nodmgspread","uncletopia"],"game_id":440,"stv_port":27016,"stv_name":"Uncletopia | Montréal | 1 | All Maps | STV","players":null},{"server_id":301,"name":"Uncletopia | Montréal | 2 | All Maps","name_short":"mtl-2","host":"mtl-1.ca.uncletopia.com","port":27025,"enabled":true,"region":"us-east","cc":"ca","latitude":45.50889,"longitude":-73.56167,"reserved":0,"last_update":"0001-01-01T00:00:00Z","name_a2s":"Uncletopia | Montréal | 2 | All Maps","protocol":17,"map":"cp_dustbowl","folder":"tf","game":"Team Fortress","app_id":440,"player_count":0,"max_players":24,"Bots":0,"server_type":"Dedicated","server_os":"Linux","password":true,"vac":true,"version":"7757534","steam_id":85568392924500088,"keywords":["cp","nocrits","nodmgspread","uncletopia"],"game_id":440,"stv_port":27026,"stv_name":"Uncletopia | Montréal | 2 | All Maps | STV","players":null},{"server_id":302,"name":"Uncletopia | Montréal | 3 | All Maps","name_short":"mtl-3","host":"mtl-1.ca.uncletopia.com","port":27035,"enabled":true,"region":"us-east","cc":"ca","latitude":45.50889,"longitude":-73.56167,"reserved":0,"last_update":"0001-01-01T00:00:00Z","name_a2s":"Uncletopia | Montréal | 3 | All Maps","protocol":17,"map":"koth_lakeside_final","folder":"tf","game":"Team Fortress","app_id":440,"player_count":4,"max_players":24,"Bots":0,"server_type":"Dedicated","server_os":"Linux","password":true,"vac":true,"version":"7757534","steam_id":85568392924500089,"keywords":["cp","nocrits","nodmgspread","uncletopia"],"game_id":440,"stv_port":27036,"stv_name":"Uncletopia | Montréal | 3 | All Maps | STV","players":[{"user_id":440,"name":"_noodle","steam_id":76561199278361340,"connected_time":1709000000000,"state":"active","ping":114},{"user_id":441,"name":"Ronanlovesyou","steam_id":76561198261911489,"connected_time":1701000000000,"state":"active","ping":118},{"user_id":446,"name":"rainiersky","steam_id":76561199070809425,"connected_time":400000000000,"state":"active","ping":147},{"user_id":445,"name":"RequiemRune","steam_id":76561199472024930,"connected_time":574000000000,"state":"active","ping":293}]},{"server_id":303,"name":"Uncletopia | Montréal | 4 | No Payload","name_short":"mtl-4","host":"mtl-1.ca.uncletopia.com","port":27045,"enabled":true,"region":"us-east","cc":"ca","latitude":45.50889,"longitude":-73.56167,"reserved":0,"last_update":"0001-01-01T00:00:00Z","name_a2s":"Uncletopia | Montréal | 4 | No Payload","protocol":17,"map":"pl_pier","folder":"tf","game":"Team Fortress","app_id":440,"player_count":0,"max_players":24,"Bots":0,"server_type":"Dedicated","server_os":"Linux","password":true,"vac":true,"version":"7757534","steam_id":85568392924500090,"keywords":["nocrits","nodmgspread","payload","uncletopia"],"game_id":440,"stv_port":27046,"stv_name":"Uncletopia | Montréal | 4 | No Payload | STV","players":null},{"server_id":13,"name":"Uncletopia | New York City | 1 | All Maps","name_short":"nyc-1","host":"nyc-1.us.uncletopia.com","port":27015,"enabled":true,"region":"us-east","cc":"us","latitude":40.73061,"longitude":-73.93524,"reserved":0,"last_update":"0001-01-01T00:00:00Z","name_a2s":"Uncletopia | New York City | 1 | All Maps","protocol":17,"map":"pl_frontier_final","folder":"tf","game":"Team Fortress","app_id":440,"player_count":0,"max_players":24,"Bots":0,"server_type":"Dedicated","server_os":"Linux","password":true,"vac":true,"version":"7757534","steam_id":85568392924469993,"keywords":["nocrits","nodmgspread","payload","uncletopia"],"game_id":440,"stv_port":27016,"stv_name":"Uncletopia | New York City | 1 | All Maps | STV","players":null},{"server_id":14,"name":"Uncletopia | New York City | 2 | All Maps","name_short":"nyc-2","host":"nyc-1.us.uncletopia.com","port":27025,"enabled":true,"region":"us-east","cc":"us","latitude":40.73061,"longitude":-73.93524,"reserved":0,"last_update":"0001-01-01T00:00:00Z","name_a2s":"Uncletopia | New York City | 2 | All Maps","protocol":17,"map":"pl_swiftwater_final1","folder":"tf","game":"Team Fortress","app_id":440,"player_count":12,"max_players":24,"Bots":0,"server_type":"Dedicated","server_os":"Linux","password":true,"vac":true,"version":"7757534","steam_id":85568392924469994,"keywords":["nocrits","nodmgspread","payload","uncletopia"],"game_id":440,"stv_port":27026,"stv_name":"Uncletopia | New York City | 2 | All Maps | STV","players":[{"user_id":377,"name":"C∅RVUS","steam_id":76561198100640019,"connected_time":393000000000,"state":"active","ping":132},{"user_id":68,"name":"Analogy != Definition","steam_id":76561197999657118,"connected_time":21523000000000,"state":"active","ping":61},{"user_id":325,"name":"I ate those food","steam_id":76561198084614149,"connected_time":4096000000000,"state":"active","ping":44},{"user_id":378,"name":"noblehallett","steam_id":76561197990994280,"connected_time":370000000000,"state":"active","ping":128},{"user_id":366,"name":"Be Restin'","steam_id":76561198120288903,"connected_time":1086000000000,"state":"active","ping":82},{"user_id":380,"name":"NikoAjem","steam_id":76561198129444247,"connected_time":204000000000,"state":"active","ping":76},{"user_id":370,"name":"Anthony","steam_id":76561199052890181,"connected_time":532000000000,"state":"active","ping":134},{"user_id":375,"name":"RagingRoosevelt","steam_id":76561197985483153,"connected_time":486000000000,"state":"active","ping":137},{"user_id":373,"name":"Major_Pippy","steam_id":76561198004482878,"connected_time":504000000000,"state":"active","ping":117},{"user_id":383,"name":"Hot Pink Millie","steam_id":76561198006259725,"connected_time":63000000000,"state":"active","ping":61},{"user_id":327,"name":"Nopendium","steam_id":76561198087712908,"connected_time":4060000000000,"state":"active","ping":72},{"user_id":384,"name":"SsgMcGriddle","steam_id":76561199013205814,"connected_time":51000000000,"state":"active","ping":85}]},{"server_id":15,"name":"Uncletopia | New York City | 3 | Stopwatch Beta","name_short":"nyc-3","host":"nyc-1.us.uncletopia.com","port":27035,"enabled":true,"region":"us-east","cc":"us","latitude":40.73061,"longitude":-73.93524,"reserved":0,"last_update":"0001-01-01T00:00:00Z","name_a2s":"Uncletopia | New York City | 3 | Stopwatch Beta","protocol":17,"map":"workshop/pl_barnblitz_pro7.ugc582280235","folder":"tf","game":"Team Fortress","app_id":440,"player_count":0,"max_players":24,"Bots":0,"server_type":"Dedicated","server_os":"Linux","password":true,"vac":true,"version":"7757534","steam_id":85568392924742820,"keywords":["nocrits","nodmgspread","payload","uncletopia"],"game_id":440,"stv_port":27036,"stv_name":"Uncletopia | New York City | 3 | Stopwatch Beta | STV","players":null},{"server_id":16,"name":"Uncletopia | New York City | 4 | Community","name_short":"nyc-4","host":"nyc-1.us.uncletopia.com","port":27045,"enabled":true,"region":"us-east","cc":"us","latitude":40.73061,"longitude":-73.93524,"reserved":0,"last_update":"0001-01-01T00:00:00Z","name_a2s":"Uncletopia | New York City | 4 | Community","protocol":17,"map":"workshop/koth_ramjam_rc1.ugc459778887","folder":"tf","game":"Team Fortress","app_id":440,"player_count":0,"max_players":24,"Bots":0,"server_type":"Dedicated","server_os":"Linux","password":true,"vac":true,"version":"7757534","steam_id":85568392924742821,"keywords":["cp","nocrits","nodmgspread","uncletopia"],"game_id":440,"stv_port":27046,"stv_name":"Uncletopia | New York City | 4 | Community | STV","players":null},{"server_id":142,"name":"Uncletopia | São Paulo | 1 | All Maps","name_short":"sao-1","host":"sao-1.br.uncletopia.com","port":27015,"enabled":true,"region":"sa","cc":"br","latitude":-23.533773,"longitude":-46.62529,"reserved":0,"last_update":"0001-01-01T00:00:00Z","name_a2s":"Uncletopia | São Paulo | 1 | All Maps","protocol":17,"map":"koth_lakeside_final","folder":"tf","game":"Team Fortress","app_id":440,"player_count":0,"max_players":24,"Bots":0,"server_type":"Dedicated","server_os":"Linux","password":true,"vac":true,"version":"7757534","steam_id":85568392924469996,"keywords":["cp","nocrits","nodmgspread","uncletopia"],"game_id":440,"stv_port":27016,"stv_name":"Uncletopia | São Paulo | 1 | All Maps | STV","players":null},{"server_id":143,"name":"Uncletopia | São Paulo | 2 | All Maps","name_short":"sao-2","host":"sao-2.br.uncletopia.com","port":27015,"enabled":true,"region":"sa","cc":"br","latitude":-23.533773,"longitude":-46.62529,"reserved":0,"last_update":"0001-01-01T00:00:00Z","name_a2s":"Uncletopia | São Paulo | 2 | All Maps","protocol":17,"map":"koth_highpass","folder":"tf","game":"Team Fortress","app_id":440,"player_count":0,"max_players":24,"Bots":0,"server_type":"Dedicated","server_os":"Linux","password":true,"vac":true,"version":"7757534","steam_id":85568392924485349,"keywords":["cp","nocrits","nodmgspread","uncletopia"],"game_id":440,"stv_port":27016,"stv_name":"Uncletopia | São Paulo | 2 | All Maps | STV","players":null},{"server_id":7,"name":"Uncletopia | Seattle | 1 | All Maps","name_short":"sea-1","host":"sea-1.us.uncletopia.com","port":27015,"enabled":true,"region":"us-west","cc":"us","latitude":47.608013,"longitude":-122.33517,"reserved":0,"last_update":"0001-01-01T00:00:00Z","name_a2s":"Uncletopia | Seattle | 1 | All Maps","protocol":17,"map":"pl_swiftwater_final1","folder":"tf","game":"Team Fortress","app_id":440,"player_count":24,"max_players":24,"Bots":0,"server_type":"Dedicated","server_os":"Linux","password":true,"vac":true,"version":"7757534","steam_id":85568392924469997,"keywords":["nocrits","nodmgspread","payload","uncletopia"],"game_id":440,"stv_port":27016,"stv_name":"Uncletopia | Seattle | 1 | All Maps | STV","players":[{"user_id":1092,"name":"o o o o o o o o o","steam_id":76561197993757506,"connected_time":9344000000000,"state":"active","ping":69},{"user_id":1152,"name":"Stolas","steam_id":76561199207776727,"connected_time":4522000000000,"state":"active","ping":65},{"user_id":1194,"name":"SvicidalBug","steam_id":76561198221390504,"connected_time":1144000000000,"state":"active","ping":70},{"user_id":682,"name":"Tom Skirrett","steam_id":76561198014600788,"connected_time":11434000000000,"state":"active","ping":63},{"user_id":1180,"name":"blizz","steam_id":76561199139715539,"connected_time":2456000000000,"state":"active","ping":70},{"user_id":1163,"name":"Attrition","steam_id":76561197969881916,"connected_time":3793000000000,"state":"active","ping":46},{"user_id":680,"name":"TROY","steam_id":76561197983852176,"connected_time":11565000000000,"state":"active","ping":89},{"user_id":1192,"name":"strbry","steam_id":76561198155133601,"connected_time":1403000000000,"state":"active","ping":57},{"user_id":1201,"name":"iivy","steam_id":76561198068464819,"connected_time":184000000000,"state":"active","ping":52},{"user_id":1164,"name":"Leidon","steam_id":76561198078386945,"connected_time":3708000000000,"state":"active","ping":80},{"user_id":1198,"name":"lol","steam_id":76561198026491738,"connected_time":839000000000,"state":"active","ping":85},{"user_id":1173,"name":"Fred Hampton was murdered","steam_id":76561198041907345,"connected_time":3438000000000,"state":"active","ping":86},{"user_id":1140,"name":"profile name","steam_id":76561198032625036,"connected_time":6337000000000,"state":"active","ping":56},{"user_id":1203,"name":"lytewerk","steam_id":76561198002819791,"connected_time":145000000000,"state":"active","ping":61},{"user_id":1179,"name":"MisterManne","steam_id":76561198106598600,"connected_time":3076000000000,"state":"active","ping":60},{"user_id":1183,"name":"BBL Sponsor","steam_id":76561199093733603,"connected_time":1647000000000,"state":"active","ping":80},{"user_id":1181,"name":"Aardappel","steam_id":76561198030894676,"connected_time":1659000000000,"state":"active","ping":77},{"user_id":1202,"name":"Keamy","steam_id":76561199471434875,"connected_time":163000000000,"state":"active","ping":43},{"user_id":1193,"name":"StrangeMachine","steam_id":76561198046628064,"connected_time":1391000000000,"state":"active","ping":51},{"user_id":1196,"name":"Tungsten","steam_id":76561198312854342,"connected_time":871000000000,"state":"active","ping":67},{"user_id":1195,"name":"Thanks Ants","steam_id":76561197966221018,"connected_time":877000000000,"state":"active","ping":53},{"user_id":1177,"name":"LesserAce","steam_id":76561198153258132,"connected_time":3370000000000,"state":"active","ping":128},{"user_id":1200,"name":"Hassium","steam_id":76561198162541373,"connected_time":340000000000,"state":"active","ping":59}]},{"server_id":119,"name":"Uncletopia | Seattle | 2 | All Maps","name_short":"sea-2","host":"sea-1.us.uncletopia.com","port":27025,"enabled":true,"region":"us-west","cc":"us","latitude":47.608013,"longitude":-122.33517,"reserved":0,"last_update":"0001-01-01T00:00:00Z","name_a2s":"Uncletopia | Seattle | 2 | All Maps","protocol":17,"map":"cp_powerhouse","folder":"tf","game":"Team Fortress","app_id":440,"player_count":24,"max_players":24,"Bots":0,"server_type":"Dedicated","server_os":"Linux","password":true,"vac":true,"version":"7757534","steam_id":85568392924469998,"keywords":["cp","nocrits","nodmgspread","uncletopia"],"game_id":440,"stv_port":27026,"stv_name":"Uncletopia | Seattle | 2 | All Maps | STV","players":[{"user_id":702,"name":"WuTangJuan","steam_id":76561198053050135,"connected_time":2435000000000,"state":"active","ping":139},{"user_id":735,"name":"jimme mr breast","steam_id":76561198881144114,"connected_time":516000000000,"state":"active","ping":45},{"user_id":714,"name":"Mada","steam_id":76561198112635823,"connected_time":2139000000000,"state":"active","ping":67},{"user_id":696,"name":"mtn.dewdrinker1999","steam_id":76561198021308963,"connected_time":2542000000000,"state":"active","ping":73},{"user_id":709,"name":"Combustionaut","steam_id":76561198164877813,"connected_time":2264000000000,"state":"active","ping":55},{"user_id":717,"name":"Fierce Unggoy","steam_id":76561198262565372,"connected_time":2080000000000,"state":"active","ping":56},{"user_id":708,"name":"Fanout","steam_id":76561198075619480,"connected_time":2298000000000,"state":"active","ping":86},{"user_id":699,"name":"420 Shrek It","steam_id":76561198399854981,"connected_time":2515000000000,"state":"active","ping":88},{"user_id":729,"name":"Bubbamanme","steam_id":76561198119778504,"connected_time":868000000000,"state":"active","ping":57},{"user_id":731,"name":"Frank","steam_id":76561198428759980,"connected_time":530000000000,"state":"active","ping":41},{"user_id":732,"name":"Donk2x","steam_id":76561198151664885,"connected_time":529000000000,"state":"active","ping":45},{"user_id":715,"name":"strong and healthy gamer","steam_id":76561198049489349,"connected_time":2135000000000,"state":"active","ping":58},{"user_id":718,"name":"rlty","steam_id":76561198009395055,"connected_time":2047000000000,"state":"active","ping":117},{"user_id":710,"name":"Xida","steam_id":76561198273471095,"connected_time":2257000000000,"state":"active","ping":47},{"user_id":711,"name":"Thequirka","steam_id":76561198968058652,"connected_time":2255000000000,"state":"active","ping":48},{"user_id":712,"name":"amoeber","steam_id":76561198081564767,"connected_time":2252000000000,"state":"active","ping":55},{"user_id":737,"name":"The Population of Sweden","steam_id":76561198202201644,"connected_time":347000000000,"state":"active","ping":42},{"user_id":719,"name":"Soda","steam_id":76561198219209367,"connected_time":2044000000000,"state":"active","ping":53},{"user_id":705,"name":"chaos","steam_id":76561198055462404,"connected_time":2416000000000,"state":"active","ping":69},{"user_id":741,"name":"♡ Venti ♡","steam_id":76561198056269538,"connected_time":262000000000,"state":"active","ping":59},{"user_id":692,"name":"nzippy","steam_id":76561199048618678,"connected_time":2953000000000,"state":"active","ping":55},{"user_id":739,"name":"Roomba (Official)","steam_id":76561198837307347,"connected_time":283000000000,"state":"active","ping":60},{"user_id":723,"name":"MS Paint Gamer","steam_id":76561198964527916,"connected_time":1513000000000,"state":"active","ping":51},{"user_id":742,"name":"Naffers","steam_id":76561198195957335,"connected_time":261000000000,"state":"active","ping":44}]},{"server_id":406,"name":"Uncletopia | Seattle | 3 | Stopwatch Beta","name_short":"sea-3","host":"sea-1.us.uncletopia.com","port":27035,"enabled":true,"region":"us-west","cc":"us","latitude":47.608013,"longitude":-122.33517,"reserved":0,"last_update":"0001-01-01T00:00:00Z","name_a2s":"Uncletopia | Seattle | 3 | Stopwatch Beta","protocol":17,"map":"workshop/koth_ashville_final.ugc2130459942","folder":"tf","game":"Team Fortress","app_id":440,"player_count":0,"max_players":24,"Bots":0,"server_type":"Dedicated","server_os":"Linux","password":true,"vac":true,"version":"7757534","steam_id":85568392924515217,"keywords":["cp","nocrits","nodmgspread","uncletopia"],"game_id":440,"stv_port":27036,"stv_name":"Uncletopia | Seattle | 3 | Stopwatch Beta | STV","players":null},{"server_id":17,"name":"Uncletopia | San Francisco | 1 | All Maps","name_short":"sfo-1","host":"sfo-1.us.uncletopia.com","port":27015,"enabled":true,"region":"us-west","cc":"us","latitude":37.77397,"longitude":-122.4313,"reserved":0,"last_update":"0001-01-01T00:00:00Z","name_a2s":"Uncletopia | San Francisco | 1 | All Maps","protocol":17,"map":"cp_sunshine","folder":"tf","game":"Team Fortress","app_id":440,"player_count":24,"max_players":24,"Bots":0,"server_type":"Dedicated","server_os":"Linux","password":true,"vac":true,"version":"7757534","steam_id":85568392924469999,"keywords":["cp","nocrits","nodmgspread","uncletopia"],"game_id":440,"stv_port":27016,"stv_name":"Uncletopia | San Francisco | 1 | All Maps | STV","players":[{"user_id":571,"name":"CB1 Cousin Junebug","steam_id":76561198090573639,"connected_time":2926000000000,"state":"active","ping":55},{"user_id":584,"name":"Zquiddo (goober arc)","steam_id":76561198798931344,"connected_time":2066000000000,"state":"active","ping":75},{"user_id":597,"name":"cass","steam_id":76561198074502046,"connected_time":1314000000000,"state":"active","ping":109},{"user_id":540,"name":"♠Silver♠","steam_id":76561198206109224,"connected_time":5272000000000,"state":"active","ping":125},{"user_id":572,"name":"Resident Thrussy Lender","steam_id":76561198071790583,"connected_time":2919000000000,"state":"active","ping":97},{"user_id":613,"name":"Quietsharp","steam_id":76561198277968438,"connected_time":378000000000,"state":"active","ping":60},{"user_id":601,"name":"Flembrane","steam_id":76561197995328898,"connected_time":1189000000000,"state":"active","ping":46},{"user_id":612,"name":"Jue Hai","steam_id":76561198803095781,"connected_time":707000000000,"state":"active","ping":118},{"user_id":541,"name":"fitotutus","steam_id":76561197974993253,"connected_time":5079000000000,"state":"active","ping":122},{"user_id":605,"name":"Luffa Rigno","steam_id":76561197998700507,"connected_time":1150000000000,"state":"active","ping":75},{"user_id":595,"name":"FriskyDemon","steam_id":76561198043684646,"connected_time":1595000000000,"state":"active","ping":83},{"user_id":607,"name":"I THINK COOLSVILLE SUCKS","steam_id":76561198066855998,"connected_time":1101000000000,"state":"active","ping":63},{"user_id":590,"name":"Villchip","steam_id":76561198198599982,"connected_time":1844000000000,"state":"active","ping":71},{"user_id":555,"name":"***cuppy dog city***","steam_id":76561198073856185,"connected_time":4107000000000,"state":"active","ping":66},{"user_id":596,"name":"triple sicky stink","steam_id":76561198333730545,"connected_time":1558000000000,"state":"active","ping":67},{"user_id":556,"name":"orio","steam_id":76561198116550170,"connected_time":4052000000000,"state":"active","ping":51},{"user_id":559,"name":"lker","steam_id":76561197976975075,"connected_time":4034000000000,"state":"active","ping":91},{"user_id":587,"name":"Communist Killing Candy Cactus\ufffd","steam_id":76561198074980635,"connected_time":1968000000000,"state":"active","ping":83},{"user_id":616,"name":"sk","steam_id":76561198133360797,"connected_time":304000000000,"state":"active","ping":72},{"user_id":577,"name":"MatchMatch","steam_id":76561198048925904,"connected_time":2678000000000,"state":"active","ping":73},{"user_id":608,"name":"violet.goober","steam_id":76561198248461754,"connected_time":1095000000000,"state":"active","ping":57},{"user_id":609,"name":"A Shiny Meat Bicycle","steam_id":76561198358757709,"connected_time":1085000000000,"state":"active","ping":141},{"user_id":615,"name":"neurotic","steam_id":76561198081545480,"connected_time":314000000000,"state":"active","ping":96},{"user_id":589,"name":"Rynx","steam_id":76561198369477018,"connected_time":1905000000000,"state":"active","ping":74}]},{"server_id":18,"name":"Uncletopia | San Francisco | 2 | All Maps","name_short":"sfo-2","host":"sfo-1.us.uncletopia.com","port":27025,"enabled":true,"region":"us-west","cc":"us","latitude":37.77397,"longitude":-122.4313,"reserved":0,"last_update":"0001-01-01T00:00:00Z","name_a2s":"Uncletopia | San Francisco | 2 | All Maps","protocol":17,"map":"cp_dustbowl","folder":"tf","game":"Team Fortress","app_id":440,"player_count":0,"max_players":24,"Bots":0,"server_type":"Dedicated","server_os":"Linux","password":true,"vac":true,"version":"7757534","steam_id":85568392924470000,"keywords":["cp","nocrits","nodmgspread","uncletopia"],"game_id":440,"stv_port":27026,"stv_name":"Uncletopia | San Francisco | 2 | All Maps | STV","players":null},{"server_id":19,"name":"Uncletopia | San Francisco | 3 | Stopwatch Beta","name_short":"sfo-3","host":"sfo-1.us.uncletopia.com","port":27035,"enabled":true,"region":"us-west","cc":"us","latitude":37.77397,"longitude":-122.4313,"reserved":0,"last_update":"0001-01-01T00:00:00Z","name_a2s":"Uncletopia | San Francisco | 3 | Stopwatch Beta","protocol":17,"map":"koth_lakeside_final","folder":"tf","game":"Team Fortress","app_id":440,"player_count":0,"max_players":24,"Bots":0,"server_type":"Dedicated","server_os":"Linux","password":true,"vac":true,"version":"7757534","steam_id":85568392924742824,"keywords":["cp","nocrits","nodmgspread","uncletopia"],"game_id":440,"stv_port":27036,"stv_name":"Uncletopia | San Francisco | 3 | Stopwatch Beta | STV","players":null},{"server_id":20,"name":"Uncletopia | San Francisco | 4 | Community","name_short":"sfo-4","host":"sfo-1.us.uncletopia.com","port":27045,"enabled":true,"region":"us-west","cc":"us","latitude":37.77397,"longitude":-122.4313,"reserved":0,"last_update":"0001-01-01T00:00:00Z","name_a2s":"Uncletopia | San Francisco | 4 | Community","protocol":17,"map":"workshop/cp_propaganda_b18.ugc1603743849","folder":"tf","game":"Team Fortress","app_id":440,"player_count":24,"max_players":24,"Bots":0,"server_type":"Dedicated","server_os":"Linux","password":true,"vac":true,"version":"7757534","steam_id":85568392924742826,"keywords":["cp","nocrits","nodmgspread","uncletopia"],"game_id":440,"stv_port":27046,"stv_name":"Uncletopia | San Francisco | 4 | Community | STV","players":[{"user_id":165,"name":"Feel the bern","steam_id":76561198078824519,"connected_time":5668000000000,"state":"active","ping":90},{"user_id":254,"name":"JON","steam_id":76561198057971005,"connected_time":86000000000,"state":"active","ping":55},{"user_id":224,"name":"Blare","steam_id":76561198023669032,"connected_time":2002000000000,"state":"active","ping":47},{"user_id":253,"name":"Bony","steam_id":76561199001748822,"connected_time":136000000000,"state":"active","ping":60},{"user_id":221,"name":"MetalTao","steam_id":76561198189408110,"connected_time":2407000000000,"state":"active","ping":133},{"user_id":252,"name":"skypad_enjoyer","steam_id":76561198073107739,"connected_time":211000000000,"state":"active","ping":62},{"user_id":201,"name":"stand-up scientist","steam_id":76561198070136627,"connected_time":3594000000000,"state":"active","ping":52},{"user_id":248,"name":"Optimore","steam_id":76561198047662990,"connected_time":728000000000,"state":"active","ping":51},{"user_id":225,"name":"tanka heavy","steam_id":76561198114123741,"connected_time":1971000000000,"state":"active","ping":83},{"user_id":191,"name":"fish (2:3)","steam_id":76561198134331073,"connected_time":4010000000000,"state":"active","ping":83},{"user_id":202,"name":"researcher 1312","steam_id":76561198799922000,"connected_time":3578000000000,"state":"active","ping":60},{"user_id":249,"name":"Ranger","steam_id":76561199048628904,"connected_time":726000000000,"state":"active","ping":86},{"user_id":250,"name":"esdot","steam_id":76561198836178527,"connected_time":664000000000,"state":"active","ping":70},{"user_id":217,"name":"BID  YOU FAREWELL","steam_id":76561198263004448,"connected_time":3034000000000,"state":"active","ping":52},{"user_id":227,"name":"ROME ghadilli","steam_id":76561198045838834,"connected_time":1933000000000,"state":"active","ping":67},{"user_id":251,"name":"ritzy rick.psd","steam_id":76561198167997186,"connected_time":398000000000,"state":"active","ping":105},{"user_id":243,"name":"Sir Gavobro","steam_id":76561198112177900,"connected_time":1059000000000,"state":"active","ping":143},{"user_id":247,"name":"nap","steam_id":76561198162714624,"connected_time":849000000000,"state":"active","ping":79},{"user_id":228,"name":"Mr.Sandman","steam_id":76561198116517200,"connected_time":1916000000000,"state":"active","ping":70},{"user_id":210,"name":"Zote the Mighty","steam_id":76561199200101117,"connected_time":3415000000000,"state":"active","ping":72},{"user_id":236,"name":"Rakk","steam_id":76561198855176174,"connected_time":1687000000000,"state":"active","ping":53},{"user_id":230,"name":"soldier (tea for two)","steam_id":76561198072318772,"connected_time":1856000000000,"state":"active","ping":55},{"user_id":237,"name":"BladeoftheStars","steam_id":76561199016012847,"connected_time":1652000000000,"state":"active","ping":92},{"user_id":232,"name":"Toast","steam_id":76561198234616616,"connected_time":1829000000000,"state":"active","ping":124}]},{"server_id":141,"name":"Uncletopia | Sydney | 1 | All Maps","name_short":"syd-1","host":"syd-1.au.uncletopia.com","port":27015,"enabled":true,"region":"au","cc":"au","latitude":-33.865143,"longitude":151.2099,"reserved":0,"last_update":"0001-01-01T00:00:00Z","name_a2s":"Uncletopia | Sydney | 1 | All Maps","protocol":17,"map":"koth_viaduct","folder":"tf","game":"Team Fortress","app_id":440,"player_count":0,"max_players":24,"Bots":0,"server_type":"Dedicated","server_os":"Linux","password":true,"vac":true,"version":"7757534","steam_id":85568392924470001,"keywords":["cp","nocrits","nodmgspread","uncletopia"],"game_id":440,"stv_port":27016,"stv_name":"Uncletopia | Sydney | 1 | All Maps | STV","players":null},{"server_id":123,"name":"Uncletopia | Sydney | 2 | All Maps","name_short":"syd-2","host":"syd-1.au.uncletopia.com","port":27025,"enabled":true,"region":"au","cc":"au","latitude":-33.865143,"longitude":151.2099,"reserved":0,"last_update":"0001-01-01T00:00:00Z","name_a2s":"Uncletopia | Sydney | 2 | All Maps","protocol":17,"map":"pl_upward","folder":"tf","game":"Team Fortress","app_id":440,"player_count":24,"max_players":24,"Bots":0,"server_type":"Dedicated","server_os":"Linux","password":true,"vac":true,"version":"7757534","steam_id":85568392924470002,"keywords":["nocrits","nodmgspread","payload","uncletopia"],"game_id":440,"stv_port":27026,"stv_name":"Uncletopia | Sydney | 2 | All Maps | STV","players":[{"user_id":57,"name":"Xelly","steam_id":76561198093250305,"connected_time":1965000000000,"state":"active","ping":68},{"user_id":11,"name":"squrrel","steam_id":76561198083429611,"connected_time":4907000000000,"state":"active","ping":74},{"user_id":12,"name":"internetkittenz13","steam_id":76561198881042979,"connected_time":4887000000000,"state":"active","ping":34},{"user_id":53,"name":"natopotato.co","steam_id":76561198958059883,"connected_time":2063000000000,"state":"active","ping":73},{"user_id":15,"name":"Cup","steam_id":76561198038485845,"connected_time":4281000000000,"state":"active","ping":32},{"user_id":61,"name":"FIX","steam_id":76561197995157189,"connected_time":1474000000000,"state":"active","ping":49},{"user_id":59,"name":"TheNeutrality","steam_id":76561199017954062,"connected_time":1720000000000,"state":"active","ping":177},{"user_id":58,"name":"Haste","steam_id":76561198173155142,"connected_time":1844000000000,"state":"active","ping":59},{"user_id":19,"name":"Bing Soy","steam_id":76561198057093383,"connected_time":3713000000000,"state":"active","ping":51},{"user_id":66,"name":"Critz Eastwood","steam_id":76561198050094688,"connected_time":1112000000000,"state":"active","ping":58},{"user_id":56,"name":"whiteshaq","steam_id":76561198131988811,"connected_time":2002000000000,"state":"active","ping":79},{"user_id":46,"name":"KeeperOfBalance","steam_id":76561198028070089,"connected_time":2260000000000,"state":"active","ping":90},{"user_id":64,"name":"Marmalade Cat","steam_id":76561198086309767,"connected_time":1299000000000,"state":"active","ping":61},{"user_id":52,"name":"Strausicle","steam_id":76561198983332062,"connected_time":2103000000000,"state":"active","ping":69},{"user_id":29,"name":"Jauntyweb","steam_id":76561198814458512,"connected_time":2883000000000,"state":"active","ping":89},{"user_id":69,"name":"no teles 4 u","steam_id":76561198018478297,"connected_time":132000000000,"state":"active","ping":72},{"user_id":44,"name":"Flakey","steam_id":76561198021618682,"connected_time":2422000000000,"state":"active","ping":69},{"user_id":37,"name":"Bob Ross","steam_id":76561198081686896,"connected_time":2498000000000,"state":"active","ping":60},{"user_id":33,"name":"Dr. Hoppity","steam_id":76561197999715646,"connected_time":2649000000000,"state":"active","ping":57},{"user_id":60,"name":"alex","steam_id":76561198053382248,"connected_time":1712000000000,"state":"active","ping":45},{"user_id":45,"name":"Ninjanoah5","steam_id":76561198858613596,"connected_time":2399000000000,"state":"active","ping":51},{"user_id":40,"name":"DACHIDAY","steam_id":76561198068308861,"connected_time":2488000000000,"state":"active","ping":68},{"user_id":41,"name":"calculusfish","steam_id":76561198067205959,"connected_time":2481000000000,"state":"active","ping":68},{"user_id":70,"name":"Finios","steam_id":76561198209013071,"connected_time":100000000000,"state":"active","ping":55}]},{"server_id":395,"name":"Uncletopia | Sydney | 3 | All Maps","name_short":"syd-3","host":"syd-1.au.uncletopia.com","port":27035,"enabled":true,"region":"au","cc":"au","latitude":-33.865143,"longitude":151.2099,"reserved":0,"last_update":"0001-01-01T00:00:00Z","name_a2s":"Uncletopia | Sydney | 3 | All Maps","protocol":17,"map":"koth_sawmill","folder":"tf","game":"Team Fortress","app_id":440,"player_count":0,"max_players":24,"Bots":0,"server_type":"Dedicated","server_os":"Linux","password":true,"vac":true,"version":"7757534","steam_id":85568392925194467,"keywords":["cp","nocrits","nodmgspread","uncletopia"],"game_id":440,"stv_port":27036,"stv_name":"Uncletopia | Sydney | 3 | All Maps | STV","players":null},{"server_id":396,"name":"Uncletopia | Sydney | 4 | All Maps","name_short":"syd-4","host":"syd-1.au.uncletopia.com","port":27045,"enabled":true,"region":"au","cc":"au","latitude":-33.865143,"longitude":151.2099,"reserved":0,"last_update":"0001-01-01T00:00:00Z","name_a2s":"Uncletopia | Sydney | 4 | All Maps","protocol":17,"map":"pl_barnblitz","folder":"tf","game":"Team Fortress","app_id":440,"player_count":0,"max_players":24,"Bots":0,"server_type":"Dedicated","server_os":"Linux","password":true,"vac":true,"version":"7757534","steam_id":85568392925397958,"keywords":["nocrits","nodmgspread","payload","uncletopia"],"game_id":440,"stv_port":27046,"stv_name":"Uncletopia | Sydney | 4 | All Maps | STV","players":null},{"server_id":58,"name":"Uncletopia | Sydney | 5 | Stopwatch Beta","name_short":"syd-5","host":"syd-1.au.uncletopia.com","port":27055,"enabled":true,"region":"au","cc":"au","latitude":-33.865143,"longitude":151.2099,"reserved":0,"last_update":"0001-01-01T00:00:00Z","name_a2s":"Uncletopia | Sydney | 5 | Stopwatch Beta","protocol":17,"map":"cp_gullywash_final1","folder":"tf","game":"Team Fortress","app_id":440,"player_count":0,"max_players":24,"Bots":0,"server_type":"Dedicated","server_os":"Linux","password":true,"vac":true,"version":"7757534","steam_id":85568392925397959,"keywords":["cp","nocrits","nodmgspread","uncletopia"],"game_id":440,"stv_port":27056,"stv_name":"Uncletopia | Sydney | 5 | Stopwatch Beta | STV","players":null},{"server_id":59,"name":"Uncletopia | Sydney | 6 | Community","name_short":"syd-6","host":"syd-1.au.uncletopia.com","port":27065,"enabled":true,"region":"au","cc":"au","latitude":-33.865143,"longitude":151.2099,"reserved":0,"last_update":"0001-01-01T00:00:00Z","name_a2s":"Uncletopia | Sydney | 6 | Community","protocol":17,"map":"pl_badwater","folder":"tf","game":"Team Fortress","app_id":440,"player_count":0,"max_players":24,"Bots":0,"server_type":"Dedicated","server_os":"Linux","password":true,"vac":true,"version":"7757534","steam_id":85568392925397960,"keywords":["nocrits","nodmgspread","payload","uncletopia"],"game_id":440,"stv_port":27066,"stv_name":"Uncletopia | Sydney | 6 | Community | STV","players":null},{"server_id":49,"name":"Uncletopia | Warsaw | 1 | All Maps","name_short":"waw-1","host":"waw-1.pl.uncletopia.com","port":27015,"enabled":true,"region":"eu","cc":"pl","latitude":52.2297,"longitude":21.017532,"reserved":0,"last_update":"0001-01-01T00:00:00Z","name_a2s":"","protocol":0,"map":"","folder":"","game":"","app_id":0,"player_count":0,"max_players":0,"Bots":0,"server_type":"","server_os":"","password":false,"vac":false,"version":"","steam_id":0,"keywords":null,"game_id":0,"stv_port":0,"stv_name":"","players":null},{"server_id":50,"name":"Uncletopia | Warsaw | 2 | All Maps","name_short":"waw-2","host":"waw-1.pl.uncletopia.com","port":27025,"enabled":true,"region":"eu","cc":"pl","latitude":52.2297,"longitude":21.017532,"reserved":0,"last_update":"0001-01-01T00:00:00Z","name_a2s":"Uncletopia | Warsaw | 2 | All Maps","protocol":17,"map":"pl_upward","folder":"tf","game":"Team Fortress","app_id":440,"player_count":0,"max_players":24,"Bots":0,"server_type":"Dedicated","server_os":"Linux","password":true,"vac":true,"version":"7757534","steam_id":85568392925397851,"keywords":["nocrits","nodmgspread","payload","uncletopia"],"game_id":440,"stv_port":27026,"stv_name":"Uncletopia | Warsaw | 2 | All Maps | STV","players":null},{"server_id":51,"name":"Uncletopia | Warsaw | 3 | All Maps","name_short":"waw-3","host":"waw-1.pl.uncletopia.com","port":27035,"enabled":true,"region":"eu","cc":"pl","latitude":52.2297,"longitude":21.017532,"reserved":0,"last_update":"0001-01-01T00:00:00Z","name_a2s":"Uncletopia | Warsaw | 3 | All Maps","protocol":17,"map":"pl_barnblitz","folder":"tf","game":"Team Fortress","app_id":440,"player_count":0,"max_players":24,"Bots":0,"server_type":"Dedicated","server_os":"Linux","password":true,"vac":true,"version":"7757534","steam_id":85568392925397852,"keywords":["nocrits","nodmgspread","payload","uncletopia"],"game_id":440,"stv_port":27036,"stv_name":"Uncletopia | Warsaw | 3 | All Maps | STV","players":null},{"server_id":52,"name":"Uncletopia | Warsaw | 4 | All Maps","name_short":"waw-4","host":"waw-1.pl.uncletopia.com","port":27045,"enabled":true,"region":"eu","cc":"pl","latitude":52.2297,"longitude":21.017532,"reserved":0,"last_update":"0001-01-01T00:00:00Z","name_a2s":"Uncletopia | Warsaw | 4 | All Maps","protocol":17,"map":"cp_altitude","folder":"tf","game":"Team Fortress","app_id":440,"player_count":0,"max_players":24,"Bots":0,"server_type":"Dedicated","server_os":"Linux","password":true,"vac":true,"version":"7757534","steam_id":85568392925397853,"keywords":["cp","nocrits","nodmgspread","uncletopia"],"game_id":440,"stv_port":27046,"stv_name":"Uncletopia | Warsaw | 4 | All Maps | STV","players":null},{"server_id":53,"name":"Uncletopia | Warsaw | 5 | Stopwatch Beta","name_short":"waw-5","host":"waw-1.pl.uncletopia.com","port":27055,"enabled":true,"region":"eu","cc":"pl","latitude":52.2297,"longitude":21.017532,"reserved":0,"last_update":"0001-01-01T00:00:00Z","name_a2s":"Uncletopia | Warsaw | 5 | Stopwatch Beta","protocol":17,"map":"pl_pier","folder":"tf","game":"Team Fortress","app_id":440,"player_count":0,"max_players":24,"Bots":0,"server_type":"Dedicated","server_os":"Linux","password":true,"vac":true,"version":"7757534","steam_id":85568392925397854,"keywords":["nocrits","nodmgspread","payload","uncletopia"],"game_id":440,"stv_port":27056,"stv_name":"Uncletopia | Warsaw | 5 | Stopwatch Beta | STV","players":null},{"server_id":54,"name":"Uncletopia | Warsaw | 6 | Community","name_short":"waw-6","host":"waw-1.pl.uncletopia.com","port":27065,"enabled":true,"region":"eu","cc":"pl","latitude":52.2297,"longitude":21.017532,"reserved":0,"last_update":"0001-01-01T00:00:00Z","name_a2s":"Uncletopia | Warsaw | 6 | Community","protocol":17,"map":"koth_highpass","folder":"tf","game":"Team Fortress","app_id":440,"player_count":0,"max_players":24,"Bots":0,"server_type":"Dedicated","server_os":"Linux","password":true,"vac":true,"version":"7757534","steam_id":85568392925397856,"keywords":["cp","nocrits","nodmgspread","uncletopia"],"game_id":440,"stv_port":27066,"stv_name":"Uncletopia | Warsaw | 6 | Community | STV","players":null}]}