{"status":true,"message":"","result":[{"server_id":9,"name":"Uncletopia | Atlanta | 1 | All Maps","name_short":"atl-1","host":"atl-1.us.uncletopia.com","port":27015,"enabled":true,"region":"us-east","cc":"us","latitude":33.753746,"longitude":-84.38633,"reserved":0,"last_update":"0001-01-01T00:00:00Z","name_a2s":"Uncletopia | Atlanta | 1 | All Maps","protocol":17,"map":"pl_upward","folder":"tf","game":"Team Fortress","app_id":440,"player_count":24,"max_players":24,"Bots":0,"server_type":"Dedicated","server_os":"Linux","password":true,"vac":true,"version":"7757534","steam_id":85568392924469982,"keywords":["nocrits","nodmgspread","payload","uncletopia"],"game_id":440,"stv_port":27016,"stv_name":"Uncletopia | Atlanta | 1 | All Maps | STV","players":[{"user_id":454,"name":"melancholy","steam_id":76561198024301465,"connected_time":15680000000000,"state":"active","ping":44},{"user_id":597,"name":"Five","steam_id":76561198026640473,"connected_time":1949000000000,"state":"active","ping":90},{"user_id":606,"name":"Monster","steam_id":76561198189429665,"connected_time":894000000000,"state":"active","ping":64},{"user_id":514,"name":"Dr.Zarann","steam_id":76561198163952958,"connected_time":11588000000000,"state":"active","ping":55},{"user_id":615,"name":"moe5x","steam_id":76561198316877833,"connected_time":189000000000,"state":"active","ping":109},{"user_id":538,"name":"Jin Gulilo","steam_id":76561198065151242,"connected_time":9449000000000,"state":"active","ping":73},{"user_id":600,"name":"mrcatman","steam_id":76561198358434883,"connected_time":1537000000000,"state":"active","ping":67},{"user_id":613,"name":"Lazulf","steam_id":76561198041410859,"connected_time":383000000000,"state":"active","ping":83},{"user_id":578,"name":"Intro Bonito","steam_id":76561198119478838,"connected_time":5050000000000,"state":"active","ping":45},{"user_id":617,"name":"TrashMan","steam_id":76561198064860110,"connected_time":174000000000,"state":"active","ping":71},{"user_id":610,"name":"lil hog","steam_id":76561199230929836,"connected_time":495000000000,"state":"active","ping":94},{"user_id":395,"name":"eish","steam_id":76561198089463603,"connected_time":21185000000000,"state":"active","ping":119},{"user_id":605,"name":"BIG HOG","steam_id":76561198079923652,"connected_time":1012000000000,"state":"active","ping":66},{"user_id":616,"name":"toho","steam_id":76561198117747254,"connected_time":186000000000,"state":"active","ping":59},{"user_id":585,"name":"Lost (15)","steam_id":76561198093713427,"connected_time":3489000000000,"state":"active","ping":75},{"user_id":591,"name":"BambuBabyPackRunner","steam_id":76561198320866421,"connected_time":3106000000000,"state":"active","ping":57},{"user_id":618,"name":"TheTruthOfTheCessationOfDukkha","steam_id":76561198214370515,"connected_time":171000000000,"state":"active","ping":73},{"user_id":594,"name":"Onyx","steam_id":76561198275349640,"connected_time":2406000000000,"state":"active","ping":75},{"user_id":607,"name":"TheDieeg","steam_id":76561199443116996,"connected_time":821000000000,"state":"active","ping":109},{"user_id":619,"name":"Cosmotzar","steam_id":76561198027505591,"connected_time":166000000000,"state":"active","ping":85},{"user_id":620,"name":"Kiphus","steam_id":76561198025289407,"connected_time":60000000000,"state":"active","ping":78},{"user_id":608,"name":"SMHTMFTTF","steam_id":76561199079614516,"connected_time":690000000000,"state":"active","ping":80},{"user_id":467,"name":"ATL1 | Vee (very cool)","steam_id":76561198330432889,"connected_time":14995000000000,"state":"active","ping":74},{"user_id":611,"name":"Master Khoga","steam_id":76561199229538899,"connected_time":495000000000,"state":"active","ping":82}]},{"server_id":400,"name":"Uncletopia | Atlanta | 3 | Community","name_short":"atl-3","host":"atl-1.us.uncletopia.com","port":27035,"enabled":true,"region":"us-east","cc":"us","latitude":33.753746,"longitude":-84.38633,"reserved":0,"last_update":"0001-01-01T00:00:00Z","name_a2s":"Uncletopia | Atlanta | 3 | Community","protocol":17,"map":"workshop/cp_croissant_final.ugc458840209","folder":"tf","game":"Team Fortress","app_id":440,"player_count":24,"max_players":24,"Bots":0,"server_type":"Dedicated","server_os":"Linux","password":true,"vac":true,"version":"7757534","steam_id":85568392924515187,"keywords":["cp","nocrits","nodmgspread","uncletopia"],"game_id":440,"stv_port":27036,"stv_name":"Uncletopia | Atlanta | 3 | Community | STV","players":[{"user_id":213,"name":"Sorrelyn","steam_id":76561198040851062,"connected_time":3446000000000,"state":"active","ping":45},{"user_id":76,"name":"ribbonborn","steam_id":76561198001195423,"connected_time":12403000000000,"state":"active","ping":68},{"user_id":228,"name":"Kohaku","steam_id":76561198358814557,"connected_time":2270000000000,"state":"active","ping":63},{"user_id":264,"name":"Space-E","steam_id":76561198799417313,"connected_time":86000000000,"state":"active","ping":90},{"user_id":214,"name":"NobodyMonkey","steam_id":76561198318360972,"connected_time":3170000000000,"state":"active","ping":117},{"user_id":244,"name":"Front Facing Magikarp","steam_id":76561198085888959,"connected_time":1004000000000,"state":"active","ping":46},{"user_id":261,"name":"NVM!!!","steam_id":76561198432721568,"connected_time":331000000000,"state":"active","ping":120},{"user_id":224,"name":"Fermenting Kiwi","steam_id":76561198253303497,"connected_time":2447000000000,"state":"active","ping":85},{"user_id":259,"name":"gus","steam_id":76561199476073287,"connected_time":465000000000,"state":"active","ping":108},{"user_id":250,"name":"Stargriefer190","steam_id":76561198996425356,"connected_time":781000000000,"state":"active","ping":83},{"user_id":159,"name":"potato pat","steam_id":76561198025489194,"connected_time":7302000000000,"state":"active","ping":72},{"user_id":226,"name":"Cat_Soldier #KillSaveTF2","steam_id":76561198799974610,"connected_time":2367000000000,"state":"active","ping":49},{"user_id":246,"name":"090-nsalih","steam_id":76561199467467873,"connected_time":987000000000,"state":"active","ping":135},{"user_id":256,"name":"hour long video essay","steam_id":76561198143132686,"connected_time":663000000000,"state":"active","ping":104},{"user_id":162,"name":"basil","steam_id":76561198075758026,"connected_time":7091000000000,"state":"active","ping":65},{"user_id":229,"name":"Kit kyat","steam_id":76561198235786296,"connected_time":2255000000000,"state":"active","ping":77},{"user_id":254,"name":"That One Guy","steam_id":76561198945646560,"connected_time":722000000000,"state":"active","ping":100},{"user_id":209,"name":"A Box of Kobolds","steam_id":76561198057070883,"connected_time":3737000000000,"state":"active","ping":63},{"user_id":255,"name":"TF3 Moodyx","steam_id":76561198041849544,"connected_time":715000000000,"state":"active","ping":90},{"user_id":265,"name":"Do Moose go Moo?","steam_id":76561198073550620,"connected_time":65000000000,"state":"active","ping":69},{"user_id":133,"name":"QueenPinharam","steam_id":76561199015626409,"connected_time":8595000000000,"state":"active","ping":71},{"user_id":257,"name":"Notation","steam_id":76561198119509319,"connected_time":614000000000,"state":"active","ping":49},{"user_id":260,"name":"Potassium!","steam_id":76561199082921723,"connected_time":415000000000,"state":"active","ping":115},{"user_id":188,"name":"[shx]","steam_id":76561198070159233,"connected_time":5359000000000,"state":"active","ping":76}]},{"server_id":401,"name":"Uncletopia | Atlanta | 4 | No Payload","name_short":"atl-4","host":"atl-1.us.uncletopia.com","port":27045,"enabled":true,"region":"us-east","cc":"us","latitude":33.753746,"longitude":-84.38633,"reserved":0,"last_update":"0001-01-01T00:00:00Z","name_a2s":"","protocol":0,"map":"","folder":"","game":"","app_id":0,"player_count":0,"max_players":0,"Bots":0,"server_type":"","server_os":"","password":false,"vac":false,"version":"","steam_id":0,"keywords":null,"game_id":0,"stv_port":0,"stv_name":"","players":null},{"server_id":2,"name":"Uncletopia | Chicago | 1 | All Maps","name_short":"chi-1","host":"chi-1.us.uncletopia.com","port":27015,"enabled":true,"region":"us-central","cc":"us","latitude":41.881832,"longitude":-87.62318,"reserved":0,"last_update":"0001-01-01T00:00:00Z","name_a2s":"Uncletopia | Chicago | 1 | All Maps","protocol":17,"map":"koth_lakeside_final","folder":"tf","game":"Team Fortress","app_id":440,"player_count":24,"max_players":24,"Bots":0,"server_type":"Dedicated","server_os":"Linux","password":true,"vac":true,"version":"7757534","steam_id":85568392924469984,"keywords":["cp","nocrits","nodmgspread","uncletopia"],"game_id":440,"stv_port":27016,"stv_name":"Uncletopia | Chicago | 1 | All Maps | STV","players":[{"user_id":787,"name":"General Girthquake","steam_id":76561198124737840,"connected_time":5584000000000,"state":"active","ping":56},{"user_id":681,"name":"Ademar","steam_id":76561199391802581,"connected_time":13977000000000,"state":"active","ping":58},{"user_id":854,"name":"onion","steam_id":76561198242311084,"connected_time":74000000000,"state":"active","ping":61},{"user_id":844,"name":"Assofwater96","steam_id":76561199121708318,"connected_time":1106000000000,"state":"active","ping":58},{"user_id":842,"name":"God's Cutest Twink","steam_id":76561198053164901,"connected_time":1171000000000,"state":"active","ping":59},{"user_id":841,"name":"Interrobang","steam_id":76561198385044529,"connected_time":1185000000000,"state":"active","ping":149},{"user_id":816,"name":"ShitsandGiggles‚Ñ¢","steam_id":76561198058708019,"connected_time":2715000000000,"state":"active","ping":55},{"user_id":821,"name":"The Drunk Clown","steam_id":76561197986850426,"connected_time":2588000000000,"state":"active","ping":75},{"user_id":834,"name":"DaBetes","steam_id":76561198255941081,"connected_time":1988000000000,"state":"active","ping":93},{"user_id":845,"name":"Arrythmia","steam_id":76561198093748123,"connected_time":1068000000000,"state":"active","ping":104},{"user_id":836,"name":"pipebombrater","steam_id":76561199029030831,"connected_time":1876000000000,"state":"active","ping":71},{"user_id":850,"name":"Elizabeth truss","steam_id":76561198058250979,"connected_time":550000000000,"state":"active","ping":71},{"user_id":837,"name":"hud_saytext_time 0","steam_id":76561198010327228,"connected_time":1564000000000,"state":"active","ping":173},{"user_id":840,"name":"OrionKid","steam_id":76561198359094901,"connected_time":1384000000000,"state":"active","ping":68},{"user_id":853,"name":"erm categorie","steam_id":76561198272354852,"connected_time":323000000000,"state":"active","ping":49},{"user_id":846,"name":"deech","steam_id":76561198066429444,"connected_time":951000000000,"state":"active","ping":69},{"user_id":824,"name":"arachnakat","steam_id":76561198986095433,"connected_time":2451000000000,"state":"active","ping":86},{"user_id":847,"name":"The slattiator","steam_id":76561198084422657,"connected_time":943000000000,"state":"active","ping":85},{"user_id":759,"name":"[ŸäŸáŸàÿØŸä] Bill Clinton [◊ê◊ú","steam_id":76561198163291190,"connected_time":8582000000000,"state":"active","ping":85},{"user_id":826,"name":"wolf_71","steam_id":76561198963570945,"connected_time":2403000000000,"state":"active","ping":63},{"user_id":831,"name":"the lesbianist pyroshark","steam_id":76561198374227766,"connected_time":2248000000000,"state":"active","ping":72},{"user_id":852,"name":"resplendent miniscule","steam_id":76561198091862137,"connected_time":398000000000,"state":"active","ping":63},{"user_id":810,"name":"RURU","steam_id":76561198039758987,"connected_time":3525000000000,"state":"active","ping":102},{"user_id":851,"name":"TheHarmacist","steam_id":76561198068249096,"connected_time":405000000000,"state":"active","ping":62}]},{"server_id":106,"name":"Uncletopia | Chicago | 2 | All Maps","name_short":"chi-2","host":"chi-1.us.uncletopia.com","port":27025,"enabled":true,"region":"us-central","cc":"us","latitude":41.881832,"longitude":-87.62318,"reserved":0,"last_update":"0001-01-01T00:00:00Z","name_a2s":"Uncletopia | Chicago | 2 | All Maps","protocol":17,"map":"pl_barnblitz","folder":"tf","game":"Team Fortress","app_id":440,"player_count":17,"max_players":24,"Bots":0,"server_type":"Dedicated","server_os":"Linux","password":true,"vac":true,"version":"7757534","steam_id":85568392924469985,"keywords":["nocrits","nodmgspread","payload","uncletopia"],"game_id":440,"stv_port":27026,"stv_name":"Uncletopia | Chicago | 2 | All Maps | STV","players":[{"user_id":865,"name":"I am a mooshroom","steam_id":76561198104198295,"connected_time":166000000000,"state":"active","ping":89},{"user_id":827,"name":"Ye ( I Love Caulk ) West","steam_id":76561198068830312,"connected_time":2156000000000,"state":"active","ping":36},{"user_id":869,"name":"[chef] iron","steam_id":76561197970888616,"connected_time":107000000000,"state":"active","ping":45},{"user_id":825,"name":"debin","steam_id":76561198070711217,"connected_time":2329000000000,"state":"active","ping":50},{"user_id":856,"name":"CroMaLaka","steam_id":76561198380926090,"connected_time":292000000000,"state":"active","ping":57},{"user_id":870,"name":"Hidden Phantom","steam_id":76561198115531799,"connected_time":93000000000,"state":"active","ping":72},{"user_id":808,"name":"üÖúüÖîüÖîüÖöüÖ¢üÖ£üÖî\ufffd\ufffd\ufffd","steam_id":76561197999748343,"connected_time":3114000000000,"state":"active","ping":54},{"user_id":871,"name":"Dangerous_Dave76","steam_id":76561199230056550,"connected_time":88000000000,"state":"active","ping":117},{"user_id":872,"name":"Harrison","steam_id":76561198931423191,"connected_time":75000000000,"state":"active","ping":74},{"user_id":873,"name":"jakob","steam_id":76561198094859796,"connected_time":19000000000,"state":"active","ping":70},{"user_id":817,"name":"John Highlander","steam_id":76561198277163301,"connected_time":2912000000000,"state":"active","ping":65},{"user_id":794,"name":"1rhythm","steam_id":76561199159347310,"connected_time":4369000000000,"state":"active","ping":68},{"user_id":813,"name":"Drizzle","steam_id":76561198152143806,"connected_time":2943000000000,"state":"active","ping":54},{"user_id":842,"name":"under average gamer","steam_id":76561198271967641,"connected_time":477000000000,"state":"active","ping":89},{"user_id":826,"name":"NOLSEY","steam_id":76561198108959504,"connected_time":2161000000000,"state":"active","ping":42},{"user_id":833,"name":"lucil3 on Bandcamp","steam_id":76561198149063013,"connected_time":1956000000000,"state":"active","ping":67},{"user_id":831,"name":"Se_Rious","steam_id":76561198040671133,"connected_time":2105000000000,"state":"active","ping":64}]},{"server_id":402,"name":"Uncletopia | Chicago | 3 | All Maps","name_short":"chi-3","host":"chi-1.us.uncletopia.com","port":27035,"enabled":true,"region":"us-central","cc":"us","latitude":41.881832,"longitude":-87.62318,"reserved":0,"last_update":"0001-01-01T00:00:00Z","name_a2s":"Uncletopia | Chicago | 3 | All Maps","protocol":17,"map":"koth_cascade","folder":"tf","game":"Team Fortress","app_id":440,"player_count":23,"max_players":24,"Bots":0,"server_type":"Dedicated","server_os":"Linux","password":true,"vac":true,"version":"7757534","steam_id":85568392924515191,"keywords":["cp","nocrits","nodmgspread","uncletopia"],"game_id":440,"stv_port":27036,"stv_name":"Uncletopia | Chicago | 3 | All Maps | STV","players":[{"user_id":750,"name":"Lore","steam_id":76561198098407538,"connected_time":3682000000000,"state":"active","ping":54},{"user_id":793,"name":"Spoods","steam_id":76561198245568710,"connected_time":877000000000,"state":"active","ping":79},{"user_id":807,"name":"*SHIKI ÂøóË≤¥","steam_id":76561198009208968,"connected_time":507000000000,"state":"active","ping":49},{"user_id":732,"name":"JustATempest","steam_id":76561198185573363,"connected_time":4107000000000,"state":"active","ping":78},{"user_id":792,"name":"Cheeeeeeeen","steam_id":76561198986388085,"connected_time":902000000000,"state":"active","ping":107},{"user_id":806,"name":"ReDiculous22","steam_id":76561198038391383,"connected_time":596000000000,"state":"active","ping":62},{"user_id":760,"name":"ClericsRose","steam_id":76561198011013806,"connected_time":2828000000000,"state":"active","ping":76},{"user_id":794,"name":"‚ñ≤‚ñº‚ñ≤ Paul Atreideeznuts","steam_id":76561198015714075,"connected_time":872000000000,"state":"active","ping":81},{"user_id":780,"name":"Ascended SoS","steam_id":76561198123441203,"connected_time":2163000000000,"state":"active","ping":75},{"user_id":783,"name":"GeekyFox3","steam_id":76561198267733290,"connected_time":1981000000000,"state":"active","ping":108},{"user_id":782,"name":"Dylancyclone","steam_id":76561198000959790,"connected_time":1991000000000,"state":"active","ping":91},{"user_id":758,"name":"TastesLikeTriangle","steam_id":76561198109705599,"connected_time":3316000000000,"state":"active","ping":100},{"user_id":764,"name":"illious","steam_id":76561198169925494,"connected_time":2752000000000,"state":"active","ping":68},{"user_id":795,"name":"threethree","steam_id":76561198177354155,"connected_time":863000000000,"state":"active","ping":57},{"user_id":796,"name":"Real Demo Man TF2","steam_id":76561199073122406,"connected_time":851000000000,"state":"active","ping":57},{"user_id":814,"name":"Merci?","steam_id":76561198096823118,"connected_time":300000000000,"state":"active","ping":77},{"user_id":797,"name":"Thequirka","steam_id":76561198968058652,"connected_time":845000000000,"state":"active","ping":86},{"user_id":767,"name":"Femboy","steam_id":76561198333128330,"connected_time":2737000000000,"state":"active","ping":38},{"user_id":736,"name":"Habitual Ass Abuser of Illinois","steam_id":76561198155865782,"connected_time":4061000000000,"state":"active","ping":58},{"user_id":702,"name":"Ghandi","steam_id":76561198046702733,"connected_time":5874000000000,"state":"active","ping":61},{"user_id":737,"name":"OWEENIE","steam_id":76561198083135927,"connected_time":4046000000000,"state":"active","ping":55},{"user_id":772,"name":"M@verick","steam_id":76561198006363519,"connected_time":2444000000000,"state":"active","ping":76},{"user_id":798,"name":"Tick","steam_id":76561198184161214,"connected_time":838000000000,"state":"active","ping":45}]},{"server_id":403,"name":"Uncletopia | Chicago | 4 | All Maps","name_short":"chi-4","host":"chi-1.us.uncletopia.com","port":27045,"enabled":true,"region":"us-central","cc":"us","latitude":41.881832,"longitude":-87.62318,"reserved":0,"last_update":"0001-01-01T00:00:00Z","name_a2s":"Uncletopia | Chicago | 4 | All Maps","protocol":17,"map":"pl_barnblitz","folder":"tf","game":"Team Fortress","app_id":440,"player_count":0,"max_players":24,"Bots":0,"server_type":"Dedicated","server_os":"Linux","password":true,"vac":true,"version":"7757534","steam_id":85568392924515193,"keywords":["nocrits","nodmgspread","payload","uncletopia"],"game_id":440,"stv_port":27046,"stv_name":"Uncletopia | Chicago | 4 | All Maps | STV","players":null},{"server_id":36,"name":"Uncletopia | Chicago | 5 | All Maps","name_short":"chi-5","host":"chi-2.us.uncletopia.com","port":27015,"enabled":true,"region":"us-central","cc":"us","latitude":41.881832,"longitude":-87.62318,"reserved":0,"last_update":"0001-01-01T00:00:00Z","name_a2s":"Uncletopia | Chicago | 5 | All Maps","protocol":17,"map":"pl_upward","folder":"tf","game":"Team Fortress","app_id":440,"player_count":0,"max_players":24,"Bots":0,"server_type":"Dedicated","server_os":"Linux","password":true,"vac":true,"version":"7757534","steam_id":85568392924866362,"keywords":["nocrits","nodmgspread","payload","uncletopia"],"game_id":440,"stv_port":27016,"stv_name":"Uncletopia | Chicago | 5 | All Maps | STV","players":null},{"server_id":37,"name":"Uncletopia | Chicago | 6 | All Maps","name_short":"chi-6","host":"chi-2.us.uncletopia.com","port":27025,"enabled":true,"region":"us-central","cc":"us","latitude":41.881832,"longitude":-87.62318,"reserved":0,"last_update":"0001-01-01T00:00:00Z","name_a2s":"Uncletopia | Chicago | 6 | All Maps","protocol":17,"map":"pl_badwater","folder":"tf","game":"Team Fortress","app_id":440,"player_count":24,"max_players":24,"Bots":0,"server_type":"Dedicated","server_os":"Linux","password":true,"vac":true,"version":"7757534","steam_id":85568392924866363,"keywords":["nocrits","nodmgspread","payload","uncletopia"],"game_id":440,"stv_port":27026,"stv_name":"Uncletopia | Chicago | 6 | All Maps | STV","players":[{"user_id":729,"name":"HumFreY","steam_id":76561198076639682,"connected_time":4674000000000,"state":"active","ping":69},{"user_id":736,"name":"clancy","steam_id":76561199294116951,"connected_time":4166000000000,"state":"active","ping":131},{"user_id":780,"name":"Vetrio","steam_id":76561198074561178,"connected_time":1367000000000,"state":"active","ping":59},{"user_id":774,"name":"WormOdyssey1","steam_id":76561199251249500,"connected_time":1465000000000,"state":"active","ping":100},{"user_id":772,"name":"heimdall","steam_id":76561198069380992,"connected_time":1551000000000,"state":"active","ping":89},{"user_id":776,"name":"Catzs","steam_id":76561197996013572,"connected_time":1439000000000,"state":"active","ping":94},{"user_id":735,"name":"Slazzer","steam_id":76561198404351844,"connected_time":4243000000000,"state":"active","ping":70},{"user_id":808,"name":"DarkLink909","steam_id":76561198084139172,"connected_time":230000000000,"state":"active","ping":79},{"user_id":804,"name":"bikerkid207","steam_id":76561198390782783,"connected_time":801000000000,"state":"active","ping":66},{"user_id":807,"name":"Carbonated Knightquill","steam_id":76561198044362988,"connected_time":724000000000,"state":"active","ping":60},{"user_id":792,"name":"THROAT HUGGER #Hateology","steam_id":76561198046870291,"connected_time":1068000000000,"state":"active","ping":60},{"user_id":805,"name":"dash23‚Ñ¢","steam_id":76561198314951185,"connected_time":782000000000,"state":"active","ping":102},{"user_id":755,"name":"wiwi","steam_id":76561198046650995,"connected_time":2621000000000,"state":"active","ping":88},{"user_id":791,"name":"A Shiny Meat Bicycle","steam_id":76561198358757709,"connected_time":1117000000000,"state":"active","ping":96},{"user_id":786,"name":"Swifgz","steam_id":76561198162875756,"connected_time":1208000000000,"state":"active","ping":59},{"user_id":768,"name":"josh","steam_id":76561198092176972,"connected_time":1927000000000,"state":"active","ping":71},{"user_id":785,"name":"weeb_whacker#Jenius #Hateologis","steam_id":76561198187098041,"connected_time":1227000000000,"state":"active","ping":58},{"user_id":770,"name":"Blashcorp","steam_id":76561199122593964,"connected_time":1896000000000,"state":"active","ping":63},{"user_id":722,"name":"Cyclaw","steam_id":76561198076045689,"connected_time":5033000000000,"state":"active","ping":55},{"user_id":787,"name":"kametro4","steam_id":76561198835430429,"connected_time":1204000000000,"state":"active","ping":77},{"user_id":730,"name":"jubattz","steam_id":76561198044874072,"connected_time":4664000000000,"state":"active","ping":59},{"user_id":793,"name":"Hazeyboi","steam_id":76561198130687838,"connected_time":1067000000000,"state":"active","ping":45},{"user_id":794,"name":"Ringo x Seiran","steam_id":76561198357437908,"connected_time":1065000000000,"state":"active","ping":62},{"user_id":806,"name":"Crack Fiend","steam_id":76561198149124786,"connected_time":776000000000,"state":"active","ping":64}]},{"server_id":38,"name":"Uncletopia | Chicago | 7 | Stopwatch Beta","name_short":"chi-7","host":"chi-2.us.uncletopia.com","port":27035,"enabled":true,"region":"us-central","cc":"us","latitude":41.881832,"longitude":-87.62318,"reserved":0,"last_update":"0001-01-01T00:00:00Z","name_a2s":"Uncletopia | Chicago | 7 | Stopwatch Beta","protocol":17,"map":"pl_swiftwater_final1","folder":"tf","game":"Team Fortress","app_id":440,"player_count":0,"max_players":24,"Bots":0,"server_type":"Dedicated","server_os":"Linux","password":true,"vac":true,"version":"7757534","steam_id":85568392924866364,"keywords":["nocrits","nodmgspread","payload","uncletopia"],"game_id":440,"stv_port":27036,"stv_name":"Uncletopia | Chicago | 7 | Stopwatch Beta | STV","players":null},{"server_id":39,"name":"Uncletopia | Chicago | 8 | Community","name_short":"chi-8","host":"chi-2.us.uncletopia.com","port":27045,"enabled":true,"region":"us-central","cc":"us","latitude":41.881832,"longitude":-87.62318,"reserved":0,"last_update":"0001-01-01T00:00:00Z","name_a2s":"Uncletopia | Chicago | 8 | Community","protocol":17,"map":"workshop/cp_kalinka_rc6a.ugc1272700588","folder":"tf","game":"Team Fortress","app_id":440,"player_count":0,"max_players":24,"Bots":0,"server_type":"Dedicated","server_os":"Linux","password":true,"vac":true,"version":"7757534","steam_id":85568392924866365,"keywords":["cp","nocrits","nodmgspread","uncletopia"],"game_id":440,"stv_port":27046,"stv_name":"Uncletopia | Chicago | 8 | Community | STV","players":null},{"server_id":8,"name":"Uncletopia | Dallas | 1 | All Maps","name_short":"dal-1","host":"dal-1.us.uncletopia.com","port":27015,"enabled":true,"region":"us-central","cc":"us","latitude":32.779167,"longitude":-96.80889,"reserved":0,"last_update":"0001-01-01T00:00:00Z","name_a2s":"Uncletopia | Dallas | 1 | All Maps","protocol":17,"map":"koth_viaduct","folder":"tf","game":"Team Fortress","app_id":440,"player_count":24,"max_players":24,"Bots":0,"server_type":"Dedicated","server_os":"Linux","password":true,"vac":true,"version":"7757534","steam_id":85568392924469986,"keywords":["cp","nocrits","nodmgspread","uncletopia"],"game_id":440,"stv_port":27016,"stv_name":"Uncletopia | Dallas | 1 | All Maps | STV","players":[{"user_id":731,"name":"beE","steam_id":76561198122687173,"connected_time":266000000000,"state":"active","ping":60},{"user_id":727,"name":"plink","steam_id":76561198057829889,"connected_time":563000000000,"state":"active","ping":47},{"user_id":729,"name":"Hi, I'm Jesus","steam_id":76561198015327152,"connected_time":439000000000,"state":"active","ping":82},{"user_id":733,"name":"Junior_198X","steam_id":76561198158596794,"connected_time":185000000000,"state":"active","ping":85},{"user_id":675,"name":"Ifrit","steam_id":76561198044730782,"connected_time":5346000000000,"state":"active","ping":64},{"user_id":728,"name":"blue","steam_id":76561198342449098,"connected_time":510000000000,"state":"active","ping":54},{"user_id":580,"name":"Dr. Dynamo","steam_id":76561198114569365,"connected_time":11902000000000,"state":"active","ping":56},{"user_id":709,"name":"indubitably","steam_id":76561198339792615,"connected_time":2523000000000,"state":"active","ping":60},{"user_id":694,"name":"Zigadox","steam_id":76561198079813479,"connected_time":3710000000000,"state":"active","ping":89},{"user_id":725,"name":"Hifumi Togo","steam_id":76561198074930636,"connected_time":593000000000,"state":"active","ping":64},{"user_id":669,"name":"Jax_Y","steam_id":76561198436807464,"connected_time":5448000000000,"state":"active","ping":65},{"user_id":714,"name":"the smiling zombie","steam_id":76561199246231090,"connected_time":1916000000000,"state":"active","ping":78},{"user_id":718,"name":"BigBubble42","steam_id":76561198136286123,"connected_time":1138000000000,"state":"active","ping":30},{"user_id":650,"name":"2003 Honda Civic","steam_id":76561198401205345,"connected_time":6763000000000,"state":"active","ping":61},{"user_id":721,"name":"JC2","steam_id":76561198034235649,"connected_time":944000000000,"state":"active","ping":65},{"user_id":719,"name":"Jeugh","steam_id":76561198073498865,"connected_time":1127000000000,"state":"active","ping":99},{"user_id":699,"name":"Halcyon","steam_id":76561199103213955,"connected_time":3602000000000,"state":"active","ping":100},{"user_id":730,"name":"quacks thesatanictemple.com","steam_id":76561198077934343,"connected_time":425000000000,"state":"active","ping":36},{"user_id":711,"name":"Iawen","steam_id":76561197984522405,"connected_time":2313000000000,"state":"active","ping":79},{"user_id":644,"name":"iluvtoust","steam_id":76561198869269207,"connected_time":6895000000000,"state":"active","ping":45},{"user_id":677,"name":"Emperor Dankatine","steam_id":76561198044741086,"connected_time":5326000000000,"state":"active","ping":83},{"user_id":723,"name":"Iron","steam_id":76561198247918478,"connected_time":862000000000,"state":"active","ping":70},{"user_id":720,"name":"Rumpus Fugly","steam_id":76561198095118127,"connected_time":1123000000000,"state":"active","ping":56},{"user_id":704,"name":"HE‚ÄôS IN THE GODDAMN WALLS","steam_id":76561198363267009,"connected_time":3202000000000,"state":"active","ping":45}]},{"server_id":108,"name":"Uncletopia | Dallas | 2 | All Maps","name_short":"dal-2","host":"dal-1.us.uncletopia.com","port":27025,"enabled":true,"region":"us-central","cc":"us","latitude":32.779167,"longitude":-96.80889,"reserved":0,"last_update":"0001-01-01T00:00:00Z","name_a2s":"Uncletopia | Dallas | 2 | All Maps","protocol":17,"map":"pl_upward","folder":"tf","game":"Team Fortress","app_id":440,"player_count":0,"max_players":24,"Bots":0,"server_type":"Dedicated","server_os":"Linux","password":true,"vac":true,"version":"7757534","steam_id":85568392924469988,"keywords":["nocrits","nodmgspread","payload","uncletopia"],"game_id":440,"stv_port":27026,"stv_name":"Uncletopia | Dallas | 2 | All Maps | STV","players":null},{"server_id":5,"name":"Uncletopia | Frankfurt | 1 | All Maps","name_short":"frk-1","host":"frk-1.de.uncletopia.com","port":27015,"enabled":true,"region":"eu","cc":"de","latitude":50.110924,"longitude":8.682127,"reserved":0,"last_update":"0001-01-01T00:00:00Z","name_a2s":"Uncletopia | Frankfurt | 1 | All Maps","protocol":17,"map":"cp_snakewater_final1","folder":"tf","game":"Team Fortress","app_id":440,"player_count":0,"max_players":24,"Bots":0,"server_type":"Dedicated","server_os":"Linux","password":true,"vac":true,"version":"7757534","steam_id":85568392924469989,"keywords":["cp","nocrits","nodmgspread","uncletopia"],"game_id":440,"stv_port":27016,"stv_name":"Uncletopia | Frankfurt | 1 | All Maps | STV","players":null},{"server_id":110,"name":"Uncletopia | Frankfurt | 2 | All Maps","name_short":"frk-2","host":"frk-1.de.uncletopia.com","port":27025,"enabled":true,"region":"eu","cc":"de","latitude":50.110924,"longitude":8.682127,"reserved":0,"last_update":"0001-01-01T00:00:00Z","name_a2s":"Uncletopia | Frankfurt | 2 | All Maps","protocol":17,"map":"cp_altitude","folder":"tf","game":"Team Fortress","app_id":440,"player_count":0,"max_players":24,"Bots":0,"server_type":"Dedicated","server_os":"Linux","password":true,"vac":true,"version":"7757534","steam_id":85568392924469990,"keywords":["cp","nocrits","nodmgspread","uncletopia"],"game_id":440,"stv_port":27026,"stv_name":"Uncletopia | Frankfurt | 2 | All Maps | STV","players":null},{"server_id":308,"name":"Uncletopia | Frankfurt | 3 | All Maps","name_short":"frk-3","host":"frk-1.de.uncletopia.com","port":27035,"enabled":true,"region":"eu","cc":"de","latitude":50.110924,"longitude":8.682127,"reserved":0,"last_update":"0001-01-01T00:00:00Z","name_a2s":"Uncletopia | Frankfurt | 3 | All Maps","protocol":17,"map":"pl_borneo","folder":"tf","game":"Team Fortress","app_id":440,"player_count":0,"max_players":24,"Bots":0,"server_type":"Dedicated","server_os":"Linux","password":true,"vac":true,"version":"7757534","steam_id":85568392924504274,"keywords":["nocrits","nodmgspread","payload","uncletopia"],"game_id":440,"stv_port":27036,"stv_name":"Uncletopia | Frankfurt | 3 | All Maps | STV","players":null},{"server_id":309,"name":"Uncletopia | Frankfurt | 4 | All Maps","name_short":"frk-4","host":"frk-1.de.uncletopia.com","port":27045,"enabled":true,"region":"eu","cc":"de","latitude":50.110924,"longitude":8.682127,"reserved":0,"last_update":"0001-01-01T00:00:00Z","name_a2s":"Uncletopia | Frankfurt | 4 | All Maps","protocol":17,"map":"pl_pier","folder":"tf","game":"Team Fortress","app_id":440,"player_count":0,"max_players":24,"Bots":0,"server_type":"Dedicated","server_os":"Linux","password":true,"vac":true,"version":"7757534","steam_id":85568392924504275,"keywords":["nocrits","nodmgspread","payload","uncletopia"],"game_id":440,"stv_port":27046,"stv_name":"Uncletopia | Frankfurt | 4 | All Maps | STV","players":null},{"server_id":310,"name":"Uncletopia | Frankfurt | 5 | All Maps","name_short":"frk-5","host":"frk-1.de.uncletopia.com","port":27055,"enabled":true,"region":"eu","cc":"de","latitude":50.110924,"longitude":8.682127,"reserved":0,"last_update":"0001-01-01T00:00:00Z","name_a2s":"Uncletopia | Frankfurt | 5 | All Maps","protocol":17,"map":"cp_altitude","folder":"tf","game":"Team Fortress","app_id":440,"player_count":0,"max_players":24,"Bots":0,"server_type":"Dedicated","server_os":"Linux","password":true,"vac":true,"version":"7757534","steam_id":85568392924504277,"keywords":["cp","nocrits","nodmgspread","uncletopia"],"game_id":440,"stv_port":27056,"stv_name":"Uncletopia | Frankfurt | 5 | All Maps | STV","players":null},{"server_id":311,"name":"Uncletopia | Frankfurt | 6 | All Maps","name_short":"frk-6","host":"frk-1.de.uncletopia.com","port":27065,"enabled":true,"region":"eu","cc":"de","latitude":50.110924,"longitude":8.682127,"reserved":0,"last_update":"0001-01-01T00:00:00Z","name_a2s":"Uncletopia | Frankfurt | 6 | All Maps","protocol":17,"map":"pl_barnblitz","folder":"tf","game":"Team Fortress","app_id":440,"player_count":0,"max_players":24,"Bots":0,"server_type":"Dedicated","server_os":"Linux","password":true,"vac":true,"version":"7757534","steam_id":85568392924504278,"keywords":["nocrits","nodmgspread","payload","uncletopia"],"game_id":440,"stv_port":27066,"stv_name":"Uncletopia | Frankfurt | 6 | All Maps | STV","players":null},{"server_id":23,"name":"Uncletopia | Frankfurt | 7 | Stopwatch Beta","name_short":"frk-7","host":"frk-1.de.uncletopia.com","port":27075,"enabled":true,"region":"eu","cc":"de","latitude":50.110924,"longitude":8.682127,"reserved":0,"last_update":"0001-01-01T00:00:00Z","name_a2s":"Uncletopia | Frankfurt | 7 | Stopwatch Beta","protocol":17,"map":"pl_borneo","folder":"tf","game":"Team Fortress","app_id":440,"player_count":0,"max_players":24,"Bots":0,"server_type":"Dedicated","server_os":"Linux","password":true,"vac":true,"version":"7757534","steam_id":85568392924742827,"keywords":["nocrits","nodmgspread","payload","uncletopia"],"game_id":440,"stv_port":27076,"stv_name":"Uncletopia | Frankfurt | 7 | Stopwatch Beta | STV","players":null},{"server_id":24,"name":"Uncletopia | Frankfurt | 8 | Community","name_short":"frk-8","host":"frk-1.de.uncletopia.com","port":27085,"enabled":true,"region":"eu","cc":"de","latitude":50.110924,"longitude":8.682127,"reserved":0,"last_update":"0001-01-01T00:00:00Z","name_a2s":"Uncletopia | Frankfurt | 8 | Community","protocol":17,"map":"koth_viaduct","folder":"tf","game":"Team Fortress","app_id":440,"player_count":0,"max_players":24,"Bots":0,"server_type":"Dedicated","server_os":"Linux","password":true,"vac":true,"version":"7757534","steam_id":85568392924742828,"keywords":["cp","nocrits","nodmgspread","uncletopia"],"game_id":440,"stv_port":27086,"stv_name":"Uncletopia | Frankfurt | 8 | Community | STV","players":null},{"server_id":202,"name":"Uncletopia | Hong Kong | 1 | All Maps","name_short":"hgk-1","host":"hgk-1.hk.uncletopia.com","port":27015,"enabled":true,"region":"asia","cc":"hk","latitude":22.302711,"longitude":114.177216,"reserved":0,"last_update":"0001-01-01T00:00:00Z","name_a2s":"Uncletopia | Hong Kong | 1 | All Maps","protocol":17,"map":"cp_egypt_final","folder":"tf","game":"Team Fortress","app_id":440,"player_count":24,"max_players":24,"Bots":0,"server_type":"Dedicated","server_os":"Linux","password":true,"vac":true,"version":"7757534","steam_id":85568392924494504,"keywords":["cp","nocrits","nodmgspread","uncletopia"],"game_id":440,"stv_port":27016,"stv_name":"Uncletopia | Hong Kong | 1 | All Maps | STV","players":[{"user_id":223,"name":"why6","steam_id":76561199126937183,"connected_time":745000000000,"state":"active","ping":210},{"user_id":221,"name":"vintage","steam_id":76561198230213828,"connected_time":792000000000,"state":"active","ping":61},{"user_id":212,"name":"buiminhquang1401","steam_id":76561199475974790,"connected_time":1005000000000,"state":"active","ping":88},{"user_id":115,"name":"ghuzik ate a femboy last night","steam_id":76561199107596818,"connected_time":9109000000000,"state":"active","ping":113},{"user_id":218,"name":"L4MA","steam_id":76561198249200320,"connected_time":884000000000,"state":"active","ping":40},{"user_id":176,"name":"Nonexistent","steam_id":76561198980563251,"connected_time":3960000000000,"state":"active","ping":82},{"user_id":189,"name":"Stupid B","steam_id":76561198131423270,"connected_time":2337000000000,"state":"active","ping":91},{"user_id":220,"name":"the snai;l","steam_id":76561198944322758,"connected_time":851000000000,"state":"active","ping":174},{"user_id":161,"name":"thought crime hotline","steam_id":76561198054545683,"connected_time":5071000000000,"state":"active","ping":79},{"user_id":225,"name":"TomProPlayer","steam_id":76561199223292521,"connected_time":353000000000,"state":"active","ping":74},{"user_id":224,"name":"SnowDown","steam_id":76561198132326876,"connected_time":736000000000,"state":"active","ping":34},{"user_id":213,"name":"+","steam_id":76561198121311286,"connected_time":909000000000,"state":"active","ping":127},{"user_id":196,"name":"tiden2000","steam_id":76561198092969425,"connected_time":2286000000000,"state":"active","ping":109},{"user_id":158,"name":"bmbmbm","steam_id":76561198413116920,"connected_time":5093000000000,"state":"active","ping":105},{"user_id":61,"name":"‚úßBaKa BAzooKA‚úß(‚óï‚ñø‚óï )","steam_id":76561198061628689,"connected_time":12020000000000,"state":"active","ping":55},{"user_id":190,"name":"screaming sniper","steam_id":76561199085568674,"connected_time":2321000000000,"state":"active","ping":70},{"user_id":219,"name":"P","steam_id":76561198304514505,"connected_time":869000000000,"state":"active","ping":75},{"user_id":197,"name":"Light Rainbow","steam_id":76561198118966673,"connected_time":2186000000000,"state":"active","ping":43},{"user_id":100,"name":"anemoia","steam_id":76561198074339034,"connected_time":10024000000000,"state":"active","ping":73},{"user_id":207,"name":"Cheesey","steam_id":76561198975684137,"connected_time":1544000000000,"state":"active","ping":105},{"user_id":222,"name":"ase","steam_id":76561198152588681,"connected_time":751000000000,"state":"active","ping":83},{"user_id":214,"name":"silverhouse7","steam_id":76561198349634906,"connected_time":904000000000,"state":"active","ping":95},{"user_id":226,"name":"Gehello","steam_id":76561199394603089,"connected_time":160000000000,"state":"active","ping":82},{"user_id":205,"name":"Batbob","steam_id":76561198999413123,"connected_time":1675000000000,"state":"active","ping":79}]},{"server_id":1,"name":"Uncletopia | Los Angeles | 1 | All Maps","name_short":"lax-1","host":"lax-1.us.uncletopia.com","port":27015,"enabled":true,"region":"us-west","cc":"us","latitude":33.94279,"longitude":-118.41004,"reserved":0,"last_update":"0001-01-01T00:00:00Z","name_a2s":"Uncletopia | Los Angeles | 1 | All Maps","protocol":17,"map":"pl_borneo","folder":"tf","game":"Team Fortress","app_id":440,"player_count":24,"max_players":24,"Bots":0,"server_type":"Dedicated","server_os":"Linux","password":true,"vac":true,"version":"7757534","steam_id":85568392924469991,"keywords":["nocrits","nodmgspread","payload","uncletopia"],"game_id":440,"stv_port":27016,"stv_name":"Uncletopia | Los Angeles | 1 | All Maps | STV","players":[{"user_id":482,"name":"Zeta","steam_id":76561198178693059,"connected_time":1361000000000,"state":"active","ping":106},{"user_id":483,"name":"TeCon","steam_id":76561198049127236,"connected_time":1317000000000,"state":"active","ping":56},{"user_id":501,"name":"johnman gooberguy","steam_id":76561199014859764,"connected_time":193000000000,"state":"active","ping":73},{"user_id":418,"name":"ice cream (ÂÜ∞Ê∑áÊ∑ã)","steam_id":76561198976530881,"connected_time":5246000000000,"state":"active","ping":30},{"user_id":471,"name":"The Assistant Regional Manager","steam_id":76561199221484936,"connected_time":2133000000000,"state":"active","ping":56},{"user_id":503,"name":"Majin Buu","steam_id":76561198017161025,"connected_time":54000000000,"state":"active","ping":75},{"user_id":464,"name":"Aloa","steam_id":76561198850176807,"connected_time":2334000000000,"state":"active","ping":67},{"user_id":502,"name":"Erm... What the Deuce","steam_id":76561198418288939,"connected_time":145000000000,"state":"active","ping":66},{"user_id":494,"name":"Dop_Pop_Bop","steam_id":76561198803110941,"connected_time":559000000000,"state":"active","ping":61},{"user_id":487,"name":"HomesliceHobbes","steam_id":76561198042770895,"connected_time":1048000000000,"state":"active","ping":74},{"user_id":489,"name":"R0hban","steam_id":76561198071163718,"connected_time":937000000000,"state":"active","ping":44},{"user_id":492,"name":"RipHunter77","steam_id":76561198272973014,"connected_time":641000000000,"state":"active","ping":90},{"user_id":363,"name":"Mom","steam_id":76561198207936000,"connected_time":10447000000000,"state":"active","ping":67},{"user_id":491,"name":"Cheff cook","steam_id":76561198451203268,"connected_time":845000000000,"state":"active","ping":56},{"user_id":497,"name":"MtFMia","steam_id":76561198361440108,"connected_time":488000000000,"state":"active","ping":82},{"user_id":463,"name":"selling rice","steam_id":76561198063357023,"connected_time":2345000000000,"state":"active","ping":59},{"user_id":499,"name":"AAAAAAAAAAAAAAAAAAAAAAAAAAAAAAA","steam_id":76561198125467937,"connected_time":248000000000,"state":"active","ping":75},{"user_id":461,"name":"Stapler","steam_id":76561198099295077,"connected_time":2448000000000,"state":"active","ping":48},{"user_id":493,"name":"TTV.Saphire_Gifz","steam_id":76561199229537891,"connected_time":575000000000,"state":"active","ping":131},{"user_id":457,"name":"Birb","steam_id":76561198220234419,"connected_time":2575000000000,"state":"active","ping":67},{"user_id":490,"name":"Nimbus","steam_id":76561198326011529,"connected_time":931000000000,"state":"active","ping":113},{"user_id":477,"name":"Altruisticailuridae","steam_id":76561198335295596,"connected_time":1839000000000,"state":"active","ping":56},{"user_id":400,"name":"heisenberg","steam_id":76561198075341060,"connected_time":7480000000000,"state":"active","ping":63},{"user_id":498,"name":"Jet ‚úà","steam_id":76561198119690967,"connected_time":487000000000,"state":"active","ping":88}]},{"server_id":112,"name":"Uncletopia | Los Angeles | 2 | All Maps","name_short":"lax-2","host":"lax-1.us.uncletopia.com","port":27025,"enabled":true,"region":"us-west","cc":"us","latitude":33.94279,"longitude":-118.41004,"reserved":0,"last_update":"0001-01-01T00:00:00Z","name_a2s":"Uncletopia | Los Angeles | 2 | All Maps","protocol":17,"map":"pl_thundermountain","folder":"tf","game":"Team Fortress","app_id":440,"player_count":23,"max_players":24,"Bots":0,"server_type":"Dedicated","server_os":"Linux","password":true,"vac":true,"version":"7757534","steam_id":85568392924469992,"keywords":["nocrits","nodmgspread","payload","uncletopia"],"game_id":440,"stv_port":27026,"stv_name":"Uncletopia | Los Angeles | 2 | All Maps | STV","players":[{"user_id":502,"name":"Uncletopia Crutchlord","steam_id":76561198046526036,"connected_time":1121000000000,"state":"active","ping":49},{"user_id":497,"name":"Akkawi","steam_id":76561198203159952,"connected_time":1746000000000,"state":"active","ping":53},{"user_id":511,"name":"The Foolish Samurai","steam_id":76561198094494945,"connected_time":149000000000,"state":"active","ping":74},{"user_id":514,"name":"ShadowWasUhOh","steam_id":76561198400361935,"connected_time":10000000000,"state":"spawning","ping":107},{"user_id":498,"name":"bad spy player","steam_id":76561198873699671,"connected_time":1243000000000,"state":"active","ping":85},{"user_id":469,"name":"24dustin1","steam_id":76561198059506390,"connected_time":4465000000000,"state":"active","ping":61},{"user_id":487,"name":"Gundam Guy","steam_id":76561198178453993,"connected_time":3005000000000,"state":"active","ping":64},{"user_id":496,"name":"Can You Feel It Mr.Krabs","steam_id":76561198128302414,"connected_time":2017000000000,"state":"active","ping":54},{"user_id":505,"name":"HammerHead","steam_id":76561197975668646,"connected_time":988000000000,"state":"active","ping":65},{"user_id":465,"name":"Haywood Jablowme","steam_id":76561198097721532,"connected_time":4660000000000,"state":"active","ping":55},{"user_id":470,"name":"MasterGoop","steam_id":76561198285594777,"connected_time":4461000000000,"state":"active","ping":60},{"user_id":500,"name":"Master Breather","steam_id":76561198077030391,"connected_time":1159000000000,"state":"active","ping":67},{"user_id":513,"name":"Cuno Doesn't Care!","steam_id":76561198007372782,"connected_time":77000000000,"state":"active","ping":59},{"user_id":467,"name":"Boing Boom Tschak","steam_id":76561198256553006,"connected_time":4595000000000,"state":"active","ping":69},{"user_id":471,"name":"Mainframe","steam_id":76561198097154599,"connected_time":4457000000000,"state":"active","ping":45},{"user_id":510,"name":"pyrotechnic","steam_id":76561198043558709,"connected_time":218000000000,"state":"active","ping":75},{"user_id":509,"name":"frogburger","steam_id":76561198092004980,"connected_time":592000000000,"state":"active","ping":186},{"user_id":492,"name":"Team Fartpiss Poo","steam_id":76561199163591880,"connected_time":2809000000000,"state":"active","ping":121},{"user_id":506,"name":"Look a Bird","steam_id":76561198016294724,"connected_time":921000000000,"state":"active","ping":57},{"user_id":512,"name":"Leidon","steam_id":76561198078386945,"connected_time":144000000000,"state":"active","ping":67},{"user_id":507,"name":"big car","steam_id":76561198067082350,"connected_time":873000000000,"state":"active","ping":60},{"user_id":508,"name":"Agent Q","steam_id":76561198830829003,"connected_time":833000000000,"state":"active","ping":78},{"user_id":480,"name":"Man","steam_id":76561198274547639,"connected_time":4248000000000,"state":"active","ping":48}]},{"server_id":324,"name":"Uncletopia | Los Angeles | 3 | All Maps","name_short":"lax-3","host":"lax-1.us.uncletopia.com","port":27035,"enabled":true,"region":"us-west","cc":"us","latitude":33.94279,"longitude":-118.41004,"reserved":0,"last_update":"0001-01-01T00:00:00Z","name_a2s":"Uncletopia | Los Angeles | 3 | All Maps","protocol":17,"map":"pl_swiftwater_final1","folder":"tf","game":"Team Fortress","app_id":440,"player_count":0,"max_players":24,"Bots":0,"server_type":"Dedicated","server_os":"Linux","password":true,"vac":true,"version":"7757534","steam_id":85568392924510198,"keywords":["nocrits","nodmgspread","payload","uncletopia"],"game_id":440,"stv_port":27036,"stv_name":"Uncletopia | Los Angeles | 3 | All Maps | STV","players":null},{"server_id":25,"name":"Uncletopia | Los Angeles | 4 | Stopwatch Beta","name_short":"lax-4","host":"lax-1.us.uncletopia.com","port":27045,"enabled":true,"region":"us-west","cc":"us","latitude":33.94279,"longitude":-118.41004,"reserved":0,"last_update":"0001-01-01T00:00:00Z","name_a2s":"Uncletopia | Los Angeles | 4 | Stopwatch Beta","protocol":17,"map":"pl_swiftwater_final1","folder":"tf","game":"Team Fortress","app_id":440,"player_count":0,"max_players":24,"Bots":0,"server_type":"Dedicated","server_os":"Linux","password":true,"vac":true,"version":"7757534","steam_id":85568392924510199,"keywords":["nocrits","nodmgspread","payload","uncletopia"],"game_id":440,"stv_port":27046,"stv_name":"Uncletopia | Los Angeles | 4 | Stopwatch Beta | STV","players":null},{"server_id":11,"name":"Uncletopia | London | 1 | All Maps","name_short":"lon-1","host":"lon-1.uk.uncletopia.com","port":27015,"enabled":true,"region":"eu","cc":"gb","latitude":51.509865,"longitude":-0.118092,"reserved":0,"last_update":"0001-01-01T00:00:00Z","name_a2s":"Uncletopia | London | 1 | All Maps","protocol":17,"map":"cp_altitude","folder":"tf","game":"Team Fortress","app_id":440,"player_count":0,"max_players":24,"Bots":0,"server_type":"Dedicated","server_os":"Linux","password":true,"vac":true,"version":"7757534","steam_id":85568392924367362,"keywords":["cp","nocrits","nodmgspread","uncletopia"],"game_id":440,"stv_port":27016,"stv_name":"Uncletopia | London | 1 | All Maps | STV","players":null},{"server_id":114,"name":"Uncletopia | London | 2 | All Maps","name_short":"lon-2","host":"lon-1.uk.uncletopia.com","port":27025,"enabled":true,"region":"eu","cc":"gb","latitude":51.509865,"longitude":-0.118092,"reserved":0,"last_update":"0001-01-01T00:00:00Z","name_a2s":"Uncletopia | London | 2 | All Maps","protocol":17,"map":"pl_frontier_final","folder":"tf","game":"Team Fortress","app_id":440,"player_count":24,"max_players":24,"Bots":0,"server_type":"Dedicated","server_os":"Linux","password":true,"vac":true,"version":"7757534","steam_id":85568392924470941,"keywords":["nocrits","nodmgspread","payload","uncletopia"],"game_id":440,"stv_port":27026,"stv_name":"Uncletopia | London | 2 | All Maps | STV","players":[{"user_id":38,"name":"ender45","steam_id":76561198840955715,"connected_time":173000000000,"state":"active","ping":38},{"user_id":37,"name":"Augustus","steam_id":76561198138526984,"connected_time":295000000000,"state":"active","ping":63},{"user_id":35,"name":"Edla","steam_id":76561198062815315,"connected_time":323000000000,"state":"active","ping":105},{"user_id":36,"name":"deflox","steam_id":76561198087450635,"connected_time":317000000000,"state":"active","ping":45},{"user_id":39,"name":"Violett'Blossom","steam_id":76561198075582287,"connected_time":164000000000,"state":"active","ping":58},{"user_id":16,"name":"wide appreciator","steam_id":76561198083286511,"connected_time":2428000000000,"state":"active","ping":55},{"user_id":9,"name":"Pineapple Okan","steam_id":76561198069199449,"connected_time":2441000000000,"state":"active","ping":109},{"user_id":10,"name":"Shynii","steam_id":76561198194682105,"connected_time":2439000000000,"state":"active","ping":60},{"user_id":11,"name":"murderwow","steam_id":76561198024566944,"connected_time":2437000000000,"state":"active","ping":105},{"user_id":40,"name":"OzKo","steam_id":76561198245355476,"connected_time":157000000000,"state":"active","ping":160},{"user_id":15,"name":"Pestdoktor","steam_id":76561198058159271,"connected_time":2429000000000,"state":"active","ping":66},{"user_id":41,"name":"Keng0l","steam_id":76561199185184318,"connected_time":109000000000,"state":"active","ping":128},{"user_id":17,"name":"Rozen Baum","steam_id":76561197998834908,"connected_time":2427000000000,"state":"active","ping":132},{"user_id":18,"name":"Wallmount","steam_id":76561198002404416,"connected_time":2422000000000,"state":"active","ping":145},{"user_id":19,"name":"icedak47","steam_id":76561198159297690,"connected_time":2420000000000,"state":"active","ping":104},{"user_id":42,"name":"Vekkuli","steam_id":76561198107618679,"connected_time":48000000000,"state":"active","ping":73},{"user_id":21,"name":"anna banana :3","steam_id":76561197962534841,"connected_time":2408000000000,"state":"active","ping":76},{"user_id":22,"name":"Tails8521","steam_id":76561198051747164,"connected_time":2407000000000,"state":"active","ping":55},{"user_id":23,"name":"meow","steam_id":76561199216923710,"connected_time":2404000000000,"state":"active","ping":143},{"user_id":24,"name":"HurrpNana","steam_id":76561199102156562,"connected_time":2403000000000,"state":"active","ping":127},{"user_id":25,"name":"lowdash","steam_id":76561198327827635,"connected_time":2397000000000,"state":"active","ping":73},{"user_id":26,"name":"≈Åyku","steam_id":76561198299149372,"connected_time":2350000000000,"state":"active","ping":83},{"user_id":43,"name":"dude m8","steam_id":76561198155649280,"connected_time":3000000000,"state":"spawning","ping":310},{"user_id":31,"name":"‡πáÔøΩ cLAw","steam_id":76561198304478871,"connected_time":1306000000000,"state":"active","ping":102}]},{"server_id":320,"name":"Uncletopia | London | 3 | All Maps","name_short":"lon-3","host":"lon-1.uk.uncletopia.com","port":27035,"enabled":true,"region":"eu","cc":"gb","latitude":51.509865,"longitude":-0.118092,"reserved":0,"last_update":"0001-01-01T00:00:00Z","name_a2s":"Uncletopia | London | 3 | All Maps","protocol":17,"map":"pl_swiftwater_final1","folder":"tf","game":"Team Fortress","app_id":440,"player_count":0,"max_players":24,"Bots":0,"server_type":"Dedicated","server_os":"Linux","password":true,"vac":true,"version":"7757534","steam_id":85568392924510192,"keywords":["nocrits","nodmgspread","payload","uncletopia"],"game_id":440,"stv_port":27036,"stv_name":"Uncletopia | London | 3 | All Maps | STV","players":null},{"server_id":321,"name":"Uncletopia | London | 4 | All Maps","name_short":"lon-4","host":"lon-1.uk.uncletopia.com","port":27045,"enabled":true,"region":"eu","cc":"gb","latitude":51.509865,"longitude":-0.118092,"reserved":0,"last_update":"0001-01-01T00:00:00Z","name_a2s":"Uncletopia | London | 4 | All Maps","protocol":17,"map":"pl_barnblitz","folder":"tf","game":"Team Fortress","app_id":440,"player_count":0,"max_players":24,"Bots":0,"server_type":"Dedicated","server_os":"Linux","password":true,"vac":true,"version":"7757534","steam_id":85568392924510193,"keywords":["nocrits","nodmgspread","payload","uncletopia"],"game_id":440,"stv_port":27046,"stv_name":"Uncletopia | London | 4 | All Maps | STV","players":null},{"server_id":21,"name":"Uncletopia | London | 5 | All Maps","name_short":"lon-5","host":"lon-1.uk.uncletopia.com","port":27055,"enabled":true,"region":"eu","cc":"gb","latitude":51.509865,"longitude":-0.118092,"reserved":0,"last_update":"0001-01-01T00:00:00Z","name_a2s":"Uncletopia | London | 5 | All Maps","protocol":17,"map":"pl_pier","folder":"tf","game":"Team Fortress","app_id":440,"player_count":0,"max_players":24,"Bots":0,"server_type":"Dedicated","server_os":"Linux","password":true,"vac":true,"version":"7757534","steam_id":85568392924742829,"keywords":["nocrits","nodmgspread","payload","uncletopia"],"game_id":440,"stv_port":27056,"stv_name":"Uncletopia | London | 5 | All Maps | STV","players":null},{"server_id":22,"name":"Uncletopia | London | 6 | All Maps","name_short":"lon-6","host":"lon-1.uk.uncletopia.com","port":27065,"enabled":true,"region":"eu","cc":"gb","latitude":51.509865,"longitude":-0.118092,"reserved":0,"last_update":"0001-01-01T00:00:00Z","name_a2s":"Uncletopia | London | 6 | All Maps","protocol":17,"map":"koth_highpass","folder":"tf","game":"Team Fortress","app_id":440,"player_count":0,"max_players":24,"Bots":0,"server_type":"Dedicated","server_os":"Linux","password":true,"vac":true,"version":"7757534","steam_id":85568392924742830,"keywords":["cp","nocrits","nodmgspread","uncletopia"],"game_id":440,"stv_port":27066,"stv_name":"Uncletopia | London | 6 | All Maps | STV","players":null},{"server_id":40,"name":"Uncletopia | London | 7 | No Payload","name_short":"lon-7","host":"lon-1.uk.uncletopia.com","port":27075,"enabled":true,"region":"eu","cc":"gb","latitude":51.509865,"longitude":-0.118092,"reserved":0,"last_update":"0001-01-01T00:00:00Z","name_a2s":"Uncletopia | London | 7 | No Payload","protocol":17,"map":"koth_highpass","folder":"tf","game":"Team Fortress","app_id":440,"player_count":0,"max_players":24,"Bots":0,"server_type":"Dedicated","server_os":"Linux","password":true,"vac":true,"version":"7757534","steam_id":85568392924964314,"keywords":["cp","nocrits","nodmgspread","uncletopia"],"game_id":440,"stv_port":27076,"stv_name":"Uncletopia | London | 7 | No Payload | STV","players":null},{"server_id":41,"name":"Uncletopia | London | 8 | Community","name_short":"lon-8","host":"lon-1.uk.uncletopia.com","port":27085,"enabled":true,"region":"eu","cc":"gb","latitude":51.509865,"longitude":-0.118092,"reserved":0,"last_update":"0001-01-01T00:00:00Z","name_a2s":"Uncletopia | London | 8 | Community","protocol":17,"map":"cp_altitude","folder":"tf","game":"Team Fortress","app_id":440,"player_count":0,"max_players":24,"Bots":0,"server_type":"Dedicated","server_os":"Linux","password":true,"vac":true,"version":"7757534","steam_id":85568392924964315,"keywords":["cp","nocrits","nodmgspread","uncletopia"],"game_id":440,"stv_port":27086,"stv_name":"Uncletopia | London | 8 | Community | STV","players":null},{"server_id":300,"name":"Uncletopia | Montr√©al | 1 | All Maps","name_short":"mtl-1","host":"mtl-1.ca.uncletopia.com","port":27015,"enabled":true,"region":"us-east","cc":"ca","latitude":45.50889,"longitude":-73.56167,"reserved":0,"last_update":"0001-01-01T00:00:00Z","name_a2s":"Uncletopia | Montr√©al | 1 | All Maps","protocol":17,"map":"pl_pier","folder":"tf","game":"Team Fortress","app_id":440,"player_count":0,"max_players":24,"Bots":0,"server_type":"Dedicated","server_os":"Linux","password":true,"vac":true,"version":"7757534","steam_id":85568392924500087,"keywords":["nocrits","nodmgspread","payload","uncletopia"],"game_id":440,"stv_port":27016,"stv_name":"Uncletopia | Montr√©al | 1 | All Maps | STV","players":null},{"server_id":301,"name":"Uncletopia | Montr√©al | 2 | All Maps","name_short":"mtl-2","host":"mtl-1.ca.uncletopia.com","port":27025,"enabled":true,"region":"us-east","cc":"ca","latitude":45.50889,"longitude":-73.56167,"reserved":0,"last_update":"0001-01-01T00:00:00Z","name_a2s":"Uncletopia | Montr√©al | 2 | All Maps","protocol":17,"map":"koth_cascade","folder":"tf","game":"Team Fortress","app_id":440,"player_count":0,"max_players":24,"Bots":0,"server_type":"Dedicated","server_os":"Linux","password":true,"vac":true,"version":"7757534","steam_id":85568392924500088,"keywords":["cp","nocrits","nodmgspread","uncletopia"],"game_id":440,"stv_port":27026,"stv_name":"Uncletopia | Montr√©al | 2 | All Maps | STV","players":null},{"server_id":302,"name":"Uncletopia | Montr√©al | 3 | All Maps","name_short":"mtl-3","host":"mtl-1.ca.uncletopia.com","port":27035,"enabled":true,"region":"us-east","cc":"ca","latitude":45.50889,"longitude":-73.56167,"reserved":0,"last_update":"0001-01-01T00:00:00Z","name_a2s":"Uncletopia | Montr√©al | 3 | All Maps","protocol":17,"map":"pl_snowycoast","folder":"tf","game":"Team Fortress","app_id":440,"player_count":0,"max_players":24,"Bots":0,"server_type":"Dedicated","server_os":"Linux","password":true,"vac":true,"version":"7757534","steam_id":85568392924500089,"keywords":["nocrits","nodmgspread","payload","uncletopia"],"game_id":440,"stv_port":27036,"stv_name":"Uncletopia | Montr√©al | 3 | All Maps | STV","players":null},{"server_id":303,"name":"Uncletopia | Montr√©al | 4 | No Payload","name_short":"mtl-4","host":"mtl-1.ca.uncletopia.com","port":27045,"enabled":true,"region":"us-east","cc":"ca","latitude":45.50889,"longitude":-73.56167,"reserved":0,"last_update":"0001-01-01T00:00:00Z","name_a2s":"Uncletopia | Montr√©al | 4 | No Payload","protocol":17,"map":"koth_sawmill","folder":"tf","game":"Team Fortress","app_id":440,"player_count":0,"max_players":24,"Bots":0,"server_type":"Dedicated","server_os":"Linux","password":true,"vac":true,"version":"7757534","steam_id":85568392924500090,"keywords":["cp","nocrits","nodmgspread","uncletopia"],"game_id":440,"stv_port":27046,"stv_name":"Uncletopia | Montr√©al | 4 | No Payload | STV","players":null},{"server_id":13,"name":"Uncletopia | New York City | 1 | All Maps","name_short":"nyc-1","host":"nyc-1.us.uncletopia.com","port":27015,"enabled":true,"region":"us-east","cc":"us","latitude":40.73061,"longitude":-73.93524,"reserved":0,"last_update":"0001-01-01T00:00:00Z","name_a2s":"Uncletopia | New York City | 1 | All Maps","protocol":17,"map":"pl_borneo","folder":"tf","game":"Team Fortress","app_id":440,"player_count":20,"max_players":24,"Bots":0,"server_type":"Dedicated","server_os":"Linux","password":true,"vac":true,"version":"7757534","steam_id":85568392924469993,"keywords":["nocrits","nodmgspread","payload","uncletopia"],"game_id":440,"stv_port":27016,"stv_name":"Uncletopia | New York City | 1 | All Maps | STV","players":[{"user_id":1047,"name":"Krellah","steam_id":76561198287045069,"connected_time":2005000000000,"state":"active","ping":60},{"user_id":1017,"name":"Vivid Hut 64","steam_id":76561198170050059,"connected_time":2884000000000,"state":"active","ping":54},{"user_id":1063,"name":"John Arbuckle","steam_id":76561199016285746,"connected_time":1530000000000,"state":"active","ping":91},{"user_id":1045,"name":"AISKA","steam_id":76561198287049660,"connected_time":2039000000000,"state":"active","ping":79},{"user_id":904,"name":"CRAZY engineer","steam_id":76561198887937902,"connected_time":8441000000000,"state":"active","ping":49},{"user_id":971,"name":"F_L Vision Spire","steam_id":76561198095923905,"connected_time":4820000000000,"state":"active","ping":65},{"user_id":1048,"name":"sonic1394","steam_id":76561198054636788,"connected_time":2000000000000,"state":"active","ping":78},{"user_id":1093,"name":"ÂêçÁÑ°„Åó","steam_id":76561198053980844,"connected_time":59000000000,"state":"active","ping":63},{"user_id":1081,"name":"john.","steam_id":76561198157718401,"connected_time":558000000000,"state":"active","ping":103},{"user_id":1087,"name":"Sprinklingmydoughnut","steam_id":76561198168009092,"connected_time":258000000000,"state":"active","ping":85},{"user_id":1088,"name":"shephard","steam_id":76561198043367011,"connected_time":238000000000,"state":"active","ping":72},{"user_id":1089,"name":"Unwavering Flavor","steam_id":76561198053306065,"connected_time":221000000000,"state":"active","ping":85},{"user_id":1004,"name":"Itch Foreskin","steam_id":76561198116710899,"connected_time":3236000000000,"state":"active","ping":45},{"user_id":1053,"name":"twitch.tv/Yoshi21 | TF2Pugs.com","steam_id":76561198002516729,"connected_time":1794000000000,"state":"active","ping":75},{"user_id":1055,"name":"User name here","steam_id":76561199007079402,"connected_time":1775000000000,"state":"active","ping":78},{"user_id":1058,"name":"Jammer","steam_id":76561198435691014,"connected_time":1651000000000,"state":"active","ping":87},{"user_id":1090,"name":"rice white","steam_id":76561198320732910,"connected_time":211000000000,"state":"active","ping":63},{"user_id":990,"name":"Kensa Dynamo Roller","steam_id":76561198067317930,"connected_time":3762000000000,"state":"active","ping":56},{"user_id":1078,"name":"white ray","steam_id":76561198026664629,"connected_time":785000000000,"state":"active","ping":45},{"user_id":1094,"name":"M00NM4DN355 || Buff The Speed","steam_id":76561198082775439,"connected_time":45000000000,"state":"spawning","ping":208}]},{"server_id":14,"name":"Uncletopia | New York City | 2 | All Maps","name_short":"nyc-2","host":"nyc-1.us.uncletopia.com","port":27025,"enabled":true,"region":"us-east","cc":"us","latitude":40.73061,"longitude":-73.93524,"reserved":0,"last_update":"0001-01-01T00:00:00Z","name_a2s":"Uncletopia | New York City | 2 | All Maps","protocol":17,"map":"pl_snowycoast","folder":"tf","game":"Team Fortress","app_id":440,"player_count":0,"max_players":24,"Bots":0,"server_type":"Dedicated","server_os":"Linux","password":true,"vac":true,"version":"7757534","steam_id":85568392924469994,"keywords":["nocrits","nodmgspread","payload","uncletopia"],"game_id":440,"stv_port":27026,"stv_name":"Uncletopia | New York City | 2 | All Maps | STV","players":null},{"server_id":15,"name":"Uncletopia | New York City | 3 | Stopwatch Beta","name_short":"nyc-3","host":"nyc-1.us.uncletopia.com","port":27035,"enabled":true,"region":"us-east","cc":"us","latitude":40.73061,"longitude":-73.93524,"reserved":0,"last_update":"0001-01-01T00:00:00Z","name_a2s":"Uncletopia | New York City | 3 | Stopwatch Beta","protocol":17,"map":"pl_upward","folder":"tf","game":"Team Fortress","app_id":440,"player_count":0,"max_players":24,"Bots":0,"server_type":"Dedicated","server_os":"Linux","password":true,"vac":true,"version":"7757534","steam_id":85568392924742820,"keywords":["nocrits","nodmgspread","payload","uncletopia"],"game_id":440,"stv_port":27036,"stv_name":"Uncletopia | New York City | 3 | Stopwatch Beta | STV","players":null},{"server_id":16,"name":"Uncletopia | New York City | 4 | Community","name_short":"nyc-4","host":"nyc-1.us.uncletopia.com","port":27045,"enabled":true,"region":"us-east","cc":"us","latitude":40.73061,"longitude":-73.93524,"reserved":0,"last_update":"0001-01-01T00:00:00Z","name_a2s":"Uncletopia | New York City | 4 | Community","protocol":17,"map":"workshop/pl_boundary_final1.ugc456799153","folder":"tf","game":"Team Fortress","app_id":440,"player_count":0,"max_players":24,"Bots":0,"server_type":"Dedicated","server_os":"Linux","password":true,"vac":true,"version":"7757534","steam_id":85568392924742821,"keywords":["nocrits","nodmgspread","payload","uncletopia"],"game_id":440,"stv_port":27046,"stv_name":"Uncletopia | New York City | 4 | Community | STV","players":null},{"server_id":142,"name":"Uncletopia | S√£o Paulo | 1 | All Maps","name_short":"sao-1","host":"sao-1.br.uncletopia.com","port":27015,"enabled":true,"region":"sa","cc":"br","latitude":-23.533773,"longitude":-46.62529,"reserved":0,"last_update":"0001-01-01T00:00:00Z","name_a2s":"Uncletopia | S√£o Paulo | 1 | All Maps","protocol":17,"map":"koth_highpass","folder":"tf","game":"Team Fortress","app_id":440,"player_count":0,"max_players":24,"Bots":0,"server_type":"Dedicated","server_os":"Linux","password":true,"vac":true,"version":"7757534","steam_id":85568392924469996,"keywords":["cp","nocrits","nodmgspread","uncletopia"],"game_id":440,"stv_port":27016,"stv_name":"Uncletopia | S√£o Paulo | 1 | All Maps | STV","players":null},{"server_id":143,"name":"Uncletopia | S√£o Paulo | 2 | All Maps","name_short":"sao-2","host":"sao-2.br.uncletopia.com","port":27015,"enabled":true,"region":"sa","cc":"br","latitude":-23.533773,"longitude":-46.62529,"reserved":0,"last_update":"0001-01-01T00:00:00Z","name_a2s":"Uncletopia | S√£o Paulo | 2 | All Maps","protocol":17,"map":"cp_altitude","folder":"tf","game":"Team Fortress","app_id":440,"player_count":0,"max_players":24,"Bots":0,"server_type":"Dedicated","server_os":"Linux","password":true,"vac":true,"version":"7757534","steam_id":85568392924485349,"keywords":["cp","nocrits","nodmgspread","uncletopia"],"game_id":440,"stv_port":27016,"stv_name":"Uncletopia | S√£o Paulo | 2 | All Maps | STV","players":null},{"server_id":7,"name":"Uncletopia | Seattle | 1 | All Maps","name_short":"sea-1","host":"sea-1.us.uncletopia.com","port":27015,"enabled":true,"region":"us-west","cc":"us","latitude":47.608013,"longitude":-122.33517,"reserved":0,"last_update":"0001-01-01T00:00:00Z","name_a2s":"Uncletopia | Seattle | 1 | All Maps","protocol":17,"map":"pl_borneo","folder":"tf","game":"Team Fortress","app_id":440,"player_count":24,"max_players":24,"Bots":0,"server_type":"Dedicated","server_os":"Linux","password":true,"vac":true,"version":"7757534","steam_id":85568392924469997,"keywords":["nocrits","nodmgspread","payload","uncletopia"],"game_id":440,"stv_port":27016,"stv_name":"Uncletopia | Seattle | 1 | All Maps | STV","players":[{"user_id":704,"name":"Sniff","steam_id":76561198010270922,"connected_time":5641000000000,"state":"active","ping":44},{"user_id":747,"name":"ROGUE-PLANET","steam_id":76561198116023052,"connected_time":1217000000000,"state":"active","ping":74},{"user_id":728,"name":"soup","steam_id":76561198043209046,"connected_time":3608000000000,"state":"active","ping":83},{"user_id":712,"name":"spiderland","steam_id":76561198335992132,"connected_time":4818000000000,"state":"active","ping":53},{"user_id":739,"name":"rat gets the cheese","steam_id":76561198031234032,"connected_time":2117000000000,"state":"active","ping":95},{"user_id":743,"name":"Attrition","steam_id":76561197969881916,"connected_time":1611000000000,"state":"active","ping":58},{"user_id":738,"name":"NEBULA","steam_id":76561198086878595,"connected_time":2138000000000,"state":"active","ping":78},{"user_id":726,"name":"Arsonist Goose","steam_id":76561198147441830,"connected_time":3766000000000,"state":"active","ping":74},{"user_id":730,"name":"William P. Ennis","steam_id":76561198073464877,"connected_time":3111000000000,"state":"active","ping":92},{"user_id":744,"name":"mooney","steam_id":76561199110622484,"connected_time":1264000000000,"state":"active","ping":65},{"user_id":703,"name":"Luca","steam_id":76561198125087140,"connected_time":5655000000000,"state":"active","ping":48},{"user_id":720,"name":"shane","steam_id":76561198060491451,"connected_time":4445000000000,"state":"active","ping":99},{"user_id":725,"name":"Gary, 40, soul sucking 9-5","steam_id":76561198073812888,"connected_time":4307000000000,"state":"active","ping":41},{"user_id":757,"name":"Tulacot","steam_id":76561198069105397,"connected_time":61000000000,"state":"active","ping":95},{"user_id":742,"name":"LuvCr0n4","steam_id":76561198159489786,"connected_time":1667000000000,"state":"active","ping":115},{"user_id":731,"name":"John Calibur","steam_id":76561197999986606,"connected_time":2744000000000,"state":"active","ping":76},{"user_id":755,"name":"autistic enby","steam_id":76561198440145948,"connected_time":559000000000,"state":"active","ping":112},{"user_id":736,"name":"T.T","steam_id":76561198041907345,"connected_time":2339000000000,"state":"active","ping":88},{"user_id":734,"name":"ITSPICE","steam_id":76561198173274042,"connected_time":2394000000000,"state":"active","ping":65},{"user_id":740,"name":"rorywashere /·ê† - Àï -„Éû ‚≥ä","steam_id":76561198065825165,"connected_time":2051000000000,"state":"active","ping":112},{"user_id":737,"name":"p9 jorts FULL of tea","steam_id":76561199041179985,"connected_time":2257000000000,"state":"active","ping":71},{"user_id":750,"name":"beam dreamer","steam_id":76561198131166135,"connected_time":1192000000000,"state":"active","ping":43},{"user_id":748,"name":"ice spice","steam_id":76561198169755734,"connected_time":1217000000000,"state":"active","ping":66},{"user_id":751,"name":"Redposting (she/her)","steam_id":76561199058928262,"connected_time":1189000000000,"state":"active","ping":92}]},{"server_id":119,"name":"Uncletopia | Seattle | 2 | All Maps","name_short":"sea-2","host":"sea-1.us.uncletopia.com","port":27025,"enabled":true,"region":"us-west","cc":"us","latitude":47.608013,"longitude":-122.33517,"reserved":0,"last_update":"0001-01-01T00:00:00Z","name_a2s":"Uncletopia | Seattle | 2 | All Maps","protocol":17,"map":"koth_cascade","folder":"tf","game":"Team Fortress","app_id":440,"player_count":24,"max_players":24,"Bots":0,"server_type":"Dedicated","server_os":"Linux","password":true,"vac":true,"version":"7757534","steam_id":85568392924469998,"keywords":["cp","nocrits","nodmgspread","uncletopia"],"game_id":440,"stv_port":27026,"stv_name":"Uncletopia | Seattle | 2 | All Maps | STV","players":[{"user_id":678,"name":"Lambchop","steam_id":76561198043900363,"connected_time":2056000000000,"state":"active","ping":75},{"user_id":667,"name":"Odd Life","steam_id":76561198244979998,"connected_time":2271000000000,"state":"active","ping":75},{"user_id":692,"name":"StrangeMachine","steam_id":76561198046628064,"connected_time":390000000000,"state":"active","ping":48},{"user_id":696,"name":"munch","steam_id":76561198314221897,"connected_time":61000000000,"state":"active","ping":91},{"user_id":689,"name":"PeptobismolCorndog","steam_id":76561198080072237,"connected_time":463000000000,"state":"active","ping":102},{"user_id":695,"name":"The local hobo","steam_id":76561198289650060,"connected_time":157000000000,"state":"active","ping":70},{"user_id":668,"name":"Dispenser (aflyingmouse)","steam_id":76561198058134934,"connected_time":2256000000000,"state":"active","ping":91},{"user_id":568,"name":"ChuChu","steam_id":76561199443647976,"connected_time":9212000000000,"state":"active","ping":101},{"user_id":669,"name":"Gooper","steam_id":76561198324431783,"connected_time":2249000000000,"state":"active","ping":70},{"user_id":688,"name":"Lil Urge","steam_id":76561198162207470,"connected_time":593000000000,"state":"active","ping":68},{"user_id":605,"name":"......","steam_id":76561198067612741,"connected_time":6100000000000,"state":"active","ping":45},{"user_id":655,"name":"Wheaties","steam_id":76561198060909578,"connected_time":2852000000000,"state":"active","ping":60},{"user_id":694,"name":"JTuu","steam_id":76561198030606396,"connected_time":277000000000,"state":"active","ping":44},{"user_id":693,"name":"RufusJukebox","steam_id":76561198195074028,"connected_time":389000000000,"state":"active","ping":77},{"user_id":681,"name":"Ben_meistro","steam_id":76561198876356862,"connected_time":1490000000000,"state":"active","ping":93},{"user_id":665,"name":"mub","steam_id":76561197961943948,"connected_time":2329000000000,"state":"active","ping":45},{"user_id":683,"name":"Moth","steam_id":76561198170253694,"connected_time":1172000000000,"state":"active","ping":61},{"user_id":639,"name":"chaos","steam_id":76561198055462404,"connected_time":3696000000000,"state":"active","ping":72},{"user_id":684,"name":"Ediot","steam_id":76561199349494096,"connected_time":872000000000,"state":"active","ping":137},{"user_id":631,"name":"El Gato Paranoico","steam_id":76561198116567116,"connected_time":3944000000000,"state":"active","ping":105},{"user_id":679,"name":"vito","steam_id":76561198128901451,"connected_time":2052000000000,"state":"active","ping":58},{"user_id":690,"name":"Willy Wonker","steam_id":76561198082944789,"connected_time":421000000000,"state":"active","ping":80},{"user_id":653,"name":"Fire_box41238","steam_id":76561199185673650,"connected_time":2964000000000,"state":"active","ping":54},{"user_id":687,"name":"Tetra","steam_id":76561198145257468,"connected_time":656000000000,"state":"active","ping":102}]},{"server_id":406,"name":"Uncletopia | Seattle | 3 | Stopwatch Beta","name_short":"sea-3","host":"sea-1.us.uncletopia.com","port":27035,"enabled":true,"region":"us-west","cc":"us","latitude":47.608013,"longitude":-122.33517,"reserved":0,"last_update":"0001-01-01T00:00:00Z","name_a2s":"Uncletopia | Seattle | 3 | Stopwatch Beta","protocol":17,"map":"workshop/koth_ashville_final.ugc2130459942","folder":"tf","game":"Team Fortress","app_id":440,"player_count":0,"max_players":24,"Bots":0,"server_type":"Dedicated","server_os":"Linux","password":true,"vac":true,"version":"7757534","steam_id":85568392924515217,"keywords":["cp","nocrits","nodmgspread","uncletopia"],"game_id":440,"stv_port":27036,"stv_name":"Uncletopia | Seattle | 3 | Stopwatch Beta | STV","players":null},{"server_id":17,"name":"Uncletopia | San Francisco | 1 | All Maps","name_short":"sfo-1","host":"sfo-1.us.uncletopia.com","port":27015,"enabled":true,"region":"us-west","cc":"us","latitude":37.77397,"longitude":-122.4313,"reserved":0,"last_update":"0001-01-01T00:00:00Z","name_a2s":"Uncletopia | San Francisco | 1 | All Maps","protocol":17,"map":"pl_snowycoast","folder":"tf","game":"Team Fortress","app_id":440,"player_count":24,"max_players":24,"Bots":0,"server_type":"Dedicated","server_os":"Linux","password":true,"vac":true,"version":"7757534","steam_id":85568392924469999,"keywords":["nocrits","nodmgspread","payload","uncletopia"],"game_id":440,"stv_port":27016,"stv_name":"Uncletopia | San Francisco | 1 | All Maps | STV","players":[{"user_id":298,"name":"O bez","steam_id":76561198841579939,"connected_time":962000000000,"state":"active","ping":67},{"user_id":275,"name":"Cinna Mon","steam_id":76561198005840633,"connected_time":3060000000000,"state":"active","ping":74},{"user_id":309,"name":"the great hatsune miku","steam_id":76561198228125224,"connected_time":310000000000,"state":"active","ping":59},{"user_id":273,"name":"Not Interested","steam_id":76561198286628926,"connected_time":3103000000000,"state":"active","ping":84},{"user_id":299,"name":"zaza2k","steam_id":76561198393760567,"connected_time":895000000000,"state":"active","ping":63},{"user_id":294,"name":"isy","steam_id":76561198068017860,"connected_time":1643000000000,"state":"active","ping":61},{"user_id":307,"name":"Your Friendly Virus","steam_id":76561198259522128,"connected_time":583000000000,"state":"active","ping":115},{"user_id":184,"name":"Soap","steam_id":76561197994893383,"connected_time":9521000000000,"state":"active","ping":72},{"user_id":289,"name":"ConiferCarver(#SaveTF2)","steam_id":76561198195875845,"connected_time":2552000000000,"state":"active","ping":54},{"user_id":313,"name":"Anna's slut","steam_id":76561199029201184,"connected_time":116000000000,"state":"active","ping":75},{"user_id":314,"name":"The Horselords and Animal Gods","steam_id":76561197975094050,"connected_time":86000000000,"state":"active","ping":65},{"user_id":277,"name":"landogg","steam_id":76561198049000586,"connected_time":3041000000000,"state":"active","ping":63},{"user_id":311,"name":"Livin' Like Larry","steam_id":76561198313360974,"connected_time":279000000000,"state":"active","ping":41},{"user_id":280,"name":"Hamee333","steam_id":76561199388127663,"connected_time":2929000000000,"state":"active","ping":133},{"user_id":301,"name":"Dova","steam_id":76561198079481047,"connected_time":880000000000,"state":"active","ping":55},{"user_id":312,"name":"ShredMaan","steam_id":76561198429982138,"connected_time":187000000000,"state":"active","ping":66},{"user_id":310,"name":"Flyingcat9000","steam_id":76561198179561797,"connected_time":303000000000,"state":"active","ping":34},{"user_id":302,"name":"2j \u003c3","steam_id":76561198206752128,"connected_time":854000000000,"state":"active","ping":171},{"user_id":117,"name":"Bobby Ray","steam_id":76561198044131188,"connected_time":13577000000000,"state":"active","ping":75},{"user_id":303,"name":"too old to order","steam_id":76561198874629405,"connected_time":849000000000,"state":"active","ping":62},{"user_id":282,"name":"A UsedNom","steam_id":76561198402832756,"connected_time":2923000000000,"state":"active","ping":36},{"user_id":290,"name":"‚úømika‚úø","steam_id":76561198021771036,"connected_time":2367000000000,"state":"active","ping":109},{"user_id":245,"name":"chaplin","steam_id":76561198009349249,"connected_time":5183000000000,"state":"active","ping":100},{"user_id":306,"name":"Honored","steam_id":76561198451168478,"connected_time":781000000000,"state":"active","ping":103}]},{"server_id":18,"name":"Uncletopia | San Francisco | 2 | All Maps","name_short":"sfo-2","host":"sfo-1.us.uncletopia.com","port":27025,"enabled":true,"region":"us-west","cc":"us","latitude":37.77397,"longitude":-122.4313,"reserved":0,"last_update":"0001-01-01T00:00:00Z","name_a2s":"Uncletopia | San Francisco | 2 | All Maps","protocol":17,"map":"pl_frontier_final","folder":"tf","game":"Team Fortress","app_id":440,"player_count":24,"max_players":24,"Bots":0,"server_type":"Dedicated","server_os":"Linux","password":true,"vac":true,"version":"7757534","steam_id":85568392924470000,"keywords":["nocrits","nodmgspread","payload","uncletopia"],"game_id":440,"stv_port":27026,"stv_name":"Uncletopia | San Francisco | 2 | All Maps | STV","players":[{"user_id":652,"name":"Shoot Shooot Good Gud","steam_id":76561198880471961,"connected_time":961000000000,"state":"active","ping":165},{"user_id":633,"name":"frick man","steam_id":76561198144284901,"connected_time":2263000000000,"state":"active","ping":107},{"user_id":624,"name":"Gooner Witch","steam_id":76561198305488625,"connected_time":3354000000000,"state":"active","ping":83},{"user_id":621,"name":"Bolshenose","steam_id":76561198069857272,"connected_time":3697000000000,"state":"active","ping":123},{"user_id":597,"name":"Felipe Ramirez 2013","steam_id":76561198150497397,"connected_time":5453000000000,"state":"active","ping":101},{"user_id":631,"name":"bob1444","steam_id":76561198110258432,"connected_time":2503000000000,"state":"active","ping":159},{"user_id":660,"name":"KingToaster","steam_id":76561198007903802,"connected_time":335000000000,"state":"active","ping":56},{"user_id":658,"name":"Glacier","steam_id":76561198966817492,"connected_time":620000000000,"state":"active","ping":98},{"user_id":584,"name":"great1photo","steam_id":76561198085481933,"connected_time":5741000000000,"state":"active","ping":126},{"user_id":626,"name":"Retrace","steam_id":76561198080620966,"connected_time":3144000000000,"state":"active","ping":76},{"user_id":627,"name":"minaMOTO BANZAAAAAAI","steam_id":76561198237213828,"connected_time":3055000000000,"state":"active","ping":50},{"user_id":592,"name":"Nicholas Deckolas","steam_id":76561198005301468,"connected_time":5468000000000,"state":"active","ping":129},{"user_id":651,"name":"Hsepirn","steam_id":76561198152395431,"connected_time":1403000000000,"state":"active","ping":68},{"user_id":594,"name":"._.","steam_id":76561198210196856,"connected_time":5465000000000,"state":"active","ping":54},{"user_id":655,"name":"Geon","steam_id":76561199006239194,"connected_time":910000000000,"state":"active","ping":67},{"user_id":647,"name":"omgitisme321","steam_id":76561198437173029,"connected_time":1634000000000,"state":"active","ping":64},{"user_id":639,"name":"yourmomsbff","steam_id":76561198018237656,"connected_time":2123000000000,"state":"active","ping":60},{"user_id":606,"name":"BirdieNuke","steam_id":76561198244538150,"connected_time":4524000000000,"state":"active","ping":126},{"user_id":587,"name":"The_Skull_boy","steam_id":76561198227692664,"connected_time":5624000000000,"state":"active","ping":75},{"user_id":645,"name":"autumnal.messenger","steam_id":76561199345816635,"connected_time":1835000000000,"state":"active","ping":77},{"user_id":662,"name":"rlty","steam_id":76561198009395055,"connected_time":42000000000,"state":"active","ping":110},{"user_id":663,"name":"polly","steam_id":76561198116925554,"connected_time":16000000000,"state":"active","ping":235},{"user_id":656,"name":"Danzig","steam_id":76561198084766105,"connected_time":808000000000,"state":"active","ping":104},{"user_id":630,"name":"squid","steam_id":76561198070236972,"connected_time":2984000000000,"state":"active","ping":76}]},{"server_id":19,"name":"Uncletopia | San Francisco | 3 | Stopwatch Beta","name_short":"sfo-3","host":"sfo-1.us.uncletopia.com","port":27035,"enabled":true,"region":"us-west","cc":"us","latitude":37.77397,"longitude":-122.4313,"reserved":0,"last_update":"0001-01-01T00:00:00Z","name_a2s":"Uncletopia | San Francisco | 3 | Stopwatch Beta","protocol":17,"map":"pl_borneo","folder":"tf","game":"Team Fortress","app_id":440,"player_count":0,"max_players":24,"Bots":0,"server_type":"Dedicated","server_os":"Linux","password":true,"vac":true,"version":"7757534","steam_id":85568392924742824,"keywords":["nocrits","nodmgspread","payload","uncletopia"],"game_id":440,"stv_port":27036,"stv_name":"Uncletopia | San Francisco | 3 | Stopwatch Beta | STV","players":null},{"server_id":20,"name":"Uncletopia | San Francisco | 4 | Community","name_short":"sfo-4","host":"sfo-1.us.uncletopia.com","port":27045,"enabled":true,"region":"us-west","cc":"us","latitude":37.77397,"longitude":-122.4313,"reserved":0,"last_update":"0001-01-01T00:00:00Z","name_a2s":"Uncletopia | San Francisco | 4 | Community","protocol":17,"map":"workshop/pl_eruption_b9a.ugc2807898013","folder":"tf","game":"Team Fortress","app_id":440,"player_count":24,"max_players":24,"Bots":0,"server_type":"Dedicated","server_os":"Linux","password":true,"vac":true,"version":"7757534","steam_id":85568392924742826,"keywords":["nocrits","nodmgspread","payload","uncletopia"],"game_id":440,"stv_port":27046,"stv_name":"Uncletopia | San Francisco | 4 | Community | STV","players":[{"user_id":652,"name":"Papa Kaiser","steam_id":76561198114939370,"connected_time":1011000000000,"state":"active","ping":132},{"user_id":658,"name":"El Pothead","steam_id":76561199098209777,"connected_time":352000000000,"state":"active","ping":55},{"user_id":662,"name":"snow","steam_id":76561198018184698,"connected_time":296000000000,"state":"active","ping":119},{"user_id":604,"name":"Buswolley","steam_id":76561197995205571,"connected_time":4533000000000,"state":"active","ping":44},{"user_id":642,"name":"MarcusDragon11","steam_id":76561198071836719,"connected_time":1572000000000,"state":"active","ping":91},{"user_id":411,"name":"deadpixel","steam_id":76561198150249843,"connected_time":16852000000000,"state":"active","ping":101},{"user_id":643,"name":"chanoc","steam_id":76561198026734746,"connected_time":1528000000000,"state":"active","ping":52},{"user_id":664,"name":"town.midi","steam_id":76561198059041027,"connected_time":226000000000,"state":"active","ping":78},{"user_id":626,"name":"Soap Man","steam_id":76561198000490235,"connected_time":2807000000000,"state":"active","ping":86},{"user_id":640,"name":"JohnnyGitGud","steam_id":76561198401455467,"connected_time":1611000000000,"state":"active","ping":67},{"user_id":653,"name":"become part of wall","steam_id":76561198421913648,"connected_time":989000000000,"state":"active","ping":74},{"user_id":590,"name":"Crylec","steam_id":76561198092755279,"connected_time":5260000000000,"state":"active","ping":112},{"user_id":597,"name":"Snippykeegan","steam_id":76561198274529343,"connected_time":4960000000000,"state":"active","ping":97},{"user_id":665,"name":"Quietsharp","steam_id":76561198277968438,"connected_time":127000000000,"state":"active","ping":61},{"user_id":659,"name":"cream team","steam_id":76561198139043953,"connected_time":322000000000,"state":"active","ping":83},{"user_id":655,"name":"jydus","steam_id":76561198059791063,"connected_time":758000000000,"state":"active","ping":104},{"user_id":650,"name":"giura","steam_id":76561197986794525,"connected_time":1200000000000,"state":"active","ping":96},{"user_id":651,"name":"Da Wizard","steam_id":76561198842482031,"connected_time":1197000000000,"state":"active","ping":71},{"user_id":628,"name":"M4_Patriot","steam_id":76561198380134648,"connected_time":2706000000000,"state":"active","ping":58},{"user_id":629,"name":"pravus367","steam_id":76561198130024571,"connected_time":2668000000000,"state":"active","ping":50},{"user_id":661,"name":"wtfxid","steam_id":76561198377797212,"connected_time":308000000000,"state":"active","ping":58},{"user_id":630,"name":"Puppeteer","steam_id":76561198159928108,"connected_time":2666000000000,"state":"active","ping":80},{"user_id":323,"name":"Phil Collins","steam_id":76561198068868644,"connected_time":23083000000000,"state":"active","ping":65},{"user_id":637,"name":"Kaluka","steam_id":76561198036861445,"connected_time":2246000000000,"state":"active","ping":118}]},{"server_id":141,"name":"Uncletopia | Sydney | 1 | All Maps","name_short":"syd-1","host":"syd-1.au.uncletopia.com","port":27015,"enabled":true,"region":"au","cc":"au","latitude":-33.865143,"longitude":151.2099,"reserved":0,"last_update":"0001-01-01T00:00:00Z","name_a2s":"Uncletopia | Sydney | 1 | All Maps","protocol":17,"map":"pl_snowycoast","folder":"tf","game":"Team Fortress","app_id":440,"player_count":24,"max_players":24,"Bots":0,"server_type":"Dedicated","server_os":"Linux","password":true,"vac":true,"version":"7757534","steam_id":85568392924470001,"keywords":["nocrits","nodmgspread","payload","uncletopia"],"game_id":440,"stv_port":27016,"stv_name":"Uncletopia | Sydney | 1 | All Maps | STV","players":[{"user_id":378,"name":"saudi ambassador messi","steam_id":76561198031293430,"connected_time":121000000000,"state":"active","ping":88},{"user_id":380,"name":"Cheeseluvr","steam_id":76561198095940638,"connected_time":69000000000,"state":"active","ping":57},{"user_id":377,"name":"Doodles ‚ôõ","steam_id":76561198023807247,"connected_time":148000000000,"state":"active","ping":62},{"user_id":344,"name":"Fixer","steam_id":76561199349854515,"connected_time":2266000000000,"state":"active","ping":56},{"user_id":367,"name":"Tantei Rotana","steam_id":76561198041204323,"connected_time":471000000000,"state":"active","ping":64},{"user_id":375,"name":"Chrisy","steam_id":76561198092382473,"connected_time":212000000000,"state":"active","ping":77},{"user_id":365,"name":"seiran","steam_id":76561198880907232,"connected_time":628000000000,"state":"active","ping":101},{"user_id":304,"name":"table","steam_id":76561199218095319,"connected_time":5180000000000,"state":"active","ping":56},{"user_id":376,"name":"TF2oi","steam_id":76561199073820836,"connected_time":167000000000,"state":"active","ping":69},{"user_id":318,"name":"SUSHIMAN","steam_id":76561199089989428,"connected_time":3746000000000,"state":"active","ping":92},{"user_id":383,"name":"Catto","steam_id":76561197999111589,"connected_time":4000000000,"state":"spawning","ping":44},{"user_id":337,"name":"Pile of Sneed","steam_id":76561198143537391,"connected_time":2498000000000,"state":"active","ping":57},{"user_id":373,"name":"SaltierThanYou","steam_id":76561198444395188,"connected_time":299000000000,"state":"active","ping":82},{"user_id":362,"name":"Captain Canadia","steam_id":76561198167967735,"connected_time":753000000000,"state":"active","ping":49},{"user_id":368,"name":"Strausicle","steam_id":76561198983332062,"connected_time":435000000000,"state":"active","ping":73},{"user_id":343,"name":"U Sux1!!","steam_id":76561198163440773,"connected_time":2311000000000,"state":"active","ping":57},{"user_id":374,"name":"Squishy","steam_id":76561198985769205,"connected_time":286000000000,"state":"active","ping":55},{"user_id":360,"name":"Daniel Plainview (no sound)","steam_id":76561197990817274,"connected_time":1234000000000,"state":"active","ping":68},{"user_id":348,"name":"DIY Miracle","steam_id":76561198046228152,"connected_time":2144000000000,"state":"active","ping":59},{"user_id":323,"name":"Legend27","steam_id":76561199475312777,"connected_time":3373000000000,"state":"active","ping":60},{"user_id":363,"name":"tall handsome man","steam_id":76561198310550094,"connected_time":741000000000,"state":"active","ping":54},{"user_id":354,"name":"BLORZINGUS","steam_id":76561198063481761,"connected_time":1866000000000,"state":"active","ping":45},{"user_id":352,"name":"Genuline","steam_id":76561198126426787,"connected_time":2044000000000,"state":"active","ping":46},{"user_id":381,"name":"Pompadouraus","steam_id":76561198327530525,"connected_time":67000000000,"state":"active","ping":75}]},{"server_id":123,"name":"Uncletopia | Sydney | 2 | All Maps","name_short":"syd-2","host":"syd-1.au.uncletopia.com","port":27025,"enabled":true,"region":"au","cc":"au","latitude":-33.865143,"longitude":151.2099,"reserved":0,"last_update":"0001-01-01T00:00:00Z","name_a2s":"Uncletopia | Sydney | 2 | All Maps","protocol":17,"map":"koth_viaduct","folder":"tf","game":"Team Fortress","app_id":440,"player_count":0,"max_players":24,"Bots":0,"server_type":"Dedicated","server_os":"Linux","password":true,"vac":true,"version":"7757534","steam_id":85568392924470002,"keywords":["cp","nocrits","nodmgspread","uncletopia"],"game_id":440,"stv_port":27026,"stv_name":"Uncletopia | Sydney | 2 | All Maps | STV","players":null},{"server_id":395,"name":"Uncletopia | Sydney | 3 | All Maps","name_short":"syd-3","host":"syd-1.au.uncletopia.com","port":27035,"enabled":true,"region":"au","cc":"au","latitude":-33.865143,"longitude":151.2099,"reserved":0,"last_update":"0001-01-01T00:00:00Z","name_a2s":"Uncletopia | Sydney | 3 | All Maps","protocol":17,"map":"pl_frontier_final","folder":"tf","game":"Team Fortress","app_id":440,"player_count":18,"max_players":24,"Bots":0,"server_type":"Dedicated","server_os":"Linux","password":true,"vac":true,"version":"7757534","steam_id":85568392925194467,"keywords":["nocrits","nodmgspread","payload","uncletopia"],"game_id":440,"stv_port":27036,"stv_name":"Uncletopia | Sydney | 3 | All Maps | STV","players":[{"user_id":149,"name":"Bob Ross","steam_id":76561198081686896,"connected_time":4036000000000,"state":"active","ping":56},{"user_id":190,"name":"jim :)","steam_id":76561198127508905,"connected_time":426000000000,"state":"active","ping":31},{"user_id":174,"name":"Zeron","steam_id":76561198125778202,"connected_time":1896000000000,"state":"active","ping":45},{"user_id":194,"name":"Cup","steam_id":76561198038485845,"connected_time":143000000000,"state":"active","ping":34},{"user_id":195,"name":"FROS-T","steam_id":76561199230621703,"connected_time":86000000000,"state":"active","ping":83},{"user_id":197,"name":"Nenguu","steam_id":76561198243952386,"connected_time":13000000000,"state":"active","ping":63},{"user_id":132,"name":"Dementia Dealer","steam_id":76561198253080474,"connected_time":4935000000000,"state":"active","ping":61},{"user_id":181,"name":"homes inc","steam_id":76561198170188198,"connected_time":1498000000000,"state":"active","ping":53},{"user_id":176,"name":"beans","steam_id":76561198202908888,"connected_time":1873000000000,"state":"active","ping":68},{"user_id":189,"name":"FatScout","steam_id":76561198013870201,"connected_time":720000000000,"state":"active","ping":56},{"user_id":172,"name":"Nyk","steam_id":76561198125000580,"connected_time":2281000000000,"state":"active","ping":44},{"user_id":179,"name":"john fitzgerald kennedy","steam_id":76561198998542066,"connected_time":1694000000000,"state":"active","ping":58},{"user_id":164,"name":"SassnCheeky","steam_id":76561197993875592,"connected_time":3033000000000,"state":"active","ping":56},{"user_id":130,"name":"Cream","steam_id":76561198050299999,"connected_time":5034000000000,"state":"active","ping":45},{"user_id":155,"name":"Top Ramen","steam_id":76561198028969833,"connected_time":3884000000000,"state":"active","ping":45},{"user_id":183,"name":"dementia gamershots incoming","steam_id":76561199057568663,"connected_time":1034000000000,"state":"active","ping":55},{"user_id":167,"name":"michael","steam_id":76561198052848358,"connected_time":2514000000000,"state":"active","ping":59},{"user_id":180,"name":"Kenos234","steam_id":76561199183803664,"connected_time":1565000000000,"state":"active","ping":175}]},{"server_id":396,"name":"Uncletopia | Sydney | 4 | All Maps","name_short":"syd-4","host":"syd-1.au.uncletopia.com","port":27045,"enabled":true,"region":"au","cc":"au","latitude":-33.865143,"longitude":151.2099,"reserved":0,"last_update":"0001-01-01T00:00:00Z","name_a2s":"Uncletopia | Sydney | 4 | All Maps","protocol":17,"map":"pl_frontier_final","folder":"tf","game":"Team Fortress","app_id":440,"player_count":0,"max_players":24,"Bots":0,"server_type":"Dedicated","server_os":"Linux","password":true,"vac":true,"version":"7757534","steam_id":85568392925397958,"keywords":["nocrits","nodmgspread","payload","uncletopia"],"game_id":440,"stv_port":27046,"stv_name":"Uncletopia | Sydney | 4 | All Maps | STV","players":null},{"server_id":58,"name":"Uncletopia | Sydney | 5 | Stopwatch Beta","name_short":"syd-5","host":"syd-1.au.uncletopia.com","port":27055,"enabled":true,"region":"au","cc":"au","latitude":-33.865143,"longitude":151.2099,"reserved":0,"last_update":"0001-01-01T00:00:00Z","name_a2s":"Uncletopia | Sydney | 5 | Stopwatch Beta","protocol":17,"map":"cp_sunshine","folder":"tf","game":"Team Fortress","app_id":440,"player_count":0,"max_players":24,"Bots":0,"server_type":"Dedicated","server_os":"Linux","password":true,"vac":true,"version":"7757534","steam_id":85568392925397959,"keywords":["cp","nocrits","nodmgspread","uncletopia"],"game_id":440,"stv_port":27056,"stv_name":"Uncletopia | Sydney | 5 | Stopwatch Beta | STV","players":null},{"server_id":59,"name":"Uncletopia | Sydney | 6 | Community","name_short":"syd-6","host":"syd-1.au.uncletopia.com","port":27065,"enabled":true,"region":"au","cc":"au","latitude":-33.865143,"longitude":151.2099,"reserved":0,"last_update":"0001-01-01T00:00:00Z","name_a2s":"Uncletopia | Sydney | 6 | Community","protocol":17,"map":"workshop/pl_divulgence_b4b.ugc2884808746","folder":"tf","game":"Team Fortress","app_id":440,"player_count":0,"max_players":24,"Bots":0,"server_type":"Dedicated","server_os":"Linux","password":true,"vac":true,"version":"7757534","steam_id":85568392925397960,"keywords":["nocrits","nodmgspread","payload","uncletopia"],"game_id":440,"stv_port":27066,"stv_name":"Uncletopia | Sydney | 6 | Community | STV","players":null},{"server_id":49,"name":"Uncletopia | Warsaw | 1 | All Maps","name_short":"waw-1","host":"waw-1.pl.uncletopia.com","port":27015,"enabled":true,"region":"eu","cc":"pl","latitude":52.2297,"longitude":21.017532,"reserved":0,"last_update":"0001-01-01T00:00:00Z","name_a2s":"","protocol":0,"map":"","folder":"","game":"","app_id":0,"player_count":0,"max_players":0,"Bots":0,"server_type":"","server_os":"","password":false,"vac":false,"version":"","steam_id":0,"keywords":null,"game_id":0,"stv_port":0,"stv_name":"","players":null},{"server_id":50,"name":"Uncletopia | Warsaw | 2 | All Maps","name_short":"waw-2","host":"waw-1.pl.uncletopia.com","port":27025,"enabled":true,"region":"eu","cc":"pl","latitude":52.2297,"longitude":21.017532,"reserved":0,"last_update":"0001-01-01T00:00:00Z","name_a2s":"Uncletopia | Warsaw | 2 | All Maps","protocol":17,"map":"pl_upward","folder":"tf","game":"Team Fortress","app_id":440,"player_count":0,"max_players":24,"Bots":0,"server_type":"Dedicated","server_os":"Linux","password":true,"vac":true,"version":"7757534","steam_id":85568392925397851,"keywords":["nocrits","nodmgspread","payload","uncletopia"],"game_id":440,"stv_port":27026,"stv_name":"Uncletopia | Warsaw | 2 | All Maps | STV","players":null},{"server_id":51,"name":"Uncletopia | Warsaw | 3 | All Maps","name_short":"waw-3","host":"waw-1.pl.uncletopia.com","port":27035,"enabled":true,"region":"eu","cc":"pl","latitude":52.2297,"longitude":21.017532,"reserved":0,"last_update":"0001-01-01T00:00:00Z","name_a2s":"Uncletopia | Warsaw | 3 | All Maps","protocol":17,"map":"pl_barnblitz","folder":"tf","game":"Team Fortress","app_id":440,"player_count":0,"max_players":24,"Bots":0,"server_type":"Dedicated","server_os":"Linux","password":true,"vac":true,"version":"7757534","steam_id":85568392925397852,"keywords":["nocrits","nodmgspread","payload","uncletopia"],"game_id":440,"stv_port":27036,"stv_name":"Uncletopia | Warsaw | 3 | All Maps | STV","players":null},{"server_id":52,"name":"Uncletopia | Warsaw | 4 | All Maps","name_short":"waw-4","host":"waw-1.pl.uncletopia.com","port":27045,"enabled":true,"region":"eu","cc":"pl","latitude":52.2297,"longitude":21.017532,"reserved":0,"last_update":"0001-01-01T00:00:00Z","name_a2s":"Uncletopia | Warsaw | 4 | All Maps","protocol":17,"map":"koth_viaduct","folder":"tf","game":"Team Fortress","app_id":440,"player_count":0,"max_players":24,"Bots":0,"server_type":"Dedicated","server_os":"Linux","password":true,"vac":true,"version":"7757534","steam_id":85568392925397853,"keywords":["cp","nocrits","nodmgspread","uncletopia"],"game_id":440,"stv_port":27046,"stv_name":"Uncletopia | Warsaw | 4 | All Maps | STV","players":null},{"server_id":53,"name":"Uncletopia | Warsaw | 5 | Stopwatch Beta","name_short":"waw-5","host":"waw-1.pl.uncletopia.com","port":27055,"enabled":true,"region":"eu","cc":"pl","latitude":52.2297,"longitude":21.017532,"reserved":0,"last_update":"0001-01-01T00:00:00Z","name_a2s":"Uncletopia | Warsaw | 5 | Stopwatch Beta","protocol":17,"map":"pl_pier","folder":"tf","game":"Team Fortress","app_id":440,"player_count":0,"max_players":24,"Bots":0,"server_type":"Dedicated","server_os":"Linux","password":true,"vac":true,"version":"7757534","steam_id":85568392925397854,"keywords":["nocrits","nodmgspread","payload","uncletopia"],"game_id":440,"stv_port":27056,"stv_name":"Uncletopia | Warsaw | 5 | Stopwatch Beta | STV","players":null},{"server_id":54,"name":"Uncletopia | Warsaw | 6 | Community","name_short":"waw-6","host":"waw-1.pl.uncletopia.com","port":27065,"enabled":true,"region":"eu","cc":"pl","latitude":52.2297,"longitude":21.017532,"reserved":0,"last_update":"0001-01-01T00:00:00Z","name_a2s":"Uncletopia | Warsaw | 6 | Community","protocol":17,"map":"koth_highpass","folder":"tf","game":"Team Fortress","app_id":440,"player_count":0,"max_players":24,"Bots":0,"server_type":"Dedicated","server_os":"Linux","password":true,"vac":true,"version":"7757534","steam_id":85568392925397856,"keywords":["cp","nocrits","nodmgspread","uncletopia"],"game_id":440,"stv_port":27066,"stv_name":"Uncletopia | Warsaw | 6 | Community | STV","players":null}]}