{"status":true,"message":"","result":[{"server_id":9,"name":"Uncletopia | Atlanta | 1 | All Maps","name_short":"atl-1","host":"atl-1.us.uncletopia.com","port":27015,"enabled":true,"region":"us-east","cc":"us","latitude":33.753746,"longitude":-84.38633,"reserved":0,"last_update":"0001-01-01T00:00:00Z","name_a2s":"Uncletopia | Atlanta | 1 | All Maps","protocol":17,"map":"pl_barnblitz","folder":"tf","game":"Team Fortress","app_id":440,"player_count":24,"max_players":24,"Bots":0,"server_type":"Dedicated","server_os":"Linux","password":true,"vac":true,"version":"7961495","steam_id":85568392924469982,"keywords":["nocrits","nodmgspread","payload","uncletopia"],"game_id":440,"stv_port":27016,"stv_name":"Uncletopia | Atlanta | 1 | All Maps | STV","players":[{"user_id":242,"name":"HARRY B HOLE","steam_id":76561198842067238,"connected_time":26000000000,"state":"active","ping":65},{"user_id":6,"name":"Obelisk","steam_id":76561198049416866,"connected_time":21504000000000,"state":"active","ping":52},{"user_id":237,"name":"Wingm4n","steam_id":76561198064127012,"connected_time":217000000000,"state":"active","ping":47},{"user_id":132,"name":"ma0re","steam_id":76561199231971506,"connected_time":10148000000000,"state":"active","ping":66},{"user_id":232,"name":"paetho YT","steam_id":76561198152690003,"connected_time":266000000000,"state":"active","ping":46},{"user_id":172,"name":"marguerite","steam_id":76561198170873495,"connected_time":7907000000000,"state":"active","ping":52},{"user_id":235,"name":"gamerfan539","steam_id":76561198803527852,"connected_time":233000000000,"state":"active","ping":57},{"user_id":234,"name":"lu","steam_id":76561198080731872,"connected_time":251000000000,"state":"active","ping":73},{"user_id":228,"name":"Tyco","steam_id":76561197978414167,"connected_time":819000000000,"state":"active","ping":60},{"user_id":78,"name":"Le4n!!!","steam_id":76561198045522596,"connected_time":15979000000000,"state":"active","ping":72},{"user_id":238,"name":"zonc","steam_id":76561198322104962,"connected_time":186000000000,"state":"active","ping":102},{"user_id":175,"name":"lil hog","steam_id":76561199230929836,"connected_time":7130000000000,"state":"active","ping":94},{"user_id":236,"name":"Icaras","steam_id":76561198416724843,"connected_time":229000000000,"state":"active","ping":123},{"user_id":227,"name":"ATL1 | on my hunting trip","steam_id":76561198315341646,"connected_time":1291000000000,"state":"active","ping":65},{"user_id":191,"name":"shaderoses","steam_id":76561198070800500,"connected_time":5097000000000,"state":"active","ping":62},{"user_id":240,"name":"Tetrareggaeton","steam_id":76561198000745545,"connected_time":72000000000,"state":"active","ping":64},{"user_id":241,"name":"Erchius (she/her)","steam_id":76561198256892300,"connected_time":72000000000,"state":"active","ping":49},{"user_id":220,"name":"damn I must be a genius","steam_id":76561198285026879,"connected_time":2039000000000,"state":"active","ping":73},{"user_id":230,"name":"Morso","steam_id":76561198069488820,"connected_time":534000000000,"state":"active","ping":72},{"user_id":229,"name":"Caberman; Slayer of Heavies","steam_id":76561198982810452,"connected_time":771000000000,"state":"active","ping":81},{"user_id":231,"name":"ATLS1 | Strange Festive","steam_id":76561198050385093,"connected_time":462000000000,"state":"active","ping":74},{"user_id":198,"name":"RangeDad","steam_id":76561198028186133,"connected_time":4652000000000,"state":"active","ping":55},{"user_id":213,"name":"GG.KexruTv","steam_id":76561198374399876,"connected_time":2666000000000,"state":"active","ping":54},{"user_id":196,"name":"Brown_Dream","steam_id":76561198975766145,"connected_time":4815000000000,"state":"active","ping":64}]},{"server_id":104,"name":"Uncletopia | Atlanta | 2 | All Maps","name_short":"atl-2","host":"atl-1.us.uncletopia.com","port":27025,"enabled":true,"region":"us-east","cc":"us","latitude":33.753746,"longitude":-84.38633,"reserved":0,"last_update":"0001-01-01T00:00:00Z","name_a2s":"Uncletopia | Atlanta | 2 | All Maps","protocol":17,"map":"koth_lakeside_final","folder":"tf","game":"Team Fortress","app_id":440,"player_count":24,"max_players":24,"Bots":0,"server_type":"Dedicated","server_os":"Linux","password":true,"vac":true,"version":"7961495","steam_id":85568392924469983,"keywords":["cp","nocrits","nodmgspread","uncletopia"],"game_id":440,"stv_port":27026,"stv_name":"Uncletopia | Atlanta | 2 | All Maps | STV","players":[{"user_id":146,"name":"everyday the same sht","steam_id":76561199146446082,"connected_time":115000000000,"state":"active","ping":45},{"user_id":147,"name":"piecake02","steam_id":76561198171105695,"connected_time":99000000000,"state":"active","ping":53},{"user_id":139,"name":"Tiny Desk Engineer","steam_id":76561199049784560,"connected_time":348000000000,"state":"active","ping":66},{"user_id":140,"name":"Boingo","steam_id":76561199086931535,"connected_time":330000000000,"state":"active","ping":61},{"user_id":135,"name":"yuh","steam_id":76561198127972568,"connected_time":849000000000,"state":"active","ping":45},{"user_id":74,"name":"DaMultiversalist","steam_id":76561198239552412,"connected_time":4789000000000,"state":"active","ping":70},{"user_id":126,"name":"Dr. Virus","steam_id":76561198045723452,"connected_time":1618000000000,"state":"active","ping":55},{"user_id":136,"name":"Reposas","steam_id":76561198058803197,"connected_time":797000000000,"state":"active","ping":73},{"user_id":129,"name":"DenjiYui","steam_id":76561199081651988,"connected_time":1312000000000,"state":"active","ping":71},{"user_id":141,"name":"Kitty","steam_id":76561198123758854,"connected_time":325000000000,"state":"active","ping":60},{"user_id":127,"name":"Shrebbie","steam_id":76561198875230824,"connected_time":1573000000000,"state":"active","ping":57},{"user_id":88,"name":"ALonelyGhostE","steam_id":76561198184787290,"connected_time":3673000000000,"state":"active","ping":75},{"user_id":131,"name":"Marsk","steam_id":76561198417568196,"connected_time":1153000000000,"state":"active","ping":90},{"user_id":121,"name":"scrungle","steam_id":76561198041102272,"connected_time":2171000000000,"state":"active","ping":75},{"user_id":133,"name":"floppy muppet","steam_id":76561198003076261,"connected_time":997000000000,"state":"active","ping":63},{"user_id":122,"name":"VioletSpecs (She/Her)","steam_id":76561198089366466,"connected_time":2170000000000,"state":"active","ping":60},{"user_id":137,"name":"YUNG NASTYMAN","steam_id":76561198039710677,"connected_time":640000000000,"state":"active","ping":66},{"user_id":149,"name":"holyblade12","steam_id":76561198090842572,"connected_time":87000000000,"state":"active","ping":47},{"user_id":143,"name":"bro looked down in the trop","steam_id":76561198142756572,"connected_time":299000000000,"state":"active","ping":45},{"user_id":101,"name":"ShofaX","steam_id":76561198199768014,"connected_time":3329000000000,"state":"active","ping":63},{"user_id":150,"name":"sloped wall (fake) [not real]","steam_id":76561198203952392,"connected_time":68000000000,"state":"active","ping":61},{"user_id":145,"name":"wolfgrey139","steam_id":76561199206554751,"connected_time":200000000000,"state":"active","ping":65},{"user_id":130,"name":"Gally","steam_id":76561199224624629,"connected_time":1223000000000,"state":"active","ping":92},{"user_id":102,"name":"Poo","steam_id":76561198265144507,"connected_time":3314000000000,"state":"active","ping":60}]},{"server_id":400,"name":"Uncletopia | Atlanta | 3 | Stopwatch","name_short":"atl-3","host":"atl-1.us.uncletopia.com","port":27035,"enabled":true,"region":"us-east","cc":"us","latitude":33.753746,"longitude":-84.38633,"reserved":0,"last_update":"0001-01-01T00:00:00Z","name_a2s":"Uncletopia | Atlanta | 3 | Stopwatch","protocol":17,"map":"koth_highpass","folder":"tf","game":"Team Fortress","app_id":440,"player_count":0,"max_players":24,"Bots":0,"server_type":"Dedicated","server_os":"Linux","password":true,"vac":true,"version":"7961495","steam_id":85568392924515187,"keywords":["cp","nocrits","nodmgspread","uncletopia"],"game_id":440,"stv_port":27036,"stv_name":"Uncletopia | Atlanta | 3 | Stopwatch | STV","players":null},{"server_id":401,"name":"Uncletopia | Atlanta | 4 | Community","name_short":"atl-4","host":"atl-1.us.uncletopia.com","port":27045,"enabled":true,"region":"us-east","cc":"us","latitude":33.753746,"longitude":-84.38633,"reserved":0,"last_update":"0001-01-01T00:00:00Z","name_a2s":"Uncletopia | Atlanta | 4 | Community","protocol":17,"map":"workshop/cp_glassworks_rc7a.ugc454118349","folder":"tf","game":"Team Fortress","app_id":440,"player_count":0,"max_players":24,"Bots":0,"server_type":"Dedicated","server_os":"Linux","password":true,"vac":true,"version":"7961495","steam_id":85568392924515188,"keywords":["cp","nocrits","nodmgspread","uncletopia"],"game_id":440,"stv_port":27046,"stv_name":"Uncletopia | Atlanta | 4 | Community | STV","players":null},{"server_id":2,"name":"Uncletopia | Chicago | 1 | All Maps","name_short":"chi-1","host":"chi-1.us.uncletopia.com","port":27015,"enabled":true,"region":"us-central","cc":"us","latitude":41.881832,"longitude":-87.62318,"reserved":0,"last_update":"0001-01-01T00:00:00Z","name_a2s":"Uncletopia | Chicago | 1 | All Maps","protocol":17,"map":"pl_barnblitz","folder":"tf","game":"Team Fortress","app_id":440,"player_count":24,"max_players":24,"Bots":0,"server_type":"Dedicated","server_os":"Linux","password":true,"vac":true,"version":"7961495","steam_id":85568392924469984,"keywords":["nocrits","nodmgspread","payload","uncletopia"],"game_id":440,"stv_port":27016,"stv_name":"Uncletopia | Chicago | 1 | All Maps | STV","players":[{"user_id":547,"name":"AFunkyPigeon","steam_id":76561199350099870,"connected_time":847000000000,"state":"active","ping":64},{"user_id":559,"name":"spherewithahat","steam_id":76561199122192660,"connected_time":332000000000,"state":"active","ping":63},{"user_id":551,"name":"dak","steam_id":76561198076596506,"connected_time":780000000000,"state":"active","ping":59},{"user_id":535,"name":"Brastion","steam_id":76561198257707303,"connected_time":1318000000000,"state":"active","ping":74},{"user_id":560,"name":"D(b) Hell","steam_id":76561198067869016,"connected_time":154000000000,"state":"active","ping":44},{"user_id":426,"name":"Dr. Necrofeelya","steam_id":76561198396814056,"connected_time":9123000000000,"state":"active","ping":71},{"user_id":477,"name":"corned beef","steam_id":76561199366782761,"connected_time":5948000000000,"state":"active","ping":170},{"user_id":514,"name":"Bloodborne","steam_id":76561198072541436,"connected_time":3425000000000,"state":"active","ping":49},{"user_id":536,"name":"SubZeroDestruction","steam_id":76561198145082209,"connected_time":1309000000000,"state":"active","ping":65},{"user_id":561,"name":"crazydave167","steam_id":76561199023446865,"connected_time":132000000000,"state":"active","ping":75},{"user_id":537,"name":"Speedboat","steam_id":76561198094841559,"connected_time":1309000000000,"state":"active","ping":57},{"user_id":548,"name":"while(1)","steam_id":76561198000876529,"connected_time":846000000000,"state":"active","ping":48},{"user_id":562,"name":"Boyyo","steam_id":76561198043375471,"connected_time":132000000000,"state":"active","ping":92},{"user_id":538,"name":"sum0","steam_id":76561198260451626,"connected_time":1270000000000,"state":"active","ping":60},{"user_id":463,"name":"Howster002","steam_id":76561198323965902,"connected_time":6844000000000,"state":"active","ping":86},{"user_id":556,"name":"beep","steam_id":76561199096448766,"connected_time":527000000000,"state":"active","ping":59},{"user_id":501,"name":"†","steam_id":76561198091770232,"connected_time":4505000000000,"state":"active","ping":72},{"user_id":555,"name":"haileywestbrook123@gmail.com","steam_id":76561199169445769,"connected_time":551000000000,"state":"active","ping":69},{"user_id":550,"name":"pelt","steam_id":76561197993593754,"connected_time":815000000000,"state":"active","ping":51},{"user_id":557,"name":"Epicgamer92","steam_id":76561198312448484,"connected_time":516000000000,"state":"active","ping":61},{"user_id":545,"name":"xxxsinpadres","steam_id":76561198366873419,"connected_time":923000000000,"state":"active","ping":56},{"user_id":542,"name":"caberknight tf2  (f2p-ish)","steam_id":76561199273882768,"connected_time":1220000000000,"state":"active","ping":60},{"user_id":492,"name":"King Cotton","steam_id":76561198292444376,"connected_time":4902000000000,"state":"active","ping":79},{"user_id":558,"name":"Cider Lia","steam_id":76561198151569597,"connected_time":407000000000,"state":"active","ping":151}]},{"server_id":106,"name":"Uncletopia | Chicago | 2 | All Maps","name_short":"chi-2","host":"chi-1.us.uncletopia.com","port":27025,"enabled":true,"region":"us-central","cc":"us","latitude":41.881832,"longitude":-87.62318,"reserved":0,"last_update":"0001-01-01T00:00:00Z","name_a2s":"Uncletopia | Chicago | 2 | All Maps","protocol":17,"map":"pl_swiftwater_final1","folder":"tf","game":"Team Fortress","app_id":440,"player_count":19,"max_players":24,"Bots":0,"server_type":"Dedicated","server_os":"Linux","password":true,"vac":true,"version":"7961495","steam_id":85568392924469985,"keywords":["nocrits","nodmgspread","payload","uncletopia"],"game_id":440,"stv_port":27026,"stv_name":"Uncletopia | Chicago | 2 | All Maps | STV","players":[{"user_id":20,"name":"OH BOY","steam_id":76561199052273428,"connected_time":2550000000000,"state":"active","ping":54},{"user_id":42,"name":"JOE BIDEN","steam_id":76561198065650507,"connected_time":653000000000,"state":"active","ping":50},{"user_id":25,"name":"Ken","steam_id":76561198233988068,"connected_time":1997000000000,"state":"active","ping":55},{"user_id":27,"name":"Biowolf","steam_id":76561198149221409,"connected_time":1203000000000,"state":"active","ping":84},{"user_id":46,"name":"FliturbiousRex","steam_id":76561199217583334,"connected_time":270000000000,"state":"active","ping":46},{"user_id":45,"name":"Net","steam_id":76561199258143792,"connected_time":407000000000,"state":"active","ping":50},{"user_id":30,"name":"artemisjackson2","steam_id":76561199094686268,"connected_time":952000000000,"state":"active","ping":58},{"user_id":50,"name":"ariel","steam_id":76561198293418207,"connected_time":110000000000,"state":"spawning","ping":134},{"user_id":51,"name":"Carson","steam_id":76561198076771071,"connected_time":92000000000,"state":"active","ping":45},{"user_id":37,"name":"WaywardFinn","steam_id":76561198040391296,"connected_time":868000000000,"state":"active","ping":80},{"user_id":35,"name":"Ferioth","steam_id":76561197997993090,"connected_time":883000000000,"state":"active","ping":68},{"user_id":36,"name":"Sunny.","steam_id":76561198333213856,"connected_time":879000000000,"state":"active","ping":63},{"user_id":40,"name":"isaacschell12","steam_id":76561199198739321,"connected_time":830000000000,"state":"active","ping":56},{"user_id":41,"name":"Osrepnay","steam_id":76561199033799657,"connected_time":777000000000,"state":"active","ping":88},{"user_id":48,"name":"thezranger","steam_id":76561198454086460,"connected_time":192000000000,"state":"active","ping":104},{"user_id":49,"name":"associate of sanchez","steam_id":76561198056186750,"connected_time":180000000000,"state":"active","ping":60},{"user_id":52,"name":"definitely (not) a twink","steam_id":76561199208833695,"connected_time":64000000000,"state":"active","ping":75},{"user_id":53,"name":"jg125","steam_id":76561198824953530,"connected_time":31000000000,"state":"active","ping":134},{"user_id":54,"name":"Wizard Robe Caught in Lathe","steam_id":76561198067994868,"connected_time":16000000000,"state":"active","ping":75}]},{"server_id":402,"name":"Uncletopia | Chicago | 3 | All Maps","name_short":"chi-3","host":"chi-1.us.uncletopia.com","port":27035,"enabled":true,"region":"us-central","cc":"us","latitude":41.881832,"longitude":-87.62318,"reserved":0,"last_update":"0001-01-01T00:00:00Z","name_a2s":"Uncletopia | Chicago | 3 | All Maps","protocol":17,"map":"koth_viaduct","folder":"tf","game":"Team Fortress","app_id":440,"player_count":0,"max_players":24,"Bots":0,"server_type":"Dedicated","server_os":"Linux","password":true,"vac":true,"version":"7961495","steam_id":85568392924515191,"keywords":["cp","nocrits","nodmgspread","uncletopia"],"game_id":440,"stv_port":27036,"stv_name":"Uncletopia | Chicago | 3 | All Maps | STV","players":null},{"server_id":403,"name":"Uncletopia | Chicago | 4 | All Maps","name_short":"chi-4","host":"chi-1.us.uncletopia.com","port":27045,"enabled":true,"region":"us-central","cc":"us","latitude":41.881832,"longitude":-87.62318,"reserved":0,"last_update":"0001-01-01T00:00:00Z","name_a2s":"Uncletopia | Chicago | 4 | All Maps","protocol":17,"map":"pl_upward","folder":"tf","game":"Team Fortress","app_id":440,"player_count":20,"max_players":24,"Bots":0,"server_type":"Dedicated","server_os":"Linux","password":true,"vac":true,"version":"7961495","steam_id":85568392924515193,"keywords":["nocrits","nodmgspread","payload","uncletopia"],"game_id":440,"stv_port":27046,"stv_name":"Uncletopia | Chicago | 4 | All Maps | STV","players":[{"user_id":425,"name":"Tequila","steam_id":76561198968058652,"connected_time":400000000000,"state":"active","ping":121},{"user_id":418,"name":"The Caretaker","steam_id":76561198125241411,"connected_time":1929000000000,"state":"active","ping":114},{"user_id":428,"name":"bumrusherz","steam_id":76561198440658195,"connected_time":204000000000,"state":"active","ping":61},{"user_id":415,"name":"YoyoMama","steam_id":76561198260113828,"connected_time":2413000000000,"state":"active","ping":98},{"user_id":426,"name":"Sys_Stormy","steam_id":76561199274200401,"connected_time":320000000000,"state":"active","ping":53},{"user_id":423,"name":"DEADHORSE","steam_id":76561198066342171,"connected_time":686000000000,"state":"active","ping":76},{"user_id":424,"name":"HGTEDACFL","steam_id":76561198047468140,"connected_time":657000000000,"state":"active","ping":59},{"user_id":368,"name":"Point then Click","steam_id":76561198076133259,"connected_time":5570000000000,"state":"active","ping":104},{"user_id":427,"name":"OiledAssShaker","steam_id":76561198132068284,"connected_time":237000000000,"state":"active","ping":62},{"user_id":384,"name":"Fiiib","steam_id":76561198119105438,"connected_time":5175000000000,"state":"active","ping":62},{"user_id":386,"name":"HumFreY","steam_id":76561198076639682,"connected_time":5084000000000,"state":"active","ping":71},{"user_id":429,"name":"Kickbakk","steam_id":76561198042335947,"connected_time":82000000000,"state":"active","ping":60},{"user_id":381,"name":"Gunkzilla","steam_id":76561198068228415,"connected_time":5228000000000,"state":"active","ping":59},{"user_id":430,"name":"astrobob911","steam_id":76561199099110654,"connected_time":55000000000,"state":"active","ping":60},{"user_id":259,"name":"Chadmander","steam_id":76561197974136337,"connected_time":12936000000000,"state":"active","ping":38},{"user_id":431,"name":"Uber Waffle","steam_id":76561199184707946,"connected_time":48000000000,"state":"active","ping":59},{"user_id":432,"name":"kt","steam_id":76561198946374858,"connected_time":2000000000,"state":"spawning","ping":102},{"user_id":406,"name":"Blaze","steam_id":76561198043797702,"connected_time":2987000000000,"state":"active","ping":56},{"user_id":416,"name":"the dragon","steam_id":76561198222580424,"connected_time":2187000000000,"state":"active","ping":81},{"user_id":398,"name":"joosssh","steam_id":76561198072130805,"connected_time":3642000000000,"state":"active","ping":161}]},{"server_id":36,"name":"Uncletopia | Chicago | 5 | All Maps","name_short":"chi-5","host":"chi-2.us.uncletopia.com","port":27015,"enabled":true,"region":"us-central","cc":"us","latitude":41.881832,"longitude":-87.62318,"reserved":0,"last_update":"0001-01-01T00:00:00Z","name_a2s":"Uncletopia | Chicago | 5 | All Maps","protocol":17,"map":"pl_thundermountain","folder":"tf","game":"Team Fortress","app_id":440,"player_count":24,"max_players":24,"Bots":0,"server_type":"Dedicated","server_os":"Linux","password":true,"vac":true,"version":"7961495","steam_id":85568392924866362,"keywords":["nocrits","nodmgspread","payload","uncletopia"],"game_id":440,"stv_port":27016,"stv_name":"Uncletopia | Chicago | 5 | All Maps | STV","players":[{"user_id":201,"name":"Deathninja952","steam_id":76561199066489355,"connected_time":1558000000000,"state":"active","ping":82},{"user_id":210,"name":"SaltyManok","steam_id":76561198160082948,"connected_time":472000000000,"state":"active","ping":54},{"user_id":221,"name":"spring bonnie fan 12345","steam_id":76561198339409956,"connected_time":60000000000,"state":"active","ping":81},{"user_id":216,"name":"Elksta","steam_id":76561198006782852,"connected_time":270000000000,"state":"active","ping":74},{"user_id":212,"name":"ButterScotch","steam_id":76561199389314894,"connected_time":357000000000,"state":"active","ping":80},{"user_id":192,"name":"ol' musty","steam_id":76561198081075865,"connected_time":2855000000000,"state":"active","ping":60},{"user_id":131,"name":"Godmode","steam_id":76561198076240365,"connected_time":7167000000000,"state":"active","ping":65},{"user_id":218,"name":"uberslak","steam_id":76561198064715241,"connected_time":226000000000,"state":"active","ping":95},{"user_id":190,"name":"Flourish (she/her)","steam_id":76561198087413354,"connected_time":2980000000000,"state":"active","ping":104},{"user_id":214,"name":"hellishBells","steam_id":76561199118782381,"connected_time":325000000000,"state":"active","ping":70},{"user_id":219,"name":"Peter griffin","steam_id":76561198277602752,"connected_time":217000000000,"state":"active","ping":172},{"user_id":182,"name":"Kitt(eh)  ∑:3","steam_id":76561198110858518,"connected_time":3620000000000,"state":"active","ping":60},{"user_id":204,"name":"Dax","steam_id":76561198045549713,"connected_time":1311000000000,"state":"active","ping":88},{"user_id":197,"name":"Im totally a hacker","steam_id":76561198888005736,"connected_time":2008000000000,"state":"active","ping":75},{"user_id":161,"name":"Lennu","steam_id":76561198060730154,"connected_time":4740000000000,"state":"active","ping":75},{"user_id":89,"name":"chen","steam_id":76561198064872330,"connected_time":10194000000000,"state":"active","ping":79},{"user_id":199,"name":"Mitsurugi","steam_id":76561197998283062,"connected_time":1863000000000,"state":"active","ping":86},{"user_id":205,"name":"Grify","steam_id":76561198012292317,"connected_time":1267000000000,"state":"active","ping":81},{"user_id":207,"name":"shut the fuck up and listen","steam_id":76561198018093835,"connected_time":1063000000000,"state":"active","ping":71},{"user_id":198,"name":"leeeeeeeeeeeeeeeeeeeeeeeeeee","steam_id":76561199083322731,"connected_time":1970000000000,"state":"active","ping":94},{"user_id":215,"name":"lonely fortnite gamer girl","steam_id":76561198272948471,"connected_time":310000000000,"state":"active","ping":60},{"user_id":217,"name":"the.land.of.avalon","steam_id":76561198245431668,"connected_time":265000000000,"state":"active","ping":61},{"user_id":220,"name":"Butters495","steam_id":76561197998689042,"connected_time":188000000000,"state":"active","ping":75},{"user_id":191,"name":"TheoLynwood","steam_id":76561198079596878,"connected_time":2959000000000,"state":"active","ping":67}]},{"server_id":37,"name":"Uncletopia | Chicago | 6 | All Maps","name_short":"chi-6","host":"chi-2.us.uncletopia.com","port":27025,"enabled":true,"region":"us-central","cc":"us","latitude":41.881832,"longitude":-87.62318,"reserved":0,"last_update":"0001-01-01T00:00:00Z","name_a2s":"Uncletopia | Chicago | 6 | All Maps","protocol":17,"map":"cp_process_final","folder":"tf","game":"Team Fortress","app_id":440,"player_count":24,"max_players":24,"Bots":0,"server_type":"Dedicated","server_os":"Linux","password":true,"vac":true,"version":"7961495","steam_id":85568392924866363,"keywords":["cp","nocrits","nodmgspread","uncletopia"],"game_id":440,"stv_port":27026,"stv_name":"Uncletopia | Chicago | 6 | All Maps | STV","players":[{"user_id":56,"name":"Riandox","steam_id":76561198130577326,"connected_time":2623000000000,"state":"active","ping":60},{"user_id":77,"name":"Cherry Coke","steam_id":76561198178233006,"connected_time":808000000000,"state":"active","ping":48},{"user_id":59,"name":"⸸ gaige ⛧","steam_id":76561198090576796,"connected_time":2167000000000,"state":"active","ping":52},{"user_id":45,"name":"Lithos","steam_id":76561198039915895,"connected_time":3713000000000,"state":"active","ping":75},{"user_id":78,"name":"999eng","steam_id":76561198062856371,"connected_time":798000000000,"state":"active","ping":157},{"user_id":79,"name":"scrambledeggs3","steam_id":76561198066112579,"connected_time":779000000000,"state":"active","ping":57},{"user_id":84,"name":"Bone Daddy","steam_id":76561198037836736,"connected_time":611000000000,"state":"active","ping":75},{"user_id":43,"name":"an' im doin it foa ma dawta","steam_id":76561199161322235,"connected_time":4421000000000,"state":"active","ping":63},{"user_id":89,"name":"Pyroshark","steam_id":76561198133599422,"connected_time":288000000000,"state":"active","ping":75},{"user_id":44,"name":"meh","steam_id":76561198136808129,"connected_time":4247000000000,"state":"active","ping":68},{"user_id":81,"name":"cbv dgtdhrdfsdfgdfhgfjdx","steam_id":76561198304661367,"connected_time":750000000000,"state":"active","ping":67},{"user_id":26,"name":"River","steam_id":76561198053962431,"connected_time":5231000000000,"state":"active","ping":76},{"user_id":27,"name":"Evelynn the Fox","steam_id":76561198050946208,"connected_time":5229000000000,"state":"active","ping":78},{"user_id":29,"name":"LiterallyDJ","steam_id":76561198030293743,"connected_time":5098000000000,"state":"active","ping":89},{"user_id":90,"name":"zoinks","steam_id":76561198127238003,"connected_time":75000000000,"state":"active","ping":94},{"user_id":70,"name":"Piss God","steam_id":76561198090504334,"connected_time":1134000000000,"state":"active","ping":68},{"user_id":32,"name":"Lunagriff","steam_id":76561198036889008,"connected_time":4996000000000,"state":"active","ping":80},{"user_id":82,"name":"Espresso_Depresso","steam_id":76561198396290407,"connected_time":738000000000,"state":"active","ping":61},{"user_id":46,"name":"Mer","steam_id":76561198192171041,"connected_time":3683000000000,"state":"active","ping":113},{"user_id":72,"name":"grape","steam_id":76561198976352881,"connected_time":1064000000000,"state":"active","ping":102},{"user_id":71,"name":"Sturmwolken [1312]","steam_id":76561198260905784,"connected_time":1121000000000,"state":"active","ping":59},{"user_id":51,"name":"Hovg9000","steam_id":76561199191556710,"connected_time":3293000000000,"state":"active","ping":77},{"user_id":87,"name":"TGD","steam_id":76561198197582594,"connected_time":300000000000,"state":"active","ping":57},{"user_id":74,"name":"Lav (She/They)","steam_id":76561198289106015,"connected_time":1033000000000,"state":"active","ping":89}]},{"server_id":38,"name":"Uncletopia | Chicago | 7 | Stopwatch","name_short":"chi-7","host":"chi-2.us.uncletopia.com","port":27035,"enabled":true,"region":"us-central","cc":"us","latitude":41.881832,"longitude":-87.62318,"reserved":0,"last_update":"0001-01-01T00:00:00Z","name_a2s":"Uncletopia | Chicago | 7 | Stopwatch","protocol":17,"map":"workshop/koth_clearcut_b15.ugc2107050255","folder":"tf","game":"Team Fortress","app_id":440,"player_count":0,"max_players":24,"Bots":0,"server_type":"Dedicated","server_os":"Linux","password":true,"vac":true,"version":"7961495","steam_id":85568392924866364,"keywords":["cp","nocrits","nodmgspread","uncletopia"],"game_id":440,"stv_port":27036,"stv_name":"Uncletopia | Chicago | 7 | Stopwatch | STV","players":null},{"server_id":39,"name":"Uncletopia | Chicago | 8 | Community","name_short":"chi-8","host":"chi-2.us.uncletopia.com","port":27045,"enabled":true,"region":"us-central","cc":"us","latitude":41.881832,"longitude":-87.62318,"reserved":0,"last_update":"0001-01-01T00:00:00Z","name_a2s":"Uncletopia | Chicago | 8 | Community","protocol":17,"map":"workshop/koth_slaughter_rc1.ugc1712845210","folder":"tf","game":"Team Fortress","app_id":440,"player_count":0,"max_players":24,"Bots":0,"server_type":"Dedicated","server_os":"Linux","password":true,"vac":true,"version":"7961495","steam_id":85568392924866365,"keywords":["cp","nocrits","nodmgspread","uncletopia"],"game_id":440,"stv_port":27046,"stv_name":"Uncletopia | Chicago | 8 | Community | STV","players":null},{"server_id":8,"name":"Uncletopia | Dallas | 1 | All Maps","name_short":"dal-1","host":"dal-1.us.uncletopia.com","port":27015,"enabled":true,"region":"us-central","cc":"us","latitude":32.779167,"longitude":-96.80889,"reserved":0,"last_update":"0001-01-01T00:00:00Z","name_a2s":"Uncletopia | Dallas | 1 | All Maps","protocol":17,"map":"pl_swiftwater_final1","folder":"tf","game":"Team Fortress","app_id":440,"player_count":24,"max_players":24,"Bots":0,"server_type":"Dedicated","server_os":"Linux","password":true,"vac":true,"version":"7961495","steam_id":85568392924469986,"keywords":["nocrits","nodmgspread","payload","uncletopia"],"game_id":440,"stv_port":27016,"stv_name":"Uncletopia | Dallas | 1 | All Maps | STV","players":[{"user_id":485,"name":"TheSmolPopato","steam_id":76561199076606348,"connected_time":1947000000000,"state":"active","ping":72},{"user_id":512,"name":"Mork","steam_id":76561197995475480,"connected_time":86000000000,"state":"active","ping":57},{"user_id":510,"name":"✨ Rarity ✨","steam_id":76561199172206856,"connected_time":379000000000,"state":"active","ping":58},{"user_id":476,"name":"schmuck","steam_id":76561198143789773,"connected_time":2649000000000,"state":"active","ping":55},{"user_id":441,"name":"errant","steam_id":76561197961758410,"connected_time":5570000000000,"state":"active","ping":39},{"user_id":433,"name":"Skeleop","steam_id":76561198981106464,"connected_time":6219000000000,"state":"active","ping":78},{"user_id":462,"name":"Da Policia","steam_id":76561198012762789,"connected_time":3899000000000,"state":"active","ping":44},{"user_id":501,"name":"Floppa \u003c3","steam_id":76561199023889538,"connected_time":579000000000,"state":"active","ping":60},{"user_id":502,"name":"Raspylightining","steam_id":76561198148343305,"connected_time":571000000000,"state":"active","ping":71},{"user_id":492,"name":"KoolChillDude","steam_id":76561198395731467,"connected_time":1389000000000,"state":"active","ping":88},{"user_id":508,"name":"Tmiracle","steam_id":76561198052375275,"connected_time":402000000000,"state":"active","ping":81},{"user_id":446,"name":"BunnyMaster2019","steam_id":76561198319458624,"connected_time":4765000000000,"state":"active","ping":72},{"user_id":483,"name":"Chesshire","steam_id":76561198453427742,"connected_time":1984000000000,"state":"active","ping":78},{"user_id":504,"name":"Jules420","steam_id":76561198056951247,"connected_time":482000000000,"state":"active","ping":67},{"user_id":505,"name":"Gamut","steam_id":76561199185822800,"connected_time":442000000000,"state":"active","ping":124},{"user_id":506,"name":"supcupman","steam_id":76561198051513866,"connected_time":425000000000,"state":"active","ping":92},{"user_id":511,"name":"turnip","steam_id":76561197999375941,"connected_time":338000000000,"state":"active","ping":61},{"user_id":452,"name":"CEO of burger","steam_id":76561198973438214,"connected_time":4634000000000,"state":"active","ping":71},{"user_id":507,"name":"Nerdicus","steam_id":76561199245111258,"connected_time":423000000000,"state":"active","ping":95},{"user_id":509,"name":"Grilled Jizo","steam_id":76561199250875340,"connected_time":399000000000,"state":"active","ping":104},{"user_id":494,"name":"Derblitz","steam_id":76561198040953176,"connected_time":1329000000000,"state":"active","ping":79},{"user_id":491,"name":"doing the sponge","steam_id":76561198058209703,"connected_time":1806000000000,"state":"active","ping":79},{"user_id":456,"name":"i gnaw on Funko Pops™","steam_id":76561199122152458,"connected_time":4216000000000,"state":"active","ping":57},{"user_id":472,"name":"jadene11","steam_id":76561199369221113,"connected_time":3011000000000,"state":"active","ping":74}]},{"server_id":108,"name":"Uncletopia | Dallas | 2 | All Maps","name_short":"dal-2","host":"dal-1.us.uncletopia.com","port":27025,"enabled":true,"region":"us-central","cc":"us","latitude":32.779167,"longitude":-96.80889,"reserved":0,"last_update":"0001-01-01T00:00:00Z","name_a2s":"Uncletopia | Dallas | 2 | All Maps","protocol":17,"map":"ctf_2fort","folder":"tf","game":"Team Fortress","app_id":440,"player_count":14,"max_players":24,"Bots":0,"server_type":"Dedicated","server_os":"Linux","password":true,"vac":true,"version":"7961495","steam_id":85568392924469988,"keywords":["ctf","nocrits","nodmgspread","uncletopia"],"game_id":440,"stv_port":27026,"stv_name":"Uncletopia | Dallas | 2 | All Maps | STV","players":[{"user_id":181,"name":"ihave80hp","steam_id":76561199251621911,"connected_time":43000000000,"state":"active","ping":46},{"user_id":156,"name":"Rock Kickass","steam_id":76561198450510841,"connected_time":1554000000000,"state":"active","ping":84},{"user_id":180,"name":"tomturtl","steam_id":76561198315155393,"connected_time":171000000000,"state":"active","ping":41},{"user_id":182,"name":"Wiggee","steam_id":76561197972792989,"connected_time":39000000000,"state":"active","ping":41},{"user_id":183,"name":"The Legendary Bozo the Clown","steam_id":76561198352680209,"connected_time":26000000000,"state":"active","ping":65},{"user_id":184,"name":"Wouis","steam_id":76561198201272053,"connected_time":3000000000,"state":"spawning","ping":70},{"user_id":135,"name":"i got a new old mouse","steam_id":76561198421913648,"connected_time":3995000000000,"state":"active","ping":90},{"user_id":151,"name":"Kaeo","steam_id":76561198066244086,"connected_time":1709000000000,"state":"active","ping":100},{"user_id":170,"name":"Just washed","steam_id":76561199030160932,"connected_time":1173000000000,"state":"active","ping":80},{"user_id":160,"name":"sushia11","steam_id":76561198059697828,"connected_time":1447000000000,"state":"active","ping":117},{"user_id":66,"name":"stargaazer","steam_id":76561199010142579,"connected_time":8700000000000,"state":"active","ping":67},{"user_id":154,"name":"Mortal Man","steam_id":76561198007499380,"connected_time":1613000000000,"state":"active","ping":103},{"user_id":155,"name":"fudo myoo","steam_id":76561198456258164,"connected_time":1591000000000,"state":"active","ping":71},{"user_id":163,"name":"lucky","steam_id":76561198323426623,"connected_time":1384000000000,"state":"active","ping":82}]},{"server_id":404,"name":"Uncletopia | Dallas | 3 | All Maps","name_short":"dal-3","host":"dal-1.us.uncletopia.com","port":27035,"enabled":true,"region":"us-central","cc":"us","latitude":32.779167,"longitude":-96.80889,"reserved":0,"last_update":"0001-01-01T00:00:00Z","name_a2s":"Uncletopia | Dallas | 3 | All Maps","protocol":17,"map":"pl_snowycoast","folder":"tf","game":"Team Fortress","app_id":440,"player_count":24,"max_players":24,"Bots":0,"server_type":"Dedicated","server_os":"Linux","password":true,"vac":true,"version":"7961495","steam_id":85568392924515219,"keywords":["nocrits","nodmgspread","payload","uncletopia"],"game_id":440,"stv_port":27036,"stv_name":"Uncletopia | Dallas | 3 | All Maps | STV","players":[{"user_id":62,"name":"Zeelidox","steam_id":76561198110613375,"connected_time":405000000000,"state":"active","ping":103},{"user_id":14,"name":"♥ Tomboy ♥","steam_id":76561198069881436,"connected_time":4513000000000,"state":"active","ping":75},{"user_id":33,"name":"dweamy","steam_id":76561198119181880,"connected_time":2104000000000,"state":"active","ping":83},{"user_id":32,"name":"Certified Hood Classic","steam_id":76561199086159354,"connected_time":2204000000000,"state":"active","ping":46},{"user_id":47,"name":"Unwavering Flavor","steam_id":76561198053306065,"connected_time":1177000000000,"state":"active","ping":45},{"user_id":19,"name":"LLLFarm2012","steam_id":76561199199786915,"connected_time":2766000000000,"state":"active","ping":75},{"user_id":21,"name":"kiwi","steam_id":76561198052177917,"connected_time":2642000000000,"state":"active","ping":92},{"user_id":34,"name":"heck","steam_id":76561198308547958,"connected_time":2092000000000,"state":"active","ping":88},{"user_id":29,"name":"WarkQuark","steam_id":76561198056965702,"connected_time":2322000000000,"state":"active","ping":74},{"user_id":58,"name":"hemaglox","steam_id":76561198023187633,"connected_time":567000000000,"state":"active","ping":94},{"user_id":55,"name":"CamoJakIV","steam_id":76561198081877794,"connected_time":604000000000,"state":"active","ping":45},{"user_id":67,"name":"biden cart 15 dollars","steam_id":76561198253731826,"connected_time":115000000000,"state":"active","ping":85},{"user_id":66,"name":"Female Gamer","steam_id":76561199366482682,"connected_time":155000000000,"state":"active","ping":100},{"user_id":56,"name":"ICBMonkey","steam_id":76561198033351821,"connected_time":591000000000,"state":"active","ping":46},{"user_id":48,"name":"MrEdman4","steam_id":76561198062233923,"connected_time":1107000000000,"state":"active","ping":77},{"user_id":57,"name":"zzzz","steam_id":76561198310495200,"connected_time":590000000000,"state":"active","ping":77},{"user_id":35,"name":"Enclave Soundcloud Rapper","steam_id":76561198438876215,"connected_time":2086000000000,"state":"active","ping":76},{"user_id":36,"name":"Krazy","steam_id":76561198835502709,"connected_time":2073000000000,"state":"active","ping":78},{"user_id":54,"name":"Snitzman","steam_id":76561198068303272,"connected_time":620000000000,"state":"active","ping":71},{"user_id":59,"name":"DoctorDrew","steam_id":76561197962400538,"connected_time":511000000000,"state":"active","ping":89},{"user_id":65,"name":"jestor","steam_id":76561198248148760,"connected_time":201000000000,"state":"active","ping":69},{"user_id":60,"name":"Suburban Wolf Dad","steam_id":76561198069234954,"connected_time":466000000000,"state":"active","ping":60},{"user_id":61,"name":"Gazelle","steam_id":76561198336397088,"connected_time":442000000000,"state":"active","ping":78},{"user_id":53,"name":"Jiu Jitsu Sensei","steam_id":76561198121679729,"connected_time":911000000000,"state":"active","ping":70}]},{"server_id":405,"name":"Uncletopia | Dallas | 4 | Community","name_short":"dal-4","host":"dal-1.us.uncletopia.com","port":27045,"enabled":true,"region":"us-central","cc":"us","latitude":32.779167,"longitude":-96.80889,"reserved":0,"last_update":"0001-01-01T00:00:00Z","name_a2s":"Uncletopia | Dallas | 4 | Community","protocol":17,"map":"workshop/koth_trenchfoot_ab1.ugc731436616","folder":"tf","game":"Team Fortress","app_id":440,"player_count":0,"max_players":24,"Bots":0,"server_type":"Dedicated","server_os":"Linux","password":true,"vac":true,"version":"7961495","steam_id":85568392924515220,"keywords":["cp","nocrits","nodmgspread","uncletopia"],"game_id":440,"stv_port":27046,"stv_name":"Uncletopia | Dallas | 4 | Community | STV","players":null},{"server_id":5,"name":"Uncletopia | Frankfurt | 1 | All Maps","name_short":"frk-1","host":"frk-1.de.uncletopia.com","port":27015,"enabled":true,"region":"eu","cc":"de","latitude":50.110924,"longitude":8.682127,"reserved":0,"last_update":"0001-01-01T00:00:00Z","name_a2s":"Uncletopia | Frankfurt | 1 | All Maps","protocol":17,"map":"cp_steel","folder":"tf","game":"Team Fortress","app_id":440,"player_count":15,"max_players":24,"Bots":0,"server_type":"Dedicated","server_os":"Linux","password":true,"vac":true,"version":"7961495","steam_id":85568392924469989,"keywords":["cp","nocrits","nodmgspread","uncletopia"],"game_id":440,"stv_port":27016,"stv_name":"Uncletopia | Frankfurt | 1 | All Maps | STV","players":[{"user_id":555,"name":"flick","steam_id":76561198083505031,"connected_time":2874000000000,"state":"active","ping":56},{"user_id":584,"name":"Burpman","steam_id":76561198022897937,"connected_time":814000000000,"state":"active","ping":58},{"user_id":585,"name":"Endi","steam_id":76561198914938199,"connected_time":650000000000,"state":"active","ping":74},{"user_id":550,"name":"smell_my_cheese","steam_id":76561198008517427,"connected_time":3058000000000,"state":"active","ping":59},{"user_id":475,"name":"Vershal Smershal","steam_id":76561198116223995,"connected_time":9871000000000,"state":"active","ping":59},{"user_id":586,"name":"spy","steam_id":76561199402711007,"connected_time":515000000000,"state":"active","ping":111},{"user_id":534,"name":"Mr_Pulse_","steam_id":76561198095001602,"connected_time":4698000000000,"state":"active","ping":88},{"user_id":533,"name":"Doritoshredder","steam_id":76561198826710752,"connected_time":4741000000000,"state":"active","ping":107},{"user_id":535,"name":"Ozzie","steam_id":76561197992915315,"connected_time":4692000000000,"state":"active","ping":59},{"user_id":569,"name":"Quatschton","steam_id":76561198095125489,"connected_time":1846000000000,"state":"active","ping":56},{"user_id":589,"name":"Sweetcheesus","steam_id":76561198022299033,"connected_time":306000000000,"state":"active","ping":45},{"user_id":570,"name":"Kral1003","steam_id":76561198813600089,"connected_time":1811000000000,"state":"active","ping":90},{"user_id":573,"name":"Mimic","steam_id":76561198064890253,"connected_time":1657000000000,"state":"active","ping":101},{"user_id":576,"name":"SeaKane","steam_id":76561198165453318,"connected_time":1603000000000,"state":"active","ping":51},{"user_id":559,"name":"SocialistBacon","steam_id":76561198055872267,"connected_time":2734000000000,"state":"active","ping":99}]},{"server_id":110,"name":"Uncletopia | Frankfurt | 2 | All Maps","name_short":"frk-2","host":"frk-1.de.uncletopia.com","port":27025,"enabled":true,"region":"eu","cc":"de","latitude":50.110924,"longitude":8.682127,"reserved":0,"last_update":"0001-01-01T00:00:00Z","name_a2s":"Uncletopia | Frankfurt | 2 | All Maps","protocol":17,"map":"pl_upward","folder":"tf","game":"Team Fortress","app_id":440,"player_count":24,"max_players":24,"Bots":0,"server_type":"Dedicated","server_os":"Linux","password":true,"vac":true,"version":"7961495","steam_id":85568392924469990,"keywords":["nocrits","nodmgspread","payload","uncletopia"],"game_id":440,"stv_port":27026,"stv_name":"Uncletopia | Frankfurt | 2 | All Maps | STV","players":[{"user_id":793,"name":"Ace","steam_id":76561198279398145,"connected_time":3249000000000,"state":"active","ping":44},{"user_id":843,"name":"cisgender clown","steam_id":76561199469909295,"connected_time":114000000000,"state":"active","ping":71},{"user_id":813,"name":"Sir, we are out of chips","steam_id":76561198826005248,"connected_time":2053000000000,"state":"active","ping":45},{"user_id":819,"name":"tomydjoh","steam_id":76561198077421906,"connected_time":1628000000000,"state":"active","ping":47},{"user_id":836,"name":"Mob","steam_id":76561198045941913,"connected_time":433000000000,"state":"active","ping":59},{"user_id":820,"name":"Benzo Fury","steam_id":76561198025259336,"connected_time":1574000000000,"state":"active","ping":60},{"user_id":842,"name":"_420_StopItDudeCmon","steam_id":76561197997146481,"connected_time":199000000000,"state":"active","ping":86},{"user_id":828,"name":"S@wKa","steam_id":76561198200160028,"connected_time":803000000000,"state":"active","ping":62},{"user_id":841,"name":"salmonella","steam_id":76561198373831657,"connected_time":294000000000,"state":"active","ping":77},{"user_id":815,"name":"Cataleptic","steam_id":76561197997966949,"connected_time":1939000000000,"state":"active","ping":74},{"user_id":800,"name":"wavelength","steam_id":76561198154677956,"connected_time":2694000000000,"state":"active","ping":56},{"user_id":822,"name":"Labracababrador","steam_id":76561198255280285,"connected_time":1225000000000,"state":"active","ping":115},{"user_id":845,"name":"Retrogue","steam_id":76561198131776972,"connected_time":18000000000,"state":"active","ping":45},{"user_id":840,"name":"lawn","steam_id":76561198001243486,"connected_time":313000000000,"state":"active","ping":45},{"user_id":789,"name":"MadeInLibreOffice.exe","steam_id":76561198138542192,"connected_time":3762000000000,"state":"active","ping":54},{"user_id":756,"name":"housing crisis#savetf2","steam_id":76561198119984382,"connected_time":5504000000000,"state":"active","ping":52},{"user_id":824,"name":"i have no idea what im doing","steam_id":76561198277198416,"connected_time":1134000000000,"state":"active","ping":54},{"user_id":825,"name":"This And Gauge","steam_id":76561198051852765,"connected_time":914000000000,"state":"active","ping":64},{"user_id":835,"name":"else1","steam_id":76561197996558319,"connected_time":565000000000,"state":"active","ping":74},{"user_id":830,"name":"Dei Genetrix","steam_id":76561198305678122,"connected_time":749000000000,"state":"active","ping":56},{"user_id":801,"name":"Motherboard","steam_id":76561198130191090,"connected_time":2688000000000,"state":"active","ping":58},{"user_id":831,"name":"Dr Smeggman","steam_id":76561197966614845,"connected_time":727000000000,"state":"active","ping":59},{"user_id":838,"name":"wG auto","steam_id":76561198062247888,"connected_time":425000000000,"state":"active","ping":69},{"user_id":834,"name":"Maxin","steam_id":76561197999923364,"connected_time":694000000000,"state":"active","ping":60}]},{"server_id":308,"name":"Uncletopia | Frankfurt | 3 | All Maps","name_short":"frk-3","host":"frk-1.de.uncletopia.com","port":27035,"enabled":true,"region":"eu","cc":"de","latitude":50.110924,"longitude":8.682127,"reserved":0,"last_update":"0001-01-01T00:00:00Z","name_a2s":"Uncletopia | Frankfurt | 3 | All Maps","protocol":17,"map":"koth_viaduct","folder":"tf","game":"Team Fortress","app_id":440,"player_count":0,"max_players":24,"Bots":0,"server_type":"Dedicated","server_os":"Linux","password":true,"vac":true,"version":"7961495","steam_id":85568392924504274,"keywords":["cp","nocrits","nodmgspread","uncletopia"],"game_id":440,"stv_port":27036,"stv_name":"Uncletopia | Frankfurt | 3 | All Maps | STV","players":null},{"server_id":309,"name":"Uncletopia | Frankfurt | 4 | All Maps","name_short":"frk-4","host":"frk-1.de.uncletopia.com","port":27045,"enabled":true,"region":"eu","cc":"de","latitude":50.110924,"longitude":8.682127,"reserved":0,"last_update":"0001-01-01T00:00:00Z","name_a2s":"Uncletopia | Frankfurt | 4 | All Maps","protocol":17,"map":"pl_swiftwater_final1","folder":"tf","game":"Team Fortress","app_id":440,"player_count":20,"max_players":24,"Bots":0,"server_type":"Dedicated","server_os":"Linux","password":true,"vac":true,"version":"7961495","steam_id":85568392924504275,"keywords":["nocrits","nodmgspread","payload","uncletopia"],"game_id":440,"stv_port":27046,"stv_name":"Uncletopia | Frankfurt | 4 | All Maps | STV","players":[{"user_id":707,"name":"Cocsam","steam_id":76561198050827179,"connected_time":1137000000000,"state":"active","ping":45},{"user_id":717,"name":"SpacePig","steam_id":76561198044662873,"connected_time":394000000000,"state":"active","ping":73},{"user_id":716,"name":"faati`","steam_id":76561198052556555,"connected_time":443000000000,"state":"active","ping":96},{"user_id":690,"name":"HABUB1337","steam_id":76561199126186448,"connected_time":2171000000000,"state":"active","ping":47},{"user_id":714,"name":"Tofu'","steam_id":76561197984621343,"connected_time":858000000000,"state":"active","ping":45},{"user_id":728,"name":"Arty","steam_id":76561198160100181,"connected_time":3000000000,"state":"spawning","ping":59},{"user_id":677,"name":"Ink in veins","steam_id":76561199082262091,"connected_time":2736000000000,"state":"active","ping":63},{"user_id":725,"name":"insidoubt","steam_id":76561198025785605,"connected_time":52000000000,"state":"active","ping":129},{"user_id":720,"name":"kilo","steam_id":76561198015641339,"connected_time":226000000000,"state":"active","ping":60},{"user_id":724,"name":"The Bomb","steam_id":76561199018446259,"connected_time":120000000000,"state":"active","ping":177},{"user_id":713,"name":"guru{Hari}","steam_id":76561197997001681,"connected_time":963000000000,"state":"active","ping":65},{"user_id":682,"name":"mata","steam_id":76561198129526578,"connected_time":2533000000000,"state":"active","ping":55},{"user_id":684,"name":"mekintoch","steam_id":76561198122525383,"connected_time":2442000000000,"state":"active","ping":61},{"user_id":696,"name":"igvanhoute","steam_id":76561199509386378,"connected_time":1814000000000,"state":"active","ping":59},{"user_id":705,"name":"Fedm","steam_id":76561199020090514,"connected_time":1438000000000,"state":"active","ping":77},{"user_id":727,"name":"Jesus","steam_id":76561199106262610,"connected_time":12000000000,"state":"spawning","ping":48},{"user_id":340,"name":"❤Speedbump❤","steam_id":76561198388690313,"connected_time":21426000000000,"state":"active","ping":46},{"user_id":649,"name":"benjels big day","steam_id":76561198025970709,"connected_time":4156000000000,"state":"active","ping":46},{"user_id":704,"name":"KingofCubes","steam_id":76561198258037513,"connected_time":1540000000000,"state":"active","ping":74},{"user_id":718,"name":":::::","steam_id":76561197990757157,"connected_time":363000000000,"state":"active","ping":73}]},{"server_id":310,"name":"Uncletopia | Frankfurt | 5 | All Maps","name_short":"frk-5","host":"frk-1.de.uncletopia.com","port":27055,"enabled":true,"region":"eu","cc":"de","latitude":50.110924,"longitude":8.682127,"reserved":0,"last_update":"0001-01-01T00:00:00Z","name_a2s":"Uncletopia | Frankfurt | 5 | All Maps","protocol":17,"map":"pl_snowycoast","folder":"tf","game":"Team Fortress","app_id":440,"player_count":24,"max_players":24,"Bots":0,"server_type":"Dedicated","server_os":"Linux","password":true,"vac":true,"version":"7961495","steam_id":85568392924504277,"keywords":["nocrits","nodmgspread","payload","uncletopia"],"game_id":440,"stv_port":27056,"stv_name":"Uncletopia | Frankfurt | 5 | All Maps | STV","players":[{"user_id":967,"name":"Xiqui","steam_id":76561198818386611,"connected_time":1509000000000,"state":"active","ping":76},{"user_id":952,"name":"rainbowscree","steam_id":76561198114210501,"connected_time":2538000000000,"state":"active","ping":91},{"user_id":918,"name":"MENTABETAI","steam_id":76561198049728799,"connected_time":4453000000000,"state":"active","ping":76},{"user_id":953,"name":"Dommy","steam_id":76561197990864747,"connected_time":2476000000000,"state":"active","ping":54},{"user_id":977,"name":"Lemon","steam_id":76561198188535947,"connected_time":649000000000,"state":"active","ping":66},{"user_id":957,"name":"randompixel","steam_id":76561198003941207,"connected_time":2403000000000,"state":"active","ping":55},{"user_id":976,"name":"MaxVegas","steam_id":76561197987524887,"connected_time":795000000000,"state":"active","ping":46},{"user_id":909,"name":"Lers","steam_id":76561198061619788,"connected_time":5524000000000,"state":"active","ping":52},{"user_id":961,"name":"Joo ♦","steam_id":76561197987609203,"connected_time":2233000000000,"state":"active","ping":74},{"user_id":965,"name":"Mike","steam_id":76561198228455736,"connected_time":1540000000000,"state":"active","ping":63},{"user_id":980,"name":"cuddles","steam_id":76561198805181599,"connected_time":523000000000,"state":"active","ping":84},{"user_id":969,"name":"The flying Drunksman","steam_id":76561198966358094,"connected_time":1383000000000,"state":"active","ping":51},{"user_id":981,"name":"Sabour","steam_id":76561197963965445,"connected_time":427000000000,"state":"active","ping":48},{"user_id":948,"name":"Fargo","steam_id":76561198801474941,"connected_time":2967000000000,"state":"active","ping":55},{"user_id":959,"name":"C.I.","steam_id":76561197972438196,"connected_time":2357000000000,"state":"active","ping":55},{"user_id":982,"name":"sniper's kangaroo ex","steam_id":76561198334042273,"connected_time":409000000000,"state":"active","ping":57},{"user_id":949,"name":"Blackbeard's Onlyfans Leak","steam_id":76561199098456903,"connected_time":2918000000000,"state":"active","ping":57},{"user_id":971,"name":"Jedunahoru","steam_id":76561199508744635,"connected_time":1243000000000,"state":"active","ping":59},{"user_id":958,"name":"Assassin+","steam_id":76561197994310420,"connected_time":2375000000000,"state":"active","ping":66},{"user_id":964,"name":"knees","steam_id":76561198005924647,"connected_time":1676000000000,"state":"active","ping":73},{"user_id":974,"name":"help","steam_id":76561199056338917,"connected_time":1195000000000,"state":"active","ping":166},{"user_id":972,"name":"MS","steam_id":76561198037560108,"connected_time":1240000000000,"state":"active","ping":59},{"user_id":973,"name":"randem_","steam_id":76561198338793755,"connected_time":1237000000000,"state":"active","ping":56},{"user_id":983,"name":"etc","steam_id":76561197998394797,"connected_time":21000000000,"state":"active","ping":56}]},{"server_id":311,"name":"Uncletopia | Frankfurt | 6 | All Maps","name_short":"frk-6","host":"frk-1.de.uncletopia.com","port":27065,"enabled":true,"region":"eu","cc":"de","latitude":50.110924,"longitude":8.682127,"reserved":0,"last_update":"0001-01-01T00:00:00Z","name_a2s":"Uncletopia | Frankfurt | 6 | All Maps","protocol":17,"map":"pl_barnblitz","folder":"tf","game":"Team Fortress","app_id":440,"player_count":13,"max_players":24,"Bots":0,"server_type":"Dedicated","server_os":"Linux","password":true,"vac":true,"version":"7961495","steam_id":85568392924504278,"keywords":["nocrits","nodmgspread","payload","uncletopia"],"game_id":440,"stv_port":27066,"stv_name":"Uncletopia | Frankfurt | 6 | All Maps | STV","players":[{"user_id":482,"name":"Q6R89Tx","steam_id":76561199193476577,"connected_time":1593000000000,"state":"active","ping":49},{"user_id":470,"name":"Miraak","steam_id":76561198173825737,"connected_time":2811000000000,"state":"active","ping":65},{"user_id":471,"name":"ErM1k","steam_id":76561198105485172,"connected_time":2790000000000,"state":"active","ping":52},{"user_id":472,"name":"birthday boy","steam_id":76561198350442800,"connected_time":2716000000000,"state":"active","ping":62},{"user_id":480,"name":"meatsoupcube","steam_id":76561198276802249,"connected_time":2178000000000,"state":"active","ping":102},{"user_id":478,"name":"rcfoster419","steam_id":76561199141688353,"connected_time":2308000000000,"state":"active","ping":126},{"user_id":481,"name":"Kekeke","steam_id":76561198063672270,"connected_time":1821000000000,"state":"active","ping":74},{"user_id":490,"name":"Janner","steam_id":76561198127045282,"connected_time":141000000000,"state":"active","ping":59},{"user_id":484,"name":"Moth","steam_id":76561198405910705,"connected_time":809000000000,"state":"active","ping":87},{"user_id":485,"name":"3n+1","steam_id":76561199211320377,"connected_time":771000000000,"state":"active","ping":74},{"user_id":486,"name":"Astonishingly Mediocre","steam_id":76561198865537360,"connected_time":767000000000,"state":"active","ping":62},{"user_id":487,"name":"sudden Bee","steam_id":76561198077484975,"connected_time":550000000000,"state":"active","ping":53},{"user_id":489,"name":"mary","steam_id":76561198014828037,"connected_time":260000000000,"state":"active","ping":62}]},{"server_id":23,"name":"Uncletopia | Frankfurt | 7 | Stopwatch","name_short":"frk-7","host":"frk-1.de.uncletopia.com","port":27075,"enabled":true,"region":"eu","cc":"de","latitude":50.110924,"longitude":8.682127,"reserved":0,"last_update":"0001-01-01T00:00:00Z","name_a2s":"Uncletopia | Frankfurt | 7 | Stopwatch","protocol":17,"map":"koth_highpass","folder":"tf","game":"Team Fortress","app_id":440,"player_count":0,"max_players":24,"Bots":0,"server_type":"Dedicated","server_os":"Linux","password":true,"vac":true,"version":"7961495","steam_id":85568392924742827,"keywords":["cp","nocrits","nodmgspread","uncletopia"],"game_id":440,"stv_port":27076,"stv_name":"Uncletopia | Frankfurt | 7 | Stopwatch | STV","players":null},{"server_id":24,"name":"Uncletopia | Frankfurt | 8 | Community","name_short":"frk-8","host":"frk-1.de.uncletopia.com","port":27085,"enabled":true,"region":"eu","cc":"de","latitude":50.110924,"longitude":8.682127,"reserved":0,"last_update":"0001-01-01T00:00:00Z","name_a2s":"Uncletopia | Frankfurt | 8 | Community","protocol":17,"map":"workshop/pl_fifthcurve_rc1.ugc648227046","folder":"tf","game":"Team Fortress","app_id":440,"player_count":0,"max_players":24,"Bots":0,"server_type":"Dedicated","server_os":"Linux","password":true,"vac":true,"version":"7961495","steam_id":85568392924742828,"keywords":["nocrits","nodmgspread","payload","uncletopia"],"game_id":440,"stv_port":27086,"stv_name":"Uncletopia | Frankfurt | 8 | Community | STV","players":null},{"server_id":202,"name":"Uncletopia | Hong Kong | 1 | All Maps","name_short":"hgk-1","host":"hgk-1.hk.uncletopia.com","port":27015,"enabled":true,"region":"asia","cc":"hk","latitude":22.302711,"longitude":114.177216,"reserved":0,"last_update":"0001-01-01T00:00:00Z","name_a2s":"Uncletopia | Hong Kong | 1 | All Maps","protocol":17,"map":"cp_gravelpit","folder":"tf","game":"Team Fortress","app_id":440,"player_count":0,"max_players":24,"Bots":0,"server_type":"Dedicated","server_os":"Linux","password":true,"vac":true,"version":"7961495","steam_id":85568392924494504,"keywords":["cp","nocrits","nodmgspread","uncletopia"],"game_id":440,"stv_port":27016,"stv_name":"Uncletopia | Hong Kong | 1 | All Maps | STV","players":null},{"server_id":1,"name":"Uncletopia | Los Angeles | 1 | All Maps","name_short":"lax-1","host":"lax-1.us.uncletopia.com","port":27015,"enabled":true,"region":"us-west","cc":"us","latitude":33.94279,"longitude":-118.41004,"reserved":0,"last_update":"0001-01-01T00:00:00Z","name_a2s":"Uncletopia | Los Angeles | 1 | All Maps","protocol":17,"map":"pl_pier","folder":"tf","game":"Team Fortress","app_id":440,"player_count":0,"max_players":24,"Bots":0,"server_type":"Dedicated","server_os":"Linux","password":true,"vac":true,"version":"7961495","steam_id":85568392924469991,"keywords":["nocrits","nodmgspread","payload","uncletopia"],"game_id":440,"stv_port":27016,"stv_name":"Uncletopia | Los Angeles | 1 | All Maps | STV","players":null},{"server_id":112,"name":"Uncletopia | Los Angeles | 2 | All Maps","name_short":"lax-2","host":"lax-1.us.uncletopia.com","port":27025,"enabled":true,"region":"us-west","cc":"us","latitude":33.94279,"longitude":-118.41004,"reserved":0,"last_update":"0001-01-01T00:00:00Z","name_a2s":"Uncletopia | Los Angeles | 2 | All Maps","protocol":17,"map":"koth_cascade","folder":"tf","game":"Team Fortress","app_id":440,"player_count":0,"max_players":24,"Bots":0,"server_type":"Dedicated","server_os":"Linux","password":true,"vac":true,"version":"7961495","steam_id":85568392924469992,"keywords":["cp","nocrits","nodmgspread","uncletopia"],"game_id":440,"stv_port":27026,"stv_name":"Uncletopia | Los Angeles | 2 | All Maps | STV","players":null},{"server_id":324,"name":"Uncletopia | Los Angeles | 3 | All Maps","name_short":"lax-3","host":"lax-1.us.uncletopia.com","port":27035,"enabled":true,"region":"us-west","cc":"us","latitude":33.94279,"longitude":-118.41004,"reserved":0,"last_update":"0001-01-01T00:00:00Z","name_a2s":"Uncletopia | Los Angeles | 3 | All Maps","protocol":17,"map":"pl_pier","folder":"tf","game":"Team Fortress","app_id":440,"player_count":0,"max_players":24,"Bots":0,"server_type":"Dedicated","server_os":"Linux","password":true,"vac":true,"version":"7961495","steam_id":85568392924510198,"keywords":["nocrits","nodmgspread","payload","uncletopia"],"game_id":440,"stv_port":27036,"stv_name":"Uncletopia | Los Angeles | 3 | All Maps | STV","players":null},{"server_id":25,"name":"Uncletopia | Los Angeles | 4 | Stopwatch","name_short":"lax-4","host":"lax-1.us.uncletopia.com","port":27045,"enabled":true,"region":"us-west","cc":"us","latitude":33.94279,"longitude":-118.41004,"reserved":0,"last_update":"0001-01-01T00:00:00Z","name_a2s":"Uncletopia | Los Angeles | 4 | Stopwatch","protocol":17,"map":"workshop/koth_product_final.ugc454272353","folder":"tf","game":"Team Fortress","app_id":440,"player_count":0,"max_players":24,"Bots":0,"server_type":"Dedicated","server_os":"Linux","password":true,"vac":true,"version":"7961495","steam_id":85568392924510199,"keywords":["cp","nocrits","nodmgspread","uncletopia"],"game_id":440,"stv_port":27046,"stv_name":"Uncletopia | Los Angeles | 4 | Stopwatch | STV","players":null},{"server_id":11,"name":"Uncletopia | London | 1 | All Maps","name_short":"lon-1","host":"lon-1.uk.uncletopia.com","port":27015,"enabled":true,"region":"eu","cc":"gb","latitude":51.509865,"longitude":-0.118092,"reserved":0,"last_update":"0001-01-01T00:00:00Z","name_a2s":"Uncletopia | London | 1 | All Maps","protocol":17,"map":"koth_brazil","folder":"tf","game":"Team Fortress","app_id":440,"player_count":24,"max_players":24,"Bots":0,"server_type":"Dedicated","server_os":"Linux","password":true,"vac":true,"version":"7961495","steam_id":85568392924367362,"keywords":["cp","nocrits","nodmgspread","uncletopia"],"game_id":440,"stv_port":27016,"stv_name":"Uncletopia | London | 1 | All Maps | STV","players":[{"user_id":599,"name":"Pinkchup","steam_id":76561198106802803,"connected_time":2894000000000,"state":"active","ping":79},{"user_id":517,"name":"whimsy.","steam_id":76561198878171763,"connected_time":11949000000000,"state":"active","ping":52},{"user_id":610,"name":"Slifer the Furry Warrior","steam_id":76561198062255803,"connected_time":755000000000,"state":"active","ping":75},{"user_id":605,"name":"Aaron","steam_id":76561197990046953,"connected_time":1521000000000,"state":"active","ping":59},{"user_id":620,"name":"charge it doc","steam_id":76561198249832770,"connected_time":106000000000,"state":"active","ping":48},{"user_id":582,"name":"nudjura","steam_id":76561198281986139,"connected_time":5061000000000,"state":"active","ping":45},{"user_id":551,"name":"Aku+","steam_id":76561198813782795,"connected_time":8201000000000,"state":"active","ping":64},{"user_id":613,"name":"Sandshee","steam_id":76561198088574666,"connected_time":745000000000,"state":"active","ping":47},{"user_id":601,"name":"♡ Birdy ♡","steam_id":76561198139632682,"connected_time":1731000000000,"state":"active","ping":90},{"user_id":558,"name":"Kahvi","steam_id":76561198723244199,"connected_time":7237000000000,"state":"active","ping":88},{"user_id":594,"name":"sora (live!)","steam_id":76561198096547662,"connected_time":3469000000000,"state":"active","ping":54},{"user_id":507,"name":"ber.","steam_id":76561197993892057,"connected_time":12400000000000,"state":"active","ping":93},{"user_id":617,"name":"Sang","steam_id":76561198008510868,"connected_time":608000000000,"state":"active","ping":75},{"user_id":619,"name":"Mega Man Legends 3","steam_id":76561198014110199,"connected_time":498000000000,"state":"active","ping":45},{"user_id":616,"name":"ashley","steam_id":76561198448551449,"connected_time":733000000000,"state":"active","ping":33},{"user_id":614,"name":"bruhemian ((NEW YT VID))","steam_id":76561198191854931,"connected_time":743000000000,"state":"active","ping":55},{"user_id":621,"name":"Umme","steam_id":76561198053809566,"connected_time":76000000000,"state":"active","ping":75},{"user_id":600,"name":"gibb (heLP HELP HELP)","steam_id":76561198074097655,"connected_time":2295000000000,"state":"active","ping":66},{"user_id":606,"name":"Ville","steam_id":76561198137424821,"connected_time":1343000000000,"state":"active","ping":61},{"user_id":602,"name":"Laru","steam_id":76561197998838438,"connected_time":1681000000000,"state":"active","ping":89},{"user_id":608,"name":"Minimi","steam_id":76561198873850443,"connected_time":769000000000,"state":"active","ping":52},{"user_id":598,"name":"SuperBob103","steam_id":76561199175360012,"connected_time":2899000000000,"state":"active","ping":57},{"user_id":550,"name":"tapeworms!","steam_id":76561198069649097,"connected_time":8238000000000,"state":"active","ping":47},{"user_id":618,"name":"Yelowchy","steam_id":76561198199416121,"connected_time":535000000000,"state":"active","ping":71}]},{"server_id":114,"name":"Uncletopia | London | 2 | All Maps","name_short":"lon-2","host":"lon-1.uk.uncletopia.com","port":27025,"enabled":true,"region":"eu","cc":"gb","latitude":51.509865,"longitude":-0.118092,"reserved":0,"last_update":"0001-01-01T00:00:00Z","name_a2s":"Uncletopia | London | 2 | All Maps","protocol":17,"map":"pl_barnblitz","folder":"tf","game":"Team Fortress","app_id":440,"player_count":0,"max_players":24,"Bots":0,"server_type":"Dedicated","server_os":"Linux","password":true,"vac":true,"version":"7961495","steam_id":85568392924470941,"keywords":["nocrits","nodmgspread","payload","uncletopia"],"game_id":440,"stv_port":27026,"stv_name":"Uncletopia | London | 2 | All Maps | STV","players":null},{"server_id":320,"name":"Uncletopia | London | 3 | All Maps","name_short":"lon-3","host":"lon-1.uk.uncletopia.com","port":27035,"enabled":true,"region":"eu","cc":"gb","latitude":51.509865,"longitude":-0.118092,"reserved":0,"last_update":"0001-01-01T00:00:00Z","name_a2s":"Uncletopia | London | 3 | All Maps","protocol":17,"map":"cp_gorge","folder":"tf","game":"Team Fortress","app_id":440,"player_count":24,"max_players":24,"Bots":0,"server_type":"Dedicated","server_os":"Linux","password":true,"vac":true,"version":"7961495","steam_id":85568392924510192,"keywords":["cp","nocrits","nodmgspread","uncletopia"],"game_id":440,"stv_port":27036,"stv_name":"Uncletopia | London | 3 | All Maps | STV","players":[{"user_id":169,"name":"Lewylow","steam_id":76561198005425686,"connected_time":678000000000,"state":"active","ping":72},{"user_id":138,"name":"yall boots hats??","steam_id":76561198097396447,"connected_time":3230000000000,"state":"active","ping":57},{"user_id":163,"name":"Harribo","steam_id":76561197993650688,"connected_time":947000000000,"state":"active","ping":42},{"user_id":151,"name":"!Amiwackity!","steam_id":76561198151370212,"connected_time":1786000000000,"state":"active","ping":75},{"user_id":164,"name":"Beni 🦧🍌","steam_id":76561198011340227,"connected_time":824000000000,"state":"active","ping":60},{"user_id":178,"name":"midlpsyzl47","steam_id":76561199475972637,"connected_time":298000000000,"state":"active","ping":62},{"user_id":167,"name":"Aftiks","steam_id":76561198875182686,"connected_time":751000000000,"state":"active","ping":100},{"user_id":86,"name":"Henry","steam_id":76561198108018305,"connected_time":8019000000000,"state":"active","ping":79},{"user_id":133,"name":"The Panzarott","steam_id":76561198202846015,"connected_time":3553000000000,"state":"active","ping":68},{"user_id":177,"name":"ChPerette 🎮","steam_id":76561198060004887,"connected_time":389000000000,"state":"active","ping":45},{"user_id":134,"name":"Mr.Cupcake","steam_id":76561198152711174,"connected_time":3534000000000,"state":"active","ping":59},{"user_id":168,"name":"rajAs","steam_id":76561198035928111,"connected_time":725000000000,"state":"active","ping":70},{"user_id":165,"name":"Saken","steam_id":76561198049075295,"connected_time":800000000000,"state":"active","ping":61},{"user_id":171,"name":"snayke","steam_id":76561198077822932,"connected_time":659000000000,"state":"active","ping":67},{"user_id":81,"name":"lark","steam_id":76561198091724522,"connected_time":8160000000000,"state":"active","ping":56},{"user_id":172,"name":"levap","steam_id":76561197987688539,"connected_time":646000000000,"state":"active","ping":92},{"user_id":173,"name":"spy's arent real","steam_id":76561198165871469,"connected_time":595000000000,"state":"active","ping":60},{"user_id":174,"name":"Enda","steam_id":76561198202980164,"connected_time":580000000000,"state":"active","ping":91},{"user_id":147,"name":"kenzou","steam_id":76561199180054996,"connected_time":2346000000000,"state":"active","ping":60},{"user_id":159,"name":"medium rare chicken enjoyer","steam_id":76561198050214002,"connected_time":1297000000000,"state":"active","ping":66},{"user_id":122,"name":"htraB","steam_id":76561198043122677,"connected_time":4773000000000,"state":"active","ping":66},{"user_id":123,"name":"the joy of recycling","steam_id":76561198138509827,"connected_time":4772000000000,"state":"active","ping":75},{"user_id":175,"name":"Woad Raider","steam_id":76561198215485788,"connected_time":507000000000,"state":"active","ping":68},{"user_id":176,"name":"Arexy","steam_id":76561198192440207,"connected_time":495000000000,"state":"active","ping":78}]},{"server_id":321,"name":"Uncletopia | London | 4 | All Maps","name_short":"lon-4","host":"lon-1.uk.uncletopia.com","port":27045,"enabled":true,"region":"eu","cc":"gb","latitude":51.509865,"longitude":-0.118092,"reserved":0,"last_update":"0001-01-01T00:00:00Z","name_a2s":"Uncletopia | London | 4 | All Maps","protocol":17,"map":"cp_process_final","folder":"tf","game":"Team Fortress","app_id":440,"player_count":24,"max_players":24,"Bots":0,"server_type":"Dedicated","server_os":"Linux","password":true,"vac":true,"version":"7961495","steam_id":85568392924510193,"keywords":["cp","nocrits","nodmgspread","uncletopia"],"game_id":440,"stv_port":27046,"stv_name":"Uncletopia | London | 4 | All Maps | STV","players":[{"user_id":462,"name":"Lark","steam_id":76561198066937447,"connected_time":380000000000,"state":"active","ping":90},{"user_id":448,"name":"Em","steam_id":76561198057911246,"connected_time":975000000000,"state":"active","ping":75},{"user_id":445,"name":"Charon","steam_id":76561198061714753,"connected_time":1362000000000,"state":"active","ping":87},{"user_id":358,"name":"finbar","steam_id":76561198056812396,"connected_time":10225000000000,"state":"active","ping":85},{"user_id":449,"name":"disabled chimp","steam_id":76561198132062857,"connected_time":969000000000,"state":"active","ping":74},{"user_id":442,"name":"Paulo Doutor","steam_id":76561198168674032,"connected_time":1680000000000,"state":"active","ping":72},{"user_id":450,"name":"Ｐｏｏｔｉｓ!","steam_id":76561197970114051,"connected_time":868000000000,"state":"active","ping":37},{"user_id":451,"name":"cactusj4","steam_id":76561199243398487,"connected_time":767000000000,"state":"active","ping":54},{"user_id":464,"name":"Bouuuulic","steam_id":76561198053731110,"connected_time":126000000000,"state":"active","ping":54},{"user_id":420,"name":"BOLAXA","steam_id":76561198228406008,"connected_time":4547000000000,"state":"active","ping":75},{"user_id":452,"name":"combine","steam_id":76561198007909007,"connected_time":752000000000,"state":"active","ping":61},{"user_id":453,"name":"Spliffendor","steam_id":76561198144020209,"connected_time":738000000000,"state":"active","ping":53},{"user_id":440,"name":"1 toke 4 mars bars","steam_id":76561198056460000,"connected_time":1799000000000,"state":"active","ping":46},{"user_id":405,"name":"mumbler","steam_id":76561197970641239,"connected_time":5179000000000,"state":"active","ping":56},{"user_id":454,"name":"sussy baka","steam_id":76561198368758532,"connected_time":696000000000,"state":"active","ping":75},{"user_id":438,"name":"powej","steam_id":76561198056381418,"connected_time":1977000000000,"state":"active","ping":44},{"user_id":455,"name":"gabagool","steam_id":76561198307111838,"connected_time":650000000000,"state":"active","ping":147},{"user_id":456,"name":"dakkafex","steam_id":76561198020254869,"connected_time":630000000000,"state":"active","ping":44},{"user_id":441,"name":"ZombieSlayer77","steam_id":76561199023974356,"connected_time":1731000000000,"state":"active","ping":143},{"user_id":457,"name":"sprinkle ✧* ༝","steam_id":76561198055871696,"connected_time":616000000000,"state":"active","ping":59},{"user_id":458,"name":"warui ne","steam_id":76561198079524152,"connected_time":612000000000,"state":"active","ping":72},{"user_id":461,"name":"✞he nowhere k;ng.","steam_id":76561198042830349,"connected_time":478000000000,"state":"active","ping":71},{"user_id":409,"name":"Aspartus","steam_id":76561198101385763,"connected_time":5122000000000,"state":"active","ping":38},{"user_id":463,"name":"Ignazoz #Mannscaped","steam_id":76561198951908940,"connected_time":234000000000,"state":"active","ping":73}]},{"server_id":21,"name":"Uncletopia | London | 5 | All Maps","name_short":"lon-5","host":"lon-1.uk.uncletopia.com","port":27055,"enabled":true,"region":"eu","cc":"gb","latitude":51.509865,"longitude":-0.118092,"reserved":0,"last_update":"0001-01-01T00:00:00Z","name_a2s":"Uncletopia | London | 5 | All Maps","protocol":17,"map":"koth_king","folder":"tf","game":"Team Fortress","app_id":440,"player_count":0,"max_players":24,"Bots":0,"server_type":"Dedicated","server_os":"Linux","password":true,"vac":true,"version":"7961495","steam_id":85568392924742829,"keywords":["cp","nocrits","nodmgspread","uncletopia"],"game_id":440,"stv_port":27056,"stv_name":"Uncletopia | London | 5 | All Maps | STV","players":null},{"server_id":22,"name":"Uncletopia | London | 6 | All Maps","name_short":"lon-6","host":"lon-1.uk.uncletopia.com","port":27065,"enabled":true,"region":"eu","cc":"gb","latitude":51.509865,"longitude":-0.118092,"reserved":0,"last_update":"0001-01-01T00:00:00Z","name_a2s":"Uncletopia | London | 6 | All Maps","protocol":17,"map":"pl_badwater","folder":"tf","game":"Team Fortress","app_id":440,"player_count":24,"max_players":24,"Bots":0,"server_type":"Dedicated","server_os":"Linux","password":true,"vac":true,"version":"7961495","steam_id":85568392924742830,"keywords":["nocrits","nodmgspread","payload","uncletopia"],"game_id":440,"stv_port":27066,"stv_name":"Uncletopia | London | 6 | All Maps | STV","players":[{"user_id":194,"name":"Dr. Kaytastrophee, PhD","steam_id":76561198012418739,"connected_time":967000000000,"state":"active","ping":149},{"user_id":187,"name":"fischman","steam_id":76561199064142670,"connected_time":1340000000000,"state":"active","ping":53},{"user_id":163,"name":"Seal","steam_id":76561198244988552,"connected_time":2518000000000,"state":"active","ping":68},{"user_id":64,"name":"ArmedWithWings","steam_id":76561198154615474,"connected_time":10653000000000,"state":"active","ping":77},{"user_id":82,"name":"syms","steam_id":76561198066679812,"connected_time":9143000000000,"state":"active","ping":77},{"user_id":203,"name":"katz","steam_id":76561198271797380,"connected_time":94000000000,"state":"active","ping":116},{"user_id":202,"name":"DNA","steam_id":76561198095477557,"connected_time":141000000000,"state":"active","ping":61},{"user_id":170,"name":"Smarge","steam_id":76561198120035423,"connected_time":2289000000000,"state":"active","ping":46},{"user_id":167,"name":"A Wild Ferrothorn","steam_id":76561198042261828,"connected_time":2410000000000,"state":"active","ping":54},{"user_id":200,"name":"mq","steam_id":76561198091888948,"connected_time":362000000000,"state":"active","ping":54},{"user_id":198,"name":"Huskai","steam_id":76561198141512362,"connected_time":746000000000,"state":"active","ping":45},{"user_id":171,"name":"Inforsitec","steam_id":76561198216770168,"connected_time":2283000000000,"state":"active","ping":49},{"user_id":172,"name":"Ray William Johnson from =3","steam_id":76561198129755592,"connected_time":2278000000000,"state":"active","ping":31},{"user_id":193,"name":"Weegee","steam_id":76561198150308523,"connected_time":979000000000,"state":"active","ping":47},{"user_id":175,"name":"Kappa","steam_id":76561198089341471,"connected_time":2077000000000,"state":"active","ping":60},{"user_id":190,"name":"mah_man","steam_id":76561198828510784,"connected_time":1294000000000,"state":"active","ping":68},{"user_id":177,"name":"Deadlycow","steam_id":76561197980761347,"connected_time":1944000000000,"state":"active","ping":60},{"user_id":201,"name":"Eric Catman","steam_id":76561198802117294,"connected_time":355000000000,"state":"active","ping":50},{"user_id":197,"name":"Rezkey","steam_id":76561198206079048,"connected_time":837000000000,"state":"active","ping":53},{"user_id":191,"name":"TheEventGuy","steam_id":76561197972797744,"connected_time":1272000000000,"state":"active","ping":60},{"user_id":66,"name":"kurd","steam_id":76561198116530769,"connected_time":10639000000000,"state":"active","ping":95},{"user_id":186,"name":"Chance","steam_id":76561198076530208,"connected_time":1388000000000,"state":"active","ping":31},{"user_id":184,"name":"gagalak","steam_id":76561198089979108,"connected_time":1672000000000,"state":"active","ping":104},{"user_id":183,"name":"Flank","steam_id":76561198098731156,"connected_time":1685000000000,"state":"active","ping":70}]},{"server_id":40,"name":"Uncletopia | London | 7 | Stopwatch","name_short":"lon-7","host":"lon-1.uk.uncletopia.com","port":27075,"enabled":true,"region":"eu","cc":"gb","latitude":51.509865,"longitude":-0.118092,"reserved":0,"last_update":"0001-01-01T00:00:00Z","name_a2s":"Uncletopia | London | 7 | Stopwatch","protocol":17,"map":"workshop/koth_ashville_final.ugc2130459942","folder":"tf","game":"Team Fortress","app_id":440,"player_count":0,"max_players":24,"Bots":0,"server_type":"Dedicated","server_os":"Linux","password":true,"vac":true,"version":"7961495","steam_id":85568392924964314,"keywords":["cp","nocrits","nodmgspread","uncletopia"],"game_id":440,"stv_port":27076,"stv_name":"Uncletopia | London | 7 | Stopwatch | STV","players":null},{"server_id":41,"name":"Uncletopia | London | 8 | Community","name_short":"lon-8","host":"lon-1.uk.uncletopia.com","port":27085,"enabled":true,"region":"eu","cc":"gb","latitude":51.509865,"longitude":-0.118092,"reserved":0,"last_update":"0001-01-01T00:00:00Z","name_a2s":"Uncletopia | London | 8 | Community","protocol":17,"map":"workshop/pl_boundary_final1.ugc456799153","folder":"tf","game":"Team Fortress","app_id":440,"player_count":0,"max_players":24,"Bots":0,"server_type":"Dedicated","server_os":"Linux","password":true,"vac":true,"version":"7961495","steam_id":85568392924964315,"keywords":["nocrits","nodmgspread","payload","uncletopia"],"game_id":440,"stv_port":27086,"stv_name":"Uncletopia | London | 8 | Community | STV","players":null},{"server_id":300,"name":"Uncletopia | Montréal | 1 | One Thousand Uncles","name_short":"mtl-1","host":"mtl-1.ca.uncletopia.com","port":27015,"enabled":true,"region":"us-east","cc":"ca","latitude":45.50889,"longitude":-73.56167,"reserved":0,"last_update":"0001-01-01T00:00:00Z","name_a2s":"Uncletopia | Montréal | 1 | One Thousand Uncles","protocol":17,"map":"pl_chilly","folder":"tf","game":"Team Fortress","app_id":440,"player_count":0,"max_players":32,"Bots":0,"server_type":"Dedicated","server_os":"Linux","password":true,"vac":true,"version":"7961495","steam_id":85568392924500087,"keywords":["alltalk","danepve","increased_maxplayers","norespawntime","payload","uncletopia"],"game_id":440,"stv_port":0,"stv_name":"","players":null},{"server_id":301,"name":"Uncletopia | Montréal | 2 | One Thousand Uncles","name_short":"mtl-2","host":"mtl-1.ca.uncletopia.com","port":27025,"enabled":true,"region":"us-east","cc":"ca","latitude":45.50889,"longitude":-73.56167,"reserved":0,"last_update":"0001-01-01T00:00:00Z","name_a2s":"Uncletopia | Montréal | 2 | One Thousand Uncles","protocol":17,"map":"pl_snowycoast","folder":"tf","game":"Team Fortress","app_id":440,"player_count":0,"max_players":32,"Bots":0,"server_type":"Dedicated","server_os":"Linux","password":true,"vac":true,"version":"7961495","steam_id":85568392924500088,"keywords":["alltalk","danepve","increased_maxplayers","norespawntime","payload","uncletopia"],"game_id":440,"stv_port":0,"stv_name":"","players":null},{"server_id":302,"name":"Uncletopia | Montréal | 3 | One Thousand Uncles","name_short":"mtl-3","host":"mtl-1.ca.uncletopia.com","port":27035,"enabled":true,"region":"us-east","cc":"ca","latitude":45.50889,"longitude":-73.56167,"reserved":0,"last_update":"0001-01-01T00:00:00Z","name_a2s":"Uncletopia | Montréal | 3 | One Thousand Uncles","protocol":17,"map":"pl_goldrush","folder":"tf","game":"Team Fortress","app_id":440,"player_count":27,"max_players":32,"Bots":16,"server_type":"Dedicated","server_os":"Linux","password":true,"vac":true,"version":"7961495","steam_id":85568392924500089,"keywords":["alltalk","bots","danepve","increased_maxplayers","norespawntime","payload","uncletopia"],"game_id":440,"stv_port":0,"stv_name":"","players":[{"user_id":118,"name":"Eric Cartman Gaming","steam_id":76561199382783363,"connected_time":2391000000000,"state":"active","ping":117},{"user_id":135,"name":"drrdfdddd122","steam_id":76561199304776530,"connected_time":2256000000000,"state":"active","ping":71},{"user_id":137,"name":"1-800-GHOST-DANCE","steam_id":76561198835430429,"connected_time":1741000000000,"state":"active","ping":90},{"user_id":138,"name":"Rhutebeer","steam_id":76561198018302761,"connected_time":1698000000000,"state":"active","ping":85},{"user_id":139,"name":"melon soda","steam_id":76561198066748230,"connected_time":1588000000000,"state":"active","ping":75},{"user_id":141,"name":"BB Lorexav","steam_id":76561198207565988,"connected_time":1044000000000,"state":"active","ping":77},{"user_id":143,"name":"jerma enthusiast","steam_id":76561198359466264,"connected_time":998000000000,"state":"active","ping":90},{"user_id":148,"name":"Bmo","steam_id":76561199084829339,"connected_time":114000000000,"state":"active","ping":60},{"user_id":145,"name":"jackistan","steam_id":76561198444415179,"connected_time":280000000000,"state":"active","ping":46},{"user_id":146,"name":"gillmore.samuel","steam_id":76561198109742336,"connected_time":237000000000,"state":"active","ping":39},{"user_id":147,"name":"gr33nfish77","steam_id":76561199080818119,"connected_time":202000000000,"state":"active","ping":57}]},{"server_id":13,"name":"Uncletopia | New York City | 1 | All Maps","name_short":"nyc-1","host":"nyc-1.us.uncletopia.com","port":27015,"enabled":true,"region":"us-east","cc":"us","latitude":40.73061,"longitude":-73.93524,"reserved":0,"last_update":"0001-01-01T00:00:00Z","name_a2s":"Uncletopia | New York City | 1 | All Maps","protocol":17,"map":"pl_frontier_final","folder":"tf","game":"Team Fortress","app_id":440,"player_count":24,"max_players":24,"Bots":0,"server_type":"Dedicated","server_os":"Linux","password":true,"vac":true,"version":"7961495","steam_id":85568392924469993,"keywords":["nocrits","nodmgspread","payload","uncletopia"],"game_id":440,"stv_port":27016,"stv_name":"Uncletopia | New York City | 1 | All Maps | STV","players":[{"user_id":300,"name":"Naive Femmie","steam_id":76561198311208470,"connected_time":1035000000000,"state":"active","ping":120},{"user_id":305,"name":"Gailus","steam_id":76561198319509387,"connected_time":1019000000000,"state":"active","ping":62},{"user_id":308,"name":"googa","steam_id":76561198133130452,"connected_time":1004000000000,"state":"active","ping":45},{"user_id":261,"name":"Squope","steam_id":76561198983129293,"connected_time":4340000000000,"state":"active","ping":41},{"user_id":263,"name":"TARP","steam_id":76561198981788304,"connected_time":4321000000000,"state":"active","ping":42},{"user_id":230,"name":"CRAZY engineer","steam_id":76561198887937902,"connected_time":6332000000000,"state":"active","ping":51},{"user_id":313,"name":"Moodflame","steam_id":76561199079466529,"connected_time":645000000000,"state":"active","ping":67},{"user_id":298,"name":"Cowabummer","steam_id":76561198272640432,"connected_time":1084000000000,"state":"active","ping":102},{"user_id":309,"name":"Gruko","steam_id":76561198282965665,"connected_time":951000000000,"state":"active","ping":45},{"user_id":291,"name":"Xavibite","steam_id":76561198209380493,"connected_time":2474000000000,"state":"active","ping":44},{"user_id":295,"name":"basil du bois","steam_id":76561198119590214,"connected_time":1858000000000,"state":"active","ping":76},{"user_id":312,"name":"mr.edderkopper","steam_id":76561198152614478,"connected_time":754000000000,"state":"active","ping":65},{"user_id":307,"name":"slafflow","steam_id":76561199381012350,"connected_time":1018000000000,"state":"active","ping":102},{"user_id":310,"name":"epic cheeseburger","steam_id":76561198041995180,"connected_time":943000000000,"state":"active","ping":103},{"user_id":247,"name":"Batvision","steam_id":76561198029561301,"connected_time":4940000000000,"state":"active","ping":63},{"user_id":311,"name":"Smartchicken","steam_id":76561198037744517,"connected_time":792000000000,"state":"active","ping":46},{"user_id":296,"name":"balls","steam_id":76561198143694438,"connected_time":1763000000000,"state":"active","ping":46},{"user_id":297,"name":"START PRAYIN BOY","steam_id":76561198089173996,"connected_time":1543000000000,"state":"active","ping":59},{"user_id":267,"name":"hooley","steam_id":76561198041923067,"connected_time":4231000000000,"state":"active","ping":58},{"user_id":302,"name":"Bother","steam_id":76561198336750909,"connected_time":1031000000000,"state":"active","ping":42},{"user_id":303,"name":"Fidel Cashflow","steam_id":76561198165508772,"connected_time":1031000000000,"state":"active","ping":64},{"user_id":274,"name":"6ix *","steam_id":76561198415484497,"connected_time":3770000000000,"state":"active","ping":173},{"user_id":294,"name":"Frost ♥","steam_id":76561198168870617,"connected_time":1915000000000,"state":"active","ping":55},{"user_id":304,"name":"Mr_MagicMan","steam_id":76561198372713689,"connected_time":1031000000000,"state":"active","ping":80}]},{"server_id":14,"name":"Uncletopia | New York City | 2 | All Maps","name_short":"nyc-2","host":"nyc-1.us.uncletopia.com","port":27025,"enabled":true,"region":"us-east","cc":"us","latitude":40.73061,"longitude":-73.93524,"reserved":0,"last_update":"0001-01-01T00:00:00Z","name_a2s":"Uncletopia | New York City | 2 | All Maps","protocol":17,"map":"pl_swiftwater_final1","folder":"tf","game":"Team Fortress","app_id":440,"player_count":23,"max_players":24,"Bots":0,"server_type":"Dedicated","server_os":"Linux","password":true,"vac":true,"version":"7961495","steam_id":85568392924469994,"keywords":["nocrits","nodmgspread","payload","uncletopia"],"game_id":440,"stv_port":27026,"stv_name":"Uncletopia | New York City | 2 | All Maps | STV","players":[{"user_id":437,"name":"Paulktw1","steam_id":76561198362380245,"connected_time":942000000000,"state":"active","ping":156},{"user_id":336,"name":"Mr. Squirt","steam_id":76561198174755679,"connected_time":7212000000000,"state":"active","ping":45},{"user_id":438,"name":"runescape legend","steam_id":76561198077791373,"connected_time":865000000000,"state":"active","ping":66},{"user_id":384,"name":"Nilantive","steam_id":76561198177565082,"connected_time":3997000000000,"state":"active","ping":53},{"user_id":439,"name":"Whar?","steam_id":76561198886450180,"connected_time":636000000000,"state":"active","ping":87},{"user_id":440,"name":"drink cup","steam_id":76561198096336917,"connected_time":624000000000,"state":"active","ping":81},{"user_id":441,"name":"hentai god 696","steam_id":76561199509318835,"connected_time":624000000000,"state":"active","ping":38},{"user_id":450,"name":"SpringSloth","steam_id":76561199211310022,"connected_time":52000000000,"state":"active","ping":49},{"user_id":434,"name":"Butthole Cafeteria","steam_id":76561197986078333,"connected_time":1130000000000,"state":"active","ping":59},{"user_id":401,"name":"HungryPenguin","steam_id":76561198039803880,"connected_time":3151000000000,"state":"active","ping":39},{"user_id":451,"name":"STARDUST","steam_id":76561198843556568,"connected_time":23000000000,"state":"active","ping":276},{"user_id":442,"name":"soup","steam_id":76561198880568662,"connected_time":457000000000,"state":"active","ping":61},{"user_id":433,"name":"AMD Ryzen #SaveTF2","steam_id":76561198181028110,"connected_time":1822000000000,"state":"active","ping":87},{"user_id":443,"name":"tizflint8008","steam_id":76561199034250277,"connected_time":457000000000,"state":"active","ping":83},{"user_id":388,"name":"THGAwesome","steam_id":76561198162847218,"connected_time":3922000000000,"state":"active","ping":46},{"user_id":431,"name":"kilany","steam_id":76561198322366556,"connected_time":1958000000000,"state":"active","ping":172},{"user_id":444,"name":"monke[SD]","steam_id":76561199124793880,"connected_time":370000000000,"state":"active","ping":77},{"user_id":446,"name":"Rudy","steam_id":76561198013456828,"connected_time":300000000000,"state":"active","ping":54},{"user_id":390,"name":"russames","steam_id":76561198007535911,"connected_time":3902000000000,"state":"active","ping":76},{"user_id":436,"name":"CheetoSmoke7","steam_id":76561198095217273,"connected_time":968000000000,"state":"active","ping":46},{"user_id":424,"name":"oppenheimer style","steam_id":76561198026664629,"connected_time":2579000000000,"state":"active","ping":50},{"user_id":449,"name":"sprite in the bong","steam_id":76561198233984300,"connected_time":173000000000,"state":"active","ping":68},{"user_id":435,"name":"badabing badaboom","steam_id":76561198850358863,"connected_time":972000000000,"state":"active","ping":157}]},{"server_id":15,"name":"Uncletopia | New York City | 3 | Stopwatch","name_short":"nyc-3","host":"nyc-1.us.uncletopia.com","port":27035,"enabled":true,"region":"us-east","cc":"us","latitude":40.73061,"longitude":-73.93524,"reserved":0,"last_update":"0001-01-01T00:00:00Z","name_a2s":"Uncletopia | New York City | 3 | Stopwatch","protocol":17,"map":"koth_lakeside_final","folder":"tf","game":"Team Fortress","app_id":440,"player_count":0,"max_players":24,"Bots":0,"server_type":"Dedicated","server_os":"Linux","password":true,"vac":true,"version":"7961495","steam_id":85568392924742820,"keywords":["cp","nocrits","nodmgspread","uncletopia"],"game_id":440,"stv_port":27036,"stv_name":"Uncletopia | New York City | 3 | Stopwatch | STV","players":null},{"server_id":16,"name":"Uncletopia | New York City | 4 | Community","name_short":"nyc-4","host":"nyc-1.us.uncletopia.com","port":27045,"enabled":true,"region":"us-east","cc":"us","latitude":40.73061,"longitude":-73.93524,"reserved":0,"last_update":"0001-01-01T00:00:00Z","name_a2s":"Uncletopia | New York City | 4 | Community","protocol":17,"map":"workshop/pl_shoreleave_rc2.ugc1238849347","folder":"tf","game":"Team Fortress","app_id":440,"player_count":0,"max_players":24,"Bots":0,"server_type":"Dedicated","server_os":"Linux","password":true,"vac":true,"version":"7961495","steam_id":85568392924742821,"keywords":["nocrits","nodmgspread","payload","uncletopia"],"game_id":440,"stv_port":27046,"stv_name":"Uncletopia | New York City | 4 | Community | STV","players":null},{"server_id":142,"name":"Uncletopia | São Paulo | 1 | All Maps","name_short":"sao-1","host":"sao-1.br.uncletopia.com","port":27015,"enabled":true,"region":"sa","cc":"br","latitude":-23.533773,"longitude":-46.62529,"reserved":0,"last_update":"0001-01-01T00:00:00Z","name_a2s":"Uncletopia | São Paulo | 1 | All Maps","protocol":17,"map":"koth_highpass","folder":"tf","game":"Team Fortress","app_id":440,"player_count":0,"max_players":24,"Bots":0,"server_type":"Dedicated","server_os":"Linux","password":true,"vac":true,"version":"7961495","steam_id":85568392924469996,"keywords":["cp","nocrits","nodmgspread","uncletopia"],"game_id":440,"stv_port":27016,"stv_name":"Uncletopia | São Paulo | 1 | All Maps | STV","players":null},{"server_id":143,"name":"Uncletopia | São Paulo | 2 | Community","name_short":"sao-2","host":"sao-2.br.uncletopia.com","port":27015,"enabled":true,"region":"sa","cc":"br","latitude":-23.533773,"longitude":-46.62529,"reserved":0,"last_update":"0001-01-01T00:00:00Z","name_a2s":"Uncletopia | São Paulo | 2 | Community","protocol":17,"map":"workshop/koth_jamram_rc1a.ugc2964065613","folder":"tf","game":"Team Fortress","app_id":440,"player_count":0,"max_players":24,"Bots":0,"server_type":"Dedicated","server_os":"Linux","password":true,"vac":true,"version":"7961495","steam_id":85568392924485349,"keywords":["cp","nocrits","nodmgspread","uncletopia"],"game_id":440,"stv_port":27016,"stv_name":"Uncletopia | São Paulo | 2 | Community | STV","players":null},{"server_id":7,"name":"Uncletopia | Seattle | 1 | All Maps","name_short":"sea-1","host":"sea-1.us.uncletopia.com","port":27015,"enabled":true,"region":"us-west","cc":"us","latitude":47.608013,"longitude":-122.33517,"reserved":0,"last_update":"0001-01-01T00:00:00Z","name_a2s":"Uncletopia | Seattle | 1 | All Maps","protocol":17,"map":"pl_snowycoast","folder":"tf","game":"Team Fortress","app_id":440,"player_count":24,"max_players":24,"Bots":0,"server_type":"Dedicated","server_os":"Linux","password":true,"vac":true,"version":"7961495","steam_id":85568392924469997,"keywords":["nocrits","nodmgspread","payload","uncletopia"],"game_id":440,"stv_port":27016,"stv_name":"Uncletopia | Seattle | 1 | All Maps | STV","players":[{"user_id":170,"name":"goofy goober","steam_id":76561199024079388,"connected_time":1622000000000,"state":"active","ping":46},{"user_id":167,"name":"TABAKU MALUKU","steam_id":76561198289562649,"connected_time":1764000000000,"state":"active","ping":190},{"user_id":179,"name":"circus","steam_id":76561199085524751,"connected_time":1162000000000,"state":"active","ping":83},{"user_id":182,"name":"Henchie!","steam_id":76561198047567464,"connected_time":653000000000,"state":"active","ping":79},{"user_id":112,"name":"Banana Man","steam_id":76561199012105803,"connected_time":3322000000000,"state":"active","ping":45},{"user_id":50,"name":"\\(^o^)/","steam_id":76561199169859135,"connected_time":6995000000000,"state":"active","ping":57},{"user_id":49,"name":"Shit (REAL)","steam_id":76561198206490352,"connected_time":7174000000000,"state":"active","ping":75},{"user_id":173,"name":"Stoopnagle","steam_id":76561198011942560,"connected_time":1507000000000,"state":"active","ping":45},{"user_id":190,"name":"Clagger","steam_id":76561198066701092,"connected_time":130000000000,"state":"active","ping":45},{"user_id":54,"name":"Tavarish","steam_id":76561199440563080,"connected_time":6574000000000,"state":"active","ping":51},{"user_id":113,"name":"Mii Guest C, From Wii Sports","steam_id":76561198197964803,"connected_time":3307000000000,"state":"active","ping":46},{"user_id":168,"name":"beezer","steam_id":76561199049160726,"connected_time":1700000000000,"state":"active","ping":76},{"user_id":186,"name":"Tom Buckle","steam_id":76561198870649125,"connected_time":308000000000,"state":"active","ping":86},{"user_id":187,"name":"LACTAID","steam_id":76561198276585202,"connected_time":298000000000,"state":"active","ping":88},{"user_id":124,"name":"pretty fly for a swatter","steam_id":76561198116023052,"connected_time":2875000000000,"state":"active","ping":82},{"user_id":188,"name":"Micc","steam_id":76561199447744486,"connected_time":294000000000,"state":"active","ping":72},{"user_id":180,"name":"Echo","steam_id":76561199165491231,"connected_time":1114000000000,"state":"active","ping":96},{"user_id":157,"name":"Sudsen","steam_id":76561198370603787,"connected_time":2480000000000,"state":"active","ping":70},{"user_id":175,"name":"Greskrendtregk","steam_id":76561197969553142,"connected_time":1489000000000,"state":"active","ping":50},{"user_id":181,"name":"Jovo","steam_id":76561197993265970,"connected_time":1064000000000,"state":"active","ping":45},{"user_id":185,"name":"TüCold","steam_id":76561198111278197,"connected_time":425000000000,"state":"active","ping":45},{"user_id":184,"name":"voip","steam_id":76561198251603164,"connected_time":597000000000,"state":"active","ping":72},{"user_id":189,"name":"Fachedin","steam_id":76561198041850415,"connected_time":256000000000,"state":"active","ping":65},{"user_id":147,"name":"trackball gaming","steam_id":76561198057371485,"connected_time":2546000000000,"state":"active","ping":72}]},{"server_id":119,"name":"Uncletopia | Seattle | 2 | All Maps","name_short":"sea-2","host":"sea-1.us.uncletopia.com","port":27025,"enabled":true,"region":"us-west","cc":"us","latitude":47.608013,"longitude":-122.33517,"reserved":0,"last_update":"0001-01-01T00:00:00Z","name_a2s":"Uncletopia | Seattle | 2 | All Maps","protocol":17,"map":"koth_viaduct","folder":"tf","game":"Team Fortress","app_id":440,"player_count":0,"max_players":24,"Bots":0,"server_type":"Dedicated","server_os":"Linux","password":true,"vac":true,"version":"7961495","steam_id":85568392924469998,"keywords":["cp","nocrits","nodmgspread","uncletopia"],"game_id":440,"stv_port":27026,"stv_name":"Uncletopia | Seattle | 2 | All Maps | STV","players":null},{"server_id":406,"name":"Uncletopia | Seattle | 3 | Stopwatch","name_short":"sea-3","host":"sea-1.us.uncletopia.com","port":27035,"enabled":true,"region":"us-west","cc":"us","latitude":47.608013,"longitude":-122.33517,"reserved":0,"last_update":"0001-01-01T00:00:00Z","name_a2s":"Uncletopia | Seattle | 3 | Stopwatch","protocol":17,"map":"pl_upward","folder":"tf","game":"Team Fortress","app_id":440,"player_count":0,"max_players":24,"Bots":0,"server_type":"Dedicated","server_os":"Linux","password":true,"vac":true,"version":"7961495","steam_id":85568392924515217,"keywords":["nocrits","nodmgspread","payload","uncletopia"],"game_id":440,"stv_port":27036,"stv_name":"Uncletopia | Seattle | 3 | Stopwatch | STV","players":null},{"server_id":17,"name":"Uncletopia | San Francisco | 1 | All Maps","name_short":"sfo-1","host":"sfo-1.us.uncletopia.com","port":27015,"enabled":true,"region":"us-west","cc":"us","latitude":37.77397,"longitude":-122.4313,"reserved":0,"last_update":"0001-01-01T00:00:00Z","name_a2s":"Uncletopia | San Francisco | 1 | All Maps","protocol":17,"map":"pl_pier","folder":"tf","game":"Team Fortress","app_id":440,"player_count":24,"max_players":24,"Bots":0,"server_type":"Dedicated","server_os":"Linux","password":true,"vac":true,"version":"7961495","steam_id":85568392924469999,"keywords":["nocrits","nodmgspread","payload","uncletopia"],"game_id":440,"stv_port":27016,"stv_name":"Uncletopia | San Francisco | 1 | All Maps | STV","players":[{"user_id":366,"name":"The Lovers?","steam_id":76561198066619792,"connected_time":3157000000000,"state":"active","ping":75},{"user_id":400,"name":"A_b","steam_id":76561198149140645,"connected_time":646000000000,"state":"active","ping":100},{"user_id":287,"name":"Marzbee115","steam_id":76561198095821025,"connected_time":7838000000000,"state":"active","ping":54},{"user_id":396,"name":"dire","steam_id":76561199507898185,"connected_time":774000000000,"state":"active","ping":60},{"user_id":390,"name":"TheBrocklobster","steam_id":76561198039682984,"connected_time":1750000000000,"state":"active","ping":62},{"user_id":335,"name":"SQbuilder","steam_id":76561198076473375,"connected_time":5116000000000,"state":"active","ping":48},{"user_id":367,"name":"Lucas","steam_id":76561198399704604,"connected_time":3153000000000,"state":"active","ping":47},{"user_id":378,"name":"mcdonald's cashier","steam_id":76561198064631164,"connected_time":2499000000000,"state":"active","ping":52},{"user_id":405,"name":"a chicken","steam_id":76561198313121580,"connected_time":219000000000,"state":"active","ping":65},{"user_id":398,"name":"glock41982","steam_id":76561198025107915,"connected_time":725000000000,"state":"active","ping":45},{"user_id":320,"name":"Trips","steam_id":76561198054581597,"connected_time":6369000000000,"state":"active","ping":49},{"user_id":340,"name":"Spicy Churro","steam_id":76561197992913147,"connected_time":4814000000000,"state":"active","ping":57},{"user_id":401,"name":"selvhat","steam_id":76561198114225509,"connected_time":616000000000,"state":"active","ping":53},{"user_id":394,"name":"Mystic man of potatoe","steam_id":76561198027267207,"connected_time":1092000000000,"state":"active","ping":67},{"user_id":369,"name":"Captain Underbelly","steam_id":76561198811270935,"connected_time":3044000000000,"state":"active","ping":85},{"user_id":382,"name":"MORE BOUNCE TO THE OUNCE","steam_id":76561198243399336,"connected_time":2484000000000,"state":"active","ping":60},{"user_id":402,"name":"MegaBitmap","steam_id":76561198086027059,"connected_time":601000000000,"state":"active","ping":65},{"user_id":380,"name":"bansheerubber","steam_id":76561198042009362,"connected_time":2494000000000,"state":"active","ping":74},{"user_id":384,"name":"Eden","steam_id":76561198081284664,"connected_time":2448000000000,"state":"active","ping":62},{"user_id":389,"name":"Judgement?","steam_id":76561198279609240,"connected_time":2264000000000,"state":"active","ping":101},{"user_id":406,"name":"a highly probable flip","steam_id":76561198045964573,"connected_time":199000000000,"state":"active","ping":53},{"user_id":338,"name":"gasoline covered fawn","steam_id":76561198043684960,"connected_time":4997000000000,"state":"active","ping":89},{"user_id":404,"name":"Spam The Alien","steam_id":76561199122290968,"connected_time":340000000000,"state":"active","ping":79},{"user_id":373,"name":"FROYO b4nny","steam_id":76561197970669109,"connected_time":2566000000000,"state":"active","ping":60}]},{"server_id":18,"name":"Uncletopia | San Francisco | 2 | All Maps","name_short":"sfo-2","host":"sfo-1.us.uncletopia.com","port":27025,"enabled":true,"region":"us-west","cc":"us","latitude":37.77397,"longitude":-122.4313,"reserved":0,"last_update":"0001-01-01T00:00:00Z","name_a2s":"Uncletopia | San Francisco | 2 | All Maps","protocol":17,"map":"pl_borneo","folder":"tf","game":"Team Fortress","app_id":440,"player_count":0,"max_players":24,"Bots":0,"server_type":"Dedicated","server_os":"Linux","password":true,"vac":true,"version":"7961495","steam_id":85568392924470000,"keywords":["nocrits","nodmgspread","payload","uncletopia"],"game_id":440,"stv_port":27026,"stv_name":"Uncletopia | San Francisco | 2 | All Maps | STV","players":null},{"server_id":19,"name":"Uncletopia | San Francisco | 3 | Stopwatch","name_short":"sfo-3","host":"sfo-1.us.uncletopia.com","port":27035,"enabled":true,"region":"us-west","cc":"us","latitude":37.77397,"longitude":-122.4313,"reserved":0,"last_update":"0001-01-01T00:00:00Z","name_a2s":"Uncletopia | San Francisco | 3 | Stopwatch","protocol":17,"map":"workshop/koth_product_final.ugc454272353","folder":"tf","game":"Team Fortress","app_id":440,"player_count":0,"max_players":24,"Bots":0,"server_type":"Dedicated","server_os":"Linux","password":true,"vac":true,"version":"7961495","steam_id":85568392924742824,"keywords":["cp","nocrits","nodmgspread","uncletopia"],"game_id":440,"stv_port":27036,"stv_name":"Uncletopia | San Francisco | 3 | Stopwatch | STV","players":null},{"server_id":20,"name":"Uncletopia | San Francisco | 4 | Community","name_short":"sfo-4","host":"sfo-1.us.uncletopia.com","port":27045,"enabled":true,"region":"us-west","cc":"us","latitude":37.77397,"longitude":-122.4313,"reserved":0,"last_update":"0001-01-01T00:00:00Z","name_a2s":"Uncletopia | San Francisco | 4 | Community","protocol":17,"map":"workshop/cp_propaganda_b18.ugc1603743849","folder":"tf","game":"Team Fortress","app_id":440,"player_count":0,"max_players":24,"Bots":0,"server_type":"Dedicated","server_os":"Linux","password":true,"vac":true,"version":"7961495","steam_id":85568392924742826,"keywords":["cp","nocrits","nodmgspread","uncletopia"],"game_id":440,"stv_port":27046,"stv_name":"Uncletopia | San Francisco | 4 | Community | STV","players":null},{"server_id":141,"name":"Uncletopia | Sydney | 1 | All Maps","name_short":"syd-1","host":"syd-1.au.uncletopia.com","port":27015,"enabled":true,"region":"au","cc":"au","latitude":-33.865143,"longitude":151.2099,"reserved":0,"last_update":"0001-01-01T00:00:00Z","name_a2s":"Uncletopia | Sydney | 1 | All Maps","protocol":17,"map":"koth_nucleus","folder":"tf","game":"Team Fortress","app_id":440,"player_count":0,"max_players":24,"Bots":0,"server_type":"Dedicated","server_os":"Linux","password":true,"vac":true,"version":"7961495","steam_id":85568392924470001,"keywords":["cp","nocrits","nodmgspread","uncletopia"],"game_id":440,"stv_port":27016,"stv_name":"Uncletopia | Sydney | 1 | All Maps | STV","players":null},{"server_id":123,"name":"Uncletopia | Sydney | 2 | All Maps","name_short":"syd-2","host":"syd-1.au.uncletopia.com","port":27025,"enabled":true,"region":"au","cc":"au","latitude":-33.865143,"longitude":151.2099,"reserved":0,"last_update":"0001-01-01T00:00:00Z","name_a2s":"Uncletopia | Sydney | 2 | All Maps","protocol":17,"map":"cp_fastlane","folder":"tf","game":"Team Fortress","app_id":440,"player_count":0,"max_players":24,"Bots":0,"server_type":"Dedicated","server_os":"Linux","password":true,"vac":true,"version":"7961495","steam_id":85568392924470002,"keywords":["cp","nocrits","nodmgspread","uncletopia"],"game_id":440,"stv_port":27026,"stv_name":"Uncletopia | Sydney | 2 | All Maps | STV","players":null},{"server_id":395,"name":"Uncletopia | Sydney | 3 | All Maps","name_short":"syd-3","host":"syd-1.au.uncletopia.com","port":27035,"enabled":true,"region":"au","cc":"au","latitude":-33.865143,"longitude":151.2099,"reserved":0,"last_update":"0001-01-01T00:00:00Z","name_a2s":"Uncletopia | Sydney | 3 | All Maps","protocol":17,"map":"cp_metalworks","folder":"tf","game":"Team Fortress","app_id":440,"player_count":0,"max_players":24,"Bots":0,"server_type":"Dedicated","server_os":"Linux","password":true,"vac":true,"version":"7961495","steam_id":85568392925194467,"keywords":["cp","nocrits","nodmgspread","uncletopia"],"game_id":440,"stv_port":27036,"stv_name":"Uncletopia | Sydney | 3 | All Maps | STV","players":null},{"server_id":396,"name":"Uncletopia | Sydney | 4 | All Maps","name_short":"syd-4","host":"syd-1.au.uncletopia.com","port":27045,"enabled":true,"region":"au","cc":"au","latitude":-33.865143,"longitude":151.2099,"reserved":0,"last_update":"0001-01-01T00:00:00Z","name_a2s":"Uncletopia | Sydney | 4 | All Maps","protocol":17,"map":"koth_cascade","folder":"tf","game":"Team Fortress","app_id":440,"player_count":0,"max_players":24,"Bots":0,"server_type":"Dedicated","server_os":"Linux","password":true,"vac":true,"version":"7961495","steam_id":85568392925397958,"keywords":["cp","nocrits","nodmgspread","uncletopia"],"game_id":440,"stv_port":27046,"stv_name":"Uncletopia | Sydney | 4 | All Maps | STV","players":null},{"server_id":58,"name":"Uncletopia | Sydney | 5 | Stopwatch","name_short":"syd-5","host":"syd-1.au.uncletopia.com","port":27055,"enabled":true,"region":"au","cc":"au","latitude":-33.865143,"longitude":151.2099,"reserved":0,"last_update":"0001-01-01T00:00:00Z","name_a2s":"Uncletopia | Sydney | 5 | Stopwatch","protocol":17,"map":"workshop/koth_product_final.ugc454272353","folder":"tf","game":"Team Fortress","app_id":440,"player_count":0,"max_players":24,"Bots":0,"server_type":"Dedicated","server_os":"Linux","password":true,"vac":true,"version":"7961495","steam_id":85568392925397959,"keywords":["cp","nocrits","nodmgspread","uncletopia"],"game_id":440,"stv_port":27056,"stv_name":"Uncletopia | Sydney | 5 | Stopwatch | STV","players":null},{"server_id":59,"name":"Uncletopia | Sydney | 6 | Community","name_short":"syd-6","host":"syd-1.au.uncletopia.com","port":27065,"enabled":true,"region":"au","cc":"au","latitude":-33.865143,"longitude":151.2099,"reserved":0,"last_update":"0001-01-01T00:00:00Z","name_a2s":"Uncletopia | Sydney | 6 | Community","protocol":17,"map":"workshop/koth_trenchfoot_ab1.ugc731436616","folder":"tf","game":"Team Fortress","app_id":440,"player_count":0,"max_players":24,"Bots":0,"server_type":"Dedicated","server_os":"Linux","password":true,"vac":true,"version":"7961495","steam_id":85568392925397960,"keywords":["cp","nocrits","nodmgspread","uncletopia"],"game_id":440,"stv_port":27066,"stv_name":"Uncletopia | Sydney | 6 | Community | STV","players":null},{"server_id":49,"name":"Uncletopia | Warsaw | 1 | One Thousand Uncles","name_short":"waw-1","host":"waw-1.pl.uncletopia.com","port":27015,"enabled":true,"region":"eu","cc":"pl","latitude":52.2297,"longitude":21.017532,"reserved":0,"last_update":"0001-01-01T00:00:00Z","name_a2s":"Uncletopia | Warsaw | 1 | One Thousand Uncles","protocol":17,"map":"pl_upward","folder":"tf","game":"Team Fortress","app_id":440,"player_count":21,"max_players":32,"Bots":16,"server_type":"Dedicated","server_os":"Linux","password":true,"vac":true,"version":"7961495","steam_id":85568392925397850,"keywords":["alltalk","bots","danepve","increased_maxplayers","norespawntime","payload","uncletopia"],"game_id":440,"stv_port":0,"stv_name":"","players":[{"user_id":849,"name":"Squidiot","steam_id":76561198042754907,"connected_time":1703000000000,"state":"active","ping":60},{"user_id":848,"name":"Kretes","steam_id":76561198982786431,"connected_time":1791000000000,"state":"active","ping":44},{"user_id":870,"name":"Xi Bingchilling","steam_id":76561198154310301,"connected_time":748000000000,"state":"active","ping":72},{"user_id":724,"name":"[HK]我係香港人","steam_id":76561198165376815,"connected_time":8519000000000,"state":"active","ping":85},{"user_id":777,"name":"Rayco","steam_id":76561198048013129,"connected_time":6442000000000,"state":"active","ping":65}]},{"server_id":50,"name":"Uncletopia | Warsaw | 2 | One Thousand Uncles","name_short":"waw-2","host":"waw-1.pl.uncletopia.com","port":27025,"enabled":true,"region":"eu","cc":"pl","latitude":52.2297,"longitude":21.017532,"reserved":0,"last_update":"0001-01-01T00:00:00Z","name_a2s":"Uncletopia | Warsaw | 2 | One Thousand Uncles","protocol":17,"map":"pl_goldrush","folder":"tf","game":"Team Fortress","app_id":440,"player_count":0,"max_players":32,"Bots":0,"server_type":"Dedicated","server_os":"Linux","password":true,"vac":true,"version":"7961495","steam_id":85568392925397851,"keywords":["alltalk","danepve","increased_maxplayers","norespawntime","payload","uncletopia"],"game_id":440,"stv_port":0,"stv_name":"","players":null},{"server_id":51,"name":"Uncletopia | Warsaw | 3 | All Maps","name_short":"waw-3","host":"waw-1.pl.uncletopia.com","port":27035,"enabled":true,"region":"eu","cc":"pl","latitude":52.2297,"longitude":21.017532,"reserved":0,"last_update":"0001-01-01T00:00:00Z","name_a2s":"Uncletopia | Warsaw | 3 | All Maps","protocol":17,"map":"koth_viaduct","folder":"tf","game":"Team Fortress","app_id":440,"player_count":0,"max_players":24,"Bots":0,"server_type":"Dedicated","server_os":"Linux","password":true,"vac":true,"version":"7961495","steam_id":85568392925397852,"keywords":["cp","nocrits","nodmgspread","uncletopia"],"game_id":440,"stv_port":27036,"stv_name":"Uncletopia | Warsaw | 3 | All Maps | STV","players":null},{"server_id":52,"name":"Uncletopia | Warsaw | 4 | All Maps","name_short":"waw-4","host":"waw-1.pl.uncletopia.com","port":27045,"enabled":true,"region":"eu","cc":"pl","latitude":52.2297,"longitude":21.017532,"reserved":0,"last_update":"0001-01-01T00:00:00Z","name_a2s":"Uncletopia | Warsaw | 4 | All Maps","protocol":17,"map":"cp_sunshine","folder":"tf","game":"Team Fortress","app_id":440,"player_count":0,"max_players":24,"Bots":0,"server_type":"Dedicated","server_os":"Linux","password":true,"vac":true,"version":"7961495","steam_id":85568392925397853,"keywords":["cp","nocrits","nodmgspread","uncletopia"],"game_id":440,"stv_port":27046,"stv_name":"Uncletopia | Warsaw | 4 | All Maps | STV","players":null},{"server_id":53,"name":"Uncletopia | Warsaw | 5 | Stopwatch","name_short":"waw-5","host":"waw-1.pl.uncletopia.com","port":27055,"enabled":true,"region":"eu","cc":"pl","latitude":52.2297,"longitude":21.017532,"reserved":0,"last_update":"0001-01-01T00:00:00Z","name_a2s":"Uncletopia | Warsaw | 5 | Stopwatch","protocol":17,"map":"workshop/koth_bagel_rc6.ugc2514036946","folder":"tf","game":"Team Fortress","app_id":440,"player_count":0,"max_players":24,"Bots":0,"server_type":"Dedicated","server_os":"Linux","password":true,"vac":true,"version":"7961495","steam_id":85568392925397854,"keywords":["cp","nocrits","nodmgspread","uncletopia"],"game_id":440,"stv_port":27056,"stv_name":"Uncletopia | Warsaw | 5 | Stopwatch | STV","players":null},{"server_id":54,"name":"Uncletopia | Warsaw | 6 | Community","name_short":"waw-6","host":"waw-1.pl.uncletopia.com","port":27065,"enabled":true,"region":"eu","cc":"pl","latitude":52.2297,"longitude":21.017532,"reserved":0,"last_update":"0001-01-01T00:00:00Z","name_a2s":"Uncletopia | Warsaw | 6 | Community","protocol":17,"map":"workshop/rd_asteroid_redux_b1.ugc2154902912","folder":"tf","game":"Team Fortress","app_id":440,"player_count":0,"max_players":24,"Bots":0,"server_type":"Dedicated","server_os":"Linux","password":true,"vac":true,"version":"7961495","steam_id":85568392925397856,"keywords":["beta","nocrits","nodmgspread","rd","uncletopia"],"game_id":440,"stv_port":27066,"stv_name":"Uncletopia | Warsaw | 6 | Community | STV","players":null}]}