{"status":true,"message":"","result":[{"server_id":9,"name":"Uncletopia | Atlanta | 1 | All Maps","name_short":"atl-1","host":"atl-1.us.uncletopia.com","port":27015,"enabled":true,"region":"us-east","cc":"us","latitude":33.753746,"longitude":-84.38633,"reserved":0,"last_update":"0001-01-01T00:00:00Z","name_a2s":"Uncletopia | Atlanta | 1 | All Maps","protocol":17,"map":"pl_badwater","folder":"tf","game":"Team Fortress","app_id":440,"player_count":24,"max_players":24,"Bots":0,"server_type":"Dedicated","server_os":"Linux","password":true,"vac":true,"version":"7742253","steam_id":85568392924469982,"keywords":["nocrits","nodmgspread","payload","uncletopia"],"game_id":440,"stv_port":27016,"stv_name":"Uncletopia | Atlanta | 1 | All Maps | STV","players":[{"user_id":671,"name":"pinglefingle","steam_id":76561198216580197,"connected_time":125000000000,"state":"active","ping":86},{"user_id":649,"name":"basil","steam_id":76561198075758026,"connected_time":2717000000000,"state":"active","ping":75},{"user_id":519,"name":"ATL1 | to4st","steam_id":76561198981009008,"connected_time":16030000000000,"state":"active","ping":65},{"user_id":664,"name":"NERDBOBS | Lavie","steam_id":76561198825997674,"connected_time":180000000000,"state":"active","ping":55},{"user_id":675,"name":"LUKS :3","steam_id":76561199178556785,"connected_time":72000000000,"state":"active","ping":89},{"user_id":668,"name":"lzrdzz","steam_id":76561198116676192,"connected_time":163000000000,"state":"active","ping":96},{"user_id":657,"name":"cron/zefir (real)","steam_id":76561198041348890,"connected_time":1687000000000,"state":"active","ping":72},{"user_id":670,"name":"Swifgz","steam_id":76561198162875756,"connected_time":142000000000,"state":"active","ping":63},{"user_id":621,"name":"cola","steam_id":76561198374390458,"connected_time":7379000000000,"state":"active","ping":61},{"user_id":672,"name":"Bunt","steam_id":76561198124477567,"connected_time":96000000000,"state":"active","ping":40},{"user_id":651,"name":"tree of destiny","steam_id":76561198092135570,"connected_time":2589000000000,"state":"active","ping":60},{"user_id":665,"name":"lker","steam_id":76561197976975075,"connected_time":176000000000,"state":"active","ping":40},{"user_id":666,"name":"♡Alyx♡","steam_id":76561198024303978,"connected_time":175000000000,"state":"active","ping":60},{"user_id":650,"name":"fragr","steam_id":76561198120440587,"connected_time":2609000000000,"state":"active","ping":54},{"user_id":550,"name":"schizophrenic with a gun","steam_id":76561198016121536,"connected_time":13641000000000,"state":"active","ping":76},{"user_id":636,"name":"Bottom Trans Cowgirl","steam_id":76561198304239680,"connected_time":5040000000000,"state":"active","ping":75},{"user_id":628,"name":"DFR DeezNoodlez","steam_id":76561198246700372,"connected_time":6097000000000,"state":"active","ping":61},{"user_id":660,"name":"☙ Corrupt ❧","steam_id":76561197977631915,"connected_time":793000000000,"state":"active","ping":71},{"user_id":652,"name":"Miramar","steam_id":76561198022057653,"connected_time":2535000000000,"state":"active","ping":79},{"user_id":659,"name":"NEW AP NO TIMEX","steam_id":76561198904898274,"connected_time":1675000000000,"state":"active","ping":64},{"user_id":631,"name":"Shmoopy","steam_id":76561198030459152,"connected_time":5086000000000,"state":"active","ping":62},{"user_id":673,"name":"awaken","steam_id":76561198086900781,"connected_time":93000000000,"state":"active","ping":90},{"user_id":667,"name":"Throckmorton627","steam_id":76561199147734259,"connected_time":174000000000,"state":"active","ping":75},{"user_id":674,"name":"Save your wifi","steam_id":76561198286147372,"connected_time":85000000000,"state":"active","ping":63}]},{"server_id":400,"name":"Uncletopia | Atlanta | 3 | Stopwatch Beta","name_short":"atl-3","host":"atl-1.us.uncletopia.com","port":27035,"enabled":true,"region":"us-east","cc":"us","latitude":33.753746,"longitude":-84.38633,"reserved":0,"last_update":"0001-01-01T00:00:00Z","name_a2s":"Uncletopia | Atlanta | 3 | Stopwatch Beta","protocol":17,"map":"pl_pier","folder":"tf","game":"Team Fortress","app_id":440,"player_count":0,"max_players":24,"Bots":0,"server_type":"Dedicated","server_os":"Linux","password":true,"vac":true,"version":"7742253","steam_id":85568392924515187,"keywords":["nocrits","nodmgspread","payload","uncletopia"],"game_id":440,"stv_port":27036,"stv_name":"Uncletopia | Atlanta | 3 | Stopwatch Beta | STV","players":null},{"server_id":401,"name":"Uncletopia | Atlanta | 4 | No Payload","name_short":"atl-4","host":"atl-1.us.uncletopia.com","port":27045,"enabled":true,"region":"us-east","cc":"us","latitude":33.753746,"longitude":-84.38633,"reserved":0,"last_update":"0001-01-01T00:00:00Z","name_a2s":"Uncletopia | Atlanta | 4 | No Payload","protocol":17,"map":"pl_pier","folder":"tf","game":"Team Fortress","app_id":440,"player_count":0,"max_players":24,"Bots":0,"server_type":"Dedicated","server_os":"Linux","password":true,"vac":true,"version":"7723704","steam_id":85568392924515188,"keywords":["nocrits","nodmgspread","payload","uncletopia"],"game_id":440,"stv_port":27046,"stv_name":"Uncletopia | Atlanta | 4 | No Payload | STV","players":null},{"server_id":2,"name":"Uncletopia | Chicago | 1 | All Maps","name_short":"chi-1","host":"chi-1.us.uncletopia.com","port":27015,"enabled":true,"region":"us-central","cc":"us","latitude":41.881832,"longitude":-87.62318,"reserved":0,"last_update":"0001-01-01T00:00:00Z","name_a2s":"Uncletopia | Chicago | 1 | All Maps","protocol":17,"map":"pl_upward","folder":"tf","game":"Team Fortress","app_id":440,"player_count":24,"max_players":24,"Bots":0,"server_type":"Dedicated","server_os":"Linux","password":true,"vac":true,"version":"7742253","steam_id":85568392924469984,"keywords":["nocrits","nodmgspread","payload","uncletopia"],"game_id":440,"stv_port":27016,"stv_name":"Uncletopia | Chicago | 1 | All Maps | STV","players":[{"user_id":656,"name":"KingSteve42","steam_id":76561198409455888,"connected_time":1051000000000,"state":"active","ping":93},{"user_id":641,"name":"Sarbanes-Oxley","steam_id":76561197975898479,"connected_time":2466000000000,"state":"active","ping":77},{"user_id":670,"name":"john","steam_id":76561198039864629,"connected_time":236000000000,"state":"active","ping":75},{"user_id":582,"name":"Wug","steam_id":76561198084112264,"connected_time":7322000000000,"state":"active","ping":80},{"user_id":657,"name":"Tough Puffin","steam_id":76561198024011010,"connected_time":1032000000000,"state":"active","ping":74},{"user_id":672,"name":":)","steam_id":76561198093921290,"connected_time":24000000000,"state":"active","ping":51},{"user_id":667,"name":"Kase","steam_id":76561198055510230,"connected_time":861000000000,"state":"active","ping":61},{"user_id":665,"name":"Prsm","steam_id":76561198053344995,"connected_time":896000000000,"state":"active","ping":60},{"user_id":619,"name":"csgohackfree.com","steam_id":76561198201259645,"connected_time":3429000000000,"state":"active","ping":75},{"user_id":671,"name":"Pakidude","steam_id":76561198142093134,"connected_time":115000000000,"state":"active","ping":61},{"user_id":652,"name":"John Dungus (the real one)","steam_id":76561198049191027,"connected_time":1412000000000,"state":"active","ping":62},{"user_id":660,"name":"gista","steam_id":76561198120225915,"connected_time":1013000000000,"state":"active","ping":68},{"user_id":668,"name":"Post_Anarchism","steam_id":76561198109189627,"connected_time":781000000000,"state":"active","ping":104},{"user_id":628,"name":"48","steam_id":76561198156422760,"connected_time":2862000000000,"state":"active","ping":57},{"user_id":662,"name":"Lore","steam_id":76561198098407538,"connected_time":990000000000,"state":"active","ping":56},{"user_id":663,"name":"ʕ•ᴥ•ʔ the bear","steam_id":76561197989591976,"connected_time":978000000000,"state":"active","ping":74},{"user_id":669,"name":"Salmon","steam_id":76561198285883040,"connected_time":478000000000,"state":"active","ping":109},{"user_id":651,"name":"Banana","steam_id":76561198321485249,"connected_time":1694000000000,"state":"active","ping":49},{"user_id":654,"name":"Terrazzle","steam_id":76561197999850393,"connected_time":1246000000000,"state":"active","ping":73},{"user_id":649,"name":"tobrehto","steam_id":76561198097544038,"connected_time":2078000000000,"state":"active","ping":101},{"user_id":536,"name":"The one piece (real)","steam_id":76561198045887994,"connected_time":12361000000000,"state":"active","ping":49},{"user_id":556,"name":"the deadliest pyroshark","steam_id":76561198374227766,"connected_time":10414000000000,"state":"active","ping":64},{"user_id":586,"name":"Inu","steam_id":76561198038745175,"connected_time":7169000000000,"state":"active","ping":131}]},{"server_id":106,"name":"Uncletopia | Chicago | 2 | All Maps","name_short":"chi-2","host":"chi-1.us.uncletopia.com","port":27025,"enabled":true,"region":"us-central","cc":"us","latitude":41.881832,"longitude":-87.62318,"reserved":0,"last_update":"0001-01-01T00:00:00Z","name_a2s":"Uncletopia | Chicago | 2 | All Maps","protocol":17,"map":"plr_bananabay","folder":"tf","game":"Team Fortress","app_id":440,"player_count":19,"max_players":24,"Bots":0,"server_type":"Dedicated","server_os":"Linux","password":true,"vac":true,"version":"7742253","steam_id":85568392924469985,"keywords":["nocrits","nodmgspread","payload","uncletopia"],"game_id":440,"stv_port":27026,"stv_name":"Uncletopia | Chicago | 2 | All Maps | STV","players":[{"user_id":509,"name":"Father Jon","steam_id":76561198324730919,"connected_time":2071000000000,"state":"active","ping":141},{"user_id":540,"name":"177013","steam_id":76561198072303290,"connected_time":24000000000,"state":"active","ping":58},{"user_id":510,"name":"Why I decided to turn 12","steam_id":76561198363948501,"connected_time":1988000000000,"state":"active","ping":76},{"user_id":538,"name":"JujuBalu","steam_id":76561198207253071,"connected_time":50000000000,"state":"active","ping":50},{"user_id":526,"name":"PROFILE NAME","steam_id":76561198384238790,"connected_time":1310000000000,"state":"active","ping":65},{"user_id":525,"name":"Randy \"the Man\" Johnson","steam_id":76561198039124445,"connected_time":1366000000000,"state":"active","ping":91},{"user_id":512,"name":"Ranch Style Beans","steam_id":76561198126791566,"connected_time":1901000000000,"state":"active","ping":80},{"user_id":513,"name":"the12xu","steam_id":76561198197086561,"connected_time":1879000000000,"state":"active","ping":70},{"user_id":514,"name":"later aligater","steam_id":76561198021609442,"connected_time":1818000000000,"state":"active","ping":81},{"user_id":541,"name":"Addy \u003c3","steam_id":76561198045819723,"connected_time":3000000000,"state":"spawning","ping":88},{"user_id":528,"name":"Mysteryred12","steam_id":76561199206772814,"connected_time":1192000000000,"state":"active","ping":95},{"user_id":489,"name":"Catass (cause why not)","steam_id":76561198255802361,"connected_time":4860000000000,"state":"active","ping":66},{"user_id":530,"name":"too funky ᗜˬᗜ","steam_id":76561199120399776,"connected_time":1183000000000,"state":"spawning","ping":93},{"user_id":515,"name":"CurtisRemnant","steam_id":76561198188655358,"connected_time":1758000000000,"state":"active","ping":66},{"user_id":531,"name":"NEKO CAT GIRL","steam_id":76561198218897383,"connected_time":1137000000000,"state":"active","ping":71},{"user_id":534,"name":"crouton.net","steam_id":76561198068374646,"connected_time":865000000000,"state":"active","ping":98},{"user_id":494,"name":"Nightingale","steam_id":76561198067851381,"connected_time":4815000000000,"state":"active","ping":55},{"user_id":520,"name":"sootyquill","steam_id":76561198186883927,"connected_time":1666000000000,"state":"active","ping":89},{"user_id":522,"name":"❤Graphite Muncher❤","steam_id":76561199200969139,"connected_time":1628000000000,"state":"active","ping":172}]},{"server_id":402,"name":"Uncletopia | Chicago | 3 | All Maps","name_short":"chi-3","host":"chi-1.us.uncletopia.com","port":27035,"enabled":true,"region":"us-central","cc":"us","latitude":41.881832,"longitude":-87.62318,"reserved":0,"last_update":"0001-01-01T00:00:00Z","name_a2s":"Uncletopia | Chicago | 3 | All Maps","protocol":17,"map":"pl_upward","folder":"tf","game":"Team Fortress","app_id":440,"player_count":24,"max_players":24,"Bots":0,"server_type":"Dedicated","server_os":"Linux","password":true,"vac":true,"version":"7742253","steam_id":85568392924515191,"keywords":["nocrits","nodmgspread","payload","uncletopia"],"game_id":440,"stv_port":27036,"stv_name":"Uncletopia | Chicago | 3 | All Maps | STV","players":[{"user_id":577,"name":"hi","steam_id":76561198809577048,"connected_time":33000000000,"state":"active","ping":112},{"user_id":575,"name":"FemboyNate","steam_id":76561198146636410,"connected_time":185000000000,"state":"active","ping":103},{"user_id":543,"name":"Kaluka","steam_id":76561198036861445,"connected_time":2554000000000,"state":"active","ping":68},{"user_id":573,"name":"hyperledz","steam_id":76561198807917808,"connected_time":544000000000,"state":"active","ping":73},{"user_id":557,"name":"Wario Booty Hole","steam_id":76561198072595326,"connected_time":1674000000000,"state":"active","ping":81},{"user_id":556,"name":"ThisBeeSparta18","steam_id":76561198174023582,"connected_time":1741000000000,"state":"active","ping":49},{"user_id":561,"name":"Round King","steam_id":76561198273185290,"connected_time":1242000000000,"state":"active","ping":97},{"user_id":559,"name":"pathways","steam_id":76561198054832333,"connected_time":1449000000000,"state":"active","ping":55},{"user_id":544,"name":"Big kahuna","steam_id":76561198142024812,"connected_time":2542000000000,"state":"active","ping":79},{"user_id":542,"name":"High Quality Ice","steam_id":76561198969178047,"connected_time":2635000000000,"state":"active","ping":62},{"user_id":551,"name":"Anji's onlyfans","steam_id":76561198353160282,"connected_time":2078000000000,"state":"active","ping":86},{"user_id":576,"name":"Sicko Mode (Chris Pratt Cover)","steam_id":76561198315786174,"connected_time":149000000000,"state":"active","ping":86},{"user_id":562,"name":"new years hooters","steam_id":76561198068022595,"connected_time":1181000000000,"state":"active","ping":65},{"user_id":540,"name":"Detective Parks","steam_id":76561198153415500,"connected_time":2666000000000,"state":"active","ping":74},{"user_id":574,"name":"Missing Minus","steam_id":76561198120822928,"connected_time":537000000000,"state":"active","ping":61},{"user_id":564,"name":"Mr. Wonkles","steam_id":76561198069302272,"connected_time":1026000000000,"state":"active","ping":101},{"user_id":563,"name":"Pusieeeeeee!!!!!!!!!!!!!!!!!","steam_id":76561198083175190,"connected_time":1155000000000,"state":"active","ping":54},{"user_id":549,"name":"Billychicken54","steam_id":76561198022365463,"connected_time":2177000000000,"state":"active","ping":60},{"user_id":553,"name":"Strangelove","steam_id":76561198353773611,"connected_time":1927000000000,"state":"active","ping":87},{"user_id":571,"name":"Do Moose go Moo?","steam_id":76561198073550620,"connected_time":616000000000,"state":"active","ping":52},{"user_id":569,"name":"a crazy hobo","steam_id":76561198289650060,"connected_time":827000000000,"state":"active","ping":85},{"user_id":555,"name":"Purple brain","steam_id":76561198103924707,"connected_time":1840000000000,"state":"active","ping":59},{"user_id":527,"name":"{FITH}™ Halcyon","steam_id":76561198049132808,"connected_time":3336000000000,"state":"active","ping":68},{"user_id":506,"name":"Uncle Meat","steam_id":76561198012534850,"connected_time":6005000000000,"state":"active","ping":55}]},{"server_id":403,"name":"Uncletopia | Chicago | 4 | All Maps","name_short":"chi-4","host":"chi-1.us.uncletopia.com","port":27045,"enabled":true,"region":"us-central","cc":"us","latitude":41.881832,"longitude":-87.62318,"reserved":0,"last_update":"0001-01-01T00:00:00Z","name_a2s":"Uncletopia | Chicago | 4 | All Maps","protocol":17,"map":"pl_badwater","folder":"tf","game":"Team Fortress","app_id":440,"player_count":24,"max_players":24,"Bots":0,"server_type":"Dedicated","server_os":"Linux","password":true,"vac":true,"version":"7742253","steam_id":85568392924515193,"keywords":["nocrits","nodmgspread","payload","uncletopia"],"game_id":440,"stv_port":27046,"stv_name":"Uncletopia | Chicago | 4 | All Maps | STV","players":[{"user_id":409,"name":"drdoofus123","steam_id":76561198016826181,"connected_time":519000000000,"state":"active","ping":77},{"user_id":382,"name":"System","steam_id":76561198148087137,"connected_time":2619000000000,"state":"active","ping":78},{"user_id":410,"name":"Twan (no vibes plz)","steam_id":76561197991064908,"connected_time":508000000000,"state":"active","ping":66},{"user_id":383,"name":"maArk","steam_id":76561198200380143,"connected_time":2562000000000,"state":"active","ping":149},{"user_id":384,"name":"Morphy_02","steam_id":76561199066220458,"connected_time":2483000000000,"state":"active","ping":110},{"user_id":411,"name":"Patisserie","steam_id":76561198239169752,"connected_time":502000000000,"state":"active","ping":65},{"user_id":412,"name":"Karma's Camera","steam_id":76561198059385185,"connected_time":500000000000,"state":"active","ping":75},{"user_id":395,"name":"DementiaGaming","steam_id":76561199195205705,"connected_time":1736000000000,"state":"active","ping":77},{"user_id":378,"name":"Ediot","steam_id":76561199349494096,"connected_time":2901000000000,"state":"active","ping":85},{"user_id":398,"name":"ToughGuy311","steam_id":76561198131458027,"connected_time":1563000000000,"state":"active","ping":73},{"user_id":403,"name":"Jerry_","steam_id":76561198345491762,"connected_time":1175000000000,"state":"active","ping":107},{"user_id":418,"name":"Salty.Sam","steam_id":76561198030933901,"connected_time":286000000000,"state":"active","ping":54},{"user_id":399,"name":"Sugercrash","steam_id":76561199187685119,"connected_time":1503000000000,"state":"active","ping":91},{"user_id":414,"name":"Yiggs_","steam_id":76561198058742814,"connected_time":439000000000,"state":"active","ping":53},{"user_id":370,"name":"Dang","steam_id":76561198288874083,"connected_time":3167000000000,"state":"active","ping":99},{"user_id":397,"name":"Soap Man","steam_id":76561198000490235,"connected_time":1672000000000,"state":"active","ping":116},{"user_id":372,"name":"Jibble","steam_id":76561198970704298,"connected_time":3123000000000,"state":"active","ping":55},{"user_id":415,"name":"puke","steam_id":76561197999279693,"connected_time":433000000000,"state":"active","ping":78},{"user_id":401,"name":"pan fortress 2","steam_id":76561199112200183,"connected_time":1378000000000,"state":"active","ping":142},{"user_id":416,"name":"Sad German","steam_id":76561198178100797,"connected_time":407000000000,"state":"active","ping":71},{"user_id":417,"name":"Poop Deck Joe","steam_id":76561198271397568,"connected_time":395000000000,"state":"active","ping":85},{"user_id":404,"name":"1-hit hero","steam_id":76561198354473513,"connected_time":1053000000000,"state":"active","ping":60},{"user_id":405,"name":"the one and only","steam_id":76561198139421218,"connected_time":997000000000,"state":"active","ping":80},{"user_id":407,"name":"CornBoy","steam_id":76561198079109260,"connected_time":818000000000,"state":"active","ping":46}]},{"server_id":36,"name":"Uncletopia | Chicago | 5 | All Maps","name_short":"chi-5","host":"chi-2.us.uncletopia.com","port":27015,"enabled":true,"region":"us-central","cc":"us","latitude":41.881832,"longitude":-87.62318,"reserved":0,"last_update":"0001-01-01T00:00:00Z","name_a2s":"Uncletopia | Chicago | 5 | All Maps","protocol":17,"map":"pl_badwater","folder":"tf","game":"Team Fortress","app_id":440,"player_count":3,"max_players":24,"Bots":0,"server_type":"Dedicated","server_os":"Linux","password":true,"vac":true,"version":"7742253","steam_id":85568392924866362,"keywords":["nocrits","nodmgspread","payload","uncletopia"],"game_id":440,"stv_port":27016,"stv_name":"Uncletopia | Chicago | 5 | All Maps | STV","players":[{"user_id":374,"name":"dimandos48","steam_id":76561198935148062,"connected_time":323000000000,"state":"active","ping":163},{"user_id":340,"name":"papersamurai","steam_id":76561198313608698,"connected_time":3115000000000,"state":"active","ping":50},{"user_id":334,"name":"***","steam_id":76561198160976692,"connected_time":3338000000000,"state":"active","ping":54}]},{"server_id":37,"name":"Uncletopia | Chicago | 6 | All Maps","name_short":"chi-6","host":"chi-2.us.uncletopia.com","port":27025,"enabled":true,"region":"us-central","cc":"us","latitude":41.881832,"longitude":-87.62318,"reserved":0,"last_update":"0001-01-01T00:00:00Z","name_a2s":"Uncletopia | Chicago | 6 | All Maps","protocol":17,"map":"cp_mountainlab","folder":"tf","game":"Team Fortress","app_id":440,"player_count":0,"max_players":24,"Bots":0,"server_type":"Dedicated","server_os":"Linux","password":true,"vac":true,"version":"7742253","steam_id":85568392924866363,"keywords":["cp","nocrits","nodmgspread","uncletopia"],"game_id":440,"stv_port":27026,"stv_name":"Uncletopia | Chicago | 6 | All Maps | STV","players":null},{"server_id":38,"name":"Uncletopia | Chicago | 7 | Stopwatch Beta","name_short":"chi-7","host":"chi-2.us.uncletopia.com","port":27035,"enabled":true,"region":"us-central","cc":"us","latitude":41.881832,"longitude":-87.62318,"reserved":0,"last_update":"0001-01-01T00:00:00Z","name_a2s":"Uncletopia | Chicago | 7 | Stopwatch Beta","protocol":17,"map":"workshop/koth_clearcut_b15.ugc2107050255","folder":"tf","game":"Team Fortress","app_id":440,"player_count":0,"max_players":24,"Bots":0,"server_type":"Dedicated","server_os":"Linux","password":true,"vac":true,"version":"7742253","steam_id":85568392924866364,"keywords":["cp","nocrits","nodmgspread","uncletopia"],"game_id":440,"stv_port":27036,"stv_name":"Uncletopia | Chicago | 7 | Stopwatch Beta | STV","players":null},{"server_id":39,"name":"Uncletopia | Chicago | 8 | Community","name_short":"chi-8","host":"chi-2.us.uncletopia.com","port":27045,"enabled":true,"region":"us-central","cc":"us","latitude":41.881832,"longitude":-87.62318,"reserved":0,"last_update":"0001-01-01T00:00:00Z","name_a2s":"Uncletopia | Chicago | 8 | Community","protocol":17,"map":"workshop/koth_bagel_rc5.ugc2514036946","folder":"tf","game":"Team Fortress","app_id":440,"player_count":0,"max_players":24,"Bots":0,"server_type":"Dedicated","server_os":"Linux","password":true,"vac":true,"version":"7742253","steam_id":85568392924866365,"keywords":["cp","nocrits","nodmgspread","uncletopia"],"game_id":440,"stv_port":27046,"stv_name":"Uncletopia | Chicago | 8 | Community | STV","players":null},{"server_id":8,"name":"Uncletopia | Dallas | 1 | All Maps","name_short":"dal-1","host":"dal-1.us.uncletopia.com","port":27015,"enabled":true,"region":"us-central","cc":"us","latitude":32.779167,"longitude":-96.80889,"reserved":0,"last_update":"0001-01-01T00:00:00Z","name_a2s":"Uncletopia | Dallas | 1 | All Maps","protocol":17,"map":"pl_borneo","folder":"tf","game":"Team Fortress","app_id":440,"player_count":24,"max_players":24,"Bots":0,"server_type":"Dedicated","server_os":"Linux","password":true,"vac":true,"version":"7742253","steam_id":85568392924469986,"keywords":["nocrits","nodmgspread","payload","uncletopia"],"game_id":440,"stv_port":27016,"stv_name":"Uncletopia | Dallas | 1 | All Maps | STV","players":[{"user_id":504,"name":"MontellWilliams","steam_id":76561198172143015,"connected_time":992000000000,"state":"active","ping":93},{"user_id":529,"name":"Pixel","steam_id":76561198124051116,"connected_time":414000000000,"state":"active","ping":43},{"user_id":532,"name":"boomerangutang","steam_id":76561198151407214,"connected_time":214000000000,"state":"active","ping":64},{"user_id":506,"name":"Blue_Yoshi","steam_id":76561199455280829,"connected_time":888000000000,"state":"active","ping":63},{"user_id":515,"name":"Milk T34","steam_id":76561198116115227,"connected_time":707000000000,"state":"active","ping":77},{"user_id":528,"name":"YungKeet","steam_id":76561198293854963,"connected_time":427000000000,"state":"active","ping":58},{"user_id":531,"name":"Peach-Blossom Puppy","steam_id":76561199209646661,"connected_time":335000000000,"state":"active","ping":150},{"user_id":518,"name":"-|Kappin'|- ExplosiveDiahrea","steam_id":76561198017045020,"connected_time":662000000000,"state":"active","ping":179},{"user_id":533,"name":"Punished Shitster","steam_id":76561198150452857,"connected_time":190000000000,"state":"active","ping":45},{"user_id":514,"name":"cargo","steam_id":76561198965511236,"connected_time":724000000000,"state":"active","ping":67},{"user_id":503,"name":"Sixrow","steam_id":76561198269289716,"connected_time":1026000000000,"state":"active","ping":31},{"user_id":328,"name":"bo scrungulus","steam_id":76561198038036122,"connected_time":14641000000000,"state":"active","ping":68},{"user_id":510,"name":"Batso","steam_id":76561198106589452,"connected_time":781000000000,"state":"active","ping":77},{"user_id":487,"name":"WannaSeeA","steam_id":76561198097701042,"connected_time":2940000000000,"state":"active","ping":50},{"user_id":478,"name":"Toxic Medic Main","steam_id":76561198009314845,"connected_time":3647000000000,"state":"active","ping":73},{"user_id":516,"name":"sand","steam_id":76561198214390228,"connected_time":701000000000,"state":"active","ping":82},{"user_id":525,"name":"CheeseCake488","steam_id":76561199407617942,"connected_time":530000000000,"state":"active","ping":139},{"user_id":519,"name":"-|Kappin'|- Kilbo Fraggins™","steam_id":76561197994725498,"connected_time":658000000000,"state":"active","ping":76},{"user_id":520,"name":"Rakk","steam_id":76561198855176174,"connected_time":652000000000,"state":"active","ping":78},{"user_id":521,"name":"Trans Bumblebee","steam_id":76561198119393205,"connected_time":616000000000,"state":"active","ping":45},{"user_id":465,"name":"MR.Badatgames","steam_id":76561198820423721,"connected_time":4676000000000,"state":"active","ping":60},{"user_id":522,"name":"brain capacity","steam_id":76561199215821942,"connected_time":584000000000,"state":"active","ping":56},{"user_id":527,"name":"JZ","steam_id":76561198377029198,"connected_time":513000000000,"state":"active","ping":105},{"user_id":534,"name":"Nobody","steam_id":76561199352089107,"connected_time":99000000000,"state":"active","ping":82}]},{"server_id":108,"name":"Uncletopia | Dallas | 2 | All Maps","name_short":"dal-2","host":"dal-1.us.uncletopia.com","port":27025,"enabled":true,"region":"us-central","cc":"us","latitude":32.779167,"longitude":-96.80889,"reserved":0,"last_update":"0001-01-01T00:00:00Z","name_a2s":"Uncletopia | Dallas | 2 | All Maps","protocol":17,"map":"cp_dustbowl","folder":"tf","game":"Team Fortress","app_id":440,"player_count":0,"max_players":24,"Bots":0,"server_type":"Dedicated","server_os":"Linux","password":true,"vac":true,"version":"7742253","steam_id":85568392924469988,"keywords":["cp","nocrits","nodmgspread","uncletopia"],"game_id":440,"stv_port":27026,"stv_name":"Uncletopia | Dallas | 2 | All Maps | STV","players":null},{"server_id":5,"name":"Uncletopia | Frankfurt | 1 | All Maps","name_short":"frk-1","host":"frk-1.de.uncletopia.com","port":27015,"enabled":true,"region":"eu","cc":"de","latitude":50.110924,"longitude":8.682127,"reserved":0,"last_update":"0001-01-01T00:00:00Z","name_a2s":"Uncletopia | Frankfurt | 1 | All Maps","protocol":17,"map":"pl_borneo","folder":"tf","game":"Team Fortress","app_id":440,"player_count":0,"max_players":24,"Bots":0,"server_type":"Dedicated","server_os":"Linux","password":true,"vac":true,"version":"7742253","steam_id":85568392924469989,"keywords":["nocrits","nodmgspread","payload","uncletopia"],"game_id":440,"stv_port":27016,"stv_name":"Uncletopia | Frankfurt | 1 | All Maps | STV","players":null},{"server_id":110,"name":"Uncletopia | Frankfurt | 2 | All Maps","name_short":"frk-2","host":"frk-1.de.uncletopia.com","port":27025,"enabled":true,"region":"eu","cc":"de","latitude":50.110924,"longitude":8.682127,"reserved":0,"last_update":"0001-01-01T00:00:00Z","name_a2s":"Uncletopia | Frankfurt | 2 | All Maps","protocol":17,"map":"pl_swiftwater_final1","folder":"tf","game":"Team Fortress","app_id":440,"player_count":0,"max_players":24,"Bots":0,"server_type":"Dedicated","server_os":"Linux","password":true,"vac":true,"version":"7742253","steam_id":85568392924469990,"keywords":["nocrits","nodmgspread","payload","uncletopia"],"game_id":440,"stv_port":27026,"stv_name":"Uncletopia | Frankfurt | 2 | All Maps | STV","players":null},{"server_id":308,"name":"Uncletopia | Frankfurt | 3 | All Maps","name_short":"frk-3","host":"frk-1.de.uncletopia.com","port":27035,"enabled":true,"region":"eu","cc":"de","latitude":50.110924,"longitude":8.682127,"reserved":0,"last_update":"0001-01-01T00:00:00Z","name_a2s":"Uncletopia | Frankfurt | 3 | All Maps","protocol":17,"map":"pl_borneo","folder":"tf","game":"Team Fortress","app_id":440,"player_count":24,"max_players":24,"Bots":0,"server_type":"Dedicated","server_os":"Linux","password":true,"vac":true,"version":"7742253","steam_id":85568392924504274,"keywords":["nocrits","nodmgspread","payload","uncletopia"],"game_id":440,"stv_port":27036,"stv_name":"Uncletopia | Frankfurt | 3 | All Maps | STV","players":[{"user_id":3,"name":"raime","steam_id":76561198024903775,"connected_time":3178000000000,"state":"active","ping":85},{"user_id":43,"name":"Chris","steam_id":76561198313494507,"connected_time":576000000000,"state":"active","ping":72},{"user_id":36,"name":"Gort˚✧₊","steam_id":76561198085248515,"connected_time":1599000000000,"state":"active","ping":117},{"user_id":35,"name":"Dr.Sticky","steam_id":76561198041140857,"connected_time":1731000000000,"state":"active","ping":81},{"user_id":32,"name":"Ian","steam_id":76561198159334435,"connected_time":1862000000000,"state":"active","ping":181},{"user_id":39,"name":"☾jpxfrd✞","steam_id":76561198394082814,"connected_time":938000000000,"state":"active","ping":114},{"user_id":9,"name":"cereals","steam_id":76561198058656179,"connected_time":3173000000000,"state":"active","ping":53},{"user_id":10,"name":"snowi","steam_id":76561198006502679,"connected_time":3173000000000,"state":"active","ping":74},{"user_id":11,"name":"duster cat","steam_id":76561198832231975,"connected_time":3172000000000,"state":"active","ping":80},{"user_id":12,"name":"Noodle","steam_id":76561197997208006,"connected_time":3171000000000,"state":"active","ping":47},{"user_id":42,"name":"Light601","steam_id":76561198134998492,"connected_time":679000000000,"state":"active","ping":88},{"user_id":14,"name":"poshto;))","steam_id":76561198106182078,"connected_time":3170000000000,"state":"active","ping":100},{"user_id":15,"name":"Rambi","steam_id":76561199058078505,"connected_time":3169000000000,"state":"active","ping":154},{"user_id":16,"name":"catboy trickster","steam_id":76561198075665211,"connected_time":3166000000000,"state":"active","ping":29},{"user_id":17,"name":"Asmadeus","steam_id":76561198073428194,"connected_time":3162000000000,"state":"active","ping":85},{"user_id":44,"name":"Шапка #TF2Center","steam_id":76561198368792603,"connected_time":574000000000,"state":"active","ping":59},{"user_id":24,"name":"BONK","steam_id":76561199120275042,"connected_time":3135000000000,"state":"active","ping":58},{"user_id":20,"name":"LxZurk","steam_id":76561198114054978,"connected_time":3154000000000,"state":"active","ping":60},{"user_id":46,"name":"Avrage Snuss Enjoyer","steam_id":76561198213875625,"connected_time":528000000000,"state":"active","ping":76},{"user_id":50,"name":"Starplay","steam_id":76561198800932843,"connected_time":11000000000,"state":"spawning","ping":149},{"user_id":48,"name":"alleopold","steam_id":76561199055478676,"connected_time":443000000000,"state":"active","ping":143},{"user_id":25,"name":"stoppen","steam_id":76561197960281482,"connected_time":3132000000000,"state":"active","ping":68},{"user_id":26,"name":"Melon","steam_id":76561198150893860,"connected_time":3126000000000,"state":"active","ping":71},{"user_id":34,"name":"Heavy like a Brinks truck","steam_id":76561198197304886,"connected_time":1788000000000,"state":"active","ping":117}]},{"server_id":309,"name":"Uncletopia | Frankfurt | 4 | All Maps","name_short":"frk-4","host":"frk-1.de.uncletopia.com","port":27045,"enabled":true,"region":"eu","cc":"de","latitude":50.110924,"longitude":8.682127,"reserved":0,"last_update":"0001-01-01T00:00:00Z","name_a2s":"Uncletopia | Frankfurt | 4 | All Maps","protocol":17,"map":"cp_sunshine","folder":"tf","game":"Team Fortress","app_id":440,"player_count":0,"max_players":24,"Bots":0,"server_type":"Dedicated","server_os":"Linux","password":true,"vac":true,"version":"7742253","steam_id":85568392924504275,"keywords":["cp","nocrits","nodmgspread","uncletopia"],"game_id":440,"stv_port":27046,"stv_name":"Uncletopia | Frankfurt | 4 | All Maps | STV","players":null},{"server_id":310,"name":"Uncletopia | Frankfurt | 5 | All Maps","name_short":"frk-5","host":"frk-1.de.uncletopia.com","port":27055,"enabled":true,"region":"eu","cc":"de","latitude":50.110924,"longitude":8.682127,"reserved":0,"last_update":"0001-01-01T00:00:00Z","name_a2s":"Uncletopia | Frankfurt | 5 | All Maps","protocol":17,"map":"cp_snakewater_final1","folder":"tf","game":"Team Fortress","app_id":440,"player_count":0,"max_players":24,"Bots":0,"server_type":"Dedicated","server_os":"Linux","password":true,"vac":true,"version":"7742253","steam_id":85568392924504277,"keywords":["cp","nocrits","nodmgspread","uncletopia"],"game_id":440,"stv_port":27056,"stv_name":"Uncletopia | Frankfurt | 5 | All Maps | STV","players":null},{"server_id":311,"name":"Uncletopia | Frankfurt | 6 | All Maps","name_short":"frk-6","host":"frk-1.de.uncletopia.com","port":27065,"enabled":true,"region":"eu","cc":"de","latitude":50.110924,"longitude":8.682127,"reserved":0,"last_update":"0001-01-01T00:00:00Z","name_a2s":"Uncletopia | Frankfurt | 6 | All Maps","protocol":17,"map":"koth_lakeside_final","folder":"tf","game":"Team Fortress","app_id":440,"player_count":0,"max_players":24,"Bots":0,"server_type":"Dedicated","server_os":"Linux","password":true,"vac":true,"version":"7742253","steam_id":85568392924504278,"keywords":["cp","nocrits","nodmgspread","uncletopia"],"game_id":440,"stv_port":27066,"stv_name":"Uncletopia | Frankfurt | 6 | All Maps | STV","players":null},{"server_id":23,"name":"Uncletopia | Frankfurt | 7 | Stopwatch Beta","name_short":"frk-7","host":"frk-1.de.uncletopia.com","port":27075,"enabled":true,"region":"eu","cc":"de","latitude":50.110924,"longitude":8.682127,"reserved":0,"last_update":"0001-01-01T00:00:00Z","name_a2s":"Uncletopia | Frankfurt | 7 | Stopwatch Beta","protocol":17,"map":"workshop/cp_process_f11.ugc2302948105","folder":"tf","game":"Team Fortress","app_id":440,"player_count":6,"max_players":24,"Bots":0,"server_type":"Dedicated","server_os":"Linux","password":true,"vac":true,"version":"7742253","steam_id":85568392924742827,"keywords":["cp","nocrits","nodmgspread","uncletopia"],"game_id":440,"stv_port":27076,"stv_name":"Uncletopia | Frankfurt | 7 | Stopwatch Beta | STV","players":[{"user_id":4,"name":"c101vp","steam_id":76561199097222473,"connected_time":997000000000,"state":"active","ping":58},{"user_id":6,"name":"engie?","steam_id":76561198331852832,"connected_time":870000000000,"state":"active","ping":80},{"user_id":7,"name":"SaSSolino","steam_id":76561198011308018,"connected_time":767000000000,"state":"active","ping":46},{"user_id":8,"name":"the_voices_are_getting_louder","steam_id":76561199142112854,"connected_time":282000000000,"state":"active","ping":308},{"user_id":9,"name":"k","steam_id":76561198818452217,"connected_time":248000000000,"state":"active","ping":61},{"user_id":10,"name":"Milo","steam_id":76561198407461881,"connected_time":34000000000,"state":"active","ping":70}]},{"server_id":24,"name":"Uncletopia | Frankfurt | 8 | Community","name_short":"frk-8","host":"frk-1.de.uncletopia.com","port":27085,"enabled":true,"region":"eu","cc":"de","latitude":50.110924,"longitude":8.682127,"reserved":0,"last_update":"0001-01-01T00:00:00Z","name_a2s":"Uncletopia | Frankfurt | 8 | Community","protocol":17,"map":"koth_cascade","folder":"tf","game":"Team Fortress","app_id":440,"player_count":0,"max_players":24,"Bots":0,"server_type":"Dedicated","server_os":"Linux","password":true,"vac":true,"version":"7742253","steam_id":85568392924742828,"keywords":["cp","nocrits","nodmgspread","uncletopia"],"game_id":440,"stv_port":27086,"stv_name":"Uncletopia | Frankfurt | 8 | Community | STV","players":null},{"server_id":202,"name":"Uncletopia | Hong Kong | 1 | All Maps","name_short":"hgk-1","host":"hgk-1.hk.uncletopia.com","port":27015,"enabled":true,"region":"asia","cc":"hk","latitude":22.302711,"longitude":114.177216,"reserved":0,"last_update":"0001-01-01T00:00:00Z","name_a2s":"Uncletopia | Hong Kong | 1 | All Maps","protocol":17,"map":"koth_harvest_final","folder":"tf","game":"Team Fortress","app_id":440,"player_count":6,"max_players":24,"Bots":0,"server_type":"Dedicated","server_os":"Linux","password":true,"vac":true,"version":"7742253","steam_id":85568392924494504,"keywords":["cp","nocrits","nodmgspread","uncletopia"],"game_id":440,"stv_port":27016,"stv_name":"Uncletopia | Hong Kong | 1 | All Maps | STV","players":[{"user_id":46,"name":"genji","steam_id":76561199181238062,"connected_time":918000000000,"state":"active","ping":52},{"user_id":47,"name":"Wx","steam_id":76561199217780897,"connected_time":622000000000,"state":"active","ping":109},{"user_id":45,"name":"bags in store","steam_id":76561199021893939,"connected_time":1353000000000,"state":"active","ping":81},{"user_id":48,"name":"atu","steam_id":76561199205989406,"connected_time":517000000000,"state":"active","ping":90},{"user_id":49,"name":"Talkk More","steam_id":76561198305424433,"connected_time":167000000000,"state":"active","ping":103},{"user_id":50,"name":"Mars","steam_id":76561198846610729,"connected_time":119000000000,"state":"active","ping":93}]},{"server_id":1,"name":"Uncletopia | Los Angeles | 1 | All Maps","name_short":"lax-1","host":"lax-1.us.uncletopia.com","port":27015,"enabled":true,"region":"us-west","cc":"us","latitude":33.94279,"longitude":-118.41004,"reserved":0,"last_update":"0001-01-01T00:00:00Z","name_a2s":"Uncletopia | Los Angeles | 1 | All Maps","protocol":17,"map":"pl_barnblitz","folder":"tf","game":"Team Fortress","app_id":440,"player_count":14,"max_players":24,"Bots":0,"server_type":"Dedicated","server_os":"Linux","password":true,"vac":true,"version":"7742253","steam_id":85568392924469991,"keywords":["nocrits","nodmgspread","payload","uncletopia"],"game_id":440,"stv_port":27016,"stv_name":"Uncletopia | Los Angeles | 1 | All Maps | STV","players":[{"user_id":136,"name":"wait no stop dont do that","steam_id":76561199117157198,"connected_time":1876000000000,"state":"active","ping":69},{"user_id":124,"name":"Luigiminer8","steam_id":76561198803438732,"connected_time":4773000000000,"state":"active","ping":82},{"user_id":125,"name":"Vegasx702s","steam_id":76561198799772874,"connected_time":4754000000000,"state":"active","ping":74},{"user_id":140,"name":"A Gray Phantom","steam_id":76561197975567546,"connected_time":850000000000,"state":"active","ping":76},{"user_id":149,"name":"Ahten Xevious","steam_id":76561198075469828,"connected_time":138000000000,"state":"active","ping":105},{"user_id":150,"name":"Willowl","steam_id":76561198074612980,"connected_time":72000000000,"state":"spawning","ping":159},{"user_id":147,"name":"freyja","steam_id":76561198012480197,"connected_time":183000000000,"state":"active","ping":45},{"user_id":138,"name":"käxilya","steam_id":76561199266813377,"connected_time":1718000000000,"state":"active","ping":50},{"user_id":134,"name":"thisguy42424242","steam_id":76561199304282915,"connected_time":2218000000000,"state":"active","ping":38},{"user_id":142,"name":"Chalupa Jones","steam_id":76561198335855588,"connected_time":731000000000,"state":"active","ping":44},{"user_id":152,"name":"Gamehero637","steam_id":76561198880355236,"connected_time":38000000000,"state":"active","ping":47},{"user_id":144,"name":"Juanelo","steam_id":76561199096390505,"connected_time":486000000000,"state":"active","ping":73},{"user_id":145,"name":"Porytal","steam_id":76561198306101889,"connected_time":269000000000,"state":"active","ping":79},{"user_id":153,"name":"100 Autisum","steam_id":76561199212994539,"connected_time":25000000000,"state":"spawning","ping":296}]},{"server_id":112,"name":"Uncletopia | Los Angeles | 2 | All Maps","name_short":"lax-2","host":"lax-1.us.uncletopia.com","port":27025,"enabled":true,"region":"us-west","cc":"us","latitude":33.94279,"longitude":-118.41004,"reserved":0,"last_update":"0001-01-01T00:00:00Z","name_a2s":"Uncletopia | Los Angeles | 2 | All Maps","protocol":17,"map":"cp_sunshine","folder":"tf","game":"Team Fortress","app_id":440,"player_count":0,"max_players":24,"Bots":0,"server_type":"Dedicated","server_os":"Linux","password":true,"vac":true,"version":"7742253","steam_id":85568392924469992,"keywords":["cp","nocrits","nodmgspread","uncletopia"],"game_id":440,"stv_port":27026,"stv_name":"Uncletopia | Los Angeles | 2 | All Maps | STV","players":null},{"server_id":324,"name":"Uncletopia | Los Angeles | 3 | All Maps","name_short":"lax-3","host":"lax-1.us.uncletopia.com","port":27035,"enabled":true,"region":"us-west","cc":"us","latitude":33.94279,"longitude":-118.41004,"reserved":0,"last_update":"0001-01-01T00:00:00Z","name_a2s":"Uncletopia | Los Angeles | 3 | All Maps","protocol":17,"map":"pl_badwater","folder":"tf","game":"Team Fortress","app_id":440,"player_count":14,"max_players":24,"Bots":0,"server_type":"Dedicated","server_os":"Linux","password":true,"vac":true,"version":"7742253","steam_id":85568392924510198,"keywords":["nocrits","nodmgspread","payload","uncletopia"],"game_id":440,"stv_port":27036,"stv_name":"Uncletopia | Los Angeles | 3 | All Maps | STV","players":[{"user_id":123,"name":"Nez","steam_id":76561197963109059,"connected_time":5238000000000,"state":"active","ping":53},{"user_id":168,"name":"SHADOW (he/him)","steam_id":76561198207768148,"connected_time":135000000000,"state":"active","ping":60},{"user_id":161,"name":"ABC Sweet Soy Sauce","steam_id":76561198964025682,"connected_time":1118000000000,"state":"active","ping":38},{"user_id":164,"name":"Shyland(Nilla)","steam_id":76561198253089092,"connected_time":541000000000,"state":"active","ping":84},{"user_id":163,"name":"Striker","steam_id":76561198149380317,"connected_time":597000000000,"state":"active","ping":47},{"user_id":159,"name":"machomelon","steam_id":76561198043683564,"connected_time":1774000000000,"state":"active","ping":53},{"user_id":169,"name":"Bromancery of Waldstein n Tager","steam_id":76561198247117372,"connected_time":125000000000,"state":"active","ping":123},{"user_id":166,"name":"Interrobang","steam_id":76561198385044529,"connected_time":473000000000,"state":"active","ping":93},{"user_id":170,"name":"I am","steam_id":76561198255481836,"connected_time":121000000000,"state":"active","ping":62},{"user_id":44,"name":"DarthJiggles","steam_id":76561198088383875,"connected_time":10418000000000,"state":"active","ping":45},{"user_id":151,"name":"ArumiKaze","steam_id":76561198026814729,"connected_time":2783000000000,"state":"active","ping":50},{"user_id":141,"name":"Dragons\u003eEverything","steam_id":76561199140784635,"connected_time":3757000000000,"state":"active","ping":67},{"user_id":150,"name":"Gears the Proto","steam_id":76561198442285002,"connected_time":2829000000000,"state":"active","ping":125},{"user_id":157,"name":"CumBob","steam_id":76561198168693975,"connected_time":2259000000000,"state":"active","ping":52}]},{"server_id":25,"name":"Uncletopia | Los Angeles | 4 | Stopwatch Beta","name_short":"lax-4","host":"lax-1.us.uncletopia.com","port":27045,"enabled":true,"region":"us-west","cc":"us","latitude":33.94279,"longitude":-118.41004,"reserved":0,"last_update":"0001-01-01T00:00:00Z","name_a2s":"Uncletopia | Los Angeles | 4 | Stopwatch Beta","protocol":17,"map":"workshop/koth_clearcut_b15.ugc2107050255","folder":"tf","game":"Team Fortress","app_id":440,"player_count":0,"max_players":24,"Bots":0,"server_type":"Dedicated","server_os":"Linux","password":true,"vac":true,"version":"7742253","steam_id":85568392924510199,"keywords":["cp","nocrits","nodmgspread","uncletopia"],"game_id":440,"stv_port":27046,"stv_name":"Uncletopia | Los Angeles | 4 | Stopwatch Beta | STV","players":null},{"server_id":11,"name":"Uncletopia | London | 1 | All Maps","name_short":"lon-1","host":"lon-1.uk.uncletopia.com","port":27015,"enabled":true,"region":"eu","cc":"gb","latitude":51.509865,"longitude":-0.118092,"reserved":0,"last_update":"0001-01-01T00:00:00Z","name_a2s":"Uncletopia | London | 1 | All Maps","protocol":17,"map":"cp_snakewater_final1","folder":"tf","game":"Team Fortress","app_id":440,"player_count":0,"max_players":24,"Bots":0,"server_type":"Dedicated","server_os":"Linux","password":true,"vac":true,"version":"7742253","steam_id":85568392924367362,"keywords":["cp","nocrits","nodmgspread","uncletopia"],"game_id":440,"stv_port":27016,"stv_name":"Uncletopia | London | 1 | All Maps | STV","players":null},{"server_id":114,"name":"Uncletopia | London | 2 | All Maps","name_short":"lon-2","host":"lon-1.uk.uncletopia.com","port":27025,"enabled":true,"region":"eu","cc":"gb","latitude":51.509865,"longitude":-0.118092,"reserved":0,"last_update":"0001-01-01T00:00:00Z","name_a2s":"Uncletopia | London | 2 | All Maps","protocol":17,"map":"pl_upward","folder":"tf","game":"Team Fortress","app_id":440,"player_count":16,"max_players":24,"Bots":0,"server_type":"Dedicated","server_os":"Linux","password":true,"vac":true,"version":"7742253","steam_id":85568392924470941,"keywords":["nocrits","nodmgspread","payload","uncletopia"],"game_id":440,"stv_port":27026,"stv_name":"Uncletopia | London | 2 | All Maps | STV","players":[{"user_id":1177,"name":"MEDIC!","steam_id":76561198883848767,"connected_time":1102000000000,"state":"active","ping":59},{"user_id":1180,"name":"gjhkgfkjfh","steam_id":76561198031181349,"connected_time":661000000000,"state":"active","ping":85},{"user_id":1174,"name":"Pahlberg","steam_id":76561198208547929,"connected_time":1150000000000,"state":"active","ping":76},{"user_id":1160,"name":"bANji","steam_id":76561198108898161,"connected_time":2195000000000,"state":"active","ping":54},{"user_id":1176,"name":"Ziy???","steam_id":76561197995765491,"connected_time":1120000000000,"state":"active","ping":45},{"user_id":1151,"name":"Uncle Motong","steam_id":76561198029093635,"connected_time":2677000000000,"state":"active","ping":66},{"user_id":1139,"name":"hmscole09","steam_id":76561198811362788,"connected_time":3221000000000,"state":"active","ping":47},{"user_id":1169,"name":"CouchPotato","steam_id":76561198849369915,"connected_time":1310000000000,"state":"active","ping":49},{"user_id":1170,"name":"Hexalina","steam_id":76561198163665060,"connected_time":1185000000000,"state":"active","ping":44},{"user_id":1146,"name":"nocerinostefano045","steam_id":76561199310302506,"connected_time":2755000000000,"state":"active","ping":80},{"user_id":1147,"name":"marsel","steam_id":76561198116168271,"connected_time":2739000000000,"state":"active","ping":75},{"user_id":1181,"name":"Ampley","steam_id":76561198291447088,"connected_time":542000000000,"state":"active","ping":52},{"user_id":1161,"name":"blue","steam_id":76561198216200092,"connected_time":2033000000000,"state":"active","ping":45},{"user_id":1164,"name":"Urantij","steam_id":76561198047920299,"connected_time":1940000000000,"state":"active","ping":124},{"user_id":1166,"name":"shuttercrow","steam_id":76561198176855245,"connected_time":1895000000000,"state":"active","ping":57},{"user_id":1183,"name":"TNE","steam_id":76561198996635737,"connected_time":351000000000,"state":"active","ping":76}]},{"server_id":320,"name":"Uncletopia | London | 3 | All Maps","name_short":"lon-3","host":"lon-1.uk.uncletopia.com","port":27035,"enabled":true,"region":"eu","cc":"gb","latitude":51.509865,"longitude":-0.118092,"reserved":0,"last_update":"0001-01-01T00:00:00Z","name_a2s":"Uncletopia | London | 3 | All Maps","protocol":17,"map":"koth_lakeside_final","folder":"tf","game":"Team Fortress","app_id":440,"player_count":0,"max_players":24,"Bots":0,"server_type":"Dedicated","server_os":"Linux","password":true,"vac":true,"version":"7742253","steam_id":85568392924510192,"keywords":["cp","nocrits","nodmgspread","uncletopia"],"game_id":440,"stv_port":27036,"stv_name":"Uncletopia | London | 3 | All Maps | STV","players":null},{"server_id":321,"name":"Uncletopia | London | 4 | All Maps","name_short":"lon-4","host":"lon-1.uk.uncletopia.com","port":27045,"enabled":true,"region":"eu","cc":"gb","latitude":51.509865,"longitude":-0.118092,"reserved":0,"last_update":"0001-01-01T00:00:00Z","name_a2s":"Uncletopia | London | 4 | All Maps","protocol":17,"map":"cp_dustbowl","folder":"tf","game":"Team Fortress","app_id":440,"player_count":0,"max_players":24,"Bots":0,"server_type":"Dedicated","server_os":"Linux","password":true,"vac":true,"version":"7742253","steam_id":85568392924510193,"keywords":["cp","nocrits","nodmgspread","uncletopia"],"game_id":440,"stv_port":27046,"stv_name":"Uncletopia | London | 4 | All Maps | STV","players":null},{"server_id":21,"name":"Uncletopia | London | 5 | All Maps","name_short":"lon-5","host":"lon-1.uk.uncletopia.com","port":27055,"enabled":true,"region":"eu","cc":"gb","latitude":51.509865,"longitude":-0.118092,"reserved":0,"last_update":"0001-01-01T00:00:00Z","name_a2s":"Uncletopia | London | 5 | All Maps","protocol":17,"map":"koth_cascade","folder":"tf","game":"Team Fortress","app_id":440,"player_count":0,"max_players":24,"Bots":0,"server_type":"Dedicated","server_os":"Linux","password":true,"vac":true,"version":"7742253","steam_id":85568392924742829,"keywords":["cp","nocrits","nodmgspread","uncletopia"],"game_id":440,"stv_port":27056,"stv_name":"Uncletopia | London | 5 | All Maps | STV","players":null},{"server_id":22,"name":"Uncletopia | London | 6 | All Maps","name_short":"lon-6","host":"lon-1.uk.uncletopia.com","port":27065,"enabled":true,"region":"eu","cc":"gb","latitude":51.509865,"longitude":-0.118092,"reserved":0,"last_update":"0001-01-01T00:00:00Z","name_a2s":"Uncletopia | London | 6 | All Maps","protocol":17,"map":"cp_dustbowl","folder":"tf","game":"Team Fortress","app_id":440,"player_count":0,"max_players":24,"Bots":0,"server_type":"Dedicated","server_os":"Linux","password":true,"vac":true,"version":"7742253","steam_id":85568392924742830,"keywords":["cp","nocrits","nodmgspread","uncletopia"],"game_id":440,"stv_port":27066,"stv_name":"Uncletopia | London | 6 | All Maps | STV","players":null},{"server_id":40,"name":"Uncletopia | London | 7 | No Payload","name_short":"lon-7","host":"lon-1.uk.uncletopia.com","port":27075,"enabled":true,"region":"eu","cc":"gb","latitude":51.509865,"longitude":-0.118092,"reserved":0,"last_update":"0001-01-01T00:00:00Z","name_a2s":"Uncletopia | London | 7 | No Payload","protocol":17,"map":"cp_badlands","folder":"tf","game":"Team Fortress","app_id":440,"player_count":0,"max_players":24,"Bots":0,"server_type":"Dedicated","server_os":"Linux","password":true,"vac":true,"version":"7742253","steam_id":85568392924964314,"keywords":["cp","nocrits","nodmgspread","uncletopia"],"game_id":440,"stv_port":27076,"stv_name":"Uncletopia | London | 7 | No Payload | STV","players":null},{"server_id":41,"name":"Uncletopia | London | 8 | Community","name_short":"lon-8","host":"lon-1.uk.uncletopia.com","port":27085,"enabled":true,"region":"eu","cc":"gb","latitude":51.509865,"longitude":-0.118092,"reserved":0,"last_update":"0001-01-01T00:00:00Z","name_a2s":"Uncletopia | London | 8 | Community","protocol":17,"map":"workshop/koth_ashville_final.ugc2130459942","folder":"tf","game":"Team Fortress","app_id":440,"player_count":0,"max_players":24,"Bots":0,"server_type":"Dedicated","server_os":"Linux","password":true,"vac":true,"version":"7742253","steam_id":85568392924964315,"keywords":["cp","nocrits","nodmgspread","uncletopia"],"game_id":440,"stv_port":27086,"stv_name":"Uncletopia | London | 8 | Community | STV","players":null},{"server_id":300,"name":"Uncletopia | Montréal | 1 | All Maps","name_short":"mtl-1","host":"mtl-1.ca.uncletopia.com","port":27015,"enabled":true,"region":"us-east","cc":"ca","latitude":45.50889,"longitude":-73.56167,"reserved":0,"last_update":"0001-01-01T00:00:00Z","name_a2s":"Uncletopia | Montréal | 1 | All Maps","protocol":17,"map":"pl_snowycoast","folder":"tf","game":"Team Fortress","app_id":440,"player_count":0,"max_players":24,"Bots":0,"server_type":"Dedicated","server_os":"Linux","password":true,"vac":true,"version":"7742253","steam_id":85568392924500087,"keywords":["nocrits","nodmgspread","payload","uncletopia"],"game_id":440,"stv_port":27016,"stv_name":"Uncletopia | Montréal | 1 | All Maps | STV","players":null},{"server_id":301,"name":"Uncletopia | Montréal | 2 | All Maps","name_short":"mtl-2","host":"mtl-1.ca.uncletopia.com","port":27025,"enabled":true,"region":"us-east","cc":"ca","latitude":45.50889,"longitude":-73.56167,"reserved":0,"last_update":"0001-01-01T00:00:00Z","name_a2s":"Uncletopia | Montréal | 2 | All Maps","protocol":17,"map":"cp_altitude","folder":"tf","game":"Team Fortress","app_id":440,"player_count":0,"max_players":24,"Bots":0,"server_type":"Dedicated","server_os":"Linux","password":true,"vac":true,"version":"7742253","steam_id":85568392924500088,"keywords":["cp","nocrits","nodmgspread","uncletopia"],"game_id":440,"stv_port":27026,"stv_name":"Uncletopia | Montréal | 2 | All Maps | STV","players":null},{"server_id":302,"name":"Uncletopia | Montréal | 3 | All Maps","name_short":"mtl-3","host":"mtl-1.ca.uncletopia.com","port":27035,"enabled":true,"region":"us-east","cc":"ca","latitude":45.50889,"longitude":-73.56167,"reserved":0,"last_update":"0001-01-01T00:00:00Z","name_a2s":"Uncletopia | Montréal | 3 | All Maps","protocol":17,"map":"pl_badwater","folder":"tf","game":"Team Fortress","app_id":440,"player_count":3,"max_players":24,"Bots":0,"server_type":"Dedicated","server_os":"Linux","password":true,"vac":true,"version":"7742253","steam_id":85568392924500089,"keywords":["nocrits","nodmgspread","payload","uncletopia"],"game_id":440,"stv_port":27036,"stv_name":"Uncletopia | Montréal | 3 | All Maps | STV","players":[{"user_id":16,"name":"watchfull","steam_id":76561198433266742,"connected_time":8259000000000,"state":"active","ping":137},{"user_id":17,"name":"Elegant Ejaculation","steam_id":76561198014190878,"connected_time":8031000000000,"state":"active","ping":124},{"user_id":19,"name":"Monsterjessy","steam_id":76561198035630985,"connected_time":5938000000000,"state":"active","ping":42}]},{"server_id":303,"name":"Uncletopia | Montréal | 4 | No Payload","name_short":"mtl-4","host":"mtl-1.ca.uncletopia.com","port":27045,"enabled":true,"region":"us-east","cc":"ca","latitude":45.50889,"longitude":-73.56167,"reserved":0,"last_update":"0001-01-01T00:00:00Z","name_a2s":"Uncletopia | Montréal | 4 | No Payload","protocol":17,"map":"cp_process_final","folder":"tf","game":"Team Fortress","app_id":440,"player_count":0,"max_players":24,"Bots":0,"server_type":"Dedicated","server_os":"Linux","password":true,"vac":true,"version":"7742253","steam_id":85568392924500090,"keywords":["cp","nocrits","nodmgspread","uncletopia"],"game_id":440,"stv_port":27046,"stv_name":"Uncletopia | Montréal | 4 | No Payload | STV","players":null},{"server_id":13,"name":"Uncletopia | New York City | 1 | All Maps","name_short":"nyc-1","host":"nyc-1.us.uncletopia.com","port":27015,"enabled":true,"region":"us-east","cc":"us","latitude":40.73061,"longitude":-73.93524,"reserved":0,"last_update":"0001-01-01T00:00:00Z","name_a2s":"Uncletopia | New York City | 1 | All Maps","protocol":17,"map":"cp_snakewater_final1","folder":"tf","game":"Team Fortress","app_id":440,"player_count":15,"max_players":24,"Bots":0,"server_type":"Dedicated","server_os":"Linux","password":true,"vac":true,"version":"7742253","steam_id":85568392924469993,"keywords":["cp","nocrits","nodmgspread","uncletopia"],"game_id":440,"stv_port":27016,"stv_name":"Uncletopia | New York City | 1 | All Maps | STV","players":[{"user_id":825,"name":"bushy","steam_id":76561198138088830,"connected_time":102000000000,"state":"active","ping":91},{"user_id":826,"name":"PLATYPUS","steam_id":76561198255796625,"connected_time":75000000000,"state":"active","ping":118},{"user_id":828,"name":"Cafe Alpha","steam_id":76561197965022076,"connected_time":37000000000,"state":"active","ping":44},{"user_id":770,"name":"Adolf The Toast Jesus™","steam_id":76561198024553767,"connected_time":4779000000000,"state":"active","ping":89},{"user_id":819,"name":"big dog","steam_id":76561198243918128,"connected_time":445000000000,"state":"active","ping":53},{"user_id":810,"name":"DiscoTraveler","steam_id":76561199240168088,"connected_time":1372000000000,"state":"active","ping":42},{"user_id":822,"name":"pab","steam_id":76561198156915999,"connected_time":320000000000,"state":"active","ping":70},{"user_id":829,"name":"Chesh","steam_id":76561197990316722,"connected_time":7000000000,"state":"active","ping":76},{"user_id":724,"name":"astron","steam_id":76561198058546328,"connected_time":7835000000000,"state":"active","ping":62},{"user_id":815,"name":"ExoTheFlyingFish","steam_id":76561198034388243,"connected_time":690000000000,"state":"active","ping":40},{"user_id":820,"name":"Krusty Nut","steam_id":76561198120637924,"connected_time":430000000000,"state":"active","ping":59},{"user_id":812,"name":"Stressmelo","steam_id":76561199204445185,"connected_time":1272000000000,"state":"active","ping":67},{"user_id":804,"name":"MAXIMUS","steam_id":76561198085809453,"connected_time":2235000000000,"state":"active","ping":76},{"user_id":726,"name":"spooky","steam_id":76561198122964663,"connected_time":7830000000000,"state":"active","ping":46},{"user_id":818,"name":"bench","steam_id":76561198055339968,"connected_time":516000000000,"state":"active","ping":45}]},{"server_id":14,"name":"Uncletopia | New York City | 2 | All Maps","name_short":"nyc-2","host":"nyc-1.us.uncletopia.com","port":27025,"enabled":true,"region":"us-east","cc":"us","latitude":40.73061,"longitude":-73.93524,"reserved":0,"last_update":"0001-01-01T00:00:00Z","name_a2s":"Uncletopia | New York City | 2 | All Maps","protocol":17,"map":"koth_viaduct","folder":"tf","game":"Team Fortress","app_id":440,"player_count":11,"max_players":24,"Bots":0,"server_type":"Dedicated","server_os":"Linux","password":true,"vac":true,"version":"7742253","steam_id":85568392924469994,"keywords":["cp","nocrits","nodmgspread","uncletopia"],"game_id":440,"stv_port":27026,"stv_name":"Uncletopia | New York City | 2 | All Maps | STV","players":[{"user_id":899,"name":"MrLeftTurn","steam_id":76561198856743969,"connected_time":38000000000,"state":"active","ping":140},{"user_id":886,"name":"devamar","steam_id":76561198069115467,"connected_time":875000000000,"state":"active","ping":67},{"user_id":896,"name":"rudy","steam_id":76561198088712799,"connected_time":140000000000,"state":"active","ping":69},{"user_id":836,"name":"matkaster","steam_id":76561197998546486,"connected_time":4381000000000,"state":"active","ping":76},{"user_id":895,"name":"♥Я люблю ̶т̶е̶б̶","steam_id":76561199074647634,"connected_time":440000000000,"state":"active","ping":199},{"user_id":880,"name":"alexthepenguin7","steam_id":76561198390154448,"connected_time":1769000000000,"state":"active","ping":78},{"user_id":874,"name":"mega giga payload hater!","steam_id":76561198039727616,"connected_time":2079000000000,"state":"active","ping":61},{"user_id":887,"name":"jt","steam_id":76561198059575962,"connected_time":809000000000,"state":"active","ping":49},{"user_id":897,"name":"p 2","steam_id":76561198081556349,"connected_time":89000000000,"state":"active","ping":96},{"user_id":898,"name":"1 pl_upward hater","steam_id":76561198143132686,"connected_time":44000000000,"state":"active","ping":105},{"user_id":852,"name":"Brass beast heavy","steam_id":76561198274197623,"connected_time":3914000000000,"state":"active","ping":135}]},{"server_id":15,"name":"Uncletopia | New York City | 3 | Stopwatch Beta","name_short":"nyc-3","host":"nyc-1.us.uncletopia.com","port":27035,"enabled":true,"region":"us-east","cc":"us","latitude":40.73061,"longitude":-73.93524,"reserved":0,"last_update":"0001-01-01T00:00:00Z","name_a2s":"Uncletopia | New York City | 3 | Stopwatch Beta","protocol":17,"map":"workshop/pl_badwater_pro_v12.ugc2142942074","folder":"tf","game":"Team Fortress","app_id":440,"player_count":0,"max_players":24,"Bots":0,"server_type":"Dedicated","server_os":"Linux","password":true,"vac":true,"version":"7742253","steam_id":85568392924742820,"keywords":["nocrits","nodmgspread","payload","uncletopia"],"game_id":440,"stv_port":27036,"stv_name":"Uncletopia | New York City | 3 | Stopwatch Beta | STV","players":null},{"server_id":16,"name":"Uncletopia | New York City | 4 | Community","name_short":"nyc-4","host":"nyc-1.us.uncletopia.com","port":27045,"enabled":true,"region":"us-east","cc":"us","latitude":40.73061,"longitude":-73.93524,"reserved":0,"last_update":"0001-01-01T00:00:00Z","name_a2s":"Uncletopia | New York City | 4 | Community","protocol":17,"map":"workshop/koth_ramjam_rc1.ugc459778887","folder":"tf","game":"Team Fortress","app_id":440,"player_count":0,"max_players":24,"Bots":0,"server_type":"Dedicated","server_os":"Linux","password":true,"vac":true,"version":"7742253","steam_id":85568392924742821,"keywords":["cp","nocrits","nodmgspread","uncletopia"],"game_id":440,"stv_port":27046,"stv_name":"Uncletopia | New York City | 4 | Community | STV","players":null},{"server_id":142,"name":"Uncletopia | São Paulo | 1 | All Maps","name_short":"sao-1","host":"sao-1.br.uncletopia.com","port":27015,"enabled":true,"region":"sa","cc":"br","latitude":-23.533773,"longitude":-46.62529,"reserved":0,"last_update":"0001-01-01T00:00:00Z","name_a2s":"Uncletopia | São Paulo | 1 | All Maps","protocol":17,"map":"koth_viaduct","folder":"tf","game":"Team Fortress","app_id":440,"player_count":1,"max_players":24,"Bots":0,"server_type":"Dedicated","server_os":"Linux","password":true,"vac":true,"version":"7742253","steam_id":85568392924469996,"keywords":["cp","nocrits","nodmgspread","uncletopia"],"game_id":440,"stv_port":27016,"stv_name":"Uncletopia | São Paulo | 1 | All Maps | STV","players":[{"user_id":46,"name":"KUMALALA","steam_id":76561199092882934,"connected_time":142000000000,"state":"active","ping":84}]},{"server_id":143,"name":"Uncletopia | São Paulo | 2 | All Maps","name_short":"sao-2","host":"sao-2.br.uncletopia.com","port":27015,"enabled":true,"region":"sa","cc":"br","latitude":-23.533773,"longitude":-46.62529,"reserved":0,"last_update":"0001-01-01T00:00:00Z","name_a2s":"Uncletopia | São Paulo | 2 | All Maps","protocol":17,"map":"koth_highpass","folder":"tf","game":"Team Fortress","app_id":440,"player_count":0,"max_players":24,"Bots":0,"server_type":"Dedicated","server_os":"Linux","password":true,"vac":true,"version":"7742253","steam_id":85568392924485349,"keywords":["cp","nocrits","nodmgspread","uncletopia"],"game_id":440,"stv_port":27016,"stv_name":"Uncletopia | São Paulo | 2 | All Maps | STV","players":null},{"server_id":7,"name":"Uncletopia | Seattle | 1 | All Maps","name_short":"sea-1","host":"sea-1.us.uncletopia.com","port":27015,"enabled":true,"region":"us-west","cc":"us","latitude":47.608013,"longitude":-122.33517,"reserved":0,"last_update":"0001-01-01T00:00:00Z","name_a2s":"Uncletopia | Seattle | 1 | All Maps","protocol":17,"map":"pl_swiftwater_final1","folder":"tf","game":"Team Fortress","app_id":440,"player_count":24,"max_players":24,"Bots":0,"server_type":"Dedicated","server_os":"Linux","password":true,"vac":true,"version":"7742253","steam_id":85568392924469997,"keywords":["nocrits","nodmgspread","payload","uncletopia"],"game_id":440,"stv_port":27016,"stv_name":"Uncletopia | Seattle | 1 | All Maps | STV","players":[{"user_id":588,"name":"Frongus","steam_id":76561197979056451,"connected_time":14457000000000,"state":"active","ping":46},{"user_id":761,"name":"Luca","steam_id":76561198125087140,"connected_time":1349000000000,"state":"active","ping":77},{"user_id":704,"name":"Elias","steam_id":76561198031295139,"connected_time":5684000000000,"state":"active","ping":56},{"user_id":751,"name":"spenca","steam_id":76561198025371154,"connected_time":2771000000000,"state":"active","ping":79},{"user_id":712,"name":"Anderswo","steam_id":76561198253224241,"connected_time":5108000000000,"state":"active","ping":49},{"user_id":594,"name":"Level 99 Mudcrab","steam_id":76561198077452771,"connected_time":14087000000000,"state":"active","ping":59},{"user_id":749,"name":"Dorte Voloxi","steam_id":76561198118620969,"connected_time":3218000000000,"state":"active","ping":65},{"user_id":715,"name":"Alset","steam_id":76561197993820174,"connected_time":5066000000000,"state":"active","ping":100},{"user_id":757,"name":"ikuyo","steam_id":76561198996950205,"connected_time":2237000000000,"state":"active","ping":68},{"user_id":675,"name":"ORANGE","steam_id":76561198000401769,"connected_time":8257000000000,"state":"active","ping":53},{"user_id":736,"name":"MaryJanee","steam_id":76561198072200952,"connected_time":3973000000000,"state":"active","ping":82},{"user_id":762,"name":"Sailor","steam_id":76561199081983517,"connected_time":1291000000000,"state":"active","ping":98},{"user_id":763,"name":"KnotsAreUs","steam_id":76561198306522669,"connected_time":935000000000,"state":"active","ping":89},{"user_id":597,"name":"self sufficient kitten","steam_id":76561197960592612,"connected_time":13626000000000,"state":"active","ping":54},{"user_id":759,"name":"Strikerbolt","steam_id":76561199095622897,"connected_time":1894000000000,"state":"active","ping":85},{"user_id":714,"name":"Professor Cuthbert Calculus","steam_id":76561198003257461,"connected_time":5104000000000,"state":"active","ping":53},{"user_id":752,"name":"gorlab","steam_id":76561198025089694,"connected_time":2757000000000,"state":"active","ping":60},{"user_id":765,"name":"nivekuil","steam_id":76561198043892129,"connected_time":678000000000,"state":"active","ping":42},{"user_id":729,"name":"STrong Bomber","steam_id":76561198805051139,"connected_time":4396000000000,"state":"active","ping":49},{"user_id":756,"name":"2 Point Tom","steam_id":76561198087617008,"connected_time":2415000000000,"state":"active","ping":52},{"user_id":727,"name":"Zenyaru","steam_id":76561199128779995,"connected_time":4431000000000,"state":"active","ping":81},{"user_id":758,"name":"SvicidalBug","steam_id":76561198221390504,"connected_time":1965000000000,"state":"active","ping":71},{"user_id":764,"name":"'89","steam_id":76561198020221880,"connected_time":724000000000,"state":"active","ping":62},{"user_id":711,"name":"Sweets","steam_id":76561198998446307,"connected_time":5153000000000,"state":"active","ping":72}]},{"server_id":119,"name":"Uncletopia | Seattle | 2 | All Maps","name_short":"sea-2","host":"sea-1.us.uncletopia.com","port":27025,"enabled":true,"region":"us-west","cc":"us","latitude":47.608013,"longitude":-122.33517,"reserved":0,"last_update":"0001-01-01T00:00:00Z","name_a2s":"Uncletopia | Seattle | 2 | All Maps","protocol":17,"map":"pl_upward","folder":"tf","game":"Team Fortress","app_id":440,"player_count":24,"max_players":24,"Bots":0,"server_type":"Dedicated","server_os":"Linux","password":true,"vac":true,"version":"7742253","steam_id":85568392924469998,"keywords":["nocrits","nodmgspread","payload","uncletopia"],"game_id":440,"stv_port":27026,"stv_name":"Uncletopia | Seattle | 2 | All Maps | STV","players":[{"user_id":578,"name":"Lord Pretty Flocko Jordye","steam_id":76561198962880749,"connected_time":1022000000000,"state":"active","ping":43},{"user_id":546,"name":"The_Pacific_gamer","steam_id":76561198089491446,"connected_time":3461000000000,"state":"active","ping":55},{"user_id":573,"name":"dubious little creature","steam_id":76561198113251746,"connected_time":1487000000000,"state":"active","ping":66},{"user_id":547,"name":"Chicanery","steam_id":76561198977589038,"connected_time":3415000000000,"state":"active","ping":109},{"user_id":510,"name":"Alltrex","steam_id":76561198202254225,"connected_time":6682000000000,"state":"active","ping":48},{"user_id":552,"name":"zzrat","steam_id":76561198014925415,"connected_time":3052000000000,"state":"active","ping":67},{"user_id":550,"name":"Lightworker","steam_id":76561198063949642,"connected_time":3115000000000,"state":"active","ping":43},{"user_id":562,"name":"Jonatello","steam_id":76561198045699189,"connected_time":2647000000000,"state":"active","ping":83},{"user_id":572,"name":"S Q U I S H E  T H A T  C A T","steam_id":76561198293865429,"connected_time":1526000000000,"state":"active","ping":38},{"user_id":571,"name":"THAT CAT","steam_id":76561198010828625,"connected_time":1638000000000,"state":"active","ping":38},{"user_id":520,"name":"General Fisticuffs","steam_id":76561198255721392,"connected_time":5373000000000,"state":"active","ping":109},{"user_id":568,"name":"chompmastr","steam_id":76561199121805899,"connected_time":2044000000000,"state":"active","ping":55},{"user_id":511,"name":"Hernandez$","steam_id":76561198019324588,"connected_time":6198000000000,"state":"active","ping":92},{"user_id":584,"name":"Tom","steam_id":76561198070630154,"connected_time":44000000000,"state":"active","ping":78},{"user_id":583,"name":"Tcmano","steam_id":76561198057233847,"connected_time":222000000000,"state":"active","ping":79},{"user_id":540,"name":"MrNoodles","steam_id":76561197998876110,"connected_time":3635000000000,"state":"active","ping":97},{"user_id":541,"name":"Splandido ☠","steam_id":76561198062096626,"connected_time":3635000000000,"state":"active","ping":50},{"user_id":582,"name":"pudding","steam_id":76561199227001460,"connected_time":322000000000,"state":"active","ping":132},{"user_id":543,"name":"TheCowledWiz","steam_id":76561198016735868,"connected_time":3620000000000,"state":"active","ping":51},{"user_id":548,"name":"KingTinkerer","steam_id":76561198226856548,"connected_time":3137000000000,"state":"active","ping":66},{"user_id":580,"name":"Ghee Buttersnaps","steam_id":76561199225708271,"connected_time":393000000000,"state":"active","ping":78},{"user_id":579,"name":"Julien","steam_id":76561199389584938,"connected_time":642000000000,"state":"active","ping":40},{"user_id":575,"name":"[insert keyword here]","steam_id":76561198201421063,"connected_time":1407000000000,"state":"active","ping":121},{"user_id":570,"name":"Lily Thorn","steam_id":76561198305488625,"connected_time":1732000000000,"state":"active","ping":64}]},{"server_id":406,"name":"Uncletopia | Seattle | 3 | Stopwatch Beta","name_short":"sea-3","host":"sea-1.us.uncletopia.com","port":27035,"enabled":true,"region":"us-west","cc":"us","latitude":47.608013,"longitude":-122.33517,"reserved":0,"last_update":"0001-01-01T00:00:00Z","name_a2s":"Uncletopia | Seattle | 3 | Stopwatch Beta","protocol":17,"map":"pl_borneo","folder":"tf","game":"Team Fortress","app_id":440,"player_count":0,"max_players":24,"Bots":0,"server_type":"Dedicated","server_os":"Linux","password":true,"vac":true,"version":"7742253","steam_id":85568392924515217,"keywords":["nocrits","nodmgspread","payload","uncletopia"],"game_id":440,"stv_port":27036,"stv_name":"Uncletopia | Seattle | 3 | Stopwatch Beta | STV","players":null},{"server_id":17,"name":"Uncletopia | San Francisco | 1 | All Maps","name_short":"sfo-1","host":"sfo-1.us.uncletopia.com","port":27015,"enabled":true,"region":"us-west","cc":"us","latitude":37.77397,"longitude":-122.4313,"reserved":0,"last_update":"0001-01-01T00:00:00Z","name_a2s":"Uncletopia | San Francisco | 1 | All Maps","protocol":17,"map":"pl_pier","folder":"tf","game":"Team Fortress","app_id":440,"player_count":24,"max_players":24,"Bots":0,"server_type":"Dedicated","server_os":"Linux","password":true,"vac":true,"version":"7742253","steam_id":85568392924469999,"keywords":["nocrits","nodmgspread","payload","uncletopia"],"game_id":440,"stv_port":27016,"stv_name":"Uncletopia | San Francisco | 1 | All Maps | STV","players":[{"user_id":111,"name":"Livin' Like Larry","steam_id":76561198313360974,"connected_time":1018000000000,"state":"active","ping":32},{"user_id":87,"name":"Gabe","steam_id":76561198081153719,"connected_time":2202000000000,"state":"active","ping":68},{"user_id":96,"name":"moe","steam_id":76561198929586245,"connected_time":1817000000000,"state":"active","ping":89},{"user_id":106,"name":"SuaveFrenchman","steam_id":76561198043762683,"connected_time":1150000000000,"state":"active","ping":46},{"user_id":67,"name":"Len","steam_id":76561199141913673,"connected_time":4075000000000,"state":"active","ping":44},{"user_id":101,"name":"Gucci Shades","steam_id":76561198059537262,"connected_time":1440000000000,"state":"active","ping":51},{"user_id":72,"name":"Schnitz","steam_id":76561198265484253,"connected_time":3644000000000,"state":"active","ping":70},{"user_id":98,"name":"bad spy player","steam_id":76561198873699671,"connected_time":1572000000000,"state":"active","ping":63},{"user_id":73,"name":"Whapper","steam_id":76561198044029606,"connected_time":3586000000000,"state":"active","ping":56},{"user_id":107,"name":"John Wick's puppy","steam_id":76561198064662875,"connected_time":1125000000000,"state":"active","ping":48},{"user_id":85,"name":"selvhat","steam_id":76561198114225509,"connected_time":2276000000000,"state":"active","ping":54},{"user_id":113,"name":"hiddenpants","steam_id":76561198145461702,"connected_time":981000000000,"state":"active","ping":71},{"user_id":74,"name":"Yoozer","steam_id":76561198420257694,"connected_time":3550000000000,"state":"active","ping":62},{"user_id":116,"name":"PainInTheRuss","steam_id":76561197977960543,"connected_time":791000000000,"state":"active","ping":51},{"user_id":108,"name":"gamer in rehab","steam_id":76561198858328080,"connected_time":1116000000000,"state":"active","ping":53},{"user_id":99,"name":"JellyParrot","steam_id":76561199190990163,"connected_time":1514000000000,"state":"active","ping":116},{"user_id":104,"name":"Mobamna Son","steam_id":76561198298049047,"connected_time":1228000000000,"state":"active","ping":54},{"user_id":122,"name":"FATHER","steam_id":76561198041308977,"connected_time":165000000000,"state":"active","ping":84},{"user_id":64,"name":"Zobozo","steam_id":76561198028954297,"connected_time":4680000000000,"state":"active","ping":58},{"user_id":112,"name":"invb","steam_id":76561197998263914,"connected_time":1011000000000,"state":"active","ping":106},{"user_id":110,"name":"just leo","steam_id":76561198094491158,"connected_time":1046000000000,"state":"active","ping":56},{"user_id":119,"name":"bug","steam_id":76561198381048942,"connected_time":513000000000,"state":"active","ping":79},{"user_id":68,"name":"Tenma","steam_id":76561198296557689,"connected_time":3874000000000,"state":"active","ping":60},{"user_id":121,"name":"mrjibjaber","steam_id":76561198025229908,"connected_time":236000000000,"state":"active","ping":53}]},{"server_id":18,"name":"Uncletopia | San Francisco | 2 | All Maps","name_short":"sfo-2","host":"sfo-1.us.uncletopia.com","port":27025,"enabled":true,"region":"us-west","cc":"us","latitude":37.77397,"longitude":-122.4313,"reserved":0,"last_update":"0001-01-01T00:00:00Z","name_a2s":"Uncletopia | San Francisco | 2 | All Maps","protocol":17,"map":"pl_frontier_final","folder":"tf","game":"Team Fortress","app_id":440,"player_count":24,"max_players":24,"Bots":0,"server_type":"Dedicated","server_os":"Linux","password":true,"vac":true,"version":"7742253","steam_id":85568392924470000,"keywords":["nocrits","nodmgspread","payload","uncletopia"],"game_id":440,"stv_port":27026,"stv_name":"Uncletopia | San Francisco | 2 | All Maps | STV","players":[{"user_id":193,"name":"Dezzithediscoduck","steam_id":76561198037043489,"connected_time":3967000000000,"state":"active","ping":49},{"user_id":194,"name":"SheepWithPants","steam_id":76561198169158454,"connected_time":3895000000000,"state":"active","ping":73},{"user_id":231,"name":"goldhed","steam_id":76561198051751133,"connected_time":46000000000,"state":"spawning","ping":89},{"user_id":228,"name":"CaptainGold1","steam_id":76561198104967772,"connected_time":342000000000,"state":"active","ping":74},{"user_id":213,"name":"Orson Welles Gaming","steam_id":76561198115821923,"connected_time":1807000000000,"state":"active","ping":65},{"user_id":218,"name":"Doom","steam_id":76561199093691968,"connected_time":1028000000000,"state":"active","ping":63},{"user_id":162,"name":"MarshallMellows","steam_id":76561198231561020,"connected_time":5829000000000,"state":"active","ping":68},{"user_id":214,"name":"Life is Pain I Hate","steam_id":76561198184565718,"connected_time":1789000000000,"state":"active","ping":63},{"user_id":204,"name":"Nuggies","steam_id":76561198272432592,"connected_time":2709000000000,"state":"active","ping":56},{"user_id":226,"name":"HanakoToast","steam_id":76561198045233131,"connected_time":449000000000,"state":"active","ping":73},{"user_id":224,"name":"benhameen","steam_id":76561198446837615,"connected_time":566000000000,"state":"active","ping":49},{"user_id":217,"name":"The Horny","steam_id":76561198863639459,"connected_time":1289000000000,"state":"active","ping":66},{"user_id":187,"name":"Fresh","steam_id":76561198068565728,"connected_time":4298000000000,"state":"active","ping":49},{"user_id":229,"name":"Penile Provoker","steam_id":76561198082653257,"connected_time":327000000000,"state":"active","ping":47},{"user_id":195,"name":"sly1","steam_id":76561198049014977,"connected_time":3884000000000,"state":"active","ping":73},{"user_id":183,"name":"rmbl","steam_id":76561198150137369,"connected_time":4687000000000,"state":"active","ping":60},{"user_id":225,"name":"E-Spliff","steam_id":76561199093733603,"connected_time":507000000000,"state":"active","ping":62},{"user_id":211,"name":"8core","steam_id":76561198131163454,"connected_time":2183000000000,"state":"active","ping":75},{"user_id":220,"name":"magunyamu","steam_id":76561198823083676,"connected_time":948000000000,"state":"active","ping":67},{"user_id":230,"name":"playdough eater","steam_id":76561199045901994,"connected_time":151000000000,"state":"active","ping":62},{"user_id":221,"name":"Fankik","steam_id":76561198384764077,"connected_time":919000000000,"state":"active","ping":91},{"user_id":178,"name":"Yokogaijin Jr.","steam_id":76561199124647094,"connected_time":5119000000000,"state":"active","ping":46},{"user_id":192,"name":"Big Blue","steam_id":76561198084930108,"connected_time":4012000000000,"state":"active","ping":60},{"user_id":179,"name":"Pudsla","steam_id":76561198258974036,"connected_time":4836000000000,"state":"active","ping":84}]},{"server_id":19,"name":"Uncletopia | San Francisco | 3 | Stopwatch Beta","name_short":"sfo-3","host":"sfo-1.us.uncletopia.com","port":27035,"enabled":true,"region":"us-west","cc":"us","latitude":37.77397,"longitude":-122.4313,"reserved":0,"last_update":"0001-01-01T00:00:00Z","name_a2s":"Uncletopia | San Francisco | 3 | Stopwatch Beta","protocol":17,"map":"koth_lakeside_final","folder":"tf","game":"Team Fortress","app_id":440,"player_count":0,"max_players":24,"Bots":0,"server_type":"Dedicated","server_os":"Linux","password":true,"vac":true,"version":"7742253","steam_id":85568392924742824,"keywords":["cp","nocrits","nodmgspread","uncletopia"],"game_id":440,"stv_port":27036,"stv_name":"Uncletopia | San Francisco | 3 | Stopwatch Beta | STV","players":null},{"server_id":20,"name":"Uncletopia | San Francisco | 4 | Community","name_short":"sfo-4","host":"sfo-1.us.uncletopia.com","port":27045,"enabled":true,"region":"us-west","cc":"us","latitude":37.77397,"longitude":-122.4313,"reserved":0,"last_update":"0001-01-01T00:00:00Z","name_a2s":"Uncletopia | San Francisco | 4 | Community","protocol":17,"map":"workshop/rd_asteroid_redux_b1.ugc2154902912","folder":"tf","game":"Team Fortress","app_id":440,"player_count":0,"max_players":24,"Bots":0,"server_type":"Dedicated","server_os":"Linux","password":true,"vac":true,"version":"7742253","steam_id":85568392924742826,"keywords":["beta","nocrits","nodmgspread","rd","uncletopia"],"game_id":440,"stv_port":27046,"stv_name":"Uncletopia | San Francisco | 4 | Community | STV","players":null},{"server_id":141,"name":"Uncletopia | Sydney | 1 | All Maps","name_short":"syd-1","host":"syd-1.au.uncletopia.com","port":27015,"enabled":true,"region":"au","cc":"au","latitude":-33.865143,"longitude":151.2099,"reserved":0,"last_update":"0001-01-01T00:00:00Z","name_a2s":"Uncletopia | Sydney | 1 | All Maps","protocol":17,"map":"pl_upward","folder":"tf","game":"Team Fortress","app_id":440,"player_count":22,"max_players":24,"Bots":0,"server_type":"Dedicated","server_os":"Linux","password":true,"vac":true,"version":"7742253","steam_id":85568392924470001,"keywords":["nocrits","nodmgspread","payload","uncletopia"],"game_id":440,"stv_port":27016,"stv_name":"Uncletopia | Sydney | 1 | All Maps | STV","players":[{"user_id":361,"name":"Lobarté","steam_id":76561198090116136,"connected_time":629000000000,"state":"active","ping":60},{"user_id":359,"name":"SpaceMann","steam_id":76561199215200562,"connected_time":802000000000,"state":"active","ping":68},{"user_id":353,"name":"TotalSpookerHunter21","steam_id":76561198359837010,"connected_time":1292000000000,"state":"active","ping":41},{"user_id":369,"name":"krandlez` (Any/All)","steam_id":76561198044839726,"connected_time":138000000000,"state":"active","ping":45},{"user_id":344,"name":"dolphin","steam_id":76561198206754736,"connected_time":2372000000000,"state":"active","ping":45},{"user_id":362,"name":"☁☁ﮎσggY☁","steam_id":76561198156441727,"connected_time":590000000000,"state":"active","ping":42},{"user_id":312,"name":"cullen","steam_id":76561198128695488,"connected_time":4408000000000,"state":"active","ping":59},{"user_id":276,"name":"zebulon","steam_id":76561198063481761,"connected_time":7263000000000,"state":"active","ping":44},{"user_id":364,"name":"yohooj","steam_id":76561198344513761,"connected_time":419000000000,"state":"active","ping":44},{"user_id":365,"name":"ImFingeringYourWorm","steam_id":76561199106346994,"connected_time":374000000000,"state":"active","ping":75},{"user_id":366,"name":"Cup","steam_id":76561198038485845,"connected_time":332000000000,"state":"active","ping":44},{"user_id":350,"name":"PinkFluffyKnuckles","steam_id":76561198877114539,"connected_time":1800000000000,"state":"active","ping":61},{"user_id":348,"name":"pooparse","steam_id":76561198217959591,"connected_time":1963000000000,"state":"active","ping":66},{"user_id":355,"name":"Ganome Chilled","steam_id":76561198064898965,"connected_time":1104000000000,"state":"active","ping":118},{"user_id":341,"name":"Really","steam_id":76561198153397177,"connected_time":2547000000000,"state":"active","ping":48},{"user_id":285,"name":"the rot consumes","steam_id":76561199445490119,"connected_time":5951000000000,"state":"active","ping":32},{"user_id":346,"name":"tweedie","steam_id":76561198063425523,"connected_time":2038000000000,"state":"active","ping":54},{"user_id":368,"name":"hyak","steam_id":76561198175700625,"connected_time":195000000000,"state":"active","ping":93},{"user_id":334,"name":"Zeal","steam_id":76561198060829393,"connected_time":2822000000000,"state":"active","ping":66},{"user_id":370,"name":"Qwertles","steam_id":76561198033779273,"connected_time":129000000000,"state":"active","ping":50},{"user_id":371,"name":"Just Brando","steam_id":76561198914415738,"connected_time":52000000000,"state":"active","ping":56},{"user_id":308,"name":"Livid","steam_id":76561198060024585,"connected_time":4905000000000,"state":"active","ping":40}]},{"server_id":123,"name":"Uncletopia | Sydney | 2 | All Maps","name_short":"syd-2","host":"syd-1.au.uncletopia.com","port":27025,"enabled":true,"region":"au","cc":"au","latitude":-33.865143,"longitude":151.2099,"reserved":0,"last_update":"0001-01-01T00:00:00Z","name_a2s":"Uncletopia | Sydney | 2 | All Maps","protocol":17,"map":"koth_viaduct","folder":"tf","game":"Team Fortress","app_id":440,"player_count":15,"max_players":24,"Bots":0,"server_type":"Dedicated","server_os":"Linux","password":true,"vac":true,"version":"7742253","steam_id":85568392924470002,"keywords":["cp","nocrits","nodmgspread","uncletopia"],"game_id":440,"stv_port":27026,"stv_name":"Uncletopia | Sydney | 2 | All Maps | STV","players":[{"user_id":100,"name":"ElectGibbon","steam_id":76561198379243449,"connected_time":2795000000000,"state":"active","ping":59},{"user_id":114,"name":"monocrumb","steam_id":76561199126588682,"connected_time":1562000000000,"state":"active","ping":65},{"user_id":66,"name":"SoundlessPlum","steam_id":76561198077872547,"connected_time":5188000000000,"state":"active","ping":51},{"user_id":105,"name":"bread","steam_id":76561199405764106,"connected_time":2379000000000,"state":"active","ping":40},{"user_id":142,"name":"RATKING","steam_id":76561198183060018,"connected_time":482000000000,"state":"active","ping":63},{"user_id":129,"name":"Joshua Graham","steam_id":76561198136604959,"connected_time":1137000000000,"state":"active","ping":110},{"user_id":126,"name":"₱elica₦","steam_id":76561198123827973,"connected_time":1221000000000,"state":"active","ping":92},{"user_id":134,"name":"slow","steam_id":76561198163340833,"connected_time":806000000000,"state":"active","ping":70},{"user_id":144,"name":"Comedy Mode","steam_id":76561198293250088,"connected_time":318000000000,"state":"active","ping":101},{"user_id":116,"name":"pain train tf2","steam_id":76561198059284918,"connected_time":1532000000000,"state":"active","ping":45},{"user_id":117,"name":"Zakdos","steam_id":76561199206212104,"connected_time":1524000000000,"state":"active","ping":64},{"user_id":120,"name":"Poison_Kouki","steam_id":76561198150364859,"connected_time":1494000000000,"state":"active","ping":53},{"user_id":146,"name":"thrax","steam_id":76561197992385270,"connected_time":257000000000,"state":"active","ping":47},{"user_id":127,"name":"bird","steam_id":76561198258514103,"connected_time":1207000000000,"state":"active","ping":63},{"user_id":132,"name":"Lateralus","steam_id":76561198007865860,"connected_time":893000000000,"state":"active","ping":95}]},{"server_id":395,"name":"Uncletopia | Sydney | 3 | All Maps","name_short":"syd-3","host":"syd-1.au.uncletopia.com","port":27035,"enabled":true,"region":"au","cc":"au","latitude":-33.865143,"longitude":151.2099,"reserved":0,"last_update":"0001-01-01T00:00:00Z","name_a2s":"Uncletopia | Sydney | 3 | All Maps","protocol":17,"map":"pl_snowycoast","folder":"tf","game":"Team Fortress","app_id":440,"player_count":0,"max_players":24,"Bots":0,"server_type":"Dedicated","server_os":"Linux","password":true,"vac":true,"version":"7742253","steam_id":85568392925194467,"keywords":["nocrits","nodmgspread","payload","uncletopia"],"game_id":440,"stv_port":27036,"stv_name":"Uncletopia | Sydney | 3 | All Maps | STV","players":null},{"server_id":396,"name":"Uncletopia | Sydney | 4 | All Maps","name_short":"syd-4","host":"syd-1.au.uncletopia.com","port":27045,"enabled":true,"region":"au","cc":"au","latitude":-33.865143,"longitude":151.2099,"reserved":0,"last_update":"0001-01-01T00:00:00Z","name_a2s":"Uncletopia | Sydney | 4 | All Maps","protocol":17,"map":"pl_frontier_final","folder":"tf","game":"Team Fortress","app_id":440,"player_count":0,"max_players":24,"Bots":0,"server_type":"Dedicated","server_os":"Linux","password":true,"vac":true,"version":"7742253","steam_id":85568392925397958,"keywords":["nocrits","nodmgspread","payload","uncletopia"],"game_id":440,"stv_port":27046,"stv_name":"Uncletopia | Sydney | 4 | All Maps | STV","players":null},{"server_id":58,"name":"Uncletopia | Sydney | 5 | Stopwatch Beta","name_short":"syd-5","host":"syd-1.au.uncletopia.com","port":27055,"enabled":true,"region":"au","cc":"au","latitude":-33.865143,"longitude":151.2099,"reserved":0,"last_update":"0001-01-01T00:00:00Z","name_a2s":"Uncletopia | Sydney | 5 | Stopwatch Beta","protocol":17,"map":"cp_process_final","folder":"tf","game":"Team Fortress","app_id":440,"player_count":0,"max_players":24,"Bots":0,"server_type":"Dedicated","server_os":"Linux","password":true,"vac":true,"version":"7742253","steam_id":85568392925397959,"keywords":["cp","nocrits","nodmgspread","uncletopia"],"game_id":440,"stv_port":27056,"stv_name":"Uncletopia | Sydney | 5 | Stopwatch Beta | STV","players":null},{"server_id":59,"name":"Uncletopia | Sydney | 6 | Community","name_short":"syd-6","host":"syd-1.au.uncletopia.com","port":27065,"enabled":true,"region":"au","cc":"au","latitude":-33.865143,"longitude":151.2099,"reserved":0,"last_update":"0001-01-01T00:00:00Z","name_a2s":"Uncletopia | Sydney | 6 | Community","protocol":17,"map":"workshop/pl_barnblitz_pro7.ugc582280235","folder":"tf","game":"Team Fortress","app_id":440,"player_count":0,"max_players":24,"Bots":0,"server_type":"Dedicated","server_os":"Linux","password":true,"vac":true,"version":"7742253","steam_id":85568392925397960,"keywords":["nocrits","nodmgspread","payload","uncletopia"],"game_id":440,"stv_port":27066,"stv_name":"Uncletopia | Sydney | 6 | Community | STV","players":null},{"server_id":49,"name":"Uncletopia | Warsaw | 1 | All Maps","name_short":"waw-1","host":"waw-1.pl.uncletopia.com","port":27015,"enabled":true,"region":"eu","cc":"pl","latitude":52.2297,"longitude":21.017532,"reserved":0,"last_update":"0001-01-01T00:00:00Z","name_a2s":"","protocol":0,"map":"","folder":"","game":"","app_id":0,"player_count":0,"max_players":0,"Bots":0,"server_type":"","server_os":"","password":false,"vac":false,"version":"","steam_id":0,"keywords":null,"game_id":0,"stv_port":0,"stv_name":"","players":null},{"server_id":50,"name":"Uncletopia | Warsaw | 2 | All Maps","name_short":"waw-2","host":"waw-1.pl.uncletopia.com","port":27025,"enabled":true,"region":"eu","cc":"pl","latitude":52.2297,"longitude":21.017532,"reserved":0,"last_update":"0001-01-01T00:00:00Z","name_a2s":"Uncletopia | Warsaw | 2 | All Maps","protocol":17,"map":"pl_upward","folder":"tf","game":"Team Fortress","app_id":440,"player_count":0,"max_players":24,"Bots":0,"server_type":"Dedicated","server_os":"Linux","password":true,"vac":true,"version":"7742253","steam_id":85568392925397851,"keywords":["nocrits","nodmgspread","payload","uncletopia"],"game_id":440,"stv_port":27026,"stv_name":"Uncletopia | Warsaw | 2 | All Maps | STV","players":null},{"server_id":51,"name":"Uncletopia | Warsaw | 3 | All Maps","name_short":"waw-3","host":"waw-1.pl.uncletopia.com","port":27035,"enabled":true,"region":"eu","cc":"pl","latitude":52.2297,"longitude":21.017532,"reserved":0,"last_update":"0001-01-01T00:00:00Z","name_a2s":"Uncletopia | Warsaw | 3 | All Maps","protocol":17,"map":"koth_lakeside_final","folder":"tf","game":"Team Fortress","app_id":440,"player_count":0,"max_players":24,"Bots":0,"server_type":"Dedicated","server_os":"Linux","password":true,"vac":true,"version":"7742253","steam_id":85568392925397852,"keywords":["cp","nocrits","nodmgspread","uncletopia"],"game_id":440,"stv_port":27036,"stv_name":"Uncletopia | Warsaw | 3 | All Maps | STV","players":null},{"server_id":52,"name":"Uncletopia | Warsaw | 4 | All Maps","name_short":"waw-4","host":"waw-1.pl.uncletopia.com","port":27045,"enabled":true,"region":"eu","cc":"pl","latitude":52.2297,"longitude":21.017532,"reserved":0,"last_update":"0001-01-01T00:00:00Z","name_a2s":"Uncletopia | Warsaw | 4 | All Maps","protocol":17,"map":"pl_upward","folder":"tf","game":"Team Fortress","app_id":440,"player_count":0,"max_players":24,"Bots":0,"server_type":"Dedicated","server_os":"Linux","password":true,"vac":true,"version":"7742253","steam_id":85568392925397853,"keywords":["nocrits","nodmgspread","payload","uncletopia"],"game_id":440,"stv_port":27046,"stv_name":"Uncletopia | Warsaw | 4 | All Maps | STV","players":null},{"server_id":53,"name":"Uncletopia | Warsaw | 5 | Stopwatch Beta","name_short":"waw-5","host":"waw-1.pl.uncletopia.com","port":27055,"enabled":true,"region":"eu","cc":"pl","latitude":52.2297,"longitude":21.017532,"reserved":0,"last_update":"0001-01-01T00:00:00Z","name_a2s":"Uncletopia | Warsaw | 5 | Stopwatch Beta","protocol":17,"map":"pl_swiftwater_final1","folder":"tf","game":"Team Fortress","app_id":440,"player_count":0,"max_players":24,"Bots":0,"server_type":"Dedicated","server_os":"Linux","password":true,"vac":true,"version":"7742253","steam_id":85568392925397854,"keywords":["nocrits","nodmgspread","payload","uncletopia"],"game_id":440,"stv_port":27056,"stv_name":"Uncletopia | Warsaw | 5 | Stopwatch Beta | STV","players":null},{"server_id":54,"name":"Uncletopia | Warsaw | 6 | Community","name_short":"waw-6","host":"waw-1.pl.uncletopia.com","port":27065,"enabled":true,"region":"eu","cc":"pl","latitude":52.2297,"longitude":21.017532,"reserved":0,"last_update":"0001-01-01T00:00:00Z","name_a2s":"Uncletopia | Warsaw | 6 | Community","protocol":17,"map":"koth_highpass","folder":"tf","game":"Team Fortress","app_id":440,"player_count":0,"max_players":24,"Bots":0,"server_type":"Dedicated","server_os":"Linux","password":true,"vac":true,"version":"7742253","steam_id":85568392925397856,"keywords":["cp","nocrits","nodmgspread","uncletopia"],"game_id":440,"stv_port":27066,"stv_name":"Uncletopia | Warsaw | 6 | Community | STV","players":null}]}