{"status":true,"message":"","result":[{"server_id":9,"name":"Uncletopia | Atlanta | 1 | All Maps","name_short":"atl-1","host":"atl-1.us.uncletopia.com","port":27015,"enabled":true,"region":"us-east","cc":"us","latitude":33.753746,"longitude":-84.38633,"reserved":0,"last_update":"0001-01-01T00:00:00Z","name_a2s":"Uncletopia | Atlanta | 1 | All Maps","protocol":17,"map":"cp_mountainlab","folder":"tf","game":"Team Fortress","app_id":440,"player_count":24,"max_players":24,"Bots":0,"server_type":"Dedicated","server_os":"Linux","password":true,"vac":true,"version":"7961495","steam_id":85568392924469982,"keywords":["cp","nocrits","nodmgspread","uncletopia"],"game_id":440,"stv_port":27016,"stv_name":"Uncletopia | Atlanta | 1 | All Maps | STV","players":null},{"server_id":104,"name":"Uncletopia | Atlanta | 2 | All Maps","name_short":"atl-2","host":"atl-1.us.uncletopia.com","port":27025,"enabled":true,"region":"us-east","cc":"us","latitude":33.753746,"longitude":-84.38633,"reserved":0,"last_update":"0001-01-01T00:00:00Z","name_a2s":"Uncletopia | Atlanta | 2 | All Maps","protocol":17,"map":"koth_cascade","folder":"tf","game":"Team Fortress","app_id":440,"player_count":0,"max_players":24,"Bots":0,"server_type":"Dedicated","server_os":"Linux","password":true,"vac":true,"version":"7961495","steam_id":85568392924469983,"keywords":["cp","nocrits","nodmgspread","uncletopia"],"game_id":440,"stv_port":27026,"stv_name":"Uncletopia | Atlanta | 2 | All Maps | STV","players":null},{"server_id":400,"name":"Uncletopia | Atlanta | 3 | Stopwatch","name_short":"atl-3","host":"atl-1.us.uncletopia.com","port":27035,"enabled":true,"region":"us-east","cc":"us","latitude":33.753746,"longitude":-84.38633,"reserved":0,"last_update":"0001-01-01T00:00:00Z","name_a2s":"Uncletopia | Atlanta | 3 | Stopwatch","protocol":17,"map":"cp_snakewater_final1","folder":"tf","game":"Team Fortress","app_id":440,"player_count":0,"max_players":24,"Bots":0,"server_type":"Dedicated","server_os":"Linux","password":true,"vac":true,"version":"7961495","steam_id":85568392924515187,"keywords":["cp","nocrits","nodmgspread","uncletopia"],"game_id":440,"stv_port":27036,"stv_name":"Uncletopia | Atlanta | 3 | Stopwatch | STV","players":null},{"server_id":401,"name":"Uncletopia | Atlanta | 4 | Community","name_short":"atl-4","host":"atl-1.us.uncletopia.com","port":27045,"enabled":true,"region":"us-east","cc":"us","latitude":33.753746,"longitude":-84.38633,"reserved":0,"last_update":"0001-01-01T00:00:00Z","name_a2s":"Uncletopia | Atlanta | 4 | Community","protocol":17,"map":"koth_trenchfoot_b1a","folder":"tf","game":"Team Fortress","app_id":440,"player_count":0,"max_players":24,"Bots":0,"server_type":"Dedicated","server_os":"Linux","password":true,"vac":true,"version":"7961495","steam_id":85568392924515188,"keywords":["cp","nocrits","nodmgspread","uncletopia"],"game_id":440,"stv_port":27046,"stv_name":"Uncletopia | Atlanta | 4 | Community | STV","players":null},{"server_id":2,"name":"Uncletopia | Chicago | 1 | All Maps","name_short":"chi-1","host":"chi-1.us.uncletopia.com","port":27015,"enabled":true,"region":"us-central","cc":"us","latitude":41.881832,"longitude":-87.62318,"reserved":0,"last_update":"0001-01-01T00:00:00Z","name_a2s":"Uncletopia | Chicago | 1 | All Maps","protocol":17,"map":"koth_highpass","folder":"tf","game":"Team Fortress","app_id":440,"player_count":0,"max_players":24,"Bots":0,"server_type":"Dedicated","server_os":"Linux","password":true,"vac":true,"version":"7961495","steam_id":85568392924469984,"keywords":["cp","nocrits","nodmgspread","uncletopia"],"game_id":440,"stv_port":27016,"stv_name":"Uncletopia | Chicago | 1 | All Maps | STV","players":null},{"server_id":106,"name":"Uncletopia | Chicago | 2 | All Maps","name_short":"chi-2","host":"chi-1.us.uncletopia.com","port":27025,"enabled":true,"region":"us-central","cc":"us","latitude":41.881832,"longitude":-87.62318,"reserved":0,"last_update":"0001-01-01T00:00:00Z","name_a2s":"Uncletopia | Chicago | 2 | All Maps","protocol":17,"map":"cp_sunshine","folder":"tf","game":"Team Fortress","app_id":440,"player_count":24,"max_players":24,"Bots":0,"server_type":"Dedicated","server_os":"Linux","password":true,"vac":true,"version":"7961495","steam_id":85568392924469985,"keywords":["cp","nocrits","nodmgspread","uncletopia"],"game_id":440,"stv_port":27026,"stv_name":"Uncletopia | Chicago | 2 | All Maps | STV","players":[{"user_id":32,"name":"Radic is having a bad time","steam_id":76561197995412573,"connected_time":1260000000000,"state":"active","ping":114},{"user_id":9,"name":"Plasmie{ylo}","steam_id":76561198083513154,"connected_time":2347000000000,"state":"active","ping":71},{"user_id":46,"name":"Mr.Pwesident","steam_id":76561198058114703,"connected_time":583000000000,"state":"active","ping":88},{"user_id":36,"name":"Malakin","steam_id":76561197970336465,"connected_time":1233000000000,"state":"active","ping":140},{"user_id":14,"name":"CTRLZ0Y","steam_id":76561198183346187,"connected_time":1995000000000,"state":"active","ping":63},{"user_id":15,"name":"chev chelios","steam_id":76561198117914922,"connected_time":1989000000000,"state":"active","ping":83},{"user_id":16,"name":"samlonfish","steam_id":76561198166251359,"connected_time":1959000000000,"state":"active","ping":85},{"user_id":47,"name":"InfantrySonic","steam_id":76561198251004990,"connected_time":551000000000,"state":"active","ping":50},{"user_id":18,"name":"\"that\" guy","steam_id":76561198079434304,"connected_time":1887000000000,"state":"active","ping":89},{"user_id":19,"name":"Soupy Meal","steam_id":76561199056842761,"connected_time":1822000000000,"state":"active","ping":101},{"user_id":52,"name":"boof","steam_id":76561198218238705,"connected_time":122000000000,"state":"active","ping":102},{"user_id":51,"name":"Meiji","steam_id":76561198971753591,"connected_time":349000000000,"state":"active","ping":73},{"user_id":48,"name":"The Great Eagle Scourge of 1822","steam_id":76561198325086209,"connected_time":550000000000,"state":"active","ping":118},{"user_id":23,"name":"brando_not_lando","steam_id":76561198163197384,"connected_time":1636000000000,"state":"active","ping":100},{"user_id":44,"name":"msay","steam_id":76561198170888029,"connected_time":855000000000,"state":"active","ping":96},{"user_id":25,"name":"Average Anarchist","steam_id":76561199175442910,"connected_time":1593000000000,"state":"active","ping":75},{"user_id":29,"name":"warren","steam_id":76561198136331136,"connected_time":1345000000000,"state":"active","ping":79},{"user_id":27,"name":"Sous-Chef","steam_id":76561198075705827,"connected_time":1466000000000,"state":"active","ping":73},{"user_id":49,"name":"Griffin","steam_id":76561198159339442,"connected_time":544000000000,"state":"active","ping":71},{"user_id":31,"name":"chrbir5","steam_id":76561198134562939,"connected_time":1314000000000,"state":"active","ping":48},{"user_id":43,"name":"４０ ＦＰＳ","steam_id":76561198272394965,"connected_time":1005000000000,"state":"active","ping":136},{"user_id":40,"name":"swooce","steam_id":76561198156232484,"connected_time":1053000000000,"state":"active","ping":82},{"user_id":42,"name":"DaNuke","steam_id":76561198067866914,"connected_time":1014000000000,"state":"active","ping":76},{"user_id":50,"name":"K2f","steam_id":76561198049600563,"connected_time":540000000000,"state":"active","ping":106}]},{"server_id":402,"name":"Uncletopia | Chicago | 3 | All Maps","name_short":"chi-3","host":"chi-1.us.uncletopia.com","port":27035,"enabled":true,"region":"us-central","cc":"us","latitude":41.881832,"longitude":-87.62318,"reserved":0,"last_update":"0001-01-01T00:00:00Z","name_a2s":"Uncletopia | Chicago | 3 | All Maps","protocol":17,"map":"pl_barnblitz","folder":"tf","game":"Team Fortress","app_id":440,"player_count":24,"max_players":24,"Bots":0,"server_type":"Dedicated","server_os":"Linux","password":true,"vac":true,"version":"7961495","steam_id":85568392924515191,"keywords":["nocrits","nodmgspread","payload","uncletopia"],"game_id":440,"stv_port":27036,"stv_name":"Uncletopia | Chicago | 3 | All Maps | STV","players":[{"user_id":359,"name":"Jamie","steam_id":76561198058840477,"connected_time":686000000000,"state":"active","ping":99},{"user_id":328,"name":"☂Bliffenstimmers☂","steam_id":76561198059984896,"connected_time":1570000000000,"state":"active","ping":77},{"user_id":364,"name":"Juan Pablo Gonzalez 2023","steam_id":76561199197961413,"connected_time":280000000000,"state":"active","ping":57},{"user_id":330,"name":"Todo Se Va","steam_id":76561198025668771,"connected_time":1570000000000,"state":"active","ping":105},{"user_id":331,"name":"Rat Smoker","steam_id":76561198090419068,"connected_time":1570000000000,"state":"active","ping":120},{"user_id":332,"name":"Ockulus","steam_id":76561199069638460,"connected_time":1570000000000,"state":"active","ping":98},{"user_id":333,"name":"gulch","steam_id":76561199227946025,"connected_time":1570000000000,"state":"active","ping":70},{"user_id":360,"name":"tasty","steam_id":76561198083839061,"connected_time":660000000000,"state":"active","ping":46},{"user_id":326,"name":"Astrozombeez","steam_id":76561198113754079,"connected_time":1571000000000,"state":"active","ping":99},{"user_id":355,"name":"Thunder","steam_id":76561199434110716,"connected_time":1149000000000,"state":"active","ping":51},{"user_id":336,"name":"Alabaster Eggshell","steam_id":76561198035609389,"connected_time":1569000000000,"state":"active","ping":54},{"user_id":337,"name":"THE FLUMPSTER","steam_id":76561198060911025,"connected_time":1569000000000,"state":"active","ping":45},{"user_id":361,"name":"Doctor_Redstone","steam_id":76561198061947161,"connected_time":649000000000,"state":"active","ping":62},{"user_id":339,"name":"I AM A DINOSAUR","steam_id":76561198039814201,"connected_time":1569000000000,"state":"active","ping":113},{"user_id":340,"name":"i want to die","steam_id":76561198178681366,"connected_time":1569000000000,"state":"active","ping":48},{"user_id":341,"name":"camp3r","steam_id":76561197992870439,"connected_time":1569000000000,"state":"active","ping":79},{"user_id":362,"name":"Wan Shi Tong","steam_id":76561198076441225,"connected_time":614000000000,"state":"active","ping":60},{"user_id":343,"name":"Spiral Mountain","steam_id":76561198058683715,"connected_time":1569000000000,"state":"active","ping":75},{"user_id":358,"name":"Chiang Kai Shrek","steam_id":76561198239302760,"connected_time":731000000000,"state":"active","ping":60},{"user_id":345,"name":"Mister Frank","steam_id":76561198161473385,"connected_time":1567000000000,"state":"active","ping":69},{"user_id":363,"name":"MantisToboggan","steam_id":76561197969447887,"connected_time":609000000000,"state":"active","ping":141},{"user_id":351,"name":"joshuapfroio","steam_id":76561199468366156,"connected_time":1410000000000,"state":"active","ping":87},{"user_id":354,"name":"Fishsick lord","steam_id":76561198887904255,"connected_time":1173000000000,"state":"active","ping":96},{"user_id":352,"name":"ray","steam_id":76561198018181064,"connected_time":1361000000000,"state":"active","ping":75}]},{"server_id":403,"name":"Uncletopia | Chicago | 4 | All Maps","name_short":"chi-4","host":"chi-1.us.uncletopia.com","port":27045,"enabled":true,"region":"us-central","cc":"us","latitude":41.881832,"longitude":-87.62318,"reserved":0,"last_update":"0001-01-01T00:00:00Z","name_a2s":"Uncletopia | Chicago | 4 | All Maps","protocol":17,"map":"pl_badwater","folder":"tf","game":"Team Fortress","app_id":440,"player_count":24,"max_players":24,"Bots":0,"server_type":"Dedicated","server_os":"Linux","password":true,"vac":true,"version":"7961495","steam_id":85568392924515193,"keywords":["nocrits","nodmgspread","payload","uncletopia"],"game_id":440,"stv_port":27046,"stv_name":"Uncletopia | Chicago | 4 | All Maps | STV","players":[{"user_id":88,"name":"PaulPer_TF2","steam_id":76561198060217979,"connected_time":1073000000000,"state":"active","ping":85},{"user_id":9,"name":"freyja","steam_id":76561198249206656,"connected_time":5651000000000,"state":"active","ping":60},{"user_id":10,"name":"mio","steam_id":76561198239286750,"connected_time":5644000000000,"state":"active","ping":62},{"user_id":95,"name":"Ikea Display Toilet Pisser","steam_id":76561198339136045,"connected_time":872000000000,"state":"active","ping":89},{"user_id":75,"name":"0100101101100001011100100110110","steam_id":76561198034028769,"connected_time":1972000000000,"state":"active","ping":59},{"user_id":14,"name":"1-800 GAY DOG","steam_id":76561198085815757,"connected_time":5339000000000,"state":"active","ping":74},{"user_id":87,"name":"SavageJacky","steam_id":76561198056465430,"connected_time":1092000000000,"state":"active","ping":75},{"user_id":96,"name":"Critscare","steam_id":76561198087712508,"connected_time":760000000000,"state":"active","ping":45},{"user_id":81,"name":"_Lusty_","steam_id":76561198876948142,"connected_time":1714000000000,"state":"active","ping":62},{"user_id":78,"name":"Cypher","steam_id":76561197996967254,"connected_time":1763000000000,"state":"active","ping":140},{"user_id":32,"name":"Rornir","steam_id":76561198081829615,"connected_time":4637000000000,"state":"active","ping":44},{"user_id":71,"name":"The Rock","steam_id":76561198433328517,"connected_time":2477000000000,"state":"active","ping":81},{"user_id":100,"name":"Architect","steam_id":76561198015242016,"connected_time":152000000000,"state":"active","ping":41},{"user_id":99,"name":"dipp","steam_id":76561198395577807,"connected_time":363000000000,"state":"active","ping":60},{"user_id":60,"name":"1-800-GHOST-DANCE","steam_id":76561198835430429,"connected_time":3110000000000,"state":"active","ping":89},{"user_id":82,"name":"Nova","steam_id":76561198045462312,"connected_time":1610000000000,"state":"active","ping":92},{"user_id":79,"name":"The Helpful Mute","steam_id":76561198078359985,"connected_time":1738000000000,"state":"active","ping":60},{"user_id":84,"name":"WaveSmash","steam_id":76561198208785485,"connected_time":1426000000000,"state":"active","ping":92},{"user_id":90,"name":"mechiimi","steam_id":76561198321627268,"connected_time":1031000000000,"state":"active","ping":120},{"user_id":76,"name":"Guy-76","steam_id":76561198331108559,"connected_time":1918000000000,"state":"active","ping":84},{"user_id":98,"name":"「Mage」","steam_id":76561198150620467,"connected_time":704000000000,"state":"active","ping":57},{"user_id":53,"name":"Melaza Madera","steam_id":76561199031977210,"connected_time":4045000000000,"state":"active","ping":75},{"user_id":41,"name":"canid is so lame","steam_id":76561198103496593,"connected_time":4441000000000,"state":"active","ping":60},{"user_id":94,"name":"Ceiling Man","steam_id":76561198003959902,"connected_time":902000000000,"state":"active","ping":60}]},{"server_id":36,"name":"Uncletopia | Chicago | 5 | All Maps","name_short":"chi-5","host":"chi-2.us.uncletopia.com","port":27015,"enabled":true,"region":"us-central","cc":"us","latitude":41.881832,"longitude":-87.62318,"reserved":0,"last_update":"0001-01-01T00:00:00Z","name_a2s":"Uncletopia | Chicago | 5 | All Maps","protocol":17,"map":"koth_highpass","folder":"tf","game":"Team Fortress","app_id":440,"player_count":0,"max_players":24,"Bots":0,"server_type":"Dedicated","server_os":"Linux","password":true,"vac":true,"version":"7961495","steam_id":85568392924866362,"keywords":["cp","nocrits","nodmgspread","uncletopia"],"game_id":440,"stv_port":27016,"stv_name":"Uncletopia | Chicago | 5 | All Maps | STV","players":null},{"server_id":37,"name":"Uncletopia | Chicago | 6 | All Maps","name_short":"chi-6","host":"chi-2.us.uncletopia.com","port":27025,"enabled":true,"region":"us-central","cc":"us","latitude":41.881832,"longitude":-87.62318,"reserved":0,"last_update":"0001-01-01T00:00:00Z","name_a2s":"Uncletopia | Chicago | 6 | All Maps","protocol":17,"map":"pl_frontier_final","folder":"tf","game":"Team Fortress","app_id":440,"player_count":0,"max_players":24,"Bots":0,"server_type":"Dedicated","server_os":"Linux","password":true,"vac":true,"version":"7961495","steam_id":85568392924866363,"keywords":["nocrits","nodmgspread","payload","uncletopia"],"game_id":440,"stv_port":27026,"stv_name":"Uncletopia | Chicago | 6 | All Maps | STV","players":null},{"server_id":38,"name":"Uncletopia | Chicago | 7 | Stopwatch","name_short":"chi-7","host":"chi-2.us.uncletopia.com","port":27035,"enabled":true,"region":"us-central","cc":"us","latitude":41.881832,"longitude":-87.62318,"reserved":0,"last_update":"0001-01-01T00:00:00Z","name_a2s":"Uncletopia | Chicago | 7 | Stopwatch","protocol":17,"map":"pl_badwater","folder":"tf","game":"Team Fortress","app_id":440,"player_count":0,"max_players":24,"Bots":0,"server_type":"Dedicated","server_os":"Linux","password":true,"vac":true,"version":"7961495","steam_id":85568392924866364,"keywords":["nocrits","nodmgspread","payload","uncletopia"],"game_id":440,"stv_port":27036,"stv_name":"Uncletopia | Chicago | 7 | Stopwatch | STV","players":null},{"server_id":39,"name":"Uncletopia | Chicago | 8 | Community","name_short":"chi-8","host":"chi-2.us.uncletopia.com","port":27045,"enabled":true,"region":"us-central","cc":"us","latitude":41.881832,"longitude":-87.62318,"reserved":0,"last_update":"0001-01-01T00:00:00Z","name_a2s":"Uncletopia | Chicago | 8 | Community","protocol":17,"map":"pl_pier","folder":"tf","game":"Team Fortress","app_id":440,"player_count":0,"max_players":24,"Bots":0,"server_type":"Dedicated","server_os":"Linux","password":true,"vac":true,"version":"7961495","steam_id":85568392924866365,"keywords":["nocrits","nodmgspread","payload","uncletopia"],"game_id":440,"stv_port":27046,"stv_name":"Uncletopia | Chicago | 8 | Community | STV","players":null},{"server_id":8,"name":"Uncletopia | Dallas | 1 | All Maps","name_short":"dal-1","host":"dal-1.us.uncletopia.com","port":27015,"enabled":true,"region":"us-central","cc":"us","latitude":32.779167,"longitude":-96.80889,"reserved":0,"last_update":"0001-01-01T00:00:00Z","name_a2s":"Uncletopia | Dallas | 1 | All Maps","protocol":17,"map":"cp_mercenarypark","folder":"tf","game":"Team Fortress","app_id":440,"player_count":24,"max_players":24,"Bots":0,"server_type":"Dedicated","server_os":"Linux","password":true,"vac":true,"version":"7961495","steam_id":85568392924469986,"keywords":["cp","nocrits","nodmgspread","uncletopia"],"game_id":440,"stv_port":27016,"stv_name":"Uncletopia | Dallas | 1 | All Maps | STV","players":[{"user_id":132,"name":"atmBomb","steam_id":76561198055557988,"connected_time":190000000000,"state":"active","ping":40},{"user_id":98,"name":"Omega.J2","steam_id":76561198065028876,"connected_time":2663000000000,"state":"active","ping":102},{"user_id":131,"name":"Protato","steam_id":76561198061182563,"connected_time":221000000000,"state":"active","ping":92},{"user_id":87,"name":"pea ttv/peabeanz","steam_id":76561198119551968,"connected_time":3257000000000,"state":"active","ping":95},{"user_id":108,"name":"Major Woody","steam_id":76561198835541533,"connected_time":1931000000000,"state":"active","ping":71},{"user_id":104,"name":"Sage","steam_id":76561198143101697,"connected_time":2459000000000,"state":"active","ping":113},{"user_id":128,"name":"dobby","steam_id":76561198012274834,"connected_time":243000000000,"state":"active","ping":63},{"user_id":91,"name":"Hamz","steam_id":76561199287459211,"connected_time":3078000000000,"state":"active","ping":101},{"user_id":96,"name":"Pug_9492","steam_id":76561199078217640,"connected_time":2854000000000,"state":"active","ping":110},{"user_id":135,"name":"epic gkamer 101","steam_id":76561198134636189,"connected_time":68000000000,"state":"active","ping":90},{"user_id":93,"name":"Sergio_1Bit","steam_id":76561198798596945,"connected_time":3014000000000,"state":"active","ping":91},{"user_id":134,"name":"SoftAvocado","steam_id":76561198278375987,"connected_time":182000000000,"state":"active","ping":64},{"user_id":119,"name":"LegendaryMister151","steam_id":76561198064890524,"connected_time":1018000000000,"state":"active","ping":85},{"user_id":105,"name":"Laogh Marbh","steam_id":76561198115240256,"connected_time":2314000000000,"state":"active","ping":85},{"user_id":117,"name":"The 80s","steam_id":76561198997807831,"connected_time":1069000000000,"state":"active","ping":85},{"user_id":100,"name":"Koffy","steam_id":76561198184386039,"connected_time":2598000000000,"state":"active","ping":69},{"user_id":136,"name":"small meth pouch","steam_id":76561198130412963,"connected_time":42000000000,"state":"active","ping":67},{"user_id":30,"name":"james may","steam_id":76561198043857339,"connected_time":7092000000000,"state":"active","ping":83},{"user_id":121,"name":"Hey it's me the real Uncle Dane","steam_id":76561199061269470,"connected_time":936000000000,"state":"active","ping":74},{"user_id":124,"name":"Room_237","steam_id":76561199135081315,"connected_time":530000000000,"state":"active","ping":102},{"user_id":120,"name":"mkl","steam_id":76561197986401685,"connected_time":988000000000,"state":"active","ping":59},{"user_id":102,"name":"ThePirateKenway","steam_id":76561198115156181,"connected_time":2528000000000,"state":"active","ping":51},{"user_id":127,"name":"wiiblob","steam_id":76561198109106242,"connected_time":274000000000,"state":"active","ping":151},{"user_id":130,"name":"LeRoy42","steam_id":76561198035591428,"connected_time":233000000000,"state":"active","ping":99}]},{"server_id":108,"name":"Uncletopia | Dallas | 2 | All Maps","name_short":"dal-2","host":"dal-1.us.uncletopia.com","port":27025,"enabled":true,"region":"us-central","cc":"us","latitude":32.779167,"longitude":-96.80889,"reserved":0,"last_update":"0001-01-01T00:00:00Z","name_a2s":"Uncletopia | Dallas | 2 | All Maps","protocol":17,"map":"ctf_turbine","folder":"tf","game":"Team Fortress","app_id":440,"player_count":24,"max_players":24,"Bots":0,"server_type":"Dedicated","server_os":"Linux","password":true,"vac":true,"version":"7961495","steam_id":85568392924469988,"keywords":["ctf","nocrits","nodmgspread","uncletopia"],"game_id":440,"stv_port":27026,"stv_name":"Uncletopia | Dallas | 2 | All Maps | STV","players":[{"user_id":317,"name":"Cereal","steam_id":76561198128418112,"connected_time":4290000000000,"state":"active","ping":85},{"user_id":325,"name":"Jaminhawk","steam_id":76561198308512984,"connected_time":3009000000000,"state":"active","ping":93},{"user_id":344,"name":"FrostNova","steam_id":76561198348354629,"connected_time":1697000000000,"state":"active","ping":76},{"user_id":355,"name":"WesyUWU (The mini crit pig)","steam_id":76561198069188177,"connected_time":342000000000,"state":"active","ping":75},{"user_id":345,"name":"webaline :3","steam_id":76561199052450127,"connected_time":1676000000000,"state":"active","ping":76},{"user_id":327,"name":"walterhwhite","steam_id":76561199433675789,"connected_time":2930000000000,"state":"active","ping":89},{"user_id":356,"name":"LEAN \u003c3","steam_id":76561198185286203,"connected_time":340000000000,"state":"active","ping":70},{"user_id":313,"name":"Taco+Taco=Burrito","steam_id":76561198063128663,"connected_time":4503000000000,"state":"active","ping":77},{"user_id":353,"name":"Kung fu Mungus","steam_id":76561198069281556,"connected_time":364000000000,"state":"active","ping":75},{"user_id":354,"name":"SpamTheAlien","steam_id":76561199122290968,"connected_time":361000000000,"state":"active","ping":111},{"user_id":343,"name":"Rob","steam_id":76561199187786660,"connected_time":1804000000000,"state":"active","ping":55},{"user_id":306,"name":"MrManlet","steam_id":76561198148597989,"connected_time":4655000000000,"state":"active","ping":121},{"user_id":342,"name":"Abysa.","steam_id":76561198424398862,"connected_time":1923000000000,"state":"active","ping":160},{"user_id":357,"name":"celestia ludenberg","steam_id":76561199196437823,"connected_time":327000000000,"state":"active","ping":94},{"user_id":363,"name":"The Wind Fucker Lives","steam_id":76561198275362375,"connected_time":78000000000,"state":"active","ping":91},{"user_id":362,"name":"De MonkE","steam_id":76561198140626221,"connected_time":113000000000,"state":"active","ping":30},{"user_id":364,"name":"TheSheepOfPwnage","steam_id":76561198027893157,"connected_time":30000000000,"state":"active","ping":96},{"user_id":337,"name":"HUMBY","steam_id":76561198065045867,"connected_time":2273000000000,"state":"active","ping":74},{"user_id":360,"name":"Sh3ba Spaniel","steam_id":76561198047412394,"connected_time":292000000000,"state":"active","ping":94},{"user_id":236,"name":"menonamed","steam_id":76561198199564382,"connected_time":10062000000000,"state":"active","ping":84},{"user_id":262,"name":"misterspud","steam_id":76561198195306218,"connected_time":8802000000000,"state":"active","ping":75},{"user_id":323,"name":"Beantama","steam_id":76561198986811476,"connected_time":3543000000000,"state":"active","ping":66},{"user_id":361,"name":"Chubbles","steam_id":76561198237619472,"connected_time":292000000000,"state":"active","ping":90},{"user_id":339,"name":"Mara :)","steam_id":76561198799375088,"connected_time":2188000000000,"state":"active","ping":70}]},{"server_id":404,"name":"Uncletopia | Dallas | 3 | All Maps","name_short":"dal-3","host":"dal-1.us.uncletopia.com","port":27035,"enabled":true,"region":"us-central","cc":"us","latitude":32.779167,"longitude":-96.80889,"reserved":0,"last_update":"0001-01-01T00:00:00Z","name_a2s":"Uncletopia | Dallas | 3 | All Maps","protocol":17,"map":"pl_badwater","folder":"tf","game":"Team Fortress","app_id":440,"player_count":0,"max_players":24,"Bots":0,"server_type":"Dedicated","server_os":"Linux","password":true,"vac":true,"version":"7961495","steam_id":85568392924515219,"keywords":["nocrits","nodmgspread","payload","uncletopia"],"game_id":440,"stv_port":27036,"stv_name":"Uncletopia | Dallas | 3 | All Maps | STV","players":null},{"server_id":405,"name":"Uncletopia | Dallas | 4 | Community","name_short":"dal-4","host":"dal-1.us.uncletopia.com","port":27045,"enabled":true,"region":"us-central","cc":"us","latitude":32.779167,"longitude":-96.80889,"reserved":0,"last_update":"0001-01-01T00:00:00Z","name_a2s":"Uncletopia | Dallas | 4 | Community","protocol":17,"map":"workshop/cp_snowbase_b18.ugc2081770490","folder":"tf","game":"Team Fortress","app_id":440,"player_count":6,"max_players":24,"Bots":0,"server_type":"Dedicated","server_os":"Linux","password":true,"vac":true,"version":"7961495","steam_id":85568392924515220,"keywords":["cp","nocrits","nodmgspread","uncletopia"],"game_id":440,"stv_port":27046,"stv_name":"Uncletopia | Dallas | 4 | Community | STV","players":[{"user_id":4,"name":"Niko","steam_id":76561198185806553,"connected_time":1878000000000,"state":"active","ping":49},{"user_id":12,"name":"your little goofy homie","steam_id":76561198967158026,"connected_time":198000000000,"state":"active","ping":59},{"user_id":13,"name":"bcizzo","steam_id":76561197994399953,"connected_time":146000000000,"state":"active","ping":84},{"user_id":8,"name":"dankmemer9999","steam_id":76561199088438884,"connected_time":1718000000000,"state":"active","ping":78},{"user_id":9,"name":"TheSmolPopato","steam_id":76561199076606348,"connected_time":1583000000000,"state":"active","ping":80},{"user_id":14,"name":"patrickcox08","steam_id":76561198356097856,"connected_time":72000000000,"state":"spawning","ping":192}]},{"server_id":5,"name":"Uncletopia | Frankfurt | 1 | All Maps","name_short":"frk-1","host":"frk-1.de.uncletopia.com","port":27015,"enabled":true,"region":"eu","cc":"de","latitude":50.110924,"longitude":8.682127,"reserved":0,"last_update":"0001-01-01T00:00:00Z","name_a2s":"Uncletopia | Frankfurt | 1 | All Maps","protocol":17,"map":"cp_yukon_final","folder":"tf","game":"Team Fortress","app_id":440,"player_count":24,"max_players":24,"Bots":0,"server_type":"Dedicated","server_os":"Linux","password":true,"vac":true,"version":"7961495","steam_id":85568392924469989,"keywords":["cp","nocrits","nodmgspread","uncletopia"],"game_id":440,"stv_port":27016,"stv_name":"Uncletopia | Frankfurt | 1 | All Maps | STV","players":[{"user_id":359,"name":"Egor Pomidor","steam_id":76561199175688390,"connected_time":1065000000000,"state":"active","ping":75},{"user_id":251,"name":"Me when fort no funny","steam_id":76561198082502910,"connected_time":6150000000000,"state":"active","ping":47},{"user_id":355,"name":"how deep is your mom","steam_id":76561198037237664,"connected_time":1103000000000,"state":"active","ping":60},{"user_id":376,"name":"Vince","steam_id":76561199103000131,"connected_time":386000000000,"state":"active","ping":75},{"user_id":371,"name":"petr.kadera","steam_id":76561198310852145,"connected_time":871000000000,"state":"active","ping":70},{"user_id":361,"name":"DiracDeltaFunction","steam_id":76561199201624841,"connected_time":1044000000000,"state":"active","ping":103},{"user_id":257,"name":"[SSRB] Kiri","steam_id":76561198193983787,"connected_time":6039000000000,"state":"active","ping":135},{"user_id":356,"name":"Goblin (Real)","steam_id":76561199160926985,"connected_time":1102000000000,"state":"active","ping":137},{"user_id":357,"name":"Tsumayōji","steam_id":76561198158709847,"connected_time":1093000000000,"state":"active","ping":70},{"user_id":350,"name":"jello_hey","steam_id":76561199176327650,"connected_time":1243000000000,"state":"active","ping":136},{"user_id":309,"name":"update TF2","steam_id":76561198219107775,"connected_time":3455000000000,"state":"active","ping":68},{"user_id":369,"name":"DestyDE","steam_id":76561199024827790,"connected_time":940000000000,"state":"active","ping":77},{"user_id":325,"name":"God´s Cock","steam_id":76561198058947923,"connected_time":2506000000000,"state":"active","ping":48},{"user_id":373,"name":"twitch.tv/cockroachjones","steam_id":76561199070677866,"connected_time":665000000000,"state":"active","ping":60},{"user_id":351,"name":"Amandus","steam_id":76561198036281079,"connected_time":1231000000000,"state":"active","ping":56},{"user_id":352,"name":"Barry, 63","steam_id":76561199034265011,"connected_time":1212000000000,"state":"active","ping":73},{"user_id":326,"name":"pudlich","steam_id":76561198300089671,"connected_time":2484000000000,"state":"active","ping":71},{"user_id":362,"name":"Barbatruc","steam_id":76561198119019916,"connected_time":1041000000000,"state":"active","ping":66},{"user_id":375,"name":"imrealylazy","steam_id":76561198878574518,"connected_time":441000000000,"state":"active","ping":59},{"user_id":364,"name":"Dommy","steam_id":76561197990864747,"connected_time":1026000000000,"state":"active","ping":49},{"user_id":368,"name":"TJ1212","steam_id":76561199013575313,"connected_time":963000000000,"state":"active","ping":64},{"user_id":347,"name":"Sakata Gintoki","steam_id":76561198339980449,"connected_time":1335000000000,"state":"active","ping":71},{"user_id":377,"name":"2023","steam_id":76561198857712172,"connected_time":348000000000,"state":"active","ping":64},{"user_id":366,"name":"MostSereneDogeBestDoge","steam_id":76561198061196566,"connected_time":1021000000000,"state":"active","ping":74}]},{"server_id":110,"name":"Uncletopia | Frankfurt | 2 | All Maps","name_short":"frk-2","host":"frk-1.de.uncletopia.com","port":27025,"enabled":true,"region":"eu","cc":"de","latitude":50.110924,"longitude":8.682127,"reserved":0,"last_update":"0001-01-01T00:00:00Z","name_a2s":"Uncletopia | Frankfurt | 2 | All Maps","protocol":17,"map":"pl_badwater","folder":"tf","game":"Team Fortress","app_id":440,"player_count":24,"max_players":24,"Bots":0,"server_type":"Dedicated","server_os":"Linux","password":true,"vac":true,"version":"7961495","steam_id":85568392924469990,"keywords":["nocrits","nodmgspread","payload","uncletopia"],"game_id":440,"stv_port":27026,"stv_name":"Uncletopia | Frankfurt | 2 | All Maps | STV","players":[{"user_id":284,"name":"The Wolf Leader","steam_id":76561198038007462,"connected_time":2821000000000,"state":"active","ping":84},{"user_id":288,"name":"[P-roc] Lovely","steam_id":76561198074361075,"connected_time":2599000000000,"state":"active","ping":61},{"user_id":304,"name":"Largo","steam_id":76561198844368927,"connected_time":874000000000,"state":"active","ping":78},{"user_id":281,"name":"Dogdigger","steam_id":76561198032893130,"connected_time":2893000000000,"state":"active","ping":90},{"user_id":299,"name":"Kaishakunin","steam_id":76561198028123874,"connected_time":1180000000000,"state":"active","ping":88},{"user_id":312,"name":"finbar","steam_id":76561198056812396,"connected_time":12000000000,"state":"spawning","ping":92},{"user_id":310,"name":"darkwater","steam_id":76561197986978738,"connected_time":590000000000,"state":"active","ping":55},{"user_id":231,"name":"rets_","steam_id":76561198061551392,"connected_time":5519000000000,"state":"active","ping":43},{"user_id":309,"name":"chrome heart","steam_id":76561198101978330,"connected_time":772000000000,"state":"active","ping":58},{"user_id":297,"name":"draingangfan0465069500","steam_id":76561198219945364,"connected_time":1528000000000,"state":"active","ping":82},{"user_id":287,"name":"[P-roc] Cmm Bert","steam_id":76561198016658674,"connected_time":2638000000000,"state":"active","ping":77},{"user_id":302,"name":"ALARM","steam_id":76561198120686521,"connected_time":896000000000,"state":"active","ping":53},{"user_id":273,"name":"Erection Man","steam_id":76561198021714542,"connected_time":3202000000000,"state":"active","ping":60},{"user_id":266,"name":"jovi_","steam_id":76561198449280552,"connected_time":3508000000000,"state":"active","ping":60},{"user_id":270,"name":"cargo_conductor_754","steam_id":76561198165604007,"connected_time":3317000000000,"state":"active","ping":59},{"user_id":292,"name":"Finkaksu","steam_id":76561198201389163,"connected_time":2331000000000,"state":"active","ping":68},{"user_id":267,"name":"Vel0city","steam_id":76561198049687798,"connected_time":3467000000000,"state":"active","ping":55},{"user_id":311,"name":"Terminally Offline","steam_id":76561198146194820,"connected_time":369000000000,"state":"active","ping":60},{"user_id":300,"name":"Auragen","steam_id":76561198085801798,"connected_time":1119000000000,"state":"active","ping":70},{"user_id":274,"name":"BlueBlaster","steam_id":76561197995684708,"connected_time":3200000000000,"state":"active","ping":76},{"user_id":277,"name":"Cookies and Bakies","steam_id":76561198017442928,"connected_time":3107000000000,"state":"active","ping":63},{"user_id":259,"name":"howabe","steam_id":76561197996486818,"connected_time":3711000000000,"state":"active","ping":53},{"user_id":298,"name":"etc","steam_id":76561197998394797,"connected_time":1496000000000,"state":"active","ping":59},{"user_id":303,"name":"3L","steam_id":76561198007208996,"connected_time":894000000000,"state":"active","ping":44}]},{"server_id":308,"name":"Uncletopia | Frankfurt | 3 | All Maps","name_short":"frk-3","host":"frk-1.de.uncletopia.com","port":27035,"enabled":true,"region":"eu","cc":"de","latitude":50.110924,"longitude":8.682127,"reserved":0,"last_update":"0001-01-01T00:00:00Z","name_a2s":"Uncletopia | Frankfurt | 3 | All Maps","protocol":17,"map":"cp_dustbowl","folder":"tf","game":"Team Fortress","app_id":440,"player_count":23,"max_players":24,"Bots":0,"server_type":"Dedicated","server_os":"Linux","password":true,"vac":true,"version":"7961495","steam_id":85568392924504274,"keywords":["cp","nocrits","nodmgspread","uncletopia"],"game_id":440,"stv_port":27036,"stv_name":"Uncletopia | Frankfurt | 3 | All Maps | STV","players":[{"user_id":449,"name":"Benrosim","steam_id":76561199258825333,"connected_time":306000000000,"state":"active","ping":69},{"user_id":435,"name":"Dr.Nefario","steam_id":76561198874586020,"connected_time":867000000000,"state":"active","ping":64},{"user_id":439,"name":"Shimass","steam_id":76561198867546842,"connected_time":486000000000,"state":"active","ping":62},{"user_id":434,"name":".headwipe*","steam_id":76561198061135497,"connected_time":920000000000,"state":"active","ping":62},{"user_id":414,"name":"Gaattori","steam_id":76561198065624683,"connected_time":2225000000000,"state":"active","ping":91},{"user_id":380,"name":"rwota","steam_id":76561198385769722,"connected_time":4906000000000,"state":"active","ping":113},{"user_id":446,"name":"DANDELION","steam_id":76561198038451376,"connected_time":373000000000,"state":"active","ping":61},{"user_id":454,"name":"MCSM","steam_id":76561198850691862,"connected_time":68000000000,"state":"active","ping":80},{"user_id":445,"name":"Burpman","steam_id":76561198022897937,"connected_time":388000000000,"state":"active","ping":61},{"user_id":421,"name":"mitical uknown","steam_id":76561198844852761,"connected_time":1759000000000,"state":"active","ping":70},{"user_id":453,"name":"Mr.TEA","steam_id":76561198014381591,"connected_time":76000000000,"state":"active","ping":56},{"user_id":429,"name":"jerry","steam_id":76561199180176442,"connected_time":1453000000000,"state":"active","ping":67},{"user_id":375,"name":"Archive","steam_id":76561198071255385,"connected_time":5367000000000,"state":"active","ping":93},{"user_id":399,"name":"sticks","steam_id":76561198127099299,"connected_time":3322000000000,"state":"active","ping":64},{"user_id":450,"name":"Kjat","steam_id":76561198839433592,"connected_time":299000000000,"state":"active","ping":53},{"user_id":441,"name":"wasto-/-™","steam_id":76561198102888038,"connected_time":471000000000,"state":"active","ping":50},{"user_id":442,"name":"Spotmonkey","steam_id":76561198003994092,"connected_time":471000000000,"state":"active","ping":81},{"user_id":365,"name":"r0la","steam_id":76561198128315340,"connected_time":6457000000000,"state":"active","ping":90},{"user_id":400,"name":"SpacePig","steam_id":76561198044662873,"connected_time":3318000000000,"state":"active","ping":91},{"user_id":443,"name":"dimsolosh","steam_id":76561198882573567,"connected_time":454000000000,"state":"active","ping":130},{"user_id":438,"name":"manKe","steam_id":76561198008564860,"connected_time":540000000000,"state":"active","ping":58},{"user_id":444,"name":"d u k k i","steam_id":76561198071807437,"connected_time":445000000000,"state":"active","ping":82},{"user_id":451,"name":"demoman","steam_id":76561198046170435,"connected_time":270000000000,"state":"active","ping":67}]},{"server_id":309,"name":"Uncletopia | Frankfurt | 4 | All Maps","name_short":"frk-4","host":"frk-1.de.uncletopia.com","port":27045,"enabled":true,"region":"eu","cc":"de","latitude":50.110924,"longitude":8.682127,"reserved":0,"last_update":"0001-01-01T00:00:00Z","name_a2s":"Uncletopia | Frankfurt | 4 | All Maps","protocol":17,"map":"pl_frontier_final","folder":"tf","game":"Team Fortress","app_id":440,"player_count":19,"max_players":24,"Bots":0,"server_type":"Dedicated","server_os":"Linux","password":true,"vac":true,"version":"7961495","steam_id":85568392924504275,"keywords":["nocrits","nodmgspread","payload","uncletopia"],"game_id":440,"stv_port":27046,"stv_name":"Uncletopia | Frankfurt | 4 | All Maps | STV","players":[{"user_id":279,"name":"Teathling.ttv","steam_id":76561198061580505,"connected_time":9000000000,"state":"spawning","ping":53},{"user_id":247,"name":"Rambi","steam_id":76561199058078505,"connected_time":1282000000000,"state":"active","ping":139},{"user_id":187,"name":"Maximilian1359","steam_id":76561198152439608,"connected_time":5274000000000,"state":"active","ping":49},{"user_id":262,"name":"Der Geist des Hans Rosling","steam_id":76561198049231109,"connected_time":960000000000,"state":"active","ping":58},{"user_id":229,"name":"_DarkHeart_","steam_id":76561199162752036,"connected_time":2381000000000,"state":"spawning","ping":60},{"user_id":269,"name":"zeppa114","steam_id":76561198065192734,"connected_time":452000000000,"state":"active","ping":55},{"user_id":274,"name":"paguro","steam_id":76561198119560871,"connected_time":111000000000,"state":"active","ping":64},{"user_id":244,"name":"RealManiHACK","steam_id":76561198408081068,"connected_time":1328000000000,"state":"active","ping":60},{"user_id":272,"name":"PLUTO","steam_id":76561198312436128,"connected_time":326000000000,"state":"spawning","ping":113},{"user_id":263,"name":"coffee","steam_id":76561198382387303,"connected_time":952000000000,"state":"active","ping":95},{"user_id":276,"name":"unpronounceable","steam_id":76561198271860748,"connected_time":48000000000,"state":"active","ping":102},{"user_id":277,"name":"a grilled cheese","steam_id":76561198277039351,"connected_time":41000000000,"state":"active","ping":58},{"user_id":264,"name":"Mingo","steam_id":76561199191245650,"connected_time":925000000000,"state":"active","ping":118},{"user_id":267,"name":"Doriian","steam_id":76561198071438810,"connected_time":643000000000,"state":"active","ping":75},{"user_id":242,"name":"Solymr ibn Wali Barad","steam_id":76561198044008976,"connected_time":1475000000000,"state":"active","ping":61},{"user_id":278,"name":"[P-CAN] Un_Chevre","steam_id":76561198126700526,"connected_time":41000000000,"state":"connecting","ping":154},{"user_id":273,"name":"Zm4j","steam_id":76561198259465946,"connected_time":193000000000,"state":"active","ping":75},{"user_id":275,"name":"Lenny  λ","steam_id":76561198095073266,"connected_time":111000000000,"state":"active","ping":208},{"user_id":213,"name":"Bottle O' Scrumpy","steam_id":76561199244250562,"connected_time":3222000000000,"state":"active","ping":100}]},{"server_id":310,"name":"Uncletopia | Frankfurt | 5 | All Maps","name_short":"frk-5","host":"frk-1.de.uncletopia.com","port":27055,"enabled":true,"region":"eu","cc":"de","latitude":50.110924,"longitude":8.682127,"reserved":0,"last_update":"0001-01-01T00:00:00Z","name_a2s":"Uncletopia | Frankfurt | 5 | All Maps","protocol":17,"map":"pl_snowycoast","folder":"tf","game":"Team Fortress","app_id":440,"player_count":0,"max_players":24,"Bots":0,"server_type":"Dedicated","server_os":"Linux","password":true,"vac":true,"version":"7961495","steam_id":85568392924504277,"keywords":["nocrits","nodmgspread","payload","uncletopia"],"game_id":440,"stv_port":27056,"stv_name":"Uncletopia | Frankfurt | 5 | All Maps | STV","players":null},{"server_id":311,"name":"Uncletopia | Frankfurt | 6 | All Maps","name_short":"frk-6","host":"frk-1.de.uncletopia.com","port":27065,"enabled":true,"region":"eu","cc":"de","latitude":50.110924,"longitude":8.682127,"reserved":0,"last_update":"0001-01-01T00:00:00Z","name_a2s":"Uncletopia | Frankfurt | 6 | All Maps","protocol":17,"map":"pl_rumford_event","folder":"tf","game":"Team Fortress","app_id":440,"player_count":24,"max_players":24,"Bots":0,"server_type":"Dedicated","server_os":"Linux","password":true,"vac":true,"version":"7961495","steam_id":85568392924504278,"keywords":["nocrits","nodmgspread","payload","uncletopia"],"game_id":440,"stv_port":27066,"stv_name":"Uncletopia | Frankfurt | 6 | All Maps | STV","players":[{"user_id":533,"name":"gothmoth","steam_id":76561198386910896,"connected_time":646000000000,"state":"active","ping":63},{"user_id":515,"name":"Oddos","steam_id":76561198032029823,"connected_time":1995000000000,"state":"active","ping":71},{"user_id":490,"name":"Lukas","steam_id":76561198454286820,"connected_time":3479000000000,"state":"active","ping":74},{"user_id":493,"name":"Rodia","steam_id":76561197968293161,"connected_time":3334000000000,"state":"active","ping":62},{"user_id":529,"name":"Heavy Box","steam_id":76561198053624882,"connected_time":844000000000,"state":"active","ping":75},{"user_id":534,"name":"Deckard","steam_id":76561198004704647,"connected_time":400000000000,"state":"active","ping":78},{"user_id":537,"name":"divo","steam_id":76561197994492154,"connected_time":342000000000,"state":"active","ping":75},{"user_id":530,"name":"Jannisxxl","steam_id":76561198048377916,"connected_time":761000000000,"state":"active","ping":75},{"user_id":512,"name":"gagalak","steam_id":76561198089979108,"connected_time":2020000000000,"state":"active","ping":83},{"user_id":531,"name":"Testicular torsion","steam_id":76561198119547399,"connected_time":738000000000,"state":"active","ping":59},{"user_id":517,"name":"throwing grenade","steam_id":76561199024968279,"connected_time":1961000000000,"state":"active","ping":167},{"user_id":483,"name":"Alegz","steam_id":76561198287810139,"connected_time":3780000000000,"state":"active","ping":47},{"user_id":504,"name":"Cheers Mate!","steam_id":76561198265192382,"connected_time":2434000000000,"state":"active","ping":72},{"user_id":458,"name":"sadistic catgirl","steam_id":76561198974207724,"connected_time":5376000000000,"state":"active","ping":106},{"user_id":470,"name":"_Alonso","steam_id":76561198041893314,"connected_time":4756000000000,"state":"active","ping":52},{"user_id":541,"name":"Filin_Fill","steam_id":76561198044037139,"connected_time":188000000000,"state":"active","ping":91},{"user_id":538,"name":"Segra","steam_id":76561198441974031,"connected_time":338000000000,"state":"active","ping":75},{"user_id":527,"name":"ROM","steam_id":76561199097604633,"connected_time":1120000000000,"state":"active","ping":60},{"user_id":509,"name":"Emma ❤","steam_id":76561198082018080,"connected_time":2078000000000,"state":"active","ping":65},{"user_id":522,"name":"She-peng","steam_id":76561199027065608,"connected_time":1585000000000,"state":"active","ping":69},{"user_id":519,"name":"G","steam_id":76561198255868339,"connected_time":1938000000000,"state":"active","ping":78},{"user_id":494,"name":"Monkey","steam_id":76561199008411791,"connected_time":3330000000000,"state":"active","ping":61},{"user_id":501,"name":"MPG(i suck tf2's bаlls)","steam_id":76561199131610533,"connected_time":2890000000000,"state":"active","ping":107},{"user_id":540,"name":"wajo.b","steam_id":76561198125841309,"connected_time":209000000000,"state":"active","ping":60}]},{"server_id":23,"name":"Uncletopia | Frankfurt | 7 | Stopwatch","name_short":"frk-7","host":"frk-1.de.uncletopia.com","port":27075,"enabled":true,"region":"eu","cc":"de","latitude":50.110924,"longitude":8.682127,"reserved":0,"last_update":"0001-01-01T00:00:00Z","name_a2s":"Uncletopia | Frankfurt | 7 | Stopwatch","protocol":17,"map":"koth_lakeside_final","folder":"tf","game":"Team Fortress","app_id":440,"player_count":0,"max_players":24,"Bots":0,"server_type":"Dedicated","server_os":"Linux","password":true,"vac":true,"version":"7961495","steam_id":85568392924742827,"keywords":["cp","nocrits","nodmgspread","uncletopia"],"game_id":440,"stv_port":27076,"stv_name":"Uncletopia | Frankfurt | 7 | Stopwatch | STV","players":null},{"server_id":24,"name":"Uncletopia | Frankfurt | 8 | Community","name_short":"frk-8","host":"frk-1.de.uncletopia.com","port":27085,"enabled":true,"region":"eu","cc":"de","latitude":50.110924,"longitude":8.682127,"reserved":0,"last_update":"0001-01-01T00:00:00Z","name_a2s":"Uncletopia | Frankfurt | 8 | Community","protocol":17,"map":"workshop/pl_badwater_pro_v12.ugc2142942074","folder":"tf","game":"Team Fortress","app_id":440,"player_count":6,"max_players":24,"Bots":0,"server_type":"Dedicated","server_os":"Linux","password":true,"vac":true,"version":"7961495","steam_id":85568392924742828,"keywords":["nocrits","nodmgspread","payload","uncletopia"],"game_id":440,"stv_port":27086,"stv_name":"Uncletopia | Frankfurt | 8 | Community | STV","players":[{"user_id":51,"name":"CODSWOLOP","steam_id":76561199114598660,"connected_time":1107000000000,"state":"active","ping":128},{"user_id":52,"name":"Reimu Hakurei","steam_id":76561198152478010,"connected_time":855000000000,"state":"active","ping":84},{"user_id":53,"name":"silly little bloke","steam_id":76561198848976601,"connected_time":794000000000,"state":"active","ping":71},{"user_id":60,"name":"[SQ UA] MartianDill","steam_id":76561198405382822,"connected_time":135000000000,"state":"active","ping":73},{"user_id":54,"name":"Fujiwara No Mokou","steam_id":76561198221474256,"connected_time":726000000000,"state":"active","ping":48},{"user_id":61,"name":"ivanhus_","steam_id":76561199048134719,"connected_time":95000000000,"state":"active","ping":93}]},{"server_id":202,"name":"Uncletopia | Hong Kong | 1 | All Maps","name_short":"hgk-1","host":"hgk-1.hk.uncletopia.com","port":27015,"enabled":true,"region":"asia","cc":"hk","latitude":22.302711,"longitude":114.177216,"reserved":0,"last_update":"0001-01-01T00:00:00Z","name_a2s":"Uncletopia | Hong Kong | 1 | All Maps","protocol":17,"map":"pl_pier","folder":"tf","game":"Team Fortress","app_id":440,"player_count":0,"max_players":24,"Bots":0,"server_type":"Dedicated","server_os":"Linux","password":true,"vac":true,"version":"7961495","steam_id":85568392924494504,"keywords":["nocrits","nodmgspread","payload","uncletopia"],"game_id":440,"stv_port":27016,"stv_name":"Uncletopia | Hong Kong | 1 | All Maps | STV","players":null},{"server_id":1,"name":"Uncletopia | Los Angeles | 1 | All Maps","name_short":"lax-1","host":"lax-1.us.uncletopia.com","port":27015,"enabled":true,"region":"us-west","cc":"us","latitude":33.94279,"longitude":-118.41004,"reserved":0,"last_update":"0001-01-01T00:00:00Z","name_a2s":"Uncletopia | Los Angeles | 1 | All Maps","protocol":17,"map":"pl_badwater","folder":"tf","game":"Team Fortress","app_id":440,"player_count":0,"max_players":24,"Bots":0,"server_type":"Dedicated","server_os":"Linux","password":true,"vac":true,"version":"7961495","steam_id":85568392924469991,"keywords":["nocrits","nodmgspread","payload","uncletopia"],"game_id":440,"stv_port":27016,"stv_name":"Uncletopia | Los Angeles | 1 | All Maps | STV","players":null},{"server_id":112,"name":"Uncletopia | Los Angeles | 2 | All Maps","name_short":"lax-2","host":"lax-1.us.uncletopia.com","port":27025,"enabled":true,"region":"us-west","cc":"us","latitude":33.94279,"longitude":-118.41004,"reserved":0,"last_update":"0001-01-01T00:00:00Z","name_a2s":"Uncletopia | Los Angeles | 2 | All Maps","protocol":17,"map":"pl_swiftwater_final1","folder":"tf","game":"Team Fortress","app_id":440,"player_count":0,"max_players":24,"Bots":0,"server_type":"Dedicated","server_os":"Linux","password":true,"vac":true,"version":"7961495","steam_id":85568392924469992,"keywords":["nocrits","nodmgspread","payload","uncletopia"],"game_id":440,"stv_port":27026,"stv_name":"Uncletopia | Los Angeles | 2 | All Maps | STV","players":null},{"server_id":324,"name":"Uncletopia | Los Angeles | 3 | All Maps","name_short":"lax-3","host":"lax-1.us.uncletopia.com","port":27035,"enabled":true,"region":"us-west","cc":"us","latitude":33.94279,"longitude":-118.41004,"reserved":0,"last_update":"0001-01-01T00:00:00Z","name_a2s":"Uncletopia | Los Angeles | 3 | All Maps","protocol":17,"map":"koth_highpass","folder":"tf","game":"Team Fortress","app_id":440,"player_count":0,"max_players":24,"Bots":0,"server_type":"Dedicated","server_os":"Linux","password":true,"vac":true,"version":"7961495","steam_id":85568392924510198,"keywords":["cp","nocrits","nodmgspread","uncletopia"],"game_id":440,"stv_port":27036,"stv_name":"Uncletopia | Los Angeles | 3 | All Maps | STV","players":null},{"server_id":25,"name":"Uncletopia | Los Angeles | 4 | Stopwatch","name_short":"lax-4","host":"lax-1.us.uncletopia.com","port":27045,"enabled":true,"region":"us-west","cc":"us","latitude":33.94279,"longitude":-118.41004,"reserved":0,"last_update":"0001-01-01T00:00:00Z","name_a2s":"Uncletopia | Los Angeles | 4 | Stopwatch","protocol":17,"map":"pl_barnblitz","folder":"tf","game":"Team Fortress","app_id":440,"player_count":0,"max_players":24,"Bots":0,"server_type":"Dedicated","server_os":"Linux","password":true,"vac":true,"version":"7961495","steam_id":85568392924510199,"keywords":["nocrits","nodmgspread","payload","uncletopia"],"game_id":440,"stv_port":27046,"stv_name":"Uncletopia | Los Angeles | 4 | Stopwatch | STV","players":null},{"server_id":11,"name":"Uncletopia | London | 1 | All Maps","name_short":"lon-1","host":"lon-1.uk.uncletopia.com","port":27015,"enabled":true,"region":"eu","cc":"gb","latitude":51.509865,"longitude":-0.118092,"reserved":0,"last_update":"0001-01-01T00:00:00Z","name_a2s":"Uncletopia | London | 1 | All Maps","protocol":17,"map":"pl_upward","folder":"tf","game":"Team Fortress","app_id":440,"player_count":24,"max_players":24,"Bots":0,"server_type":"Dedicated","server_os":"Linux","password":true,"vac":true,"version":"7961495","steam_id":85568392924367362,"keywords":["nocrits","nodmgspread","payload","uncletopia"],"game_id":440,"stv_port":27016,"stv_name":"Uncletopia | London | 1 | All Maps | STV","players":[{"user_id":599,"name":"KermSlinger","steam_id":76561198854027069,"connected_time":894000000000,"state":"active","ping":70},{"user_id":573,"name":"SantaSaki","steam_id":76561198058740930,"connected_time":3346000000000,"state":"active","ping":48},{"user_id":584,"name":"Miss Bari","steam_id":76561198365286092,"connected_time":2550000000000,"state":"active","ping":44},{"user_id":602,"name":"Udinese Dion","steam_id":76561198067931573,"connected_time":709000000000,"state":"active","ping":70},{"user_id":609,"name":"Snake-chan","steam_id":76561199044755854,"connected_time":193000000000,"state":"active","ping":79},{"user_id":493,"name":"jermany","steam_id":76561198126599355,"connected_time":9495000000000,"state":"active","ping":64},{"user_id":588,"name":"Penis Contortionist","steam_id":76561198073663784,"connected_time":2165000000000,"state":"active","ping":43},{"user_id":577,"name":"map","steam_id":76561198370196400,"connected_time":3217000000000,"state":"active","ping":89},{"user_id":589,"name":"sethlington14","steam_id":76561199438357690,"connected_time":2159000000000,"state":"active","ping":57},{"user_id":601,"name":"Nessieling","steam_id":76561198083556891,"connected_time":719000000000,"state":"active","ping":86},{"user_id":574,"name":"Fat Pigeon","steam_id":76561198817940142,"connected_time":3261000000000,"state":"active","ping":47},{"user_id":591,"name":"Dat Fat Cat","steam_id":76561198058652558,"connected_time":1944000000000,"state":"active","ping":42},{"user_id":605,"name":"The indomitable human spirit","steam_id":76561198368339225,"connected_time":474000000000,"state":"active","ping":122},{"user_id":610,"name":"frosty","steam_id":76561198094560834,"connected_time":20000000000,"state":"active","ping":62},{"user_id":608,"name":"Nugget","steam_id":76561198338916407,"connected_time":311000000000,"state":"active","ping":75},{"user_id":519,"name":"shooer!","steam_id":76561198110531281,"connected_time":7226000000000,"state":"active","ping":62},{"user_id":557,"name":"wyro","steam_id":76561199176835169,"connected_time":4758000000000,"state":"active","ping":54},{"user_id":592,"name":"Tea","steam_id":76561198799243030,"connected_time":1902000000000,"state":"active","ping":87},{"user_id":590,"name":"goblinninja110","steam_id":76561198269159354,"connected_time":2151000000000,"state":"active","ping":62},{"user_id":569,"name":"Spurt","steam_id":76561198078523852,"connected_time":3998000000000,"state":"active","ping":41},{"user_id":575,"name":"Slifer the GiantEnemy SkyDragon","steam_id":76561198062255803,"connected_time":3223000000000,"state":"active","ping":75},{"user_id":576,"name":"Marabosha","steam_id":76561198137599173,"connected_time":3223000000000,"state":"active","ping":118},{"user_id":598,"name":"Archer","steam_id":76561198132860299,"connected_time":1323000000000,"state":"active","ping":55},{"user_id":572,"name":"this Earl guy","steam_id":76561198135625604,"connected_time":3788000000000,"state":"active","ping":51}]},{"server_id":114,"name":"Uncletopia | London | 2 | All Maps","name_short":"lon-2","host":"lon-1.uk.uncletopia.com","port":27025,"enabled":true,"region":"eu","cc":"gb","latitude":51.509865,"longitude":-0.118092,"reserved":0,"last_update":"0001-01-01T00:00:00Z","name_a2s":"Uncletopia | London | 2 | All Maps","protocol":17,"map":"cp_dustbowl","folder":"tf","game":"Team Fortress","app_id":440,"player_count":3,"max_players":24,"Bots":0,"server_type":"Dedicated","server_os":"Linux","password":true,"vac":true,"version":"7961495","steam_id":85568392924470941,"keywords":["cp","nocrits","nodmgspread","uncletopia"],"game_id":440,"stv_port":27026,"stv_name":"Uncletopia | London | 2 | All Maps | STV","players":[{"user_id":28,"name":"Liberos","steam_id":76561198050029082,"connected_time":367000000000,"state":"active","ping":70},{"user_id":29,"name":"Bagingi","steam_id":76561198052197810,"connected_time":350000000000,"state":"active","ping":87},{"user_id":30,"name":"Krim","steam_id":76561199070070579,"connected_time":244000000000,"state":"active","ping":72}]},{"server_id":320,"name":"Uncletopia | London | 3 | All Maps","name_short":"lon-3","host":"lon-1.uk.uncletopia.com","port":27035,"enabled":true,"region":"eu","cc":"gb","latitude":51.509865,"longitude":-0.118092,"reserved":0,"last_update":"0001-01-01T00:00:00Z","name_a2s":"Uncletopia | London | 3 | All Maps","protocol":17,"map":"pl_snowycoast","folder":"tf","game":"Team Fortress","app_id":440,"player_count":24,"max_players":24,"Bots":0,"server_type":"Dedicated","server_os":"Linux","password":true,"vac":true,"version":"7961495","steam_id":85568392924510192,"keywords":["nocrits","nodmgspread","payload","uncletopia"],"game_id":440,"stv_port":27036,"stv_name":"Uncletopia | London | 3 | All Maps | STV","players":[{"user_id":574,"name":"Chef__7","steam_id":76561199056921540,"connected_time":1497000000000,"state":"active","ping":158},{"user_id":572,"name":"Plep","steam_id":76561198840259819,"connected_time":1543000000000,"state":"active","ping":59},{"user_id":533,"name":"RLCrazyCat3","steam_id":76561197983757878,"connected_time":3561000000000,"state":"active","ping":67},{"user_id":588,"name":"cof","steam_id":76561199128417805,"connected_time":758000000000,"state":"active","ping":59},{"user_id":589,"name":"JohkupohkuXD","steam_id":76561198391108762,"connected_time":530000000000,"state":"active","ping":84},{"user_id":591,"name":"Pelaxisツ","steam_id":76561198180030121,"connected_time":509000000000,"state":"active","ping":89},{"user_id":575,"name":"bowchika wowa #SlavaUkraine","steam_id":76561198159564550,"connected_time":1240000000000,"state":"active","ping":72},{"user_id":565,"name":"Jarppa!","steam_id":76561197995834786,"connected_time":1737000000000,"state":"active","ping":71},{"user_id":495,"name":"AleXandriX","steam_id":76561198035203950,"connected_time":5120000000000,"state":"active","ping":64},{"user_id":590,"name":"Zurtrun","steam_id":76561198044905628,"connected_time":525000000000,"state":"active","ping":73},{"user_id":581,"name":"the goblin of uncletopia","steam_id":76561198027187109,"connected_time":1148000000000,"state":"active","ping":60},{"user_id":596,"name":"Benny the Ball","steam_id":76561198043104532,"connected_time":341000000000,"state":"active","ping":50},{"user_id":548,"name":"BRICK TOP","steam_id":76561198014366715,"connected_time":2725000000000,"state":"active","ping":44},{"user_id":592,"name":"Caruzon - Obismal","steam_id":76561198036211170,"connected_time":502000000000,"state":"active","ping":83},{"user_id":520,"name":"Ixsus\u003c3","steam_id":76561198094756869,"connected_time":4034000000000,"state":"active","ping":60},{"user_id":549,"name":"Kylul_","steam_id":76561198042981061,"connected_time":2688000000000,"state":"active","ping":31},{"user_id":587,"name":"クソ野郎","steam_id":76561198248239796,"connected_time":819000000000,"state":"active","ping":59},{"user_id":597,"name":"Lew","steam_id":76561198076039504,"connected_time":91000000000,"state":"active","ping":71},{"user_id":598,"name":"Krabs","steam_id":76561198161679477,"connected_time":14000000000,"state":"spawning","ping":32},{"user_id":551,"name":"Bun","steam_id":76561197989239999,"connected_time":2615000000000,"state":"active","ping":60},{"user_id":595,"name":"luma","steam_id":76561198081649669,"connected_time":407000000000,"state":"active","ping":75},{"user_id":552,"name":"Economic crisis","steam_id":76561198063562843,"connected_time":2554000000000,"state":"active","ping":80},{"user_id":594,"name":"twpsyn","steam_id":76561198057121917,"connected_time":486000000000,"state":"active","ping":82},{"user_id":564,"name":"Cattwood","steam_id":76561198054308015,"connected_time":1761000000000,"state":"active","ping":45}]},{"server_id":321,"name":"Uncletopia | London | 4 | All Maps","name_short":"lon-4","host":"lon-1.uk.uncletopia.com","port":27045,"enabled":true,"region":"eu","cc":"gb","latitude":51.509865,"longitude":-0.118092,"reserved":0,"last_update":"0001-01-01T00:00:00Z","name_a2s":"Uncletopia | London | 4 | All Maps","protocol":17,"map":"koth_nucleus","folder":"tf","game":"Team Fortress","app_id":440,"player_count":22,"max_players":24,"Bots":0,"server_type":"Dedicated","server_os":"Linux","password":true,"vac":true,"version":"7961495","steam_id":85568392924510193,"keywords":["cp","nocrits","nodmgspread","uncletopia"],"game_id":440,"stv_port":27046,"stv_name":"Uncletopia | London | 4 | All Maps | STV","players":[{"user_id":302,"name":"Castellan","steam_id":76561197994861142,"connected_time":358000000000,"state":"active","ping":56},{"user_id":305,"name":"Sandacz","steam_id":76561198057308127,"connected_time":31000000000,"state":"spawning","ping":120},{"user_id":267,"name":"Rare bulldog owner","steam_id":76561199407941086,"connected_time":2611000000000,"state":"active","ping":71},{"user_id":292,"name":"Disbe-leaf","steam_id":76561198854720925,"connected_time":1390000000000,"state":"active","ping":87},{"user_id":289,"name":"Tamer","steam_id":76561199101501051,"connected_time":1773000000000,"state":"active","ping":65},{"user_id":301,"name":"Mister Minthey","steam_id":76561197997249321,"connected_time":476000000000,"state":"active","ping":45},{"user_id":283,"name":"KassuK","steam_id":76561199148205635,"connected_time":1855000000000,"state":"active","ping":116},{"user_id":306,"name":"UltimateAura","steam_id":76561198338361324,"connected_time":15000000000,"state":"spawning","ping":44},{"user_id":279,"name":"SneaK","steam_id":76561198280344773,"connected_time":1873000000000,"state":"active","ping":90},{"user_id":296,"name":"After8","steam_id":76561198090750865,"connected_time":1325000000000,"state":"active","ping":62},{"user_id":272,"name":"fence_","steam_id":76561198150386379,"connected_time":2251000000000,"state":"active","ping":38},{"user_id":291,"name":"bigwish | bmod.tf","steam_id":76561197997859723,"connected_time":1439000000000,"state":"active","ping":84},{"user_id":263,"name":"Nyhde","steam_id":76561198012771416,"connected_time":3202000000000,"state":"active","ping":95},{"user_id":257,"name":"spherewithahat","steam_id":76561199122192660,"connected_time":3632000000000,"state":"active","ping":130},{"user_id":295,"name":"TomNoSocks","steam_id":76561198114071046,"connected_time":1354000000000,"state":"active","ping":64},{"user_id":300,"name":"crimson","steam_id":76561198208349835,"connected_time":500000000000,"state":"active","ping":67},{"user_id":290,"name":"gub","steam_id":76561198171178427,"connected_time":1673000000000,"state":"active","ping":106},{"user_id":266,"name":"martin","steam_id":76561198107039012,"connected_time":2653000000000,"state":"active","ping":30},{"user_id":281,"name":"KierUK |","steam_id":76561198119447994,"connected_time":1862000000000,"state":"active","ping":46},{"user_id":276,"name":"Doogie","steam_id":76561198846924693,"connected_time":2107000000000,"state":"active","ping":59},{"user_id":268,"name":"Tort","steam_id":76561198329646769,"connected_time":2558000000000,"state":"active","ping":55},{"user_id":287,"name":"tommy","steam_id":76561198195628823,"connected_time":1791000000000,"state":"active","ping":55}]},{"server_id":21,"name":"Uncletopia | London | 5 | All Maps","name_short":"lon-5","host":"lon-1.uk.uncletopia.com","port":27055,"enabled":true,"region":"eu","cc":"gb","latitude":51.509865,"longitude":-0.118092,"reserved":0,"last_update":"0001-01-01T00:00:00Z","name_a2s":"Uncletopia | London | 5 | All Maps","protocol":17,"map":"pl_barnblitz","folder":"tf","game":"Team Fortress","app_id":440,"player_count":23,"max_players":24,"Bots":0,"server_type":"Dedicated","server_os":"Linux","password":true,"vac":true,"version":"7961495","steam_id":85568392924742829,"keywords":["nocrits","nodmgspread","payload","uncletopia"],"game_id":440,"stv_port":27056,"stv_name":"Uncletopia | London | 5 | All Maps | STV","players":[{"user_id":358,"name":"Weegad Wobus","steam_id":76561199429562693,"connected_time":118000000000,"state":"active","ping":70},{"user_id":352,"name":"Hyperion","steam_id":76561198043716162,"connected_time":694000000000,"state":"active","ping":58},{"user_id":359,"name":"skelly","steam_id":76561198052743847,"connected_time":71000000000,"state":"active","ping":72},{"user_id":330,"name":"neo","steam_id":76561198136265838,"connected_time":2281000000000,"state":"active","ping":65},{"user_id":343,"name":"VK2124 :D","steam_id":76561198111130688,"connected_time":978000000000,"state":"active","ping":52},{"user_id":305,"name":"miyao","steam_id":76561198010662796,"connected_time":2780000000000,"state":"active","ping":75},{"user_id":311,"name":"cock buzzler","steam_id":76561198015876799,"connected_time":2738000000000,"state":"active","ping":70},{"user_id":102,"name":"Acquire Beans","steam_id":76561198010452926,"connected_time":6351000000000,"state":"active","ping":60},{"user_id":344,"name":"$t@lker_Tim","steam_id":76561198963658042,"connected_time":976000000000,"state":"active","ping":122},{"user_id":323,"name":"cora","steam_id":76561199474154775,"connected_time":2594000000000,"state":"active","ping":53},{"user_id":355,"name":"Jane Doe","steam_id":76561198058675116,"connected_time":281000000000,"state":"active","ping":60},{"user_id":335,"name":"glyph","steam_id":76561197980736364,"connected_time":1960000000000,"state":"active","ping":86},{"user_id":351,"name":"lactose father","steam_id":76561199408853457,"connected_time":744000000000,"state":"active","ping":87},{"user_id":360,"name":"Star in a pond","steam_id":76561198205501279,"connected_time":35000000000,"state":"active","ping":139},{"user_id":108,"name":"Without warning","steam_id":76561199383437138,"connected_time":5550000000000,"state":"active","ping":120},{"user_id":184,"name":"Flohr","steam_id":76561198191948841,"connected_time":3985000000000,"state":"active","ping":47},{"user_id":356,"name":"TheEventGuy","steam_id":76561197972797744,"connected_time":220000000000,"state":"active","ping":76},{"user_id":348,"name":"noot","steam_id":76561198148074472,"connected_time":934000000000,"state":"active","ping":48},{"user_id":349,"name":"🃔 Katarina","steam_id":76561198065652251,"connected_time":932000000000,"state":"active","ping":53},{"user_id":326,"name":"Keho","steam_id":76561198087962709,"connected_time":2525000000000,"state":"active","ping":75},{"user_id":350,"name":"raz i guess","steam_id":76561198147277460,"connected_time":925000000000,"state":"active","ping":75},{"user_id":338,"name":"†𝔥e ωoo","steam_id":76561198929808815,"connected_time":1386000000000,"state":"active","ping":49},{"user_id":304,"name":"ratot","steam_id":76561198063132645,"connected_time":2787000000000,"state":"active","ping":56}]},{"server_id":22,"name":"Uncletopia | London | 6 | All Maps","name_short":"lon-6","host":"lon-1.uk.uncletopia.com","port":27065,"enabled":true,"region":"eu","cc":"gb","latitude":51.509865,"longitude":-0.118092,"reserved":0,"last_update":"0001-01-01T00:00:00Z","name_a2s":"Uncletopia | London | 6 | All Maps","protocol":17,"map":"cp_dustbowl","folder":"tf","game":"Team Fortress","app_id":440,"player_count":8,"max_players":24,"Bots":0,"server_type":"Dedicated","server_os":"Linux","password":true,"vac":true,"version":"7961495","steam_id":85568392924742830,"keywords":["cp","nocrits","nodmgspread","uncletopia"],"game_id":440,"stv_port":27066,"stv_name":"Uncletopia | London | 6 | All Maps | STV","players":[{"user_id":8,"name":"Tx_madmash","steam_id":76561198924656512,"connected_time":1149000000000,"state":"active","ping":193},{"user_id":10,"name":"nissne69","steam_id":76561199343140438,"connected_time":1033000000000,"state":"active","ping":65},{"user_id":11,"name":"moustache_films","steam_id":76561198123520538,"connected_time":1016000000000,"state":"active","ping":40},{"user_id":12,"name":"Milk","steam_id":76561198125876588,"connected_time":551000000000,"state":"active","ping":37},{"user_id":13,"name":"Paka","steam_id":76561198109471671,"connected_time":513000000000,"state":"active","ping":33},{"user_id":15,"name":"toomas2018 gaming","steam_id":76561199105796083,"connected_time":320000000000,"state":"active","ping":80},{"user_id":16,"name":"aphextwinsucks","steam_id":76561198132185926,"connected_time":159000000000,"state":"active","ping":74},{"user_id":17,"name":"Sinuhe","steam_id":76561198054915378,"connected_time":28000000000,"state":"spawning","ping":76}]},{"server_id":40,"name":"Uncletopia | London | 7 | Stopwatch","name_short":"lon-7","host":"lon-1.uk.uncletopia.com","port":27075,"enabled":true,"region":"eu","cc":"gb","latitude":51.509865,"longitude":-0.118092,"reserved":0,"last_update":"0001-01-01T00:00:00Z","name_a2s":"Uncletopia | London | 7 | Stopwatch","protocol":17,"map":"koth_highpass","folder":"tf","game":"Team Fortress","app_id":440,"player_count":0,"max_players":24,"Bots":0,"server_type":"Dedicated","server_os":"Linux","password":true,"vac":true,"version":"7961495","steam_id":85568392924964314,"keywords":["cp","nocrits","nodmgspread","uncletopia"],"game_id":440,"stv_port":27076,"stv_name":"Uncletopia | London | 7 | Stopwatch | STV","players":null},{"server_id":41,"name":"Uncletopia | London | 8 | Community","name_short":"lon-8","host":"lon-1.uk.uncletopia.com","port":27085,"enabled":true,"region":"eu","cc":"gb","latitude":51.509865,"longitude":-0.118092,"reserved":0,"last_update":"0001-01-01T00:00:00Z","name_a2s":"Uncletopia | London | 8 | Community","protocol":17,"map":"workshop/cp_glassworks_rc6a.ugc454118349","folder":"tf","game":"Team Fortress","app_id":440,"player_count":0,"max_players":24,"Bots":0,"server_type":"Dedicated","server_os":"Linux","password":true,"vac":true,"version":"7961495","steam_id":85568392924964315,"keywords":["cp","nocrits","nodmgspread","uncletopia"],"game_id":440,"stv_port":27086,"stv_name":"Uncletopia | London | 8 | Community | STV","players":null},{"server_id":300,"name":"Uncletopia | Montréal | 1 | All Maps","name_short":"mtl-1","host":"mtl-1.ca.uncletopia.com","port":27015,"enabled":true,"region":"us-east","cc":"ca","latitude":45.50889,"longitude":-73.56167,"reserved":0,"last_update":"0001-01-01T00:00:00Z","name_a2s":"","protocol":0,"map":"","folder":"","game":"","app_id":0,"player_count":0,"max_players":0,"Bots":0,"server_type":"","server_os":"","password":false,"vac":false,"version":"","steam_id":0,"keywords":null,"game_id":0,"stv_port":0,"stv_name":"","players":null},{"server_id":301,"name":"Uncletopia | Montréal | 2 | All Maps","name_short":"mtl-2","host":"mtl-1.ca.uncletopia.com","port":27025,"enabled":true,"region":"us-east","cc":"ca","latitude":45.50889,"longitude":-73.56167,"reserved":0,"last_update":"0001-01-01T00:00:00Z","name_a2s":"","protocol":0,"map":"","folder":"","game":"","app_id":0,"player_count":0,"max_players":0,"Bots":0,"server_type":"","server_os":"","password":false,"vac":false,"version":"","steam_id":0,"keywords":null,"game_id":0,"stv_port":0,"stv_name":"","players":null},{"server_id":302,"name":"Uncletopia | Montréal | 3 | All Maps","name_short":"mtl-3","host":"mtl-1.ca.uncletopia.com","port":27035,"enabled":true,"region":"us-east","cc":"ca","latitude":45.50889,"longitude":-73.56167,"reserved":0,"last_update":"0001-01-01T00:00:00Z","name_a2s":"","protocol":0,"map":"","folder":"","game":"","app_id":0,"player_count":0,"max_players":0,"Bots":0,"server_type":"","server_os":"","password":false,"vac":false,"version":"","steam_id":0,"keywords":null,"game_id":0,"stv_port":0,"stv_name":"","players":null},{"server_id":303,"name":"Uncletopia | Montréal | 4 | No Payload","name_short":"mtl-4","host":"mtl-1.ca.uncletopia.com","port":27045,"enabled":true,"region":"us-east","cc":"ca","latitude":45.50889,"longitude":-73.56167,"reserved":0,"last_update":"0001-01-01T00:00:00Z","name_a2s":"","protocol":0,"map":"","folder":"","game":"","app_id":0,"player_count":0,"max_players":0,"Bots":0,"server_type":"","server_os":"","password":false,"vac":false,"version":"","steam_id":0,"keywords":null,"game_id":0,"stv_port":0,"stv_name":"","players":null},{"server_id":13,"name":"Uncletopia | New York City | 1 | All Maps","name_short":"nyc-1","host":"nyc-1.us.uncletopia.com","port":27015,"enabled":true,"region":"us-east","cc":"us","latitude":40.73061,"longitude":-73.93524,"reserved":0,"last_update":"0001-01-01T00:00:00Z","name_a2s":"Uncletopia | New York City | 1 | All Maps","protocol":17,"map":"koth_highpass","folder":"tf","game":"Team Fortress","app_id":440,"player_count":0,"max_players":24,"Bots":0,"server_type":"Dedicated","server_os":"Linux","password":true,"vac":true,"version":"7961495","steam_id":85568392924469993,"keywords":["cp","nocrits","nodmgspread","uncletopia"],"game_id":440,"stv_port":27016,"stv_name":"Uncletopia | New York City | 1 | All Maps | STV","players":null},{"server_id":14,"name":"Uncletopia | New York City | 2 | All Maps","name_short":"nyc-2","host":"nyc-1.us.uncletopia.com","port":27025,"enabled":true,"region":"us-east","cc":"us","latitude":40.73061,"longitude":-73.93524,"reserved":0,"last_update":"0001-01-01T00:00:00Z","name_a2s":"Uncletopia | New York City | 2 | All Maps","protocol":17,"map":"cp_snakewater_final1","folder":"tf","game":"Team Fortress","app_id":440,"player_count":24,"max_players":24,"Bots":0,"server_type":"Dedicated","server_os":"Linux","password":true,"vac":true,"version":"7961495","steam_id":85568392924469994,"keywords":["cp","nocrits","nodmgspread","uncletopia"],"game_id":440,"stv_port":27026,"stv_name":"Uncletopia | New York City | 2 | All Maps | STV","players":[{"user_id":231,"name":"babe","steam_id":76561199057373810,"connected_time":472000000000,"state":"active","ping":46},{"user_id":181,"name":"Olympic Toe Curling","steam_id":76561198433807531,"connected_time":3733000000000,"state":"active","ping":74},{"user_id":237,"name":"ᗜˬᗜ","steam_id":76561198049076233,"connected_time":352000000000,"state":"active","ping":56},{"user_id":232,"name":"dave","steam_id":76561199185148234,"connected_time":460000000000,"state":"active","ping":115},{"user_id":215,"name":"Walmart Employee","steam_id":76561198840373909,"connected_time":1489000000000,"state":"active","ping":98},{"user_id":189,"name":"johnny","steam_id":76561198855841242,"connected_time":2952000000000,"state":"active","ping":83},{"user_id":243,"name":"BIGGEST MAC","steam_id":76561198847517098,"connected_time":110000000000,"state":"active","ping":85},{"user_id":170,"name":"Narh","steam_id":76561198025216294,"connected_time":4782000000000,"state":"active","ping":55},{"user_id":244,"name":"Terminal Brain Rot","steam_id":76561198112594672,"connected_time":106000000000,"state":"active","ping":89},{"user_id":245,"name":"b-dot","steam_id":76561198160786631,"connected_time":70000000000,"state":"active","ping":69},{"user_id":235,"name":"Reflector","steam_id":76561198078999855,"connected_time":411000000000,"state":"active","ping":70},{"user_id":236,"name":"ndvr","steam_id":76561199379200102,"connected_time":395000000000,"state":"active","ping":54},{"user_id":238,"name":"Rodgedan","steam_id":76561198226236524,"connected_time":341000000000,"state":"active","ping":76},{"user_id":206,"name":"Gaminglast","steam_id":76561198362927765,"connected_time":2114000000000,"state":"active","ping":123},{"user_id":210,"name":"Scotty","steam_id":76561198268006443,"connected_time":1880000000000,"state":"active","ping":78},{"user_id":220,"name":"Grunkie_Chubs","steam_id":76561198272017187,"connected_time":907000000000,"state":"active","ping":78},{"user_id":240,"name":"SwampFoot","steam_id":76561198037500278,"connected_time":308000000000,"state":"active","ping":70},{"user_id":121,"name":"ＲＥＤ","steam_id":76561198030282308,"connected_time":7657000000000,"state":"active","ping":145},{"user_id":225,"name":"fluffytail309","steam_id":76561199491688974,"connected_time":623000000000,"state":"active","ping":84},{"user_id":242,"name":"ModernWelfare","steam_id":76561198154323641,"connected_time":211000000000,"state":"active","ping":61},{"user_id":199,"name":"Kurt Biscuitmaker","steam_id":76561198331701823,"connected_time":2572000000000,"state":"active","ping":60},{"user_id":241,"name":"matthewp14556","steam_id":76561199487692335,"connected_time":302000000000,"state":"active","ping":60},{"user_id":156,"name":"High School Nudical","steam_id":76561198172120615,"connected_time":5845000000000,"state":"active","ping":41},{"user_id":216,"name":"GaiBerd","steam_id":76561198177100634,"connected_time":1488000000000,"state":"active","ping":46}]},{"server_id":15,"name":"Uncletopia | New York City | 3 | Stopwatch","name_short":"nyc-3","host":"nyc-1.us.uncletopia.com","port":27035,"enabled":true,"region":"us-east","cc":"us","latitude":40.73061,"longitude":-73.93524,"reserved":0,"last_update":"0001-01-01T00:00:00Z","name_a2s":"Uncletopia | New York City | 3 | Stopwatch","protocol":17,"map":"pl_snowycoast","folder":"tf","game":"Team Fortress","app_id":440,"player_count":0,"max_players":24,"Bots":0,"server_type":"Dedicated","server_os":"Linux","password":true,"vac":true,"version":"7961495","steam_id":85568392924742820,"keywords":["nocrits","nodmgspread","payload","uncletopia"],"game_id":440,"stv_port":27036,"stv_name":"Uncletopia | New York City | 3 | Stopwatch | STV","players":null},{"server_id":16,"name":"Uncletopia | New York City | 4 | Community","name_short":"nyc-4","host":"nyc-1.us.uncletopia.com","port":27045,"enabled":true,"region":"us-east","cc":"us","latitude":40.73061,"longitude":-73.93524,"reserved":0,"last_update":"0001-01-01T00:00:00Z","name_a2s":"Uncletopia | New York City | 4 | Community","protocol":17,"map":"workshop/koth_slaughter_rc1.ugc1712845210","folder":"tf","game":"Team Fortress","app_id":440,"player_count":3,"max_players":24,"Bots":0,"server_type":"Dedicated","server_os":"Linux","password":true,"vac":true,"version":"7961495","steam_id":85568392924742821,"keywords":["cp","nocrits","nodmgspread","uncletopia"],"game_id":440,"stv_port":27046,"stv_name":"Uncletopia | New York City | 4 | Community | STV","players":[{"user_id":9,"name":"Swedish Crowbar","steam_id":76561199105488936,"connected_time":1778000000000,"state":"active","ping":130},{"user_id":10,"name":"stefanbejenari","steam_id":76561199466718294,"connected_time":1212000000000,"state":"active","ping":154},{"user_id":12,"name":"Officer Oxlong","steam_id":76561199110430036,"connected_time":468000000000,"state":"active","ping":71}]},{"server_id":142,"name":"Uncletopia | São Paulo | 1 | All Maps","name_short":"sao-1","host":"sao-1.br.uncletopia.com","port":27015,"enabled":true,"region":"sa","cc":"br","latitude":-23.533773,"longitude":-46.62529,"reserved":0,"last_update":"0001-01-01T00:00:00Z","name_a2s":"Uncletopia | São Paulo | 1 | All Maps","protocol":17,"map":"cp_mountainlab","folder":"tf","game":"Team Fortress","app_id":440,"player_count":0,"max_players":24,"Bots":0,"server_type":"Dedicated","server_os":"Linux","password":true,"vac":true,"version":"7961495","steam_id":85568392924469996,"keywords":["cp","nocrits","nodmgspread","uncletopia"],"game_id":440,"stv_port":27016,"stv_name":"Uncletopia | São Paulo | 1 | All Maps | STV","players":null},{"server_id":143,"name":"Uncletopia | São Paulo | 2 | Community","name_short":"sao-2","host":"sao-2.br.uncletopia.com","port":27015,"enabled":true,"region":"sa","cc":"br","latitude":-23.533773,"longitude":-46.62529,"reserved":0,"last_update":"0001-01-01T00:00:00Z","name_a2s":"Uncletopia | São Paulo | 2 | Community","protocol":17,"map":"workshop/cp_glassworks_rc6a.ugc454118349","folder":"tf","game":"Team Fortress","app_id":440,"player_count":0,"max_players":24,"Bots":0,"server_type":"Dedicated","server_os":"Linux","password":true,"vac":true,"version":"7961495","steam_id":85568392924485349,"keywords":["cp","nocrits","nodmgspread","uncletopia"],"game_id":440,"stv_port":27016,"stv_name":"Uncletopia | São Paulo | 2 | Community | STV","players":null},{"server_id":7,"name":"Uncletopia | Seattle | 1 | All Maps","name_short":"sea-1","host":"sea-1.us.uncletopia.com","port":27015,"enabled":true,"region":"us-west","cc":"us","latitude":47.608013,"longitude":-122.33517,"reserved":0,"last_update":"0001-01-01T00:00:00Z","name_a2s":"Uncletopia | Seattle | 1 | All Maps","protocol":17,"map":"pl_pier","folder":"tf","game":"Team Fortress","app_id":440,"player_count":24,"max_players":24,"Bots":0,"server_type":"Dedicated","server_os":"Linux","password":true,"vac":true,"version":"7961495","steam_id":85568392924469997,"keywords":["nocrits","nodmgspread","payload","uncletopia"],"game_id":440,"stv_port":27016,"stv_name":"Uncletopia | Seattle | 1 | All Maps | STV","players":[{"user_id":7,"name":"Grammaring","steam_id":76561198867366139,"connected_time":5146000000000,"state":"active","ping":78},{"user_id":44,"name":"A Stolen Catalytic Converter","steam_id":76561198131567365,"connected_time":2587000000000,"state":"active","ping":66},{"user_id":59,"name":"ROGUE-PLANET","steam_id":76561198116023052,"connected_time":1281000000000,"state":"active","ping":75},{"user_id":50,"name":"Petrivus","steam_id":76561198202152453,"connected_time":2229000000000,"state":"active","ping":53},{"user_id":53,"name":"a spoon of mustard","steam_id":76561198328371599,"connected_time":2155000000000,"state":"active","ping":114},{"user_id":74,"name":"Faustian bargain","steam_id":76561198068672882,"connected_time":126000000000,"state":"active","ping":64},{"user_id":13,"name":"ThecoolestEmmy","steam_id":76561198999423393,"connected_time":4121000000000,"state":"active","ping":107},{"user_id":42,"name":"Chesshire","steam_id":76561198453427742,"connected_time":2759000000000,"state":"active","ping":86},{"user_id":37,"name":"Skeleop","steam_id":76561198981106464,"connected_time":3090000000000,"state":"active","ping":73},{"user_id":66,"name":"Space360","steam_id":76561198106743284,"connected_time":866000000000,"state":"active","ping":50},{"user_id":69,"name":"Lucas","steam_id":76561198399704604,"connected_time":589000000000,"state":"active","ping":77},{"user_id":18,"name":"Sudsen","steam_id":76561198370603787,"connected_time":4004000000000,"state":"active","ping":69},{"user_id":52,"name":"B4UShout","steam_id":76561198414699148,"connected_time":2186000000000,"state":"active","ping":68},{"user_id":71,"name":"UP IN DA CLUB","steam_id":76561199127423378,"connected_time":507000000000,"state":"active","ping":85},{"user_id":54,"name":"bad ending","steam_id":76561198085451776,"connected_time":2135000000000,"state":"active","ping":60},{"user_id":40,"name":"Derik","steam_id":76561198110845473,"connected_time":3078000000000,"state":"active","ping":159},{"user_id":70,"name":"Frank [LIVE ON TWITCH]","steam_id":76561198126681511,"connected_time":588000000000,"state":"active","ping":77},{"user_id":56,"name":"❤To Lazy❤","steam_id":76561198164211904,"connected_time":2005000000000,"state":"active","ping":83},{"user_id":67,"name":"FI LO","steam_id":76561198976530881,"connected_time":788000000000,"state":"active","ping":63},{"user_id":75,"name":"Blueraspberry","steam_id":76561198040876601,"connected_time":114000000000,"state":"active","ping":107},{"user_id":32,"name":"some nerd","steam_id":76561198297272878,"connected_time":3536000000000,"state":"active","ping":67},{"user_id":76,"name":"BlazedBunny","steam_id":76561198243610560,"connected_time":74000000000,"state":"active","ping":79},{"user_id":63,"name":"Saddam","steam_id":76561197985725267,"connected_time":1145000000000,"state":"active","ping":76},{"user_id":73,"name":"Raspylightining","steam_id":76561198148343305,"connected_time":155000000000,"state":"active","ping":115}]},{"server_id":119,"name":"Uncletopia | Seattle | 2 | All Maps","name_short":"sea-2","host":"sea-1.us.uncletopia.com","port":27025,"enabled":true,"region":"us-west","cc":"us","latitude":47.608013,"longitude":-122.33517,"reserved":0,"last_update":"0001-01-01T00:00:00Z","name_a2s":"Uncletopia | Seattle | 2 | All Maps","protocol":17,"map":"pl_frontier_final","folder":"tf","game":"Team Fortress","app_id":440,"player_count":0,"max_players":24,"Bots":0,"server_type":"Dedicated","server_os":"Linux","password":true,"vac":true,"version":"7961495","steam_id":85568392924469998,"keywords":["nocrits","nodmgspread","payload","uncletopia"],"game_id":440,"stv_port":27026,"stv_name":"Uncletopia | Seattle | 2 | All Maps | STV","players":null},{"server_id":406,"name":"Uncletopia | Seattle | 3 | Stopwatch","name_short":"sea-3","host":"sea-1.us.uncletopia.com","port":27035,"enabled":true,"region":"us-west","cc":"us","latitude":47.608013,"longitude":-122.33517,"reserved":0,"last_update":"0001-01-01T00:00:00Z","name_a2s":"Uncletopia | Seattle | 3 | Stopwatch","protocol":17,"map":"koth_lakeside_final","folder":"tf","game":"Team Fortress","app_id":440,"player_count":0,"max_players":24,"Bots":0,"server_type":"Dedicated","server_os":"Linux","password":true,"vac":true,"version":"7961495","steam_id":85568392924515217,"keywords":["cp","nocrits","nodmgspread","uncletopia"],"game_id":440,"stv_port":27036,"stv_name":"Uncletopia | Seattle | 3 | Stopwatch | STV","players":null},{"server_id":17,"name":"Uncletopia | San Francisco | 1 | All Maps","name_short":"sfo-1","host":"sfo-1.us.uncletopia.com","port":27015,"enabled":true,"region":"us-west","cc":"us","latitude":37.77397,"longitude":-122.4313,"reserved":0,"last_update":"0001-01-01T00:00:00Z","name_a2s":"Uncletopia | San Francisco | 1 | All Maps","protocol":17,"map":"koth_cascade","folder":"tf","game":"Team Fortress","app_id":440,"player_count":0,"max_players":24,"Bots":0,"server_type":"Dedicated","server_os":"Linux","password":true,"vac":true,"version":"7961495","steam_id":85568392924469999,"keywords":["cp","nocrits","nodmgspread","uncletopia"],"game_id":440,"stv_port":27016,"stv_name":"Uncletopia | San Francisco | 1 | All Maps | STV","players":null},{"server_id":18,"name":"Uncletopia | San Francisco | 2 | All Maps","name_short":"sfo-2","host":"sfo-1.us.uncletopia.com","port":27025,"enabled":true,"region":"us-west","cc":"us","latitude":37.77397,"longitude":-122.4313,"reserved":0,"last_update":"0001-01-01T00:00:00Z","name_a2s":"Uncletopia | San Francisco | 2 | All Maps","protocol":17,"map":"koth_viaduct","folder":"tf","game":"Team Fortress","app_id":440,"player_count":0,"max_players":24,"Bots":0,"server_type":"Dedicated","server_os":"Linux","password":true,"vac":true,"version":"7961495","steam_id":85568392924470000,"keywords":["cp","nocrits","nodmgspread","uncletopia"],"game_id":440,"stv_port":27026,"stv_name":"Uncletopia | San Francisco | 2 | All Maps | STV","players":null},{"server_id":19,"name":"Uncletopia | San Francisco | 3 | Stopwatch","name_short":"sfo-3","host":"sfo-1.us.uncletopia.com","port":27035,"enabled":true,"region":"us-west","cc":"us","latitude":37.77397,"longitude":-122.4313,"reserved":0,"last_update":"0001-01-01T00:00:00Z","name_a2s":"Uncletopia | San Francisco | 3 | Stopwatch","protocol":17,"map":"workshop/cp_reckoner_rc6.ugc674719999","folder":"tf","game":"Team Fortress","app_id":440,"player_count":0,"max_players":24,"Bots":0,"server_type":"Dedicated","server_os":"Linux","password":true,"vac":true,"version":"7961495","steam_id":85568392924742824,"keywords":["cp","nocrits","nodmgspread","uncletopia"],"game_id":440,"stv_port":27036,"stv_name":"Uncletopia | San Francisco | 3 | Stopwatch | STV","players":null},{"server_id":20,"name":"Uncletopia | San Francisco | 4 | Community","name_short":"sfo-4","host":"sfo-1.us.uncletopia.com","port":27045,"enabled":true,"region":"us-west","cc":"us","latitude":37.77397,"longitude":-122.4313,"reserved":0,"last_update":"0001-01-01T00:00:00Z","name_a2s":"Uncletopia | San Francisco | 4 | Community","protocol":17,"map":"pl_pier","folder":"tf","game":"Team Fortress","app_id":440,"player_count":0,"max_players":24,"Bots":0,"server_type":"Dedicated","server_os":"Linux","password":true,"vac":true,"version":"7961495","steam_id":85568392924742826,"keywords":["nocrits","nodmgspread","payload","uncletopia"],"game_id":440,"stv_port":27046,"stv_name":"Uncletopia | San Francisco | 4 | Community | STV","players":null},{"server_id":141,"name":"Uncletopia | Sydney | 1 | All Maps","name_short":"syd-1","host":"syd-1.au.uncletopia.com","port":27015,"enabled":true,"region":"au","cc":"au","latitude":-33.865143,"longitude":151.2099,"reserved":0,"last_update":"0001-01-01T00:00:00Z","name_a2s":"Uncletopia | Sydney | 1 | All Maps","protocol":17,"map":"pl_swiftwater_final1","folder":"tf","game":"Team Fortress","app_id":440,"player_count":0,"max_players":24,"Bots":0,"server_type":"Dedicated","server_os":"Linux","password":true,"vac":true,"version":"7961495","steam_id":85568392924470001,"keywords":["nocrits","nodmgspread","payload","uncletopia"],"game_id":440,"stv_port":27016,"stv_name":"Uncletopia | Sydney | 1 | All Maps | STV","players":null},{"server_id":123,"name":"Uncletopia | Sydney | 2 | All Maps","name_short":"syd-2","host":"syd-1.au.uncletopia.com","port":27025,"enabled":true,"region":"au","cc":"au","latitude":-33.865143,"longitude":151.2099,"reserved":0,"last_update":"0001-01-01T00:00:00Z","name_a2s":"Uncletopia | Sydney | 2 | All Maps","protocol":17,"map":"koth_viaduct","folder":"tf","game":"Team Fortress","app_id":440,"player_count":0,"max_players":24,"Bots":0,"server_type":"Dedicated","server_os":"Linux","password":true,"vac":true,"version":"7961495","steam_id":85568392924470002,"keywords":["cp","nocrits","nodmgspread","uncletopia"],"game_id":440,"stv_port":27026,"stv_name":"Uncletopia | Sydney | 2 | All Maps | STV","players":null},{"server_id":395,"name":"Uncletopia | Sydney | 3 | All Maps","name_short":"syd-3","host":"syd-1.au.uncletopia.com","port":27035,"enabled":true,"region":"au","cc":"au","latitude":-33.865143,"longitude":151.2099,"reserved":0,"last_update":"0001-01-01T00:00:00Z","name_a2s":"Uncletopia | Sydney | 3 | All Maps","protocol":17,"map":"koth_lakeside_final","folder":"tf","game":"Team Fortress","app_id":440,"player_count":0,"max_players":24,"Bots":0,"server_type":"Dedicated","server_os":"Linux","password":true,"vac":true,"version":"7961495","steam_id":85568392925194467,"keywords":["cp","nocrits","nodmgspread","uncletopia"],"game_id":440,"stv_port":27036,"stv_name":"Uncletopia | Sydney | 3 | All Maps | STV","players":null},{"server_id":396,"name":"Uncletopia | Sydney | 4 | All Maps","name_short":"syd-4","host":"syd-1.au.uncletopia.com","port":27045,"enabled":true,"region":"au","cc":"au","latitude":-33.865143,"longitude":151.2099,"reserved":0,"last_update":"0001-01-01T00:00:00Z","name_a2s":"Uncletopia | Sydney | 4 | All Maps","protocol":17,"map":"koth_lakeside_final","folder":"tf","game":"Team Fortress","app_id":440,"player_count":0,"max_players":24,"Bots":0,"server_type":"Dedicated","server_os":"Linux","password":true,"vac":true,"version":"7961495","steam_id":85568392925397958,"keywords":["cp","nocrits","nodmgspread","uncletopia"],"game_id":440,"stv_port":27046,"stv_name":"Uncletopia | Sydney | 4 | All Maps | STV","players":null},{"server_id":58,"name":"Uncletopia | Sydney | 5 | Stopwatch","name_short":"syd-5","host":"syd-1.au.uncletopia.com","port":27055,"enabled":true,"region":"au","cc":"au","latitude":-33.865143,"longitude":151.2099,"reserved":0,"last_update":"0001-01-01T00:00:00Z","name_a2s":"Uncletopia | Sydney | 5 | Stopwatch","protocol":17,"map":"workshop/koth_ashville_final.ugc2130459942","folder":"tf","game":"Team Fortress","app_id":440,"player_count":0,"max_players":24,"Bots":0,"server_type":"Dedicated","server_os":"Linux","password":true,"vac":true,"version":"7961495","steam_id":85568392925397959,"keywords":["cp","nocrits","nodmgspread","uncletopia"],"game_id":440,"stv_port":27056,"stv_name":"Uncletopia | Sydney | 5 | Stopwatch | STV","players":null},{"server_id":59,"name":"Uncletopia | Sydney | 6 | Community","name_short":"syd-6","host":"syd-1.au.uncletopia.com","port":27065,"enabled":true,"region":"au","cc":"au","latitude":-33.865143,"longitude":151.2099,"reserved":0,"last_update":"0001-01-01T00:00:00Z","name_a2s":"Uncletopia | Sydney | 6 | Community","protocol":17,"map":"workshop/rd_asteroid_redux_b1.ugc2154902912","folder":"tf","game":"Team Fortress","app_id":440,"player_count":0,"max_players":24,"Bots":0,"server_type":"Dedicated","server_os":"Linux","password":true,"vac":true,"version":"7961495","steam_id":85568392925397960,"keywords":["beta","nocrits","nodmgspread","rd","uncletopia"],"game_id":440,"stv_port":27066,"stv_name":"Uncletopia | Sydney | 6 | Community | STV","players":null},{"server_id":49,"name":"Uncletopia | Warsaw | 1 | All Maps","name_short":"waw-1","host":"waw-1.pl.uncletopia.com","port":27015,"enabled":true,"region":"eu","cc":"pl","latitude":52.2297,"longitude":21.017532,"reserved":0,"last_update":"0001-01-01T00:00:00Z","name_a2s":"Uncletopia | Warsaw | 1 | All Maps","protocol":17,"map":"pl_badwater","folder":"tf","game":"Team Fortress","app_id":440,"player_count":24,"max_players":24,"Bots":0,"server_type":"Dedicated","server_os":"Linux","password":true,"vac":true,"version":"7961495","steam_id":85568392925397850,"keywords":["nocrits","nodmgspread","payload","uncletopia"],"game_id":440,"stv_port":27016,"stv_name":"Uncletopia | Warsaw | 1 | All Maps | STV","players":[{"user_id":101,"name":"pablo","steam_id":76561198089285014,"connected_time":178000000000,"state":"active","ping":91},{"user_id":52,"name":"heallixa","steam_id":76561198167986712,"connected_time":3101000000000,"state":"active","ping":93},{"user_id":29,"name":"Advokat","steam_id":76561198307121174,"connected_time":4421000000000,"state":"active","ping":44},{"user_id":96,"name":"Trollstoy","steam_id":76561198072017175,"connected_time":323000000000,"state":"active","ping":77},{"user_id":97,"name":"ʲᶠᵍ ♛","steam_id":76561199062437546,"connected_time":299000000000,"state":"active","ping":55},{"user_id":102,"name":"Tengen","steam_id":76561199356990346,"connected_time":177000000000,"state":"active","ping":123},{"user_id":73,"name":"GMsU | Rebikas","steam_id":76561198077053764,"connected_time":2401000000000,"state":"active","ping":62},{"user_id":87,"name":"The Escape Plan","steam_id":76561199015250277,"connected_time":1259000000000,"state":"active","ping":96},{"user_id":35,"name":"♂ Animan ♂ Studios ♂","steam_id":76561198308302932,"connected_time":3822000000000,"state":"active","ping":93},{"user_id":48,"name":"bapil","steam_id":76561199380115431,"connected_time":3381000000000,"state":"active","ping":77},{"user_id":70,"name":"TOKOZACKO","steam_id":76561198125163526,"connected_time":2484000000000,"state":"active","ping":56},{"user_id":60,"name":"pootis sentry","steam_id":76561199225363633,"connected_time":2836000000000,"state":"active","ping":79},{"user_id":98,"name":"printer is broken","steam_id":76561198234270592,"connected_time":295000000000,"state":"active","ping":34},{"user_id":44,"name":"Debch1k","steam_id":76561198144985727,"connected_time":3474000000000,"state":"active","ping":51},{"user_id":103,"name":"Ablativus","steam_id":76561198025698470,"connected_time":176000000000,"state":"active","ping":48},{"user_id":99,"name":"Dokuro","steam_id":76561198005413903,"connected_time":256000000000,"state":"active","ping":53},{"user_id":68,"name":"Beans","steam_id":76561198159189417,"connected_time":2581000000000,"state":"active","ping":84},{"user_id":54,"name":"2c-based","steam_id":76561198054214390,"connected_time":2996000000000,"state":"active","ping":59},{"user_id":104,"name":"przksk","steam_id":76561198450284221,"connected_time":153000000000,"state":"active","ping":48},{"user_id":100,"name":"fiddlesticks","steam_id":76561198155229347,"connected_time":215000000000,"state":"active","ping":70},{"user_id":91,"name":"Gugu","steam_id":76561198161822358,"connected_time":1055000000000,"state":"active","ping":75},{"user_id":105,"name":"DOMINOS","steam_id":76561198334591211,"connected_time":149000000000,"state":"active","ping":43},{"user_id":88,"name":"PashaVerti","steam_id":76561199013963024,"connected_time":1256000000000,"state":"active","ping":56},{"user_id":106,"name":"KODE","steam_id":76561198053212394,"connected_time":126000000000,"state":"active","ping":90}]},{"server_id":50,"name":"Uncletopia | Warsaw | 2 | All Maps","name_short":"waw-2","host":"waw-1.pl.uncletopia.com","port":27025,"enabled":true,"region":"eu","cc":"pl","latitude":52.2297,"longitude":21.017532,"reserved":0,"last_update":"0001-01-01T00:00:00Z","name_a2s":"Uncletopia | Warsaw | 2 | All Maps","protocol":17,"map":"koth_viaduct","folder":"tf","game":"Team Fortress","app_id":440,"player_count":0,"max_players":24,"Bots":0,"server_type":"Dedicated","server_os":"Linux","password":true,"vac":true,"version":"7961495","steam_id":85568392925397851,"keywords":["cp","nocrits","nodmgspread","uncletopia"],"game_id":440,"stv_port":27026,"stv_name":"Uncletopia | Warsaw | 2 | All Maps | STV","players":null},{"server_id":51,"name":"Uncletopia | Warsaw | 3 | All Maps","name_short":"waw-3","host":"waw-1.pl.uncletopia.com","port":27035,"enabled":true,"region":"eu","cc":"pl","latitude":52.2297,"longitude":21.017532,"reserved":0,"last_update":"0001-01-01T00:00:00Z","name_a2s":"Uncletopia | Warsaw | 3 | All Maps","protocol":17,"map":"pl_barnblitz","folder":"tf","game":"Team Fortress","app_id":440,"player_count":2,"max_players":24,"Bots":0,"server_type":"Dedicated","server_os":"Linux","password":true,"vac":true,"version":"7961495","steam_id":85568392925397852,"keywords":["nocrits","nodmgspread","payload","uncletopia"],"game_id":440,"stv_port":27036,"stv_name":"Uncletopia | Warsaw | 3 | All Maps | STV","players":[{"user_id":3,"name":"Filipus","steam_id":76561198034924632,"connected_time":1222000000000,"state":"active","ping":74},{"user_id":4,"name":"Jan0sik","steam_id":76561199244656778,"connected_time":1157000000000,"state":"active","ping":82}]},{"server_id":52,"name":"Uncletopia | Warsaw | 4 | All Maps","name_short":"waw-4","host":"waw-1.pl.uncletopia.com","port":27045,"enabled":true,"region":"eu","cc":"pl","latitude":52.2297,"longitude":21.017532,"reserved":0,"last_update":"0001-01-01T00:00:00Z","name_a2s":"Uncletopia | Warsaw | 4 | All Maps","protocol":17,"map":"pl_borneo","folder":"tf","game":"Team Fortress","app_id":440,"player_count":0,"max_players":24,"Bots":0,"server_type":"Dedicated","server_os":"Linux","password":true,"vac":true,"version":"7961495","steam_id":85568392925397853,"keywords":["nocrits","nodmgspread","payload","uncletopia"],"game_id":440,"stv_port":27046,"stv_name":"Uncletopia | Warsaw | 4 | All Maps | STV","players":null},{"server_id":53,"name":"Uncletopia | Warsaw | 5 | Stopwatch","name_short":"waw-5","host":"waw-1.pl.uncletopia.com","port":27055,"enabled":true,"region":"eu","cc":"pl","latitude":52.2297,"longitude":21.017532,"reserved":0,"last_update":"0001-01-01T00:00:00Z","name_a2s":"Uncletopia | Warsaw | 5 | Stopwatch","protocol":17,"map":"workshop/koth_product_final.ugc454272353","folder":"tf","game":"Team Fortress","app_id":440,"player_count":0,"max_players":24,"Bots":0,"server_type":"Dedicated","server_os":"Linux","password":true,"vac":true,"version":"7961495","steam_id":85568392925397854,"keywords":["cp","nocrits","nodmgspread","uncletopia"],"game_id":440,"stv_port":27056,"stv_name":"Uncletopia | Warsaw | 5 | Stopwatch | STV","players":null},{"server_id":54,"name":"Uncletopia | Warsaw | 6 | Community","name_short":"waw-6","host":"waw-1.pl.uncletopia.com","port":27065,"enabled":true,"region":"eu","cc":"pl","latitude":52.2297,"longitude":21.017532,"reserved":0,"last_update":"0001-01-01T00:00:00Z","name_a2s":"Uncletopia | Warsaw | 6 | Community","protocol":17,"map":"workshop/koth_ashville_final.ugc2130459942","folder":"tf","game":"Team Fortress","app_id":440,"player_count":0,"max_players":24,"Bots":0,"server_type":"Dedicated","server_os":"Linux","password":true,"vac":true,"version":"7961495","steam_id":85568392925397856,"keywords":["cp","nocrits","nodmgspread","uncletopia"],"game_id":440,"stv_port":27066,"stv_name":"Uncletopia | Warsaw | 6 | Community | STV","players":null}]}