{"status":true,"message":"","result":[{"server_id":9,"name":"Uncletopia | Atlanta | 1 | All Maps","name_short":"atl-1","host":"atl-1.us.uncletopia.com","port":27015,"enabled":true,"region":"us-east","cc":"us","latitude":33.753746,"longitude":-84.38633,"reserved":0,"last_update":"0001-01-01T00:00:00Z","name_a2s":"Uncletopia | Atlanta | 1 | All Maps","protocol":17,"map":"pl_swiftwater_final1","folder":"tf","game":"Team Fortress","app_id":440,"player_count":24,"max_players":24,"Bots":0,"server_type":"Dedicated","server_os":"Linux","password":true,"vac":true,"version":"7708610","steam_id":85568392924469982,"keywords":["nocrits","nodmgspread","payload","uncletopia"],"game_id":440,"stv_port":27016,"stv_name":"Uncletopia | Atlanta | 1 | All Maps | STV","players":[{"user_id":296,"name":"Zhong Xina ÈíüÊñ∞Â®ú","steam_id":76561198044022060,"connected_time":1401000000000,"state":"active","ping":49},{"user_id":285,"name":"xyt0nix","steam_id":76561199437938235,"connected_time":1911000000000,"state":"active","ping":51},{"user_id":227,"name":"SuperJagops","steam_id":76561198034689716,"connected_time":7666000000000,"state":"active","ping":68},{"user_id":198,"name":"ATL1 | on my hunting trip","steam_id":76561198315341646,"connected_time":9508000000000,"state":"active","ping":62},{"user_id":287,"name":"--_Cook_--","steam_id":76561198080855748,"connected_time":1874000000000,"state":"active","ping":46},{"user_id":187,"name":"Save your wifi","steam_id":76561198286147372,"connected_time":10407000000000,"state":"active","ping":48},{"user_id":313,"name":"C papi","steam_id":76561198027779564,"connected_time":64000000000,"state":"active","ping":53},{"user_id":306,"name":"Big Man","steam_id":76561198353366625,"connected_time":821000000000,"state":"active","ping":66},{"user_id":312,"name":"remedu","steam_id":76561198005152587,"connected_time":404000000000,"state":"active","ping":58},{"user_id":308,"name":"airbudenjoyer2012","steam_id":76561198150428763,"connected_time":713000000000,"state":"active","ping":81},{"user_id":280,"name":"crunchy and spicy wasp snack","steam_id":76561199322728703,"connected_time":2529000000000,"state":"active","ping":59},{"user_id":264,"name":"Mage","steam_id":76561198285026879,"connected_time":3712000000000,"state":"active","ping":99},{"user_id":150,"name":"cola","steam_id":76561198374390458,"connected_time":13075000000000,"state":"active","ping":51},{"user_id":307,"name":"4d4","steam_id":76561198402360789,"connected_time":777000000000,"state":"active","ping":76},{"user_id":298,"name":"Temina","steam_id":76561198978778718,"connected_time":1249000000000,"state":"active","ping":128},{"user_id":311,"name":"Round King","steam_id":76561198273185290,"connected_time":590000000000,"state":"active","ping":65},{"user_id":304,"name":"Vilhelm","steam_id":76561198811818518,"connected_time":873000000000,"state":"active","ping":67},{"user_id":274,"name":"Lord Vile the Impaler","steam_id":76561198040425096,"connected_time":3412000000000,"state":"active","ping":58},{"user_id":303,"name":"godship","steam_id":76561199090763055,"connected_time":919000000000,"state":"active","ping":45},{"user_id":281,"name":"MaybeMars","steam_id":76561198084736804,"connected_time":2212000000000,"state":"active","ping":71},{"user_id":294,"name":"reis","steam_id":76561199232952016,"connected_time":1663000000000,"state":"active","ping":174},{"user_id":257,"name":"Missing Minus","steam_id":76561198120822928,"connected_time":4464000000000,"state":"active","ping":46},{"user_id":305,"name":"jacix3 [gay wolfgirl]{she/it}","steam_id":76561198205004165,"connected_time":868000000000,"state":"active","ping":120},{"user_id":297,"name":"yup","steam_id":76561199190800520,"connected_time":1390000000000,"state":"active","ping":110}]},{"server_id":400,"name":"Uncletopia | Atlanta | 3 | All Maps","name_short":"atl-3","host":"atl-1.us.uncletopia.com","port":27035,"enabled":true,"region":"us-east","cc":"us","latitude":33.753746,"longitude":-84.38633,"reserved":0,"last_update":"0001-01-01T00:00:00Z","name_a2s":"Uncletopia | Atlanta | 3 | All Maps","protocol":17,"map":"koth_lakeside_final","folder":"tf","game":"Team Fortress","app_id":440,"player_count":24,"max_players":24,"Bots":0,"server_type":"Dedicated","server_os":"Linux","password":true,"vac":true,"version":"7708610","steam_id":85568392924515187,"keywords":["cp","nocrits","nodmgspread","uncletopia"],"game_id":440,"stv_port":27036,"stv_name":"Uncletopia | Atlanta | 3 | All Maps | STV","players":[{"user_id":139,"name":"Raniel Dicciardo","steam_id":76561198053859538,"connected_time":522000000000,"state":"active","ping":92},{"user_id":135,"name":"solveig","steam_id":76561198271713106,"connected_time":1383000000000,"state":"active","ping":86},{"user_id":92,"name":"lamadre07","steam_id":76561198067337453,"connected_time":3484000000000,"state":"active","ping":94},{"user_id":134,"name":"Overwatch 2 ¬Æ By Blizzard ENT.","steam_id":76561198824796895,"connected_time":1564000000000,"state":"active","ping":75},{"user_id":94,"name":"j4miecl4rk","steam_id":76561198404312721,"connected_time":3464000000000,"state":"active","ping":77},{"user_id":138,"name":"hippo mode","steam_id":76561198073455521,"connected_time":738000000000,"state":"active","ping":54},{"user_id":140,"name":"Rock Kickass","steam_id":76561198450510841,"connected_time":369000000000,"state":"active","ping":100},{"user_id":136,"name":"Pathara44","steam_id":76561198048238620,"connected_time":1097000000000,"state":"active","ping":75},{"user_id":118,"name":"Stickey Zelensky","steam_id":76561198202254225,"connected_time":2803000000000,"state":"active","ping":103},{"user_id":101,"name":"FRFTR","steam_id":76561198004481006,"connected_time":3381000000000,"state":"active","ping":105},{"user_id":51,"name":"S0Rcius","steam_id":76561198052901018,"connected_time":7039000000000,"state":"active","ping":149},{"user_id":131,"name":"Aria of The Soul","steam_id":76561198025668771,"connected_time":1725000000000,"state":"active","ping":119},{"user_id":102,"name":"Guwahavel","steam_id":76561198246181902,"connected_time":3375000000000,"state":"active","ping":79},{"user_id":103,"name":"The Fortress From Team Fortress","steam_id":76561198081422503,"connected_time":3370000000000,"state":"active","ping":100},{"user_id":105,"name":"VerociousVee","steam_id":76561198289106015,"connected_time":3320000000000,"state":"active","ping":106},{"user_id":45,"name":"NotEngineer","steam_id":76561198040138739,"connected_time":7600000000000,"state":"active","ping":98},{"user_id":106,"name":"autisthicc","steam_id":76561198003918928,"connected_time":3315000000000,"state":"active","ping":144},{"user_id":120,"name":"‚õßAlkahestry","steam_id":76561198109641497,"connected_time":2736000000000,"state":"active","ping":92},{"user_id":79,"name":"Satori Komeiji","steam_id":76561198158211423,"connected_time":4911000000000,"state":"active","ping":87},{"user_id":123,"name":"The Figgler","steam_id":76561198168295944,"connected_time":2126000000000,"state":"active","ping":86},{"user_id":132,"name":"SDL","steam_id":76561198859719985,"connected_time":1701000000000,"state":"active","ping":88},{"user_id":115,"name":"synin","steam_id":76561198076540384,"connected_time":3036000000000,"state":"active","ping":100},{"user_id":130,"name":"That70sDog","steam_id":76561198119396142,"connected_time":1910000000000,"state":"active","ping":85},{"user_id":117,"name":"Madkiller Max","steam_id":76561197974470705,"connected_time":3027000000000,"state":"active","ping":62}]},{"server_id":401,"name":"Uncletopia | Atlanta | 4 | No Payload","name_short":"atl-4","host":"atl-1.us.uncletopia.com","port":27045,"enabled":true,"region":"us-east","cc":"us","latitude":33.753746,"longitude":-84.38633,"reserved":0,"last_update":"0001-01-01T00:00:00Z","name_a2s":"Uncletopia | Atlanta | 4 | No Payload","protocol":17,"map":"cp_mercenarypark","folder":"tf","game":"Team Fortress","app_id":440,"player_count":0,"max_players":24,"Bots":0,"server_type":"Dedicated","server_os":"Linux","password":true,"vac":true,"version":"7708610","steam_id":85568392924515188,"keywords":["cp","nocrits","nodmgspread","uncletopia"],"game_id":440,"stv_port":27046,"stv_name":"Uncletopia | Atlanta | 4 | No Payload | STV","players":null},{"server_id":2,"name":"Uncletopia | Chicago | 1 | All Maps","name_short":"chi-1","host":"chi-1.us.uncletopia.com","port":27015,"enabled":true,"region":"us-central","cc":"us","latitude":41.881832,"longitude":-87.62318,"reserved":0,"last_update":"0001-01-01T00:00:00Z","name_a2s":"Uncletopia | Chicago | 1 | All Maps","protocol":17,"map":"cp_snakewater_final1","folder":"tf","game":"Team Fortress","app_id":440,"player_count":24,"max_players":24,"Bots":0,"server_type":"Dedicated","server_os":"Linux","password":true,"vac":true,"version":"7708610","steam_id":85568392924469984,"keywords":["cp","nocrits","nodmgspread","uncletopia"],"game_id":440,"stv_port":27016,"stv_name":"Uncletopia | Chicago | 1 | All Maps | STV","players":[{"user_id":263,"name":"Skbonesin","steam_id":76561198180513878,"connected_time":8632000000000,"state":"active","ping":80},{"user_id":249,"name":"stop","steam_id":76561198268686419,"connected_time":10098000000000,"state":"active","ping":56},{"user_id":378,"name":"jodewuulfe","steam_id":76561198815570976,"connected_time":1121000000000,"state":"active","ping":79},{"user_id":390,"name":"Your Fwend","steam_id":76561198154773643,"connected_time":219000000000,"state":"active","ping":64},{"user_id":317,"name":"Pixler544","steam_id":76561198240575132,"connected_time":4069000000000,"state":"active","ping":67},{"user_id":380,"name":"Chode Mode","steam_id":76561198353840477,"connected_time":1062000000000,"state":"active","ping":53},{"user_id":386,"name":"ultrax.extremex","steam_id":76561199201770653,"connected_time":509000000000,"state":"active","ping":61},{"user_id":364,"name":"joe","steam_id":76561198882758067,"connected_time":1365000000000,"state":"active","ping":40},{"user_id":363,"name":"checkswing","steam_id":76561198999816132,"connected_time":1476000000000,"state":"active","ping":75},{"user_id":377,"name":"PBS Kids","steam_id":76561198178049845,"connected_time":1168000000000,"state":"active","ping":80},{"user_id":388,"name":"hedahman","steam_id":76561198052398134,"connected_time":363000000000,"state":"active","ping":102},{"user_id":385,"name":"richard clock","steam_id":76561198048455671,"connected_time":687000000000,"state":"active","ping":60},{"user_id":343,"name":"chunkysquare","steam_id":76561199076468383,"connected_time":2838000000000,"state":"active","ping":106},{"user_id":368,"name":"dougrocks421","steam_id":76561198165063918,"connected_time":1329000000000,"state":"active","ping":91},{"user_id":376,"name":"Sigiferd","steam_id":76561198148788110,"connected_time":1190000000000,"state":"active","ping":118},{"user_id":331,"name":"GREG","steam_id":76561198073021168,"connected_time":3031000000000,"state":"active","ping":74},{"user_id":361,"name":"pepsibobby","steam_id":76561198853864511,"connected_time":1517000000000,"state":"active","ping":81},{"user_id":383,"name":"reiidaya","steam_id":76561198325306660,"connected_time":903000000000,"state":"active","ping":105},{"user_id":350,"name":"john Bloodborne","steam_id":76561199002452936,"connected_time":2460000000000,"state":"active","ping":52},{"user_id":371,"name":"el muchacho","steam_id":76561198282632562,"connected_time":1310000000000,"state":"active","ping":90},{"user_id":379,"name":"comet sooicidy","steam_id":76561198025173479,"connected_time":1120000000000,"state":"active","ping":86},{"user_id":373,"name":"Êó©‰∏äÂ•ΩÔºåÁé∞Âú®ÊàëÊúâÂÜ∞Ê∑á","steam_id":76561198315509912,"connected_time":1262000000000,"state":"active","ping":50},{"user_id":374,"name":"Nassu","steam_id":76561198147367577,"connected_time":1251000000000,"state":"active","ping":66},{"user_id":387,"name":"peanut butter","steam_id":76561198117839474,"connected_time":508000000000,"state":"active","ping":71}]},{"server_id":106,"name":"Uncletopia | Chicago | 2 | All Maps","name_short":"chi-2","host":"chi-1.us.uncletopia.com","port":27025,"enabled":true,"region":"us-central","cc":"us","latitude":41.881832,"longitude":-87.62318,"reserved":0,"last_update":"0001-01-01T00:00:00Z","name_a2s":"Uncletopia | Chicago | 2 | All Maps","protocol":17,"map":"pl_frontier_final","folder":"tf","game":"Team Fortress","app_id":440,"player_count":24,"max_players":24,"Bots":0,"server_type":"Dedicated","server_os":"Linux","password":true,"vac":true,"version":"7708610","steam_id":85568392924469985,"keywords":["nocrits","nodmgspread","payload","uncletopia"],"game_id":440,"stv_port":27026,"stv_name":"Uncletopia | Chicago | 2 | All Maps | STV","players":[{"user_id":238,"name":"Knightshade","steam_id":76561198047225393,"connected_time":940000000000,"state":"active","ping":72},{"user_id":208,"name":"pablo.gonzales.2004","steam_id":76561199217620385,"connected_time":2793000000000,"state":"active","ping":66},{"user_id":240,"name":"A tree","steam_id":76561198309065247,"connected_time":175000000000,"state":"active","ping":62},{"user_id":239,"name":"klevin","steam_id":76561198799106535,"connected_time":824000000000,"state":"active","ping":71},{"user_id":207,"name":"xerro","steam_id":76561198323340524,"connected_time":2824000000000,"state":"active","ping":151},{"user_id":241,"name":"Lovedaddy","steam_id":76561198006569710,"connected_time":158000000000,"state":"active","ping":77},{"user_id":226,"name":"The Rizzler","steam_id":76561198142699958,"connected_time":1630000000000,"state":"active","ping":99},{"user_id":242,"name":"VOID","steam_id":76561198107501413,"connected_time":143000000000,"state":"active","ping":54},{"user_id":171,"name":"SiskoSenpai","steam_id":76561198053701833,"connected_time":5992000000000,"state":"active","ping":102},{"user_id":232,"name":"Dude Named Bob","steam_id":76561198310448093,"connected_time":1592000000000,"state":"active","ping":45},{"user_id":230,"name":"EmeraldMoth","steam_id":76561198153816586,"connected_time":1602000000000,"state":"active","ping":72},{"user_id":212,"name":"DistantJragon","steam_id":76561198117563641,"connected_time":2700000000000,"state":"active","ping":50},{"user_id":199,"name":"ChillSasquatch","steam_id":76561198068408798,"connected_time":3697000000000,"state":"active","ping":60},{"user_id":243,"name":"SnowStorm","steam_id":76561198095817025,"connected_time":134000000000,"state":"active","ping":58},{"user_id":216,"name":"Samrizo el Chorizo","steam_id":76561198009838162,"connected_time":2534000000000,"state":"active","ping":66},{"user_id":215,"name":"ùñöùñé","steam_id":76561198049238840,"connected_time":2566000000000,"state":"active","ping":89},{"user_id":219,"name":"TheGhostThatWas","steam_id":76561198055836483,"connected_time":2361000000000,"state":"active","ping":60},{"user_id":231,"name":"Nuren","steam_id":76561198111190489,"connected_time":1593000000000,"state":"active","ping":90},{"user_id":244,"name":"Boondoggle","steam_id":76561199274022048,"connected_time":82000000000,"state":"active","ping":49},{"user_id":245,"name":"Pennis the Menace","steam_id":76561198254878037,"connected_time":25000000000,"state":"active","ping":77},{"user_id":221,"name":"Vodka Slut","steam_id":76561198079594847,"connected_time":2311000000000,"state":"active","ping":54},{"user_id":246,"name":"ball crusher :}","steam_id":76561198141198352,"connected_time":17000000000,"state":"active","ping":44},{"user_id":237,"name":"dude","steam_id":76561198253202693,"connected_time":1054000000000,"state":"active","ping":105},{"user_id":223,"name":"Kevin Y.","steam_id":76561198364331423,"connected_time":1727000000000,"state":"active","ping":83}]},{"server_id":402,"name":"Uncletopia | Chicago | 3 | All Maps","name_short":"chi-3","host":"chi-1.us.uncletopia.com","port":27035,"enabled":true,"region":"us-central","cc":"us","latitude":41.881832,"longitude":-87.62318,"reserved":0,"last_update":"0001-01-01T00:00:00Z","name_a2s":"Uncletopia | Chicago | 3 | All Maps","protocol":17,"map":"cp_altitude","folder":"tf","game":"Team Fortress","app_id":440,"player_count":0,"max_players":24,"Bots":0,"server_type":"Dedicated","server_os":"Linux","password":true,"vac":true,"version":"7708610","steam_id":85568392924515191,"keywords":["cp","nocrits","nodmgspread","uncletopia"],"game_id":440,"stv_port":27036,"stv_name":"Uncletopia | Chicago | 3 | All Maps | STV","players":null},{"server_id":403,"name":"Uncletopia | Chicago | 4 | All Maps","name_short":"chi-4","host":"chi-1.us.uncletopia.com","port":27045,"enabled":true,"region":"us-central","cc":"us","latitude":41.881832,"longitude":-87.62318,"reserved":0,"last_update":"0001-01-01T00:00:00Z","name_a2s":"Uncletopia | Chicago | 4 | All Maps","protocol":17,"map":"pl_upward","folder":"tf","game":"Team Fortress","app_id":440,"player_count":0,"max_players":24,"Bots":0,"server_type":"Dedicated","server_os":"Linux","password":true,"vac":true,"version":"7708610","steam_id":85568392924515193,"keywords":["nocrits","nodmgspread","payload","uncletopia"],"game_id":440,"stv_port":27046,"stv_name":"Uncletopia | Chicago | 4 | All Maps | STV","players":null},{"server_id":36,"name":"Uncletopia | Chicago | 5 | All Maps","name_short":"chi-5","host":"chi-2.us.uncletopia.com","port":27015,"enabled":true,"region":"us-central","cc":"us","latitude":41.881832,"longitude":-87.62318,"reserved":0,"last_update":"0001-01-01T00:00:00Z","name_a2s":"Uncletopia | Chicago | 5 | All Maps","protocol":17,"map":"pl_upward","folder":"tf","game":"Team Fortress","app_id":440,"player_count":24,"max_players":24,"Bots":0,"server_type":"Dedicated","server_os":"Linux","password":true,"vac":true,"version":"7708610","steam_id":85568392924866362,"keywords":["nocrits","nodmgspread","payload","uncletopia"],"game_id":440,"stv_port":27016,"stv_name":"Uncletopia | Chicago | 5 | All Maps | STV","players":[{"user_id":102,"name":"Misha","steam_id":76561198066174041,"connected_time":5455000000000,"state":"active","ping":61},{"user_id":132,"name":"soldiertf2","steam_id":76561198031861286,"connected_time":4076000000000,"state":"active","ping":79},{"user_id":145,"name":"blob","steam_id":76561198122375328,"connected_time":2626000000000,"state":"active","ping":61},{"user_id":172,"name":"TJ","steam_id":76561198971354161,"connected_time":508000000000,"state":"active","ping":60},{"user_id":174,"name":"Sir Iasis","steam_id":76561198035666760,"connected_time":402000000000,"state":"active","ping":56},{"user_id":146,"name":"Lady Duckland","steam_id":76561198077092840,"connected_time":2591000000000,"state":"active","ping":59},{"user_id":171,"name":"Jorjor Wel","steam_id":76561198059689125,"connected_time":525000000000,"state":"active","ping":104},{"user_id":159,"name":"Dehumanizer","steam_id":76561198209881263,"connected_time":2098000000000,"state":"active","ping":111},{"user_id":165,"name":"Amrfleder","steam_id":76561198869148910,"connected_time":1110000000000,"state":"active","ping":76},{"user_id":144,"name":"wunkem","steam_id":76561198055948497,"connected_time":2638000000000,"state":"active","ping":53},{"user_id":148,"name":"sketchesgallore","steam_id":76561198331254794,"connected_time":2540000000000,"state":"active","ping":118},{"user_id":164,"name":"Wang of Wall St","steam_id":76561198047460598,"connected_time":1396000000000,"state":"active","ping":68},{"user_id":160,"name":"Discourse","steam_id":76561198984286678,"connected_time":2026000000000,"state":"active","ping":44},{"user_id":134,"name":"highWayy","steam_id":76561198042844908,"connected_time":4045000000000,"state":"active","ping":76},{"user_id":89,"name":"GameGuru the Green Gryphon","steam_id":76561198118495354,"connected_time":6567000000000,"state":"active","ping":69},{"user_id":168,"name":"Danny Fentanyl","steam_id":76561197970791798,"connected_time":592000000000,"state":"active","ping":85},{"user_id":152,"name":"WaffletimeCat","steam_id":76561198128946420,"connected_time":2379000000000,"state":"active","ping":79},{"user_id":109,"name":"gordon freeman christmas","steam_id":76561198367735460,"connected_time":5404000000000,"state":"active","ping":75},{"user_id":153,"name":"Grim","steam_id":76561198143005652,"connected_time":2374000000000,"state":"active","ping":59},{"user_id":169,"name":"Brison","steam_id":76561197993377761,"connected_time":568000000000,"state":"active","ping":100},{"user_id":170,"name":"Quansen","steam_id":76561198151594550,"connected_time":551000000000,"state":"active","ping":54},{"user_id":158,"name":"üå∏Princess Novaüå∏","steam_id":76561198320711089,"connected_time":2218000000000,"state":"active","ping":90},{"user_id":175,"name":"Moz","steam_id":76561198027171160,"connected_time":54000000000,"state":"active","ping":42},{"user_id":166,"name":"tkeati","steam_id":76561198056356574,"connected_time":944000000000,"state":"active","ping":104}]},{"server_id":37,"name":"Uncletopia | Chicago | 6 | All Maps","name_short":"chi-6","host":"chi-2.us.uncletopia.com","port":27025,"enabled":true,"region":"us-central","cc":"us","latitude":41.881832,"longitude":-87.62318,"reserved":0,"last_update":"0001-01-01T00:00:00Z","name_a2s":"Uncletopia | Chicago | 6 | All Maps","protocol":17,"map":"koth_cascade","folder":"tf","game":"Team Fortress","app_id":440,"player_count":1,"max_players":24,"Bots":0,"server_type":"Dedicated","server_os":"Linux","password":true,"vac":true,"version":"7708610","steam_id":85568392924866363,"keywords":["cp","nocrits","nodmgspread","uncletopia"],"game_id":440,"stv_port":0,"stv_name":"","players":[{"user_id":5,"name":"Bulk","steam_id":76561199009814535,"connected_time":309000000000,"state":"active","ping":66}]},{"server_id":38,"name":"Uncletopia | Chicago | 7 | No Payload","name_short":"chi-7","host":"chi-2.us.uncletopia.com","port":27035,"enabled":true,"region":"us-central","cc":"us","latitude":41.881832,"longitude":-87.62318,"reserved":0,"last_update":"0001-01-01T00:00:00Z","name_a2s":"Uncletopia | Chicago | 7 | No Payload","protocol":17,"map":"koth_viaduct","folder":"tf","game":"Team Fortress","app_id":440,"player_count":0,"max_players":24,"Bots":0,"server_type":"Dedicated","server_os":"Linux","password":true,"vac":true,"version":"7708610","steam_id":85568392924866364,"keywords":["cp","nocrits","nodmgspread","uncletopia"],"game_id":440,"stv_port":0,"stv_name":"","players":null},{"server_id":39,"name":"Uncletopia | Chicago | 8 | Community","name_short":"chi-8","host":"chi-2.us.uncletopia.com","port":27045,"enabled":true,"region":"us-central","cc":"us","latitude":41.881832,"longitude":-87.62318,"reserved":0,"last_update":"0001-01-01T00:00:00Z","name_a2s":"Uncletopia | Chicago | 8 | Community","protocol":17,"map":"pl_pier","folder":"tf","game":"Team Fortress","app_id":440,"player_count":0,"max_players":24,"Bots":0,"server_type":"Dedicated","server_os":"Linux","password":true,"vac":true,"version":"7708610","steam_id":85568392924866365,"keywords":["nocrits","nodmgspread","payload","uncletopia"],"game_id":440,"stv_port":0,"stv_name":"","players":null},{"server_id":8,"name":"Uncletopia | Dallas | 1 | All Maps","name_short":"dal-1","host":"dal-1.us.uncletopia.com","port":27015,"enabled":true,"region":"us-central","cc":"us","latitude":32.779167,"longitude":-96.80889,"reserved":0,"last_update":"0001-01-01T00:00:00Z","name_a2s":"Uncletopia | Dallas | 1 | All Maps","protocol":17,"map":"pl_snowycoast","folder":"tf","game":"Team Fortress","app_id":440,"player_count":0,"max_players":24,"Bots":0,"server_type":"Dedicated","server_os":"Linux","password":true,"vac":true,"version":"7708610","steam_id":85568392924469986,"keywords":["nocrits","nodmgspread","payload","uncletopia"],"game_id":440,"stv_port":27016,"stv_name":"Uncletopia | Dallas | 1 | All Maps | STV","players":null},{"server_id":108,"name":"Uncletopia | Dallas | 2 | All Maps","name_short":"dal-2","host":"dal-1.us.uncletopia.com","port":27025,"enabled":true,"region":"us-central","cc":"us","latitude":32.779167,"longitude":-96.80889,"reserved":0,"last_update":"0001-01-01T00:00:00Z","name_a2s":"Uncletopia | Dallas | 2 | All Maps","protocol":17,"map":"pl_barnblitz","folder":"tf","game":"Team Fortress","app_id":440,"player_count":24,"max_players":24,"Bots":0,"server_type":"Dedicated","server_os":"Linux","password":true,"vac":true,"version":"7708610","steam_id":85568392924469988,"keywords":["nocrits","nodmgspread","payload","uncletopia"],"game_id":440,"stv_port":0,"stv_name":"","players":[{"user_id":10,"name":"the ape","steam_id":76561198097847998,"connected_time":642000000000,"state":"active","ping":58},{"user_id":7,"name":"the dai li","steam_id":76561198274010187,"connected_time":898000000000,"state":"active","ping":77},{"user_id":15,"name":"totoro","steam_id":76561198210420871,"connected_time":357000000000,"state":"active","ping":64},{"user_id":11,"name":"Piss Time","steam_id":76561198097995505,"connected_time":572000000000,"state":"active","ping":65},{"user_id":17,"name":"dylabgnar","steam_id":76561198829131595,"connected_time":334000000000,"state":"active","ping":70},{"user_id":32,"name":"firefox671387","steam_id":76561199274000697,"connected_time":124000000000,"state":"active","ping":97},{"user_id":27,"name":"Plant","steam_id":76561198025420549,"connected_time":219000000000,"state":"active","ping":75},{"user_id":16,"name":"Kodsix","steam_id":76561198190470643,"connected_time":350000000000,"state":"active","ping":128},{"user_id":18,"name":"Trilithide","steam_id":76561198041319871,"connected_time":317000000000,"state":"active","ping":79},{"user_id":19,"name":"Goku‚Ñ¢ From Disney¬©","steam_id":76561198015327152,"connected_time":310000000000,"state":"active","ping":81},{"user_id":21,"name":"Just_Gas","steam_id":76561198123082220,"connected_time":301000000000,"state":"active","ping":55},{"user_id":22,"name":"Agent Q","steam_id":76561198830829003,"connected_time":299000000000,"state":"active","ping":97},{"user_id":23,"name":"ToddGold","steam_id":76561198186920331,"connected_time":294000000000,"state":"active","ping":66},{"user_id":24,"name":"french press of bel-air","steam_id":76561198024315203,"connected_time":246000000000,"state":"active","ping":65},{"user_id":25,"name":"Consuo","steam_id":76561198868720856,"connected_time":233000000000,"state":"active","ping":86},{"user_id":26,"name":"Griffin","steam_id":76561198159339442,"connected_time":230000000000,"state":"active","ping":93},{"user_id":28,"name":"fish.","steam_id":76561198401455467,"connected_time":219000000000,"state":"active","ping":84},{"user_id":29,"name":"Ipseiit","steam_id":76561198294670312,"connected_time":208000000000,"state":"active","ping":84},{"user_id":30,"name":"Cypress","steam_id":76561198070560915,"connected_time":204000000000,"state":"active","ping":77},{"user_id":31,"name":"Lord GabeN","steam_id":76561198140862723,"connected_time":146000000000,"state":"active","ping":92},{"user_id":33,"name":"Coolman3214","steam_id":76561198443366140,"connected_time":85000000000,"state":"active","ping":97},{"user_id":35,"name":"AlvWhispery","steam_id":76561198850017423,"connected_time":57000000000,"state":"active","ping":90},{"user_id":36,"name":"Officer Mike","steam_id":76561198011641011,"connected_time":48000000000,"state":"active","ping":97},{"user_id":37,"name":"Jaypelt","steam_id":76561198053906849,"connected_time":46000000000,"state":"active","ping":88}]},{"server_id":5,"name":"Uncletopia | Frankfurt | 1 | All Maps","name_short":"frk-1","host":"frk-1.de.uncletopia.com","port":27015,"enabled":true,"region":"eu","cc":"de","latitude":50.110924,"longitude":8.682127,"reserved":0,"last_update":"0001-01-01T00:00:00Z","name_a2s":"Uncletopia | Frankfurt | 1 | All Maps","protocol":17,"map":"pl_barnblitz","folder":"tf","game":"Team Fortress","app_id":440,"player_count":24,"max_players":24,"Bots":0,"server_type":"Dedicated","server_os":"Linux","password":true,"vac":true,"version":"7708610","steam_id":85568392924469989,"keywords":["nocrits","nodmgspread","payload","uncletopia"],"game_id":440,"stv_port":27016,"stv_name":"Uncletopia | Frankfurt | 1 | All Maps | STV","players":[{"user_id":549,"name":"Boobs rater","steam_id":76561198066977580,"connected_time":372000000000,"state":"active","ping":89},{"user_id":553,"name":"LarsInABox","steam_id":76561198028329262,"connected_time":362000000000,"state":"active","ping":74},{"user_id":486,"name":"‚àö(-Wolf)","steam_id":76561198024769704,"connected_time":5226000000000,"state":"active","ping":86},{"user_id":550,"name":"Viperense","steam_id":76561198036206811,"connected_time":372000000000,"state":"active","ping":88},{"user_id":547,"name":"Festdoktor","steam_id":76561198058159271,"connected_time":394000000000,"state":"active","ping":59},{"user_id":556,"name":"RIFT","steam_id":76561198991622379,"connected_time":294000000000,"state":"active","ping":64},{"user_id":557,"name":"Luo Lang","steam_id":76561197988802856,"connected_time":238000000000,"state":"active","ping":57},{"user_id":545,"name":"MAKENTAKEN","steam_id":76561199127359587,"connected_time":984000000000,"state":"active","ping":91},{"user_id":481,"name":"Pico","steam_id":76561198063552545,"connected_time":5417000000000,"state":"active","ping":111},{"user_id":498,"name":"ruby (ribbit)","steam_id":76561198040870467,"connected_time":4796000000000,"state":"active","ping":60},{"user_id":544,"name":"Dkz","steam_id":76561197970673402,"connected_time":1124000000000,"state":"active","ping":50},{"user_id":519,"name":"=OKB= P4NTH3R","steam_id":76561197999204603,"connected_time":2229000000000,"state":"active","ping":52},{"user_id":558,"name":"LordTrap.exe","steam_id":76561198318089716,"connected_time":203000000000,"state":"active","ping":56},{"user_id":529,"name":"[P-roc] Cmm Bert","steam_id":76561198016658674,"connected_time":1792000000000,"state":"active","ping":62},{"user_id":551,"name":"Brob Isn't Real","steam_id":76561199105529860,"connected_time":367000000000,"state":"active","ping":92},{"user_id":531,"name":"jennieg77fire","steam_id":76561199193733460,"connected_time":1767000000000,"state":"active","ping":135},{"user_id":552,"name":"elchi","steam_id":76561198009531752,"connected_time":365000000000,"state":"active","ping":45},{"user_id":559,"name":"OREO","steam_id":76561198017080006,"connected_time":171000000000,"state":"active","ping":110},{"user_id":534,"name":"g","steam_id":76561198033524151,"connected_time":1579000000000,"state":"active","ping":55},{"user_id":541,"name":"JGV","steam_id":76561198094654971,"connected_time":1337000000000,"state":"active","ping":63},{"user_id":554,"name":"Jesse Pinkman","steam_id":76561198153488940,"connected_time":358000000000,"state":"active","ping":68},{"user_id":555,"name":"she strogan me off til i beef","steam_id":76561198166555207,"connected_time":345000000000,"state":"active","ping":71},{"user_id":422,"name":"lad48","steam_id":76561198162146134,"connected_time":9760000000000,"state":"active","ping":106},{"user_id":518,"name":"Serton‚ôù","steam_id":76561198011061126,"connected_time":2265000000000,"state":"active","ping":97}]},{"server_id":110,"name":"Uncletopia | Frankfurt | 2 | All Maps","name_short":"frk-2","host":"frk-1.de.uncletopia.com","port":27025,"enabled":true,"region":"eu","cc":"de","latitude":50.110924,"longitude":8.682127,"reserved":0,"last_update":"0001-01-01T00:00:00Z","name_a2s":"Uncletopia | Frankfurt | 2 | All Maps","protocol":17,"map":"pl_swiftwater_final1","folder":"tf","game":"Team Fortress","app_id":440,"player_count":24,"max_players":24,"Bots":0,"server_type":"Dedicated","server_os":"Linux","password":true,"vac":true,"version":"7708610","steam_id":85568392924469990,"keywords":["nocrits","nodmgspread","payload","uncletopia"],"game_id":440,"stv_port":27026,"stv_name":"Uncletopia | Frankfurt | 2 | All Maps | STV","players":[{"user_id":515,"name":"ƒáirno","steam_id":76561199010825303,"connected_time":784000000000,"state":"active","ping":74},{"user_id":513,"name":"Boki","steam_id":76561198044553351,"connected_time":1015000000000,"state":"active","ping":75},{"user_id":519,"name":"Redmailbox","steam_id":76561198042930322,"connected_time":719000000000,"state":"active","ping":74},{"user_id":498,"name":"worry about it","steam_id":76561199414716848,"connected_time":2260000000000,"state":"active","ping":75},{"user_id":516,"name":"rosepinkyfuzz","steam_id":76561198018546334,"connected_time":777000000000,"state":"active","ping":73},{"user_id":505,"name":"Speibsackerl","steam_id":76561198058135257,"connected_time":1889000000000,"state":"active","ping":59},{"user_id":524,"name":"Caskye","steam_id":76561198165430888,"connected_time":557000000000,"state":"active","ping":69},{"user_id":492,"name":"Sza","steam_id":76561198022132105,"connected_time":2511000000000,"state":"active","ping":61},{"user_id":512,"name":"Who else but Quagmire?","steam_id":76561198358275344,"connected_time":1026000000000,"state":"active","ping":60},{"user_id":521,"name":"Bananagame (Youtube)","steam_id":76561199275399457,"connected_time":695000000000,"state":"active","ping":85},{"user_id":527,"name":"ff:ff:ff:ff:ff:ff","steam_id":76561198072122983,"connected_time":272000000000,"state":"active","ping":64},{"user_id":493,"name":"Wrabchev* Just_Smile","steam_id":76561198040645344,"connected_time":2489000000000,"state":"active","ping":60},{"user_id":453,"name":"Stam","steam_id":76561199233979726,"connected_time":3690000000000,"state":"active","ping":83},{"user_id":410,"name":"dddd","steam_id":76561198120894372,"connected_time":6442000000000,"state":"active","ping":113},{"user_id":503,"name":"Tryrn","steam_id":76561198075487436,"connected_time":2149000000000,"state":"active","ping":114},{"user_id":510,"name":"Gordon Birdman","steam_id":76561198013382324,"connected_time":1539000000000,"state":"active","ping":87},{"user_id":451,"name":"Meem","steam_id":76561199088570961,"connected_time":3808000000000,"state":"active","ping":98},{"user_id":522,"name":"‡∂ûbominasus 2137  #SaveTF2","steam_id":76561198030062981,"connected_time":694000000000,"state":"active","ping":64},{"user_id":501,"name":"foolproof","steam_id":76561198115801132,"connected_time":2212000000000,"state":"active","ping":51},{"user_id":422,"name":"zinzyk","steam_id":76561198128011822,"connected_time":5915000000000,"state":"active","ping":60},{"user_id":523,"name":"pscht","steam_id":76561198275632830,"connected_time":685000000000,"state":"active","ping":49},{"user_id":449,"name":"magnus","steam_id":76561198045570936,"connected_time":3840000000000,"state":"active","ping":86},{"user_id":526,"name":"_Starlight_","steam_id":76561197993885738,"connected_time":445000000000,"state":"active","ping":78},{"user_id":466,"name":"TheMilOne","steam_id":76561198058910512,"connected_time":3054000000000,"state":"active","ping":64}]},{"server_id":308,"name":"Uncletopia | Frankfurt | 3 | All Maps","name_short":"frk-3","host":"frk-1.de.uncletopia.com","port":27035,"enabled":true,"region":"eu","cc":"de","latitude":50.110924,"longitude":8.682127,"reserved":0,"last_update":"0001-01-01T00:00:00Z","name_a2s":"Uncletopia | Frankfurt | 3 | All Maps","protocol":17,"map":"pl_upward","folder":"tf","game":"Team Fortress","app_id":440,"player_count":0,"max_players":24,"Bots":0,"server_type":"Dedicated","server_os":"Linux","password":true,"vac":true,"version":"7708610","steam_id":85568392924504274,"keywords":["nocrits","nodmgspread","payload","uncletopia"],"game_id":440,"stv_port":27036,"stv_name":"Uncletopia | Frankfurt | 3 | All Maps | STV","players":null},{"server_id":309,"name":"Uncletopia | Frankfurt | 4 | All Maps","name_short":"frk-4","host":"frk-1.de.uncletopia.com","port":27045,"enabled":true,"region":"eu","cc":"de","latitude":50.110924,"longitude":8.682127,"reserved":0,"last_update":"0001-01-01T00:00:00Z","name_a2s":"Uncletopia | Frankfurt | 4 | All Maps","protocol":17,"map":"pl_frontier_final","folder":"tf","game":"Team Fortress","app_id":440,"player_count":24,"max_players":24,"Bots":0,"server_type":"Dedicated","server_os":"Linux","password":true,"vac":true,"version":"7708610","steam_id":85568392924504275,"keywords":["nocrits","nodmgspread","payload","uncletopia"],"game_id":440,"stv_port":27046,"stv_name":"Uncletopia | Frankfurt | 4 | All Maps | STV","players":[{"user_id":594,"name":"Milk","steam_id":76561198219146857,"connected_time":7148000000000,"state":"active","ping":84},{"user_id":628,"name":"James","steam_id":76561198799953945,"connected_time":4260000000000,"state":"active","ping":59},{"user_id":691,"name":"Utvar","steam_id":76561198131838460,"connected_time":220000000000,"state":"active","ping":59},{"user_id":673,"name":"F7ooler_of_the_noobs","steam_id":76561198279952779,"connected_time":1452000000000,"state":"active","ping":150},{"user_id":665,"name":"\"sniper\"","steam_id":76561198405291408,"connected_time":1713000000000,"state":"active","ping":65},{"user_id":685,"name":"Raivop","steam_id":76561197980854307,"connected_time":617000000000,"state":"active","ping":97},{"user_id":686,"name":"Dolphin2011","steam_id":76561197997323419,"connected_time":582000000000,"state":"active","ping":90},{"user_id":687,"name":"kalaa ‚Ä†","steam_id":76561198134652336,"connected_time":569000000000,"state":"active","ping":61},{"user_id":692,"name":"o_o","steam_id":76561198113045011,"connected_time":220000000000,"state":"active","ping":104},{"user_id":670,"name":"Samus","steam_id":76561198045943019,"connected_time":1620000000000,"state":"active","ping":54},{"user_id":632,"name":"guiseppe","steam_id":76561198046129681,"connected_time":4050000000000,"state":"active","ping":98},{"user_id":639,"name":"LovableLeaf","steam_id":76561198854720925,"connected_time":3427000000000,"state":"active","ping":78},{"user_id":671,"name":"Human Rights","steam_id":76561198102420849,"connected_time":1614000000000,"state":"active","ping":60},{"user_id":672,"name":".morale-","steam_id":76561198102195119,"connected_time":1559000000000,"state":"active","ping":54},{"user_id":680,"name":"sigma female","steam_id":76561198298576765,"connected_time":1265000000000,"state":"active","ping":75},{"user_id":675,"name":"‚ú∂Biohazard Maker‚ú∂","steam_id":76561198053182839,"connected_time":1414000000000,"state":"active","ping":60},{"user_id":605,"name":"Gurgula","steam_id":76561198021253678,"connected_time":6029000000000,"state":"active","ping":72},{"user_id":638,"name":"Combat Wombat","steam_id":76561197994720068,"connected_time":3490000000000,"state":"active","ping":67},{"user_id":607,"name":"President013","steam_id":76561198107233527,"connected_time":6019000000000,"state":"active","ping":85},{"user_id":688,"name":"penis haver","steam_id":76561198230735156,"connected_time":519000000000,"state":"active","ping":58},{"user_id":677,"name":"ryftomania","steam_id":76561198429138254,"connected_time":1359000000000,"state":"active","ping":62},{"user_id":690,"name":"Ponto-Cho","steam_id":76561198859709451,"connected_time":422000000000,"state":"active","ping":51},{"user_id":637,"name":"christmas eve","steam_id":76561197973182789,"connected_time":3536000000000,"state":"active","ping":61},{"user_id":659,"name":"heisenburger","steam_id":76561198284589853,"connected_time":2678000000000,"state":"active","ping":80}]},{"server_id":310,"name":"Uncletopia | Frankfurt | 5 | All Maps","name_short":"frk-5","host":"frk-1.de.uncletopia.com","port":27055,"enabled":true,"region":"eu","cc":"de","latitude":50.110924,"longitude":8.682127,"reserved":0,"last_update":"0001-01-01T00:00:00Z","name_a2s":"Uncletopia | Frankfurt | 5 | All Maps","protocol":17,"map":"plr_pipeline","folder":"tf","game":"Team Fortress","app_id":440,"player_count":23,"max_players":24,"Bots":0,"server_type":"Dedicated","server_os":"Linux","password":true,"vac":true,"version":"7708610","steam_id":85568392924504277,"keywords":["nocrits","nodmgspread","payload","uncletopia"],"game_id":440,"stv_port":27056,"stv_name":"Uncletopia | Frankfurt | 5 | All Maps | STV","players":[{"user_id":295,"name":"Dewotter","steam_id":76561198007653168,"connected_time":771000000000,"state":"active","ping":68},{"user_id":294,"name":"jzxc","steam_id":76561199003530902,"connected_time":853000000000,"state":"active","ping":93},{"user_id":264,"name":"Skampy","steam_id":76561198322822536,"connected_time":2923000000000,"state":"active","ping":72},{"user_id":279,"name":"Toom","steam_id":76561198005637020,"connected_time":1248000000000,"state":"active","ping":48},{"user_id":293,"name":"Polaris","steam_id":76561198007076931,"connected_time":903000000000,"state":"active","ping":62},{"user_id":284,"name":"Ged","steam_id":76561198079288943,"connected_time":1084000000000,"state":"active","ping":133},{"user_id":302,"name":"bubblojoe","steam_id":76561198044534119,"connected_time":292000000000,"state":"active","ping":68},{"user_id":305,"name":"BlinkedUp","steam_id":76561198249985618,"connected_time":63000000000,"state":"active","ping":65},{"user_id":285,"name":"Moebius","steam_id":76561198045069988,"connected_time":1080000000000,"state":"active","ping":60},{"user_id":286,"name":"bmw","steam_id":76561199442459698,"connected_time":1073000000000,"state":"active","ping":89},{"user_id":306,"name":"( ]KROAN[ )","steam_id":76561198022840710,"connected_time":57000000000,"state":"active","ping":67},{"user_id":287,"name":"Lernix","steam_id":76561198382328645,"connected_time":1055000000000,"state":"active","ping":66},{"user_id":256,"name":"C:\\\u003ePixelty\\\u003e","steam_id":76561198122390810,"connected_time":3361000000000,"state":"active","ping":73},{"user_id":296,"name":"her0es","steam_id":76561198047156773,"connected_time":693000000000,"state":"active","ping":60},{"user_id":270,"name":"Clamor_","steam_id":76561198104368295,"connected_time":2777000000000,"state":"active","ping":81},{"user_id":303,"name":"VolcanicArts","steam_id":76561198063453246,"connected_time":279000000000,"state":"active","ping":69},{"user_id":300,"name":"Standingo","steam_id":76561198035642311,"connected_time":513000000000,"state":"active","ping":96},{"user_id":297,"name":"Sad Slut","steam_id":76561198838277022,"connected_time":688000000000,"state":"active","ping":69},{"user_id":283,"name":"pavlik rohlik","steam_id":76561198110544279,"connected_time":1110000000000,"state":"active","ping":48},{"user_id":275,"name":"BarrackOmaha","steam_id":76561198027922724,"connected_time":1523000000000,"state":"active","ping":75},{"user_id":240,"name":"Charmedelf","steam_id":76561197993611881,"connected_time":3954000000000,"state":"active","ping":60},{"user_id":304,"name":"omnibombulator","steam_id":76561198025858897,"connected_time":237000000000,"state":"active","ping":62},{"user_id":292,"name":"Ork","steam_id":76561197968575924,"connected_time":931000000000,"state":"active","ping":71}]},{"server_id":311,"name":"Uncletopia | Frankfurt | 6 | All Maps","name_short":"frk-6","host":"frk-1.de.uncletopia.com","port":27065,"enabled":true,"region":"eu","cc":"de","latitude":50.110924,"longitude":8.682127,"reserved":0,"last_update":"0001-01-01T00:00:00Z","name_a2s":"Uncletopia | Frankfurt | 6 | All Maps","protocol":17,"map":"pl_thundermountain","folder":"tf","game":"Team Fortress","app_id":440,"player_count":24,"max_players":24,"Bots":0,"server_type":"Dedicated","server_os":"Linux","password":true,"vac":true,"version":"7708610","steam_id":85568392924504278,"keywords":["nocrits","nodmgspread","payload","uncletopia"],"game_id":440,"stv_port":27066,"stv_name":"Uncletopia | Frankfurt | 6 | All Maps | STV","players":[{"user_id":270,"name":"Hexagon","steam_id":76561198151205758,"connected_time":3659000000000,"state":"active","ping":47},{"user_id":321,"name":"zeta307","steam_id":76561198010891875,"connected_time":1738000000000,"state":"active","ping":68},{"user_id":341,"name":"finger","steam_id":76561198032101031,"connected_time":216000000000,"state":"active","ping":110},{"user_id":326,"name":"Dr.Sees [F2P]","steam_id":76561199219233587,"connected_time":1226000000000,"state":"active","ping":76},{"user_id":347,"name":"Gyr0s","steam_id":76561198319915568,"connected_time":40000000000,"state":"spawning","ping":99},{"user_id":325,"name":"Sir William Gaming","steam_id":76561198037676472,"connected_time":1294000000000,"state":"active","ping":76},{"user_id":285,"name":"Laxslow","steam_id":76561198065361846,"connected_time":3068000000000,"state":"active","ping":55},{"user_id":305,"name":"Mr. Mundy","steam_id":76561198132008918,"connected_time":2615000000000,"state":"active","ping":89},{"user_id":323,"name":"Deputy Dog","steam_id":76561197960441667,"connected_time":1701000000000,"state":"active","ping":163},{"user_id":340,"name":"jordaaan","steam_id":76561198060619306,"connected_time":299000000000,"state":"active","ping":50},{"user_id":342,"name":"Zeemii","steam_id":76561198809299581,"connected_time":179000000000,"state":"active","ping":134},{"user_id":330,"name":"fl1p","steam_id":76561198148565659,"connected_time":941000000000,"state":"active","ping":81},{"user_id":296,"name":"Lux","steam_id":76561198060417740,"connected_time":2865000000000,"state":"active","ping":51},{"user_id":304,"name":"Fran","steam_id":76561199070516960,"connected_time":2622000000000,"state":"active","ping":66},{"user_id":343,"name":"Wyvern786","steam_id":76561199137770636,"connected_time":72000000000,"state":"active","ping":68},{"user_id":344,"name":"Cerberus","steam_id":76561199158386096,"connected_time":69000000000,"state":"active","ping":65},{"user_id":332,"name":"Earl Teo","steam_id":76561198121260981,"connected_time":841000000000,"state":"active","ping":54},{"user_id":346,"name":"lofi hip hop beats","steam_id":76561198348048790,"connected_time":50000000000,"state":"active","ping":71},{"user_id":287,"name":"Menty","steam_id":76561198036748212,"connected_time":3063000000000,"state":"active","ping":36},{"user_id":336,"name":"Ton Jravolta","steam_id":76561198049312442,"connected_time":537000000000,"state":"active","ping":69},{"user_id":337,"name":"Mr. Teo","steam_id":76561198030853412,"connected_time":519000000000,"state":"active","ping":60},{"user_id":348,"name":"kenneth","steam_id":76561198133085500,"connected_time":40000000000,"state":"spawning","ping":180},{"user_id":292,"name":"JohnyReaper","steam_id":76561198061794800,"connected_time":2984000000000,"state":"active","ping":75},{"user_id":294,"name":"Stachu","steam_id":76561198127485162,"connected_time":2932000000000,"state":"active","ping":88}]},{"server_id":23,"name":"Uncletopia | Frankfurt | 7 | No Payload","name_short":"frk-7","host":"frk-1.de.uncletopia.com","port":27075,"enabled":true,"region":"eu","cc":"de","latitude":50.110924,"longitude":8.682127,"reserved":0,"last_update":"0001-01-01T00:00:00Z","name_a2s":"Uncletopia | Frankfurt | 7 | No Payload","protocol":17,"map":"koth_sawmill","folder":"tf","game":"Team Fortress","app_id":440,"player_count":23,"max_players":24,"Bots":0,"server_type":"Dedicated","server_os":"Linux","password":true,"vac":true,"version":"7708610","steam_id":85568392924742827,"keywords":["cp","nocrits","nodmgspread","uncletopia"],"game_id":440,"stv_port":27076,"stv_name":"Uncletopia | Frankfurt | 7 | No Payload | STV","players":[{"user_id":147,"name":"zaamnsizofren","steam_id":76561199265839834,"connected_time":2092000000000,"state":"active","ping":89},{"user_id":157,"name":"autogynocelia","steam_id":76561198038995286,"connected_time":1459000000000,"state":"active","ping":159},{"user_id":181,"name":"Checconn","steam_id":76561199100040000,"connected_time":197000000000,"state":"active","ping":73},{"user_id":144,"name":"roblan11","steam_id":76561198066839258,"connected_time":2256000000000,"state":"active","ping":55},{"user_id":57,"name":"Him","steam_id":76561198086400484,"connected_time":8877000000000,"state":"active","ping":67},{"user_id":113,"name":"John Daly","steam_id":76561197993849325,"connected_time":4512000000000,"state":"active","ping":63},{"user_id":172,"name":"DropShot","steam_id":76561198042476724,"connected_time":711000000000,"state":"active","ping":82},{"user_id":145,"name":"Deadly Queen","steam_id":76561198352144873,"connected_time":2238000000000,"state":"active","ping":69},{"user_id":173,"name":"La-Li-Lu-Le-Lo","steam_id":76561198047990600,"connected_time":697000000000,"state":"active","ping":48},{"user_id":83,"name":"X-tis","steam_id":76561198043837480,"connected_time":6194000000000,"state":"active","ping":75},{"user_id":148,"name":"Alibi","steam_id":76561198061845595,"connected_time":2086000000000,"state":"active","ping":60},{"user_id":160,"name":"Ace","steam_id":76561198453289465,"connected_time":1147000000000,"state":"active","ping":71},{"user_id":170,"name":"H2Orange","steam_id":76561198082128552,"connected_time":766000000000,"state":"active","ping":75},{"user_id":161,"name":"I love watermelons","steam_id":76561199067173157,"connected_time":1144000000000,"state":"active","ping":54},{"user_id":175,"name":"Dr Doe Gaming","steam_id":76561199104748293,"connected_time":613000000000,"state":"active","ping":84},{"user_id":163,"name":"shunt","steam_id":76561198452111945,"connected_time":1124000000000,"state":"active","ping":56},{"user_id":179,"name":"Garden Freeman","steam_id":76561199073314677,"connected_time":381000000000,"state":"active","ping":65},{"user_id":177,"name":"Infinitzium","steam_id":76561198844582093,"connected_time":450000000000,"state":"active","ping":72},{"user_id":169,"name":"Leighpoh","steam_id":76561198088577922,"connected_time":798000000000,"state":"active","ping":57},{"user_id":153,"name":"cowboy collins","steam_id":76561198262036705,"connected_time":1791000000000,"state":"active","ping":63},{"user_id":165,"name":"YV","steam_id":76561198147868242,"connected_time":998000000000,"state":"active","ping":53},{"user_id":166,"name":"Peaced.old","steam_id":76561197993682469,"connected_time":985000000000,"state":"active","ping":57},{"user_id":155,"name":"Duarte‚Ñ¢","steam_id":76561198131456324,"connected_time":1771000000000,"state":"active","ping":87}]},{"server_id":24,"name":"Uncletopia | Frankfurt | 8 | Community","name_short":"frk-8","host":"frk-1.de.uncletopia.com","port":27085,"enabled":true,"region":"eu","cc":"de","latitude":50.110924,"longitude":8.682127,"reserved":0,"last_update":"0001-01-01T00:00:00Z","name_a2s":"Uncletopia | Frankfurt | 8 | Community","protocol":17,"map":"workshop/koth_ramjam_v2_b2.ugc2865676487","folder":"tf","game":"Team Fortress","app_id":440,"player_count":0,"max_players":24,"Bots":0,"server_type":"Dedicated","server_os":"Linux","password":true,"vac":true,"version":"7708610","steam_id":85568392924742828,"keywords":["cp","nocrits","nodmgspread","uncletopia"],"game_id":440,"stv_port":27086,"stv_name":"Uncletopia | Frankfurt | 8 | Community | STV","players":null},{"server_id":202,"name":"Uncletopia | Hong Kong | 1 | All Maps","name_short":"hgk-1","host":"hgk-1.hk.uncletopia.com","port":27015,"enabled":true,"region":"asia","cc":"hk","latitude":22.302711,"longitude":114.177216,"reserved":0,"last_update":"0001-01-01T00:00:00Z","name_a2s":"Uncletopia | Hong Kong | 1 | All Maps","protocol":17,"map":"koth_lakeside_final","folder":"tf","game":"Team Fortress","app_id":440,"player_count":0,"max_players":24,"Bots":0,"server_type":"Dedicated","server_os":"Linux","password":true,"vac":true,"version":"7708610","steam_id":85568392924494504,"keywords":["cp","nocrits","nodmgspread","uncletopia"],"game_id":440,"stv_port":27016,"stv_name":"Uncletopia | Hong Kong | 1 | All Maps | STV","players":null},{"server_id":1,"name":"Uncletopia | Los Angeles | 1 | All Maps","name_short":"lax-1","host":"lax-1.us.uncletopia.com","port":27015,"enabled":true,"region":"us-west","cc":"us","latitude":33.94279,"longitude":-118.41004,"reserved":0,"last_update":"0001-01-01T00:00:00Z","name_a2s":"Uncletopia | Los Angeles | 1 | All Maps","protocol":17,"map":"cp_process_final","folder":"tf","game":"Team Fortress","app_id":440,"player_count":0,"max_players":24,"Bots":0,"server_type":"Dedicated","server_os":"Linux","password":true,"vac":true,"version":"7708610","steam_id":85568392924469991,"keywords":["cp","nocrits","nodmgspread","uncletopia"],"game_id":440,"stv_port":0,"stv_name":"","players":null},{"server_id":112,"name":"Uncletopia | Los Angeles | 2 | All Maps","name_short":"lax-2","host":"lax-1.us.uncletopia.com","port":27025,"enabled":true,"region":"us-west","cc":"us","latitude":33.94279,"longitude":-118.41004,"reserved":0,"last_update":"0001-01-01T00:00:00Z","name_a2s":"Uncletopia | Los Angeles | 2 | All Maps","protocol":17,"map":"cp_altitude","folder":"tf","game":"Team Fortress","app_id":440,"player_count":0,"max_players":24,"Bots":0,"server_type":"Dedicated","server_os":"Linux","password":true,"vac":true,"version":"7708610","steam_id":85568392924469992,"keywords":["cp","nocrits","nodmgspread","uncletopia"],"game_id":440,"stv_port":0,"stv_name":"","players":null},{"server_id":324,"name":"Uncletopia | Los Angeles | 3 | All Maps","name_short":"lax-3","host":"lax-1.us.uncletopia.com","port":27035,"enabled":true,"region":"us-west","cc":"us","latitude":33.94279,"longitude":-118.41004,"reserved":0,"last_update":"0001-01-01T00:00:00Z","name_a2s":"Uncletopia | Los Angeles | 3 | All Maps","protocol":17,"map":"cp_sunshine","folder":"tf","game":"Team Fortress","app_id":440,"player_count":0,"max_players":24,"Bots":0,"server_type":"Dedicated","server_os":"Linux","password":true,"vac":true,"version":"7708610","steam_id":85568392924510198,"keywords":["cp","nocrits","nodmgspread","uncletopia"],"game_id":440,"stv_port":27036,"stv_name":"Uncletopia | Los Angeles | 3 | All Maps | STV","players":null},{"server_id":25,"name":"Uncletopia | Los Angeles | 4 | No Payload","name_short":"lax-4","host":"lax-1.us.uncletopia.com","port":27045,"enabled":true,"region":"us-west","cc":"us","latitude":33.94279,"longitude":-118.41004,"reserved":0,"last_update":"0001-01-01T00:00:00Z","name_a2s":"Uncletopia | Los Angeles | 4 | No Payload","protocol":17,"map":"koth_lazarus","folder":"tf","game":"Team Fortress","app_id":440,"player_count":0,"max_players":24,"Bots":0,"server_type":"Dedicated","server_os":"Linux","password":true,"vac":true,"version":"7708610","steam_id":85568392924510199,"keywords":["cp","nocrits","nodmgspread","uncletopia"],"game_id":440,"stv_port":27046,"stv_name":"Uncletopia | Los Angeles | 4 | No Payload | STV","players":null},{"server_id":11,"name":"Uncletopia | London | 1 | All Maps","name_short":"lon-1","host":"lon-1.uk.uncletopia.com","port":27015,"enabled":true,"region":"eu","cc":"gb","latitude":51.509865,"longitude":-0.118092,"reserved":0,"last_update":"0001-01-01T00:00:00Z","name_a2s":"Uncletopia | London | 1 | All Maps","protocol":17,"map":"pl_thundermountain","folder":"tf","game":"Team Fortress","app_id":440,"player_count":24,"max_players":24,"Bots":0,"server_type":"Dedicated","server_os":"Linux","password":true,"vac":true,"version":"7708610","steam_id":85568392924367362,"keywords":["nocrits","nodmgspread","payload","uncletopia"],"game_id":440,"stv_port":27016,"stv_name":"Uncletopia | London | 1 | All Maps | STV","players":[{"user_id":513,"name":"BreadBaubbles","steam_id":76561198174332826,"connected_time":91000000000,"state":"active","ping":58},{"user_id":496,"name":"TheOnlyEgg","steam_id":76561198117795961,"connected_time":1299000000000,"state":"active","ping":118},{"user_id":497,"name":"witxes","steam_id":76561199442579490,"connected_time":1298000000000,"state":"active","ping":60},{"user_id":471,"name":"Simeongr","steam_id":76561198167528347,"connected_time":3451000000000,"state":"active","ping":55},{"user_id":338,"name":"‚ú™ J","steam_id":76561198094911581,"connected_time":14608000000000,"state":"active","ping":50},{"user_id":478,"name":"venomew2","steam_id":76561198327081077,"connected_time":3212000000000,"state":"active","ping":171},{"user_id":491,"name":"ULTIMATE_GORDON","steam_id":76561198044470038,"connected_time":1531000000000,"state":"active","ping":35},{"user_id":498,"name":"SimpleAlgorithms0","steam_id":76561198308367423,"connected_time":1260000000000,"state":"active","ping":43},{"user_id":389,"name":"Mango","steam_id":76561198139555709,"connected_time":10905000000000,"state":"active","ping":54},{"user_id":512,"name":"ball sniffa","steam_id":76561199022705805,"connected_time":173000000000,"state":"active","ping":43},{"user_id":473,"name":"Totally Sane Individual","steam_id":76561198212648588,"connected_time":3432000000000,"state":"active","ping":58},{"user_id":487,"name":"SOPHIIEE","steam_id":76561198443798981,"connected_time":2212000000000,"state":"active","ping":58},{"user_id":467,"name":"juJu","steam_id":76561198049343793,"connected_time":3578000000000,"state":"active","ping":61},{"user_id":275,"name":"festive jones","steam_id":76561198073975078,"connected_time":17491000000000,"state":"active","ping":42},{"user_id":499,"name":"SynthBox3","steam_id":76561199094075745,"connected_time":1231000000000,"state":"active","ping":99},{"user_id":509,"name":"gnome","steam_id":76561198262275475,"connected_time":768000000000,"state":"active","ping":136},{"user_id":455,"name":"Joseph Stalin LFT","steam_id":76561198033199746,"connected_time":5189000000000,"state":"active","ping":50},{"user_id":479,"name":"mcfloofy","steam_id":76561199164876805,"connected_time":3204000000000,"state":"active","ping":121},{"user_id":506,"name":"AWildTamim","steam_id":76561198048060652,"connected_time":1048000000000,"state":"active","ping":40},{"user_id":501,"name":"Vi","steam_id":76561198036546142,"connected_time":1226000000000,"state":"active","ping":41},{"user_id":488,"name":"chrissymas","steam_id":76561198096547662,"connected_time":2129000000000,"state":"active","ping":53},{"user_id":502,"name":"Vince","steam_id":76561199103000131,"connected_time":1216000000000,"state":"active","ping":45},{"user_id":503,"name":"Tuxedo Terrorist","steam_id":76561199015038728,"connected_time":1192000000000,"state":"active","ping":56},{"user_id":514,"name":"fiyahstorm","steam_id":76561197992574261,"connected_time":89000000000,"state":"active","ping":45}]},{"server_id":114,"name":"Uncletopia | London | 2 | All Maps","name_short":"lon-2","host":"lon-1.uk.uncletopia.com","port":27025,"enabled":true,"region":"eu","cc":"gb","latitude":51.509865,"longitude":-0.118092,"reserved":0,"last_update":"0001-01-01T00:00:00Z","name_a2s":"Uncletopia | London | 2 | All Maps","protocol":17,"map":"koth_highpass","folder":"tf","game":"Team Fortress","app_id":440,"player_count":24,"max_players":24,"Bots":0,"server_type":"Dedicated","server_os":"Linux","password":true,"vac":true,"version":"7708610","steam_id":85568392924470941,"keywords":["cp","nocrits","nodmgspread","uncletopia"],"game_id":440,"stv_port":27026,"stv_name":"Uncletopia | London | 2 | All Maps | STV","players":[{"user_id":518,"name":"Prox","steam_id":76561198351490981,"connected_time":388000000000,"state":"active","ping":37},{"user_id":500,"name":"Hasamnas","steam_id":76561199125038537,"connected_time":1472000000000,"state":"active","ping":60},{"user_id":493,"name":"t0ksi","steam_id":76561198107240798,"connected_time":2176000000000,"state":"active","ping":75},{"user_id":497,"name":"Jon","steam_id":76561198148858397,"connected_time":2058000000000,"state":"active","ping":54},{"user_id":514,"name":"Ecy","steam_id":76561198110756682,"connected_time":640000000000,"state":"active","ping":59},{"user_id":496,"name":"cantsniff","steam_id":76561198259668029,"connected_time":2060000000000,"state":"active","ping":55},{"user_id":490,"name":"Kvikk","steam_id":76561198063104117,"connected_time":2228000000000,"state":"active","ping":72},{"user_id":502,"name":"grizzlyknows","steam_id":76561198963818785,"connected_time":1135000000000,"state":"active","ping":152},{"user_id":508,"name":"Virtual Turtle","steam_id":76561198056255236,"connected_time":973000000000,"state":"active","ping":46},{"user_id":520,"name":"Kylul_","steam_id":76561198042981061,"connected_time":94000000000,"state":"active","ping":33},{"user_id":505,"name":"Masny","steam_id":76561198119356510,"connected_time":1086000000000,"state":"active","ping":68},{"user_id":513,"name":"GooseHex","steam_id":76561198881098856,"connected_time":725000000000,"state":"active","ping":56},{"user_id":506,"name":"kapsel","steam_id":76561198126564423,"connected_time":1081000000000,"state":"active","ping":73},{"user_id":483,"name":"compusMentus","steam_id":76561199134152606,"connected_time":2470000000000,"state":"active","ping":90},{"user_id":491,"name":"Vershal Smershal","steam_id":76561198116223995,"connected_time":2203000000000,"state":"active","ping":59},{"user_id":523,"name":"Lods of Emone","steam_id":76561198188642265,"connected_time":20000000000,"state":"active","ping":44},{"user_id":488,"name":"Millero15","steam_id":76561198143105719,"connected_time":2251000000000,"state":"active","ping":95},{"user_id":492,"name":"VERS","steam_id":76561198884232373,"connected_time":2199000000000,"state":"active","ping":60},{"user_id":494,"name":"Platinum_Ace","steam_id":76561198872259385,"connected_time":2165000000000,"state":"active","ping":55},{"user_id":484,"name":"outin","steam_id":76561198137734730,"connected_time":2469000000000,"state":"active","ping":62},{"user_id":476,"name":"Tj0ckis","steam_id":76561198108854226,"connected_time":2839000000000,"state":"active","ping":66},{"user_id":509,"name":"Bitter","steam_id":76561198146532457,"connected_time":837000000000,"state":"active","ping":143},{"user_id":511,"name":"Ed","steam_id":76561198135081318,"connected_time":820000000000,"state":"active","ping":46},{"user_id":519,"name":"Zen","steam_id":76561198116088905,"connected_time":357000000000,"state":"active","ping":46}]},{"server_id":320,"name":"Uncletopia | London | 3 | All Maps","name_short":"lon-3","host":"lon-1.uk.uncletopia.com","port":27035,"enabled":true,"region":"eu","cc":"gb","latitude":51.509865,"longitude":-0.118092,"reserved":0,"last_update":"0001-01-01T00:00:00Z","name_a2s":"Uncletopia | London | 3 | All Maps","protocol":17,"map":"pl_badwater","folder":"tf","game":"Team Fortress","app_id":440,"player_count":24,"max_players":24,"Bots":0,"server_type":"Dedicated","server_os":"Linux","password":true,"vac":true,"version":"7708610","steam_id":85568392924510192,"keywords":["nocrits","nodmgspread","payload","uncletopia"],"game_id":440,"stv_port":27036,"stv_name":"Uncletopia | London | 3 | All Maps | STV","players":[{"user_id":353,"name":"nedilya","steam_id":76561198039692077,"connected_time":1237000000000,"state":"active","ping":61},{"user_id":342,"name":"f√©nix","steam_id":76561198083199151,"connected_time":2002000000000,"state":"active","ping":53},{"user_id":343,"name":"3Aces","steam_id":76561199404202104,"connected_time":2002000000000,"state":"active","ping":47},{"user_id":359,"name":"ObiWonJacobi","steam_id":76561198041921071,"connected_time":737000000000,"state":"active","ping":141},{"user_id":355,"name":"player","steam_id":76561198054474684,"connected_time":974000000000,"state":"active","ping":75},{"user_id":357,"name":"[1stBdC]SARG Quintal","steam_id":76561198171396362,"connected_time":897000000000,"state":"active","ping":91},{"user_id":351,"name":"Bottomest","steam_id":76561198091734693,"connected_time":1477000000000,"state":"active","ping":62},{"user_id":206,"name":"Fat Pigeon","steam_id":76561198817940142,"connected_time":11253000000000,"state":"active","ping":55},{"user_id":363,"name":"Spotmonkey","steam_id":76561198003994092,"connected_time":599000000000,"state":"active","ping":46},{"user_id":301,"name":"bayley","steam_id":76561198117472639,"connected_time":5124000000000,"state":"active","ping":82},{"user_id":358,"name":"SirCyu","steam_id":76561198279703610,"connected_time":781000000000,"state":"active","ping":82},{"user_id":316,"name":"Blat","steam_id":76561199013233409,"connected_time":4444000000000,"state":"active","ping":65},{"user_id":292,"name":"Proto-arc","steam_id":76561198012776747,"connected_time":6380000000000,"state":"active","ping":55},{"user_id":361,"name":"Will Toledo's No. 1 fan","steam_id":76561198397024973,"connected_time":718000000000,"state":"active","ping":34},{"user_id":370,"name":"Mr. Huntsman","steam_id":76561197981910397,"connected_time":55000000000,"state":"active","ping":64},{"user_id":362,"name":"F1-M","steam_id":76561198198409875,"connected_time":657000000000,"state":"active","ping":121},{"user_id":302,"name":"Regan","steam_id":76561198100631086,"connected_time":5105000000000,"state":"active","ping":69},{"user_id":328,"name":"Udinese Dion","steam_id":76561198067931573,"connected_time":3230000000000,"state":"active","ping":65},{"user_id":333,"name":"Thunder.Snail","steam_id":76561198893929297,"connected_time":2722000000000,"state":"active","ping":34},{"user_id":364,"name":"cool_dominik2012@hotmales.bd","steam_id":76561199019473299,"connected_time":574000000000,"state":"active","ping":60},{"user_id":327,"name":"CacatlaCur","steam_id":76561197988772368,"connected_time":3334000000000,"state":"active","ping":125},{"user_id":352,"name":"SPONGE","steam_id":76561198040933472,"connected_time":1474000000000,"state":"active","ping":61},{"user_id":360,"name":"Mr king","steam_id":76561198920609326,"connected_time":731000000000,"state":"active","ping":60},{"user_id":320,"name":"michael","steam_id":76561198030911232,"connected_time":3820000000000,"state":"active","ping":95}]},{"server_id":321,"name":"Uncletopia | London | 4 | All Maps","name_short":"lon-4","host":"lon-1.uk.uncletopia.com","port":27045,"enabled":true,"region":"eu","cc":"gb","latitude":51.509865,"longitude":-0.118092,"reserved":0,"last_update":"0001-01-01T00:00:00Z","name_a2s":"Uncletopia | London | 4 | All Maps","protocol":17,"map":"cp_mountainlab","folder":"tf","game":"Team Fortress","app_id":440,"player_count":0,"max_players":24,"Bots":0,"server_type":"Dedicated","server_os":"Linux","password":true,"vac":true,"version":"7708610","steam_id":85568392924510193,"keywords":["cp","nocrits","nodmgspread","uncletopia"],"game_id":440,"stv_port":27046,"stv_name":"Uncletopia | London | 4 | All Maps | STV","players":null},{"server_id":21,"name":"Uncletopia | London | 5 | All Maps","name_short":"lon-5","host":"lon-1.uk.uncletopia.com","port":27055,"enabled":true,"region":"eu","cc":"gb","latitude":51.509865,"longitude":-0.118092,"reserved":0,"last_update":"0001-01-01T00:00:00Z","name_a2s":"Uncletopia | London | 5 | All Maps","protocol":17,"map":"koth_lakeside_final","folder":"tf","game":"Team Fortress","app_id":440,"player_count":0,"max_players":24,"Bots":0,"server_type":"Dedicated","server_os":"Linux","password":true,"vac":true,"version":"7708610","steam_id":85568392924742829,"keywords":["cp","nocrits","nodmgspread","uncletopia"],"game_id":440,"stv_port":0,"stv_name":"","players":null},{"server_id":22,"name":"Uncletopia | London | 6 | All Maps","name_short":"lon-6","host":"lon-1.uk.uncletopia.com","port":27065,"enabled":true,"region":"eu","cc":"gb","latitude":51.509865,"longitude":-0.118092,"reserved":0,"last_update":"0001-01-01T00:00:00Z","name_a2s":"Uncletopia | London | 6 | All Maps","protocol":17,"map":"cp_altitude","folder":"tf","game":"Team Fortress","app_id":440,"player_count":0,"max_players":24,"Bots":0,"server_type":"Dedicated","server_os":"Linux","password":true,"vac":true,"version":"7708610","steam_id":85568392924742830,"keywords":["cp","nocrits","nodmgspread","uncletopia"],"game_id":440,"stv_port":27066,"stv_name":"Uncletopia | London | 6 | All Maps | STV","players":null},{"server_id":40,"name":"Uncletopia | London | 7 | No Payload","name_short":"lon-7","host":"lon-1.uk.uncletopia.com","port":27075,"enabled":true,"region":"eu","cc":"gb","latitude":51.509865,"longitude":-0.118092,"reserved":0,"last_update":"0001-01-01T00:00:00Z","name_a2s":"Uncletopia | London | 7 | No Payload","protocol":17,"map":"plr_hightower","folder":"tf","game":"Team Fortress","app_id":440,"player_count":0,"max_players":24,"Bots":0,"server_type":"Dedicated","server_os":"Linux","password":true,"vac":true,"version":"7708610","steam_id":85568392924964314,"keywords":["nocrits","nodmgspread","payload","uncletopia"],"game_id":440,"stv_port":27076,"stv_name":"Uncletopia | London | 7 | No Payload | STV","players":null},{"server_id":41,"name":"Uncletopia | London | 8 | Community","name_short":"lon-8","host":"lon-1.uk.uncletopia.com","port":27085,"enabled":true,"region":"eu","cc":"gb","latitude":51.509865,"longitude":-0.118092,"reserved":0,"last_update":"0001-01-01T00:00:00Z","name_a2s":"Uncletopia | London | 8 | Community","protocol":17,"map":"workshop/koth_product_final.ugc454272353","folder":"tf","game":"Team Fortress","app_id":440,"player_count":0,"max_players":24,"Bots":0,"server_type":"Dedicated","server_os":"Linux","password":true,"vac":true,"version":"7708610","steam_id":85568392924964315,"keywords":["cp","nocrits","nodmgspread","uncletopia"],"game_id":440,"stv_port":27086,"stv_name":"Uncletopia | London | 8 | Community | STV","players":null},{"server_id":300,"name":"Uncletopia | Montr√©al | 1 | All Maps","name_short":"mtl-1","host":"mtl-1.ca.uncletopia.com","port":27015,"enabled":true,"region":"us-east","cc":"ca","latitude":45.50889,"longitude":-73.56167,"reserved":0,"last_update":"0001-01-01T00:00:00Z","name_a2s":"Uncletopia | Montr√©al | 1 | All Maps","protocol":17,"map":"pl_snowycoast","folder":"tf","game":"Team Fortress","app_id":440,"player_count":0,"max_players":24,"Bots":0,"server_type":"Dedicated","server_os":"Linux","password":true,"vac":true,"version":"7708610","steam_id":85568392924500087,"keywords":["nocrits","nodmgspread","payload","uncletopia"],"game_id":440,"stv_port":27016,"stv_name":"Uncletopia | Montr√©al | 1 | All Maps | STV","players":null},{"server_id":301,"name":"Uncletopia | Montr√©al | 2 | All Maps","name_short":"mtl-2","host":"mtl-1.ca.uncletopia.com","port":27025,"enabled":true,"region":"us-east","cc":"ca","latitude":45.50889,"longitude":-73.56167,"reserved":0,"last_update":"0001-01-01T00:00:00Z","name_a2s":"Uncletopia | Montr√©al | 2 | All Maps","protocol":17,"map":"pl_frontier_final","folder":"tf","game":"Team Fortress","app_id":440,"player_count":0,"max_players":24,"Bots":0,"server_type":"Dedicated","server_os":"Linux","password":true,"vac":true,"version":"7708610","steam_id":85568392924500088,"keywords":["nocrits","nodmgspread","payload","uncletopia"],"game_id":440,"stv_port":0,"stv_name":"","players":null},{"server_id":302,"name":"Uncletopia | Montr√©al | 3 | All Maps","name_short":"mtl-3","host":"mtl-1.ca.uncletopia.com","port":27035,"enabled":true,"region":"us-east","cc":"ca","latitude":45.50889,"longitude":-73.56167,"reserved":0,"last_update":"0001-01-01T00:00:00Z","name_a2s":"Uncletopia | Montr√©al | 3 | All Maps","protocol":17,"map":"koth_highpass","folder":"tf","game":"Team Fortress","app_id":440,"player_count":0,"max_players":24,"Bots":0,"server_type":"Dedicated","server_os":"Linux","password":true,"vac":true,"version":"7708610","steam_id":85568392924500089,"keywords":["cp","nocrits","nodmgspread","uncletopia"],"game_id":440,"stv_port":27036,"stv_name":"Uncletopia | Montr√©al | 3 | All Maps | STV","players":null},{"server_id":303,"name":"Uncletopia | Montr√©al | 4 | No Payload","name_short":"mtl-4","host":"mtl-1.ca.uncletopia.com","port":27045,"enabled":true,"region":"us-east","cc":"ca","latitude":45.50889,"longitude":-73.56167,"reserved":0,"last_update":"0001-01-01T00:00:00Z","name_a2s":"Uncletopia | Montr√©al | 4 | No Payload","protocol":17,"map":"pl_frontier_final","folder":"tf","game":"Team Fortress","app_id":440,"player_count":0,"max_players":24,"Bots":0,"server_type":"Dedicated","server_os":"Linux","password":true,"vac":true,"version":"7708610","steam_id":85568392924500090,"keywords":["nocrits","nodmgspread","payload","uncletopia"],"game_id":440,"stv_port":0,"stv_name":"","players":null},{"server_id":13,"name":"Uncletopia | New York City | 1 | All Maps","name_short":"nyc-1","host":"nyc-1.us.uncletopia.com","port":27015,"enabled":true,"region":"us-east","cc":"us","latitude":40.73061,"longitude":-73.93524,"reserved":0,"last_update":"0001-01-01T00:00:00Z","name_a2s":"Uncletopia | New York City | 1 | All Maps","protocol":17,"map":"koth_lakeside_final","folder":"tf","game":"Team Fortress","app_id":440,"player_count":0,"max_players":24,"Bots":0,"server_type":"Dedicated","server_os":"Linux","password":true,"vac":true,"version":"7708610","steam_id":85568392924469993,"keywords":["cp","nocrits","nodmgspread","uncletopia"],"game_id":440,"stv_port":27016,"stv_name":"Uncletopia | New York City | 1 | All Maps | STV","players":null},{"server_id":14,"name":"Uncletopia | New York City | 2 | All Maps","name_short":"nyc-2","host":"nyc-1.us.uncletopia.com","port":27025,"enabled":true,"region":"us-east","cc":"us","latitude":40.73061,"longitude":-73.93524,"reserved":0,"last_update":"0001-01-01T00:00:00Z","name_a2s":"Uncletopia | New York City | 2 | All Maps","protocol":17,"map":"pl_snowycoast","folder":"tf","game":"Team Fortress","app_id":440,"player_count":24,"max_players":24,"Bots":0,"server_type":"Dedicated","server_os":"Linux","password":true,"vac":true,"version":"7708610","steam_id":85568392924469994,"keywords":["nocrits","nodmgspread","payload","uncletopia"],"game_id":440,"stv_port":27026,"stv_name":"Uncletopia | New York City | 2 | All Maps | STV","players":[{"user_id":69,"name":"Phocae \u003c3","steam_id":76561199317584594,"connected_time":1052000000000,"state":"active","ping":67},{"user_id":71,"name":"yesoko","steam_id":76561198072917024,"connected_time":1021000000000,"state":"active","ping":73},{"user_id":64,"name":"oopsboom24","steam_id":76561199105248648,"connected_time":1846000000000,"state":"active","ping":83},{"user_id":80,"name":"TheAshenDerp","steam_id":76561198848585450,"connected_time":522000000000,"state":"active","ping":41},{"user_id":54,"name":"hboflexin","steam_id":76561198323411839,"connected_time":2768000000000,"state":"active","ping":59},{"user_id":67,"name":"Bashirider","steam_id":76561198260522253,"connected_time":1082000000000,"state":"active","ping":45},{"user_id":73,"name":"kimin","steam_id":76561198263393063,"connected_time":990000000000,"state":"active","ping":125},{"user_id":48,"name":"Anbu","steam_id":76561199229062814,"connected_time":3515000000000,"state":"active","ping":55},{"user_id":79,"name":"on?jamal","steam_id":76561198020736672,"connected_time":808000000000,"state":"active","ping":57},{"user_id":49,"name":"ailee","steam_id":76561198284326069,"connected_time":3496000000000,"state":"active","ping":52},{"user_id":66,"name":"Bismarck","steam_id":76561198442873012,"connected_time":1302000000000,"state":"active","ping":56},{"user_id":68,"name":"Raincool","steam_id":76561198042953645,"connected_time":1077000000000,"state":"active","ping":49},{"user_id":55,"name":"A Puppy","steam_id":76561198828184456,"connected_time":2740000000000,"state":"active","ping":47},{"user_id":74,"name":"jae are (f2p)","steam_id":76561198027906463,"connected_time":987000000000,"state":"active","ping":72},{"user_id":75,"name":"Èíâ‰Ωè China","steam_id":76561198056871257,"connected_time":976000000000,"state":"active","ping":45},{"user_id":76,"name":"FigBaguette","steam_id":76561198076596803,"connected_time":963000000000,"state":"active","ping":93},{"user_id":59,"name":"THE GIGGLER","steam_id":76561199275294643,"connected_time":2576000000000,"state":"active","ping":83},{"user_id":62,"name":"yungjotaro","steam_id":76561198872608266,"connected_time":2141000000000,"state":"active","ping":67},{"user_id":35,"name":"Grimaud","steam_id":76561197975272734,"connected_time":4002000000000,"state":"active","ping":91},{"user_id":36,"name":"‚ñ≤‚ñº‚ñ≤ Paul Atreideeznuts","steam_id":76561198015714075,"connected_time":3980000000000,"state":"active","ping":60},{"user_id":37,"name":"Fred Bomb","steam_id":76561198342481759,"connected_time":3978000000000,"state":"active","ping":76},{"user_id":77,"name":"Penrose42","steam_id":76561198288577396,"connected_time":957000000000,"state":"active","ping":61},{"user_id":41,"name":"fuitgummy","steam_id":76561198347442429,"connected_time":3910000000000,"state":"active","ping":63},{"user_id":78,"name":"Captain Cosmic","steam_id":76561199025356432,"connected_time":937000000000,"state":"active","ping":50}]},{"server_id":15,"name":"Uncletopia | New York City | 3 | All Maps","name_short":"nyc-3","host":"nyc-1.us.uncletopia.com","port":27035,"enabled":true,"region":"us-east","cc":"us","latitude":40.73061,"longitude":-73.93524,"reserved":0,"last_update":"0001-01-01T00:00:00Z","name_a2s":"Uncletopia | New York City | 3 | All Maps","protocol":17,"map":"cp_dustbowl","folder":"tf","game":"Team Fortress","app_id":440,"player_count":24,"max_players":24,"Bots":0,"server_type":"Dedicated","server_os":"Linux","password":true,"vac":true,"version":"7708610","steam_id":85568392924742820,"keywords":["cp","nocrits","nodmgspread","uncletopia"],"game_id":440,"stv_port":27036,"stv_name":"Uncletopia | New York City | 3 | All Maps | STV","players":[{"user_id":91,"name":"surrender to the void","steam_id":76561198055494039,"connected_time":2407000000000,"state":"active","ping":57},{"user_id":85,"name":"Frost ‚ô•","steam_id":76561198168870617,"connected_time":3624000000000,"state":"active","ping":51},{"user_id":129,"name":"tinkercrab11","steam_id":76561198881792140,"connected_time":842000000000,"state":"active","ping":53},{"user_id":138,"name":"CassieSucksEggs(trans)","steam_id":76561198136303217,"connected_time":219000000000,"state":"active","ping":74},{"user_id":135,"name":"Jim Sock","steam_id":76561198418165673,"connected_time":768000000000,"state":"active","ping":59},{"user_id":125,"name":"conscripted monk","steam_id":76561199029246232,"connected_time":866000000000,"state":"active","ping":93},{"user_id":126,"name":"Iphone 15 pro max ultra SE V2 [","steam_id":76561199086952089,"connected_time":860000000000,"state":"active","ping":51},{"user_id":74,"name":"rlty","steam_id":76561198009395055,"connected_time":4397000000000,"state":"active","ping":53},{"user_id":18,"name":"keffers | Chrimbus Time","steam_id":76561198202338796,"connected_time":7159000000000,"state":"active","ping":90},{"user_id":127,"name":"SwooWoop","steam_id":76561199244312225,"connected_time":852000000000,"state":"active","ping":167},{"user_id":123,"name":"Pancreas Enjoyer","steam_id":76561199438598904,"connected_time":969000000000,"state":"active","ping":100},{"user_id":131,"name":"OneTrueCorvid","steam_id":76561199012953221,"connected_time":817000000000,"state":"active","ping":101},{"user_id":128,"name":"gummie","steam_id":76561198998340318,"connected_time":846000000000,"state":"active","ping":160},{"user_id":116,"name":"walkfu","steam_id":76561198867508854,"connected_time":1243000000000,"state":"active","ping":98},{"user_id":137,"name":"Nibelsnarf","steam_id":76561198137642054,"connected_time":630000000000,"state":"active","ping":59},{"user_id":97,"name":"Bloo (KTGB)","steam_id":76561198126672549,"connected_time":2163000000000,"state":"active","ping":81},{"user_id":35,"name":"ToeSniffer1992","steam_id":76561199134895220,"connected_time":6248000000000,"state":"active","ping":51},{"user_id":136,"name":"BIGGEST MAC","steam_id":76561198847517098,"connected_time":720000000000,"state":"active","ping":74},{"user_id":77,"name":"Ed Santos","steam_id":76561198237997622,"connected_time":4242000000000,"state":"active","ping":150},{"user_id":130,"name":"AmirKhaan","steam_id":76561198992403254,"connected_time":841000000000,"state":"active","ping":57},{"user_id":100,"name":"PinkLemonade","steam_id":76561198799286228,"connected_time":2034000000000,"state":"active","ping":59},{"user_id":112,"name":"Draconic Ballad","steam_id":76561198027191515,"connected_time":1356000000000,"state":"active","ping":60},{"user_id":117,"name":"chad","steam_id":76561198216109017,"connected_time":1242000000000,"state":"active","ping":52},{"user_id":118,"name":"Slappy mc slap face","steam_id":76561199097166604,"connected_time":1191000000000,"state":"active","ping":79}]},{"server_id":16,"name":"Uncletopia | New York City | 4 | Community","name_short":"nyc-4","host":"nyc-1.us.uncletopia.com","port":27045,"enabled":true,"region":"us-east","cc":"us","latitude":40.73061,"longitude":-73.93524,"reserved":0,"last_update":"0001-01-01T00:00:00Z","name_a2s":"Uncletopia | New York City | 4 | Community","protocol":17,"map":"workshop/koth_ramjam_v2_b2.ugc2865676487","folder":"tf","game":"Team Fortress","app_id":440,"player_count":0,"max_players":24,"Bots":0,"server_type":"Dedicated","server_os":"Linux","password":true,"vac":true,"version":"7708610","steam_id":85568392924742821,"keywords":["cp","nocrits","nodmgspread","uncletopia"],"game_id":440,"stv_port":27046,"stv_name":"Uncletopia | New York City | 4 | Community | STV","players":null},{"server_id":142,"name":"Uncletopia | S√£o Paulo | 1 | All Maps","name_short":"sao-1","host":"sao-1.br.uncletopia.com","port":27015,"enabled":true,"region":"sa","cc":"br","latitude":-23.533773,"longitude":-46.62529,"reserved":0,"last_update":"0001-01-01T00:00:00Z","name_a2s":"Uncletopia | S√£o Paulo | 1 | All Maps","protocol":17,"map":"pl_pier","folder":"tf","game":"Team Fortress","app_id":440,"player_count":22,"max_players":24,"Bots":0,"server_type":"Dedicated","server_os":"Linux","password":true,"vac":true,"version":"7708610","steam_id":85568392924469996,"keywords":["nocrits","nodmgspread","payload","uncletopia"],"game_id":440,"stv_port":27016,"stv_name":"Uncletopia | S√£o Paulo | 1 | All Maps | STV","players":[{"user_id":281,"name":"Û†Å≥‚Åß‚ÅßDevs","steam_id":76561198129345768,"connected_time":601000000000,"state":"active","ping":53},{"user_id":275,"name":"vito.","steam_id":76561198118881314,"connected_time":857000000000,"state":"active","ping":51},{"user_id":285,"name":"benjasban","steam_id":76561198862067861,"connected_time":136000000000,"state":"active","ping":95},{"user_id":246,"name":"Pathetic","steam_id":76561198051056987,"connected_time":2043000000000,"state":"active","ping":60},{"user_id":265,"name":"Fall 8)","steam_id":76561199121206897,"connected_time":1448000000000,"state":"active","ping":56},{"user_id":272,"name":"Yaruki","steam_id":76561198332577325,"connected_time":1122000000000,"state":"active","ping":51},{"user_id":264,"name":"Sponge","steam_id":76561198211672733,"connected_time":1459000000000,"state":"active","ping":63},{"user_id":278,"name":"Angel","steam_id":76561199010842733,"connected_time":784000000000,"state":"active","ping":48},{"user_id":282,"name":"Death_Pow","steam_id":76561198312958718,"connected_time":523000000000,"state":"active","ping":55},{"user_id":271,"name":"ca√ßarato | NTC ‚ôõ","steam_id":76561198186342414,"connected_time":1145000000000,"state":"active","ping":58},{"user_id":270,"name":"Casas Bahia","steam_id":76561198144739151,"connected_time":1147000000000,"state":"active","ping":42},{"user_id":250,"name":"eupiteco","steam_id":76561198037613691,"connected_time":1597000000000,"state":"active","ping":77},{"user_id":266,"name":"‚ô°ÂèØÊÑõ„ÅÑ Kawaii ÂèØÊÑõ„ÅÑ\ufffd\ufffd","steam_id":76561198295959283,"connected_time":1434000000000,"state":"active","ping":47},{"user_id":283,"name":"NenF | Yatosemtato","steam_id":76561199066360306,"connected_time":492000000000,"state":"active","ping":82},{"user_id":267,"name":"leoextremo","steam_id":76561198867928520,"connected_time":1392000000000,"state":"active","ping":60},{"user_id":273,"name":"Suck","steam_id":76561198864045923,"connected_time":929000000000,"state":"active","ping":60},{"user_id":268,"name":"Zoom!","steam_id":76561198289562649,"connected_time":1376000000000,"state":"active","ping":47},{"user_id":269,"name":"GabrielCB","steam_id":76561198060023858,"connected_time":1371000000000,"state":"active","ping":60},{"user_id":286,"name":"diego","steam_id":76561199217154329,"connected_time":62000000000,"state":"active","ping":72},{"user_id":231,"name":"Mikael_01","steam_id":76561199080253129,"connected_time":2909000000000,"state":"active","ping":52},{"user_id":239,"name":"der_baggins","steam_id":76561198187034358,"connected_time":2617000000000,"state":"active","ping":109},{"user_id":243,"name":"Pizza","steam_id":76561198969388265,"connected_time":2298000000000,"state":"active","ping":57}]},{"server_id":143,"name":"Uncletopia | S√£o Paulo | 2 | All Maps","name_short":"sao-2","host":"sao-2.br.uncletopia.com","port":27015,"enabled":true,"region":"sa","cc":"br","latitude":-23.533773,"longitude":-46.62529,"reserved":0,"last_update":"0001-01-01T00:00:00Z","name_a2s":"Uncletopia | S√£o Paulo | 2 | All Maps","protocol":17,"map":"koth_highpass","folder":"tf","game":"Team Fortress","app_id":440,"player_count":0,"max_players":24,"Bots":0,"server_type":"Dedicated","server_os":"Linux","password":true,"vac":true,"version":"7708610","steam_id":85568392924485349,"keywords":["cp","nocrits","nodmgspread","uncletopia"],"game_id":440,"stv_port":27016,"stv_name":"Uncletopia | S√£o Paulo | 2 | All Maps | STV","players":null},{"server_id":7,"name":"Uncletopia | Seattle | 1 | All Maps","name_short":"sea-1","host":"sea-1.us.uncletopia.com","port":27015,"enabled":true,"region":"us-west","cc":"us","latitude":47.608013,"longitude":-122.33517,"reserved":0,"last_update":"0001-01-01T00:00:00Z","name_a2s":"Uncletopia | Seattle | 1 | All Maps","protocol":17,"map":"koth_cascade","folder":"tf","game":"Team Fortress","app_id":440,"player_count":0,"max_players":24,"Bots":0,"server_type":"Dedicated","server_os":"Linux","password":true,"vac":true,"version":"7708610","steam_id":85568392924469997,"keywords":["cp","nocrits","nodmgspread","uncletopia"],"game_id":440,"stv_port":0,"stv_name":"","players":null},{"server_id":119,"name":"Uncletopia | Seattle | 2 | All Maps","name_short":"sea-2","host":"sea-1.us.uncletopia.com","port":27025,"enabled":true,"region":"us-west","cc":"us","latitude":47.608013,"longitude":-122.33517,"reserved":0,"last_update":"0001-01-01T00:00:00Z","name_a2s":"Uncletopia | Seattle | 2 | All Maps","protocol":17,"map":"pl_frontier_final","folder":"tf","game":"Team Fortress","app_id":440,"player_count":0,"max_players":24,"Bots":0,"server_type":"Dedicated","server_os":"Linux","password":true,"vac":true,"version":"7708610","steam_id":85568392924469998,"keywords":["nocrits","nodmgspread","payload","uncletopia"],"game_id":440,"stv_port":27026,"stv_name":"Uncletopia | Seattle | 2 | All Maps | STV","players":null},{"server_id":17,"name":"Uncletopia | San Francisco | 1 | All Maps","name_short":"sfo-1","host":"sfo-1.us.uncletopia.com","port":27015,"enabled":true,"region":"us-west","cc":"us","latitude":37.77397,"longitude":-122.4313,"reserved":0,"last_update":"0001-01-01T00:00:00Z","name_a2s":"Uncletopia | San Francisco | 1 | All Maps","protocol":17,"map":"koth_highpass","folder":"tf","game":"Team Fortress","app_id":440,"player_count":0,"max_players":24,"Bots":0,"server_type":"Dedicated","server_os":"Linux","password":true,"vac":true,"version":"7708610","steam_id":85568392924469999,"keywords":["cp","nocrits","nodmgspread","uncletopia"],"game_id":440,"stv_port":27016,"stv_name":"Uncletopia | San Francisco | 1 | All Maps | STV","players":null},{"server_id":18,"name":"Uncletopia | San Francisco | 2 | All Maps","name_short":"sfo-2","host":"sfo-1.us.uncletopia.com","port":27025,"enabled":true,"region":"us-west","cc":"us","latitude":37.77397,"longitude":-122.4313,"reserved":0,"last_update":"0001-01-01T00:00:00Z","name_a2s":"Uncletopia | San Francisco | 2 | All Maps","protocol":17,"map":"koth_cascade","folder":"tf","game":"Team Fortress","app_id":440,"player_count":0,"max_players":24,"Bots":0,"server_type":"Dedicated","server_os":"Linux","password":true,"vac":true,"version":"7708610","steam_id":85568392924470000,"keywords":["cp","nocrits","nodmgspread","uncletopia"],"game_id":440,"stv_port":0,"stv_name":"","players":null},{"server_id":19,"name":"Uncletopia | San Francisco | 3 | No Payload","name_short":"sfo-3","host":"sfo-1.us.uncletopia.com","port":27035,"enabled":true,"region":"us-west","cc":"us","latitude":37.77397,"longitude":-122.4313,"reserved":0,"last_update":"0001-01-01T00:00:00Z","name_a2s":"Uncletopia | San Francisco | 3 | No Payload","protocol":17,"map":"koth_harvest_final","folder":"tf","game":"Team Fortress","app_id":440,"player_count":0,"max_players":24,"Bots":0,"server_type":"Dedicated","server_os":"Linux","password":true,"vac":true,"version":"7708610","steam_id":85568392924742824,"keywords":["cp","nocrits","nodmgspread","uncletopia"],"game_id":440,"stv_port":27036,"stv_name":"Uncletopia | San Francisco | 3 | No Payload | STV","players":null},{"server_id":20,"name":"Uncletopia | San Francisco | 4 | Community","name_short":"sfo-4","host":"sfo-1.us.uncletopia.com","port":27045,"enabled":true,"region":"us-west","cc":"us","latitude":37.77397,"longitude":-122.4313,"reserved":0,"last_update":"0001-01-01T00:00:00Z","name_a2s":"Uncletopia | San Francisco | 4 | Community","protocol":17,"map":"workshop/cp_sulfur_rc2.ugc619869471","folder":"tf","game":"Team Fortress","app_id":440,"player_count":0,"max_players":24,"Bots":0,"server_type":"Dedicated","server_os":"Linux","password":true,"vac":true,"version":"7708610","steam_id":85568392924742826,"keywords":["cp","nocrits","nodmgspread","uncletopia"],"game_id":440,"stv_port":27046,"stv_name":"Uncletopia | San Francisco | 4 | Community | STV","players":null},{"server_id":141,"name":"Uncletopia | Sydney | 1 | All Maps","name_short":"syd-1","host":"syd-1.au.uncletopia.com","port":27015,"enabled":true,"region":"au","cc":"au","latitude":-33.865143,"longitude":151.2099,"reserved":0,"last_update":"0001-01-01T00:00:00Z","name_a2s":"Uncletopia | Sydney | 1 | All Maps","protocol":17,"map":"pl_pier","folder":"tf","game":"Team Fortress","app_id":440,"player_count":0,"max_players":24,"Bots":0,"server_type":"Dedicated","server_os":"Linux","password":true,"vac":true,"version":"7708610","steam_id":85568392924470001,"keywords":["nocrits","nodmgspread","payload","uncletopia"],"game_id":440,"stv_port":0,"stv_name":"","players":null},{"server_id":123,"name":"Uncletopia | Sydney | 2 | All Maps","name_short":"syd-2","host":"syd-1.au.uncletopia.com","port":27025,"enabled":true,"region":"au","cc":"au","latitude":-33.865143,"longitude":151.2099,"reserved":0,"last_update":"0001-01-01T00:00:00Z","name_a2s":"Uncletopia | Sydney | 2 | All Maps","protocol":17,"map":"cp_process_final","folder":"tf","game":"Team Fortress","app_id":440,"player_count":0,"max_players":24,"Bots":0,"server_type":"Dedicated","server_os":"Linux","password":true,"vac":true,"version":"7708610","steam_id":85568392924470002,"keywords":["cp","nocrits","nodmgspread","uncletopia"],"game_id":440,"stv_port":27026,"stv_name":"Uncletopia | Sydney | 2 | All Maps | STV","players":null},{"server_id":395,"name":"Uncletopia | Sydney | 3 | All Maps","name_short":"syd-3","host":"syd-1.au.uncletopia.com","port":27035,"enabled":true,"region":"au","cc":"au","latitude":-33.865143,"longitude":151.2099,"reserved":0,"last_update":"0001-01-01T00:00:00Z","name_a2s":"Uncletopia | Sydney | 3 | All Maps","protocol":17,"map":"pl_pier","folder":"tf","game":"Team Fortress","app_id":440,"player_count":0,"max_players":24,"Bots":0,"server_type":"Dedicated","server_os":"Linux","password":true,"vac":true,"version":"7708610","steam_id":85568392925194467,"keywords":["nocrits","nodmgspread","payload","uncletopia"],"game_id":440,"stv_port":27036,"stv_name":"Uncletopia | Sydney | 3 | All Maps | STV","players":null},{"server_id":396,"name":"Uncletopia | Sydney | 4 | All Maps","name_short":"syd-4","host":"syd-1.au.uncletopia.com","port":27045,"enabled":true,"region":"au","cc":"au","latitude":-33.865143,"longitude":151.2099,"reserved":0,"last_update":"0001-01-01T00:00:00Z","name_a2s":"Uncletopia | Sydney | 4 | All Maps","protocol":17,"map":"koth_lakeside_final","folder":"tf","game":"Team Fortress","app_id":440,"player_count":0,"max_players":24,"Bots":0,"server_type":"Dedicated","server_os":"Linux","password":true,"vac":true,"version":"7708610","steam_id":85568392925397958,"keywords":["cp","nocrits","nodmgspread","uncletopia"],"game_id":440,"stv_port":0,"stv_name":"","players":null},{"server_id":58,"name":"Uncletopia | Sydney | 5 | No Payload","name_short":"syd-5","host":"syd-1.au.uncletopia.com","port":27055,"enabled":true,"region":"au","cc":"au","latitude":-33.865143,"longitude":151.2099,"reserved":0,"last_update":"0001-01-01T00:00:00Z","name_a2s":"Uncletopia | Sydney | 5 | No Payload","protocol":17,"map":"koth_cascade","folder":"tf","game":"Team Fortress","app_id":440,"player_count":0,"max_players":24,"Bots":0,"server_type":"Dedicated","server_os":"Linux","password":true,"vac":true,"version":"7708610","steam_id":85568392925397959,"keywords":["cp","nocrits","nodmgspread","uncletopia"],"game_id":440,"stv_port":0,"stv_name":"","players":null},{"server_id":59,"name":"Uncletopia | Sydney | 6 | Community","name_short":"syd-6","host":"syd-1.au.uncletopia.com","port":27065,"enabled":true,"region":"au","cc":"au","latitude":-33.865143,"longitude":151.2099,"reserved":0,"last_update":"0001-01-01T00:00:00Z","name_a2s":"Uncletopia | Sydney | 6 | Community","protocol":17,"map":"pl_borneo","folder":"tf","game":"Team Fortress","app_id":440,"player_count":0,"max_players":24,"Bots":0,"server_type":"Dedicated","server_os":"Linux","password":true,"vac":true,"version":"7708610","steam_id":85568392925397960,"keywords":["nocrits","nodmgspread","payload","uncletopia"],"game_id":440,"stv_port":0,"stv_name":"","players":null},{"server_id":49,"name":"Uncletopia | Warsaw | 1 | All Maps","name_short":"waw-1","host":"waw-1.pl.uncletopia.com","port":27015,"enabled":true,"region":"eu","cc":"pl","latitude":52.2297,"longitude":21.017532,"reserved":0,"last_update":"0001-01-01T00:00:00Z","name_a2s":"Uncletopia | Warsaw | 1 | All Maps","protocol":17,"map":"pl_pier","folder":"tf","game":"Team Fortress","app_id":440,"player_count":0,"max_players":24,"Bots":0,"server_type":"Dedicated","server_os":"Linux","password":true,"vac":true,"version":"7708610","steam_id":85568392925397850,"keywords":["nocrits","nodmgspread","payload","uncletopia"],"game_id":440,"stv_port":27016,"stv_name":"Uncletopia | Warsaw | 1 | All Maps | STV","players":null},{"server_id":50,"name":"Uncletopia | Warsaw | 2 | All Maps","name_short":"waw-2","host":"waw-1.pl.uncletopia.com","port":27025,"enabled":true,"region":"eu","cc":"pl","latitude":52.2297,"longitude":21.017532,"reserved":0,"last_update":"0001-01-01T00:00:00Z","name_a2s":"Uncletopia | Warsaw | 2 | All Maps","protocol":17,"map":"cp_mountainlab","folder":"tf","game":"Team Fortress","app_id":440,"player_count":0,"max_players":24,"Bots":0,"server_type":"Dedicated","server_os":"Linux","password":true,"vac":true,"version":"7708610","steam_id":85568392925397851,"keywords":["cp","nocrits","nodmgspread","uncletopia"],"game_id":440,"stv_port":27026,"stv_name":"Uncletopia | Warsaw | 2 | All Maps | STV","players":null},{"server_id":51,"name":"Uncletopia | Warsaw | 3 | All Maps","name_short":"waw-3","host":"waw-1.pl.uncletopia.com","port":27035,"enabled":true,"region":"eu","cc":"pl","latitude":52.2297,"longitude":21.017532,"reserved":0,"last_update":"0001-01-01T00:00:00Z","name_a2s":"Uncletopia | Warsaw | 3 | All Maps","protocol":17,"map":"koth_cascade","folder":"tf","game":"Team Fortress","app_id":440,"player_count":0,"max_players":24,"Bots":0,"server_type":"Dedicated","server_os":"Linux","password":true,"vac":true,"version":"7708610","steam_id":85568392925397852,"keywords":["cp","nocrits","nodmgspread","uncletopia"],"game_id":440,"stv_port":0,"stv_name":"","players":null},{"server_id":52,"name":"Uncletopia | Warsaw | 4 | All Maps","name_short":"waw-4","host":"waw-1.pl.uncletopia.com","port":27045,"enabled":true,"region":"eu","cc":"pl","latitude":52.2297,"longitude":21.017532,"reserved":0,"last_update":"0001-01-01T00:00:00Z","name_a2s":"Uncletopia | Warsaw | 4 | All Maps","protocol":17,"map":"pl_badwater","folder":"tf","game":"Team Fortress","app_id":440,"player_count":0,"max_players":24,"Bots":0,"server_type":"Dedicated","server_os":"Linux","password":true,"vac":true,"version":"7708610","steam_id":85568392925397853,"keywords":["nocrits","nodmgspread","payload","uncletopia"],"game_id":440,"stv_port":27046,"stv_name":"Uncletopia | Warsaw | 4 | All Maps | STV","players":null},{"server_id":53,"name":"Uncletopia | Warsaw | 5 | No Payload","name_short":"waw-5","host":"waw-1.pl.uncletopia.com","port":27055,"enabled":true,"region":"eu","cc":"pl","latitude":52.2297,"longitude":21.017532,"reserved":0,"last_update":"0001-01-01T00:00:00Z","name_a2s":"Uncletopia | Warsaw | 5 | No Payload","protocol":17,"map":"cp_dustbowl","folder":"tf","game":"Team Fortress","app_id":440,"player_count":0,"max_players":24,"Bots":0,"server_type":"Dedicated","server_os":"Linux","password":true,"vac":true,"version":"7708610","steam_id":85568392925397854,"keywords":["cp","nocrits","nodmgspread","uncletopia"],"game_id":440,"stv_port":0,"stv_name":"","players":null},{"server_id":54,"name":"Uncletopia | Warsaw | 6 | Community","name_short":"waw-6","host":"waw-1.pl.uncletopia.com","port":27065,"enabled":true,"region":"eu","cc":"pl","latitude":52.2297,"longitude":21.017532,"reserved":0,"last_update":"0001-01-01T00:00:00Z","name_a2s":"Uncletopia | Warsaw | 6 | Community","protocol":17,"map":"koth_highpass","folder":"tf","game":"Team Fortress","app_id":440,"player_count":0,"max_players":24,"Bots":0,"server_type":"Dedicated","server_os":"Linux","password":true,"vac":true,"version":"7708610","steam_id":85568392925397856,"keywords":["cp","nocrits","nodmgspread","uncletopia"],"game_id":440,"stv_port":0,"stv_name":"","players":null}]}