{"status":true,"message":"","result":[{"server_id":9,"name":"Uncletopia | Atlanta | 1 | All Maps","name_short":"atl-1","host":"atl-1.us.uncletopia.com","port":27015,"enabled":true,"region":"us-east","cc":"us","latitude":33.753746,"longitude":-84.38633,"reserved":0,"last_update":"0001-01-01T00:00:00Z","name_a2s":"Uncletopia | Atlanta | 1 | All Maps","protocol":17,"map":"pl_upward","folder":"tf","game":"Team Fortress","app_id":440,"player_count":24,"max_players":24,"Bots":0,"server_type":"Dedicated","server_os":"Linux","password":true,"vac":true,"version":"7961495","steam_id":85568392924469982,"keywords":["nocrits","nodmgspread","payload","uncletopia"],"game_id":440,"stv_port":27016,"stv_name":"Uncletopia | Atlanta | 1 | All Maps | STV","players":null},{"server_id":104,"name":"Uncletopia | Atlanta | 2 | All Maps","name_short":"atl-2","host":"atl-1.us.uncletopia.com","port":27025,"enabled":true,"region":"us-east","cc":"us","latitude":33.753746,"longitude":-84.38633,"reserved":0,"last_update":"0001-01-01T00:00:00Z","name_a2s":"Uncletopia | Atlanta | 2 | All Maps","protocol":17,"map":"koth_cascade","folder":"tf","game":"Team Fortress","app_id":440,"player_count":0,"max_players":24,"Bots":0,"server_type":"Dedicated","server_os":"Linux","password":true,"vac":true,"version":"7961495","steam_id":85568392924469983,"keywords":["cp","nocrits","nodmgspread","uncletopia"],"game_id":440,"stv_port":27026,"stv_name":"Uncletopia | Atlanta | 2 | All Maps | STV","players":null},{"server_id":400,"name":"Uncletopia | Atlanta | 3 | Stopwatch","name_short":"atl-3","host":"atl-1.us.uncletopia.com","port":27035,"enabled":true,"region":"us-east","cc":"us","latitude":33.753746,"longitude":-84.38633,"reserved":0,"last_update":"0001-01-01T00:00:00Z","name_a2s":"Uncletopia | Atlanta | 3 | Stopwatch","protocol":17,"map":"pl_badwater","folder":"tf","game":"Team Fortress","app_id":440,"player_count":0,"max_players":24,"Bots":0,"server_type":"Dedicated","server_os":"Linux","password":true,"vac":true,"version":"7961495","steam_id":85568392924515187,"keywords":["nocrits","nodmgspread","payload","uncletopia"],"game_id":440,"stv_port":27036,"stv_name":"Uncletopia | Atlanta | 3 | Stopwatch | STV","players":null},{"server_id":401,"name":"Uncletopia | Atlanta | 4 | Community","name_short":"atl-4","host":"atl-1.us.uncletopia.com","port":27045,"enabled":true,"region":"us-east","cc":"us","latitude":33.753746,"longitude":-84.38633,"reserved":0,"last_update":"0001-01-01T00:00:00Z","name_a2s":"Uncletopia | Atlanta | 4 | Community","protocol":17,"map":"cp_propaganda_b18","folder":"tf","game":"Team Fortress","app_id":440,"player_count":0,"max_players":24,"Bots":0,"server_type":"Dedicated","server_os":"Linux","password":true,"vac":true,"version":"7961495","steam_id":85568392924515188,"keywords":["cp","nocrits","nodmgspread","uncletopia"],"game_id":440,"stv_port":27046,"stv_name":"Uncletopia | Atlanta | 4 | Community | STV","players":null},{"server_id":2,"name":"Uncletopia | Chicago | 1 | All Maps","name_short":"chi-1","host":"chi-1.us.uncletopia.com","port":27015,"enabled":true,"region":"us-central","cc":"us","latitude":41.881832,"longitude":-87.62318,"reserved":0,"last_update":"0001-01-01T00:00:00Z","name_a2s":"Uncletopia | Chicago | 1 | All Maps","protocol":17,"map":"cp_snakewater_final1","folder":"tf","game":"Team Fortress","app_id":440,"player_count":23,"max_players":24,"Bots":0,"server_type":"Dedicated","server_os":"Linux","password":true,"vac":true,"version":"7961495","steam_id":85568392924469984,"keywords":["cp","nocrits","nodmgspread","uncletopia"],"game_id":440,"stv_port":27016,"stv_name":"Uncletopia | Chicago | 1 | All Maps | STV","players":[{"user_id":171,"name":"Ockulus","steam_id":76561199069638460,"connected_time":9627000000000,"state":"active","ping":102},{"user_id":265,"name":"Astoriae!","steam_id":76561199090168858,"connected_time":2416000000000,"state":"active","ping":66},{"user_id":223,"name":"flappyflap2","steam_id":76561198285048973,"connected_time":5375000000000,"state":"active","ping":60},{"user_id":288,"name":"Talk sweaty to me","steam_id":76561198132940962,"connected_time":1093000000000,"state":"active","ping":54},{"user_id":273,"name":"Extome","steam_id":76561198097801342,"connected_time":1718000000000,"state":"active","ping":53},{"user_id":219,"name":"Fredrick","steam_id":76561197981419964,"connected_time":5846000000000,"state":"active","ping":70},{"user_id":222,"name":"brenden","steam_id":76561198120346280,"connected_time":5413000000000,"state":"active","ping":63},{"user_id":287,"name":"Bee_Pirate","steam_id":76561199000599111,"connected_time":1130000000000,"state":"active","ping":52},{"user_id":290,"name":"ndvr","steam_id":76561199379200102,"connected_time":1056000000000,"state":"active","ping":69},{"user_id":284,"name":"kibsta","steam_id":76561198991982630,"connected_time":1197000000000,"state":"active","ping":58},{"user_id":293,"name":"TechnoBear2099","steam_id":76561198238863596,"connected_time":485000000000,"state":"active","ping":72},{"user_id":274,"name":"Milkmur","steam_id":76561198210043821,"connected_time":1479000000000,"state":"active","ping":69},{"user_id":294,"name":"VirtuaJess","steam_id":76561198043327653,"connected_time":226000000000,"state":"active","ping":56},{"user_id":249,"name":"hitchuwithdawork","steam_id":76561198074687094,"connected_time":4343000000000,"state":"active","ping":67},{"user_id":247,"name":"ADRIEN BRODY","steam_id":76561198009299473,"connected_time":4380000000000,"state":"active","ping":70},{"user_id":257,"name":"Castroy","steam_id":76561198108160099,"connected_time":3748000000000,"state":"active","ping":68},{"user_id":259,"name":"im fat boy","steam_id":76561198270926835,"connected_time":3403000000000,"state":"active","ping":109},{"user_id":261,"name":"lexx","steam_id":76561199238923581,"connected_time":3259000000000,"state":"active","ping":120},{"user_id":292,"name":"Pal","steam_id":76561198079657093,"connected_time":821000000000,"state":"active","ping":61},{"user_id":262,"name":"c64guy","steam_id":76561198023022744,"connected_time":3234000000000,"state":"active","ping":62},{"user_id":252,"name":"krueger","steam_id":76561198268654031,"connected_time":4128000000000,"state":"active","ping":60},{"user_id":289,"name":"Rustyorion","steam_id":76561198439186347,"connected_time":1079000000000,"state":"active","ping":103},{"user_id":271,"name":"sheep man shaun","steam_id":76561198994349483,"connected_time":1840000000000,"state":"active","ping":101}]},{"server_id":106,"name":"Uncletopia | Chicago | 2 | All Maps","name_short":"chi-2","host":"chi-1.us.uncletopia.com","port":27025,"enabled":true,"region":"us-central","cc":"us","latitude":41.881832,"longitude":-87.62318,"reserved":0,"last_update":"0001-01-01T00:00:00Z","name_a2s":"Uncletopia | Chicago | 2 | All Maps","protocol":17,"map":"pl_thundermountain","folder":"tf","game":"Team Fortress","app_id":440,"player_count":24,"max_players":24,"Bots":0,"server_type":"Dedicated","server_os":"Linux","password":true,"vac":true,"version":"7961495","steam_id":85568392924469985,"keywords":["nocrits","nodmgspread","payload","uncletopia"],"game_id":440,"stv_port":27026,"stv_name":"Uncletopia | Chicago | 2 | All Maps | STV","players":[{"user_id":357,"name":"H0ovy","steam_id":76561198996230924,"connected_time":426000000000,"state":"active","ping":55},{"user_id":358,"name":"YOU WHAT?!","steam_id":76561198418679471,"connected_time":393000000000,"state":"active","ping":62},{"user_id":318,"name":"Gibs Degrossi","steam_id":76561198066152609,"connected_time":2451000000000,"state":"active","ping":47},{"user_id":355,"name":"Gato con lentes","steam_id":76561199354003414,"connected_time":568000000000,"state":"active","ping":90},{"user_id":352,"name":"SharpStabbyThing","steam_id":76561199059465912,"connected_time":811000000000,"state":"active","ping":91},{"user_id":326,"name":"Rornir","steam_id":76561198081829615,"connected_time":1888000000000,"state":"active","ping":38},{"user_id":330,"name":"milk and cigarettes","steam_id":76561198079050329,"connected_time":1697000000000,"state":"active","ping":73},{"user_id":359,"name":"Kid named download","steam_id":76561199192074448,"connected_time":354000000000,"state":"active","ping":85},{"user_id":360,"name":"void","steam_id":76561198107501413,"connected_time":294000000000,"state":"active","ping":33},{"user_id":332,"name":"Messed","steam_id":76561198331239994,"connected_time":1251000000000,"state":"active","ping":71},{"user_id":313,"name":"I live inside your balls","steam_id":76561199486711616,"connected_time":2585000000000,"state":"active","ping":59},{"user_id":335,"name":"Rein | Comms Open","steam_id":76561198300340427,"connected_time":1246000000000,"state":"active","ping":64},{"user_id":350,"name":"Chub","steam_id":76561198380637611,"connected_time":942000000000,"state":"active","ping":98},{"user_id":342,"name":"I hate the anti-Christ","steam_id":76561198286792807,"connected_time":1158000000000,"state":"active","ping":64},{"user_id":343,"name":"Twig","steam_id":76561198144111736,"connected_time":1153000000000,"state":"active","ping":55},{"user_id":319,"name":"soltuno","steam_id":76561198074430565,"connected_time":2448000000000,"state":"active","ping":119},{"user_id":344,"name":"3pac","steam_id":76561198068393322,"connected_time":1152000000000,"state":"active","ping":59},{"user_id":285,"name":"Shapeshiftertrue","steam_id":76561198440835095,"connected_time":5586000000000,"state":"active","ping":87},{"user_id":302,"name":"Doffy","steam_id":76561198307816360,"connected_time":3342000000000,"state":"active","ping":102},{"user_id":361,"name":"Sentry Gun","steam_id":76561198037803087,"connected_time":291000000000,"state":"active","ping":71},{"user_id":356,"name":"William Wallace","steam_id":76561199343316814,"connected_time":487000000000,"state":"active","ping":69},{"user_id":346,"name":"Pika","steam_id":76561198068063436,"connected_time":1137000000000,"state":"active","ping":59},{"user_id":329,"name":"Dalvarious","steam_id":76561198052771928,"connected_time":1744000000000,"state":"active","ping":70},{"user_id":349,"name":"Francis from L4D","steam_id":76561199070877046,"connected_time":986000000000,"state":"active","ping":109}]},{"server_id":402,"name":"Uncletopia | Chicago | 3 | All Maps","name_short":"chi-3","host":"chi-1.us.uncletopia.com","port":27035,"enabled":true,"region":"us-central","cc":"us","latitude":41.881832,"longitude":-87.62318,"reserved":0,"last_update":"0001-01-01T00:00:00Z","name_a2s":"Uncletopia | Chicago | 3 | All Maps","protocol":17,"map":"pl_badwater","folder":"tf","game":"Team Fortress","app_id":440,"player_count":24,"max_players":24,"Bots":0,"server_type":"Dedicated","server_os":"Linux","password":true,"vac":true,"version":"7961495","steam_id":85568392924515191,"keywords":["nocrits","nodmgspread","payload","uncletopia"],"game_id":440,"stv_port":27036,"stv_name":"Uncletopia | Chicago | 3 | All Maps | STV","players":[{"user_id":154,"name":"Lucon","steam_id":76561198067147724,"connected_time":7481000000000,"state":"active","ping":61},{"user_id":233,"name":"Wayne","steam_id":76561198088521358,"connected_time":1162000000000,"state":"active","ping":45},{"user_id":245,"name":"Sicko Mode (Chris Pratt Cover)","steam_id":76561198315786174,"connected_time":411000000000,"state":"active","ping":73},{"user_id":200,"name":"the keebler","steam_id":76561199486326945,"connected_time":3928000000000,"state":"active","ping":78},{"user_id":216,"name":"Catgirl With A Gun","steam_id":76561199072298683,"connected_time":1946000000000,"state":"active","ping":77},{"user_id":244,"name":"KATSURB","steam_id":76561199172118456,"connected_time":533000000000,"state":"active","ping":68},{"user_id":192,"name":"paypur -rng","steam_id":76561198214370515,"connected_time":4485000000000,"state":"active","ping":71},{"user_id":236,"name":"-TA- atlas ·ï¶(√≤_√≥Àá)·ï§","steam_id":76561198398383076,"connected_time":675000000000,"state":"active","ping":85},{"user_id":213,"name":"Smashing93","steam_id":76561199058453316,"connected_time":2057000000000,"state":"active","ping":72},{"user_id":239,"name":"bonnicatheshipp","steam_id":76561198842233638,"connected_time":634000000000,"state":"active","ping":180},{"user_id":204,"name":"the.land.of.avalon","steam_id":76561198245431668,"connected_time":3637000000000,"state":"active","ping":56},{"user_id":218,"name":"Try Gardening","steam_id":76561198120311340,"connected_time":1926000000000,"state":"active","ping":48},{"user_id":242,"name":"Munchlax","steam_id":76561199071002439,"connected_time":603000000000,"state":"active","ping":60},{"user_id":228,"name":"frid","steam_id":76561198005806915,"connected_time":1639000000000,"state":"active","ping":74},{"user_id":240,"name":"LONG LIVE THE KING","steam_id":76561199017754044,"connected_time":625000000000,"state":"active","ping":81},{"user_id":241,"name":"Balsamicpork","steam_id":76561197995358472,"connected_time":623000000000,"state":"active","ping":57},{"user_id":227,"name":"Ax0L_","steam_id":76561199008960175,"connected_time":1730000000000,"state":"active","ping":48},{"user_id":248,"name":"GANONDORFPOWEREDBYHEROIN","steam_id":76561198177893343,"connected_time":209000000000,"state":"active","ping":78},{"user_id":243,"name":"Kentucky Fried Lullaby","steam_id":76561198047845399,"connected_time":598000000000,"state":"active","ping":73},{"user_id":231,"name":"Killerkarate","steam_id":76561198067533929,"connected_time":1489000000000,"state":"active","ping":59},{"user_id":202,"name":"GuyGoom","steam_id":76561198254522178,"connected_time":3895000000000,"state":"active","ping":60},{"user_id":161,"name":"RandomRainbow","steam_id":76561199107573588,"connected_time":6832000000000,"state":"active","ping":50},{"user_id":246,"name":"benis_lmfao","steam_id":76561198921309440,"connected_time":390000000000,"state":"active","ping":62},{"user_id":232,"name":"Shaby_Frost","steam_id":76561198401334563,"connected_time":1468000000000,"state":"active","ping":53}]},{"server_id":403,"name":"Uncletopia | Chicago | 4 | All Maps","name_short":"chi-4","host":"chi-1.us.uncletopia.com","port":27045,"enabled":true,"region":"us-central","cc":"us","latitude":41.881832,"longitude":-87.62318,"reserved":0,"last_update":"0001-01-01T00:00:00Z","name_a2s":"Uncletopia | Chicago | 4 | All Maps","protocol":17,"map":"koth_cascade","folder":"tf","game":"Team Fortress","app_id":440,"player_count":1,"max_players":24,"Bots":0,"server_type":"Dedicated","server_os":"Linux","password":true,"vac":true,"version":"7961495","steam_id":85568392924515193,"keywords":["cp","nocrits","nodmgspread","uncletopia"],"game_id":440,"stv_port":27046,"stv_name":"Uncletopia | Chicago | 4 | All Maps | STV","players":[{"user_id":5,"name":"bopob","steam_id":76561198177092939,"connected_time":204000000000,"state":"active","ping":61}]},{"server_id":36,"name":"Uncletopia | Chicago | 5 | All Maps","name_short":"chi-5","host":"chi-2.us.uncletopia.com","port":27015,"enabled":true,"region":"us-central","cc":"us","latitude":41.881832,"longitude":-87.62318,"reserved":0,"last_update":"0001-01-01T00:00:00Z","name_a2s":"Uncletopia | Chicago | 5 | All Maps","protocol":17,"map":"pl_swiftwater_final1","folder":"tf","game":"Team Fortress","app_id":440,"player_count":0,"max_players":24,"Bots":0,"server_type":"Dedicated","server_os":"Linux","password":true,"vac":true,"version":"7961495","steam_id":85568392924866362,"keywords":["nocrits","nodmgspread","payload","uncletopia"],"game_id":440,"stv_port":27016,"stv_name":"Uncletopia | Chicago | 5 | All Maps | STV","players":null},{"server_id":37,"name":"Uncletopia | Chicago | 6 | All Maps","name_short":"chi-6","host":"chi-2.us.uncletopia.com","port":27025,"enabled":true,"region":"us-central","cc":"us","latitude":41.881832,"longitude":-87.62318,"reserved":0,"last_update":"0001-01-01T00:00:00Z","name_a2s":"Uncletopia | Chicago | 6 | All Maps","protocol":17,"map":"pl_frontier_final","folder":"tf","game":"Team Fortress","app_id":440,"player_count":0,"max_players":24,"Bots":0,"server_type":"Dedicated","server_os":"Linux","password":true,"vac":true,"version":"7961495","steam_id":85568392924866363,"keywords":["nocrits","nodmgspread","payload","uncletopia"],"game_id":440,"stv_port":27026,"stv_name":"Uncletopia | Chicago | 6 | All Maps | STV","players":null},{"server_id":38,"name":"Uncletopia | Chicago | 7 | Stopwatch","name_short":"chi-7","host":"chi-2.us.uncletopia.com","port":27035,"enabled":true,"region":"us-central","cc":"us","latitude":41.881832,"longitude":-87.62318,"reserved":0,"last_update":"0001-01-01T00:00:00Z","name_a2s":"Uncletopia | Chicago | 7 | Stopwatch","protocol":17,"map":"pl_swiftwater_final1","folder":"tf","game":"Team Fortress","app_id":440,"player_count":0,"max_players":24,"Bots":0,"server_type":"Dedicated","server_os":"Linux","password":true,"vac":true,"version":"7961495","steam_id":85568392924866364,"keywords":["nocrits","nodmgspread","payload","uncletopia"],"game_id":440,"stv_port":27036,"stv_name":"Uncletopia | Chicago | 7 | Stopwatch | STV","players":null},{"server_id":39,"name":"Uncletopia | Chicago | 8 | Community","name_short":"chi-8","host":"chi-2.us.uncletopia.com","port":27045,"enabled":true,"region":"us-central","cc":"us","latitude":41.881832,"longitude":-87.62318,"reserved":0,"last_update":"0001-01-01T00:00:00Z","name_a2s":"Uncletopia | Chicago | 8 | Community","protocol":17,"map":"pl_pier","folder":"tf","game":"Team Fortress","app_id":440,"player_count":0,"max_players":24,"Bots":0,"server_type":"Dedicated","server_os":"Linux","password":true,"vac":true,"version":"7961495","steam_id":85568392924866365,"keywords":["nocrits","nodmgspread","payload","uncletopia"],"game_id":440,"stv_port":27046,"stv_name":"Uncletopia | Chicago | 8 | Community | STV","players":null},{"server_id":8,"name":"Uncletopia | Dallas | 1 | All Maps","name_short":"dal-1","host":"dal-1.us.uncletopia.com","port":27015,"enabled":true,"region":"us-central","cc":"us","latitude":32.779167,"longitude":-96.80889,"reserved":0,"last_update":"0001-01-01T00:00:00Z","name_a2s":"Uncletopia | Dallas | 1 | All Maps","protocol":17,"map":"pl_borneo","folder":"tf","game":"Team Fortress","app_id":440,"player_count":24,"max_players":24,"Bots":0,"server_type":"Dedicated","server_os":"Linux","password":true,"vac":true,"version":"7961495","steam_id":85568392924469986,"keywords":["nocrits","nodmgspread","payload","uncletopia"],"game_id":440,"stv_port":27016,"stv_name":"Uncletopia | Dallas | 1 | All Maps | STV","players":[{"user_id":435,"name":"imng","steam_id":76561198014988031,"connected_time":518000000000,"state":"active","ping":74},{"user_id":436,"name":"Fran√ßois Vi√®te","steam_id":76561198072975518,"connected_time":509000000000,"state":"active","ping":71},{"user_id":432,"name":"Bucket Hat Trick","steam_id":76561198381785132,"connected_time":615000000000,"state":"active","ping":78},{"user_id":405,"name":"Mr.Bones","steam_id":76561198205170595,"connected_time":1784000000000,"state":"active","ping":98},{"user_id":362,"name":"NJK","steam_id":76561199061380038,"connected_time":5047000000000,"state":"active","ping":74},{"user_id":410,"name":"Jared","steam_id":76561198020432651,"connected_time":1567000000000,"state":"active","ping":101},{"user_id":430,"name":"comet sooicidy","steam_id":76561198025173479,"connected_time":681000000000,"state":"active","ping":94},{"user_id":437,"name":"Docination","steam_id":76561198253360636,"connected_time":495000000000,"state":"active","ping":56},{"user_id":294,"name":"Moonflower ‚ú¶","steam_id":76561198191782483,"connected_time":9998000000000,"state":"active","ping":55},{"user_id":443,"name":"Shemk","steam_id":76561198201593238,"connected_time":135000000000,"state":"active","ping":80},{"user_id":444,"name":"another breloom","steam_id":76561198006938024,"connected_time":78000000000,"state":"active","ping":76},{"user_id":425,"name":"photonbinding","steam_id":76561198250996330,"connected_time":833000000000,"state":"active","ping":64},{"user_id":438,"name":"Flexophile","steam_id":76561198389344499,"connected_time":486000000000,"state":"active","ping":56},{"user_id":439,"name":"Epifiny","steam_id":76561198027958086,"connected_time":477000000000,"state":"active","ping":97},{"user_id":391,"name":"--_Cook_--","steam_id":76561198080855748,"connected_time":2716000000000,"state":"active","ping":48},{"user_id":398,"name":"freeyja","steam_id":76561198249206656,"connected_time":2278000000000,"state":"active","ping":94},{"user_id":442,"name":"stinker","steam_id":76561198295640486,"connected_time":203000000000,"state":"active","ping":79},{"user_id":412,"name":"PhattyPhlop","steam_id":76561198153349473,"connected_time":1422000000000,"state":"active","ping":123},{"user_id":378,"name":"Snoogs","steam_id":76561198444880931,"connected_time":3795000000000,"state":"active","ping":94},{"user_id":414,"name":"CeLeb144","steam_id":76561199089907740,"connected_time":1365000000000,"state":"active","ping":67},{"user_id":433,"name":"Call me the sleeps","steam_id":76561198121245586,"connected_time":597000000000,"state":"active","ping":101},{"user_id":419,"name":"Cursed","steam_id":76561199161458959,"connected_time":1227000000000,"state":"active","ping":83},{"user_id":440,"name":"DlTTO","steam_id":76561199427026752,"connected_time":469000000000,"state":"active","ping":94},{"user_id":427,"name":"k3ramb1t","steam_id":76561198097880352,"connected_time":721000000000,"state":"active","ping":99}]},{"server_id":108,"name":"Uncletopia | Dallas | 2 | All Maps","name_short":"dal-2","host":"dal-1.us.uncletopia.com","port":27025,"enabled":true,"region":"us-central","cc":"us","latitude":32.779167,"longitude":-96.80889,"reserved":0,"last_update":"0001-01-01T00:00:00Z","name_a2s":"Uncletopia | Dallas | 2 | All Maps","protocol":17,"map":"pl_barnblitz","folder":"tf","game":"Team Fortress","app_id":440,"player_count":24,"max_players":24,"Bots":0,"server_type":"Dedicated","server_os":"Linux","password":true,"vac":true,"version":"7961495","steam_id":85568392924469988,"keywords":["nocrits","nodmgspread","payload","uncletopia"],"game_id":440,"stv_port":27026,"stv_name":"Uncletopia | Dallas | 2 | All Maps | STV","players":[{"user_id":131,"name":"corviraptor (\u003c--- awesome)","steam_id":76561198058284392,"connected_time":984000000000,"state":"active","ping":52},{"user_id":118,"name":"Mr.Bunny","steam_id":76561199407580843,"connected_time":1570000000000,"state":"active","ping":97},{"user_id":103,"name":"Jerma985","steam_id":76561199227946025,"connected_time":2950000000000,"state":"active","ping":69},{"user_id":73,"name":"name me pls","steam_id":76561199273576072,"connected_time":4815000000000,"state":"active","ping":170},{"user_id":48,"name":"lilac brooch...","steam_id":76561198333718916,"connected_time":5961000000000,"state":"active","ping":72},{"user_id":126,"name":"Toothpork_","steam_id":76561198152242368,"connected_time":1040000000000,"state":"active","ping":97},{"user_id":95,"name":"Bimbonito","steam_id":76561198069676563,"connected_time":3311000000000,"state":"active","ping":70},{"user_id":104,"name":"bastard","steam_id":76561198300349976,"connected_time":2878000000000,"state":"active","ping":77},{"user_id":127,"name":"Copland OS","steam_id":76561198041800378,"connected_time":1021000000000,"state":"active","ping":82},{"user_id":119,"name":"Cedric","steam_id":76561198072090580,"connected_time":1462000000000,"state":"active","ping":99},{"user_id":100,"name":"Kirby.exe","steam_id":76561198242714582,"connected_time":3113000000000,"state":"active","ping":54},{"user_id":128,"name":"Paradon","steam_id":76561198242214772,"connected_time":1020000000000,"state":"active","ping":75},{"user_id":109,"name":"chiswola","steam_id":76561198046920142,"connected_time":2731000000000,"state":"active","ping":96},{"user_id":130,"name":"‡ºò ‚ãÜÀöüéßCaffeine‚òï*Àñ¬∞","steam_id":76561199259309294,"connected_time":996000000000,"state":"active","ping":97},{"user_id":112,"name":"gooch_masta","steam_id":76561198151578423,"connected_time":2264000000000,"state":"active","ping":87},{"user_id":61,"name":"THE GEESE","steam_id":76561198062763756,"connected_time":5459000000000,"state":"active","ping":78},{"user_id":120,"name":"Sponge","steam_id":76561198099024378,"connected_time":1461000000000,"state":"active","ping":47},{"user_id":114,"name":"Teleporter  (Entrance, Level 3)","steam_id":76561198316927664,"connected_time":2178000000000,"state":"active","ping":106},{"user_id":121,"name":"Barrel","steam_id":76561198177828330,"connected_time":1408000000000,"state":"active","ping":140},{"user_id":64,"name":"Curse of the Blackened Eye","steam_id":76561198097175164,"connected_time":5345000000000,"state":"active","ping":109},{"user_id":106,"name":"Indigolake","steam_id":76561198202215807,"connected_time":2866000000000,"state":"active","ping":100},{"user_id":31,"name":"KaijuCowBelle","steam_id":76561198191619439,"connected_time":6888000000000,"state":"active","ping":84},{"user_id":76,"name":"STAR_","steam_id":76561198016095410,"connected_time":4613000000000,"state":"active","ping":83},{"user_id":132,"name":"Scorpianswag","steam_id":76561198260651036,"connected_time":581000000000,"state":"active","ping":74}]},{"server_id":404,"name":"Uncletopia | Dallas | 3 | All Maps","name_short":"dal-3","host":"dal-1.us.uncletopia.com","port":27035,"enabled":true,"region":"us-central","cc":"us","latitude":32.779167,"longitude":-96.80889,"reserved":0,"last_update":"0001-01-01T00:00:00Z","name_a2s":"Uncletopia | Dallas | 3 | All Maps","protocol":17,"map":"pl_snowycoast","folder":"tf","game":"Team Fortress","app_id":440,"player_count":0,"max_players":24,"Bots":0,"server_type":"Dedicated","server_os":"Linux","password":true,"vac":true,"version":"7961495","steam_id":85568392924515219,"keywords":["nocrits","nodmgspread","payload","uncletopia"],"game_id":440,"stv_port":27036,"stv_name":"Uncletopia | Dallas | 3 | All Maps | STV","players":null},{"server_id":405,"name":"Uncletopia | Dallas | 4 | Community","name_short":"dal-4","host":"dal-1.us.uncletopia.com","port":27045,"enabled":true,"region":"us-central","cc":"us","latitude":32.779167,"longitude":-96.80889,"reserved":0,"last_update":"0001-01-01T00:00:00Z","name_a2s":"Uncletopia | Dallas | 4 | Community","protocol":17,"map":"workshop/pl_corrode_rc2.ugc546577989","folder":"tf","game":"Team Fortress","app_id":440,"player_count":0,"max_players":24,"Bots":0,"server_type":"Dedicated","server_os":"Linux","password":true,"vac":true,"version":"7961495","steam_id":85568392924515220,"keywords":["nocrits","nodmgspread","payload","uncletopia"],"game_id":440,"stv_port":27046,"stv_name":"Uncletopia | Dallas | 4 | Community | STV","players":null},{"server_id":5,"name":"Uncletopia | Frankfurt | 1 | All Maps","name_short":"frk-1","host":"frk-1.de.uncletopia.com","port":27015,"enabled":true,"region":"eu","cc":"de","latitude":50.110924,"longitude":8.682127,"reserved":0,"last_update":"0001-01-01T00:00:00Z","name_a2s":"Uncletopia | Frankfurt | 1 | All Maps","protocol":17,"map":"pl_borneo","folder":"tf","game":"Team Fortress","app_id":440,"player_count":24,"max_players":24,"Bots":0,"server_type":"Dedicated","server_os":"Linux","password":true,"vac":true,"version":"7961495","steam_id":85568392924469989,"keywords":["nocrits","nodmgspread","payload","uncletopia"],"game_id":440,"stv_port":27016,"stv_name":"Uncletopia | Frankfurt | 1 | All Maps | STV","players":[{"user_id":463,"name":"Jeffrey Harpen","steam_id":76561199073314677,"connected_time":120000000000,"state":"active","ping":68},{"user_id":432,"name":"Dictatorial Karelian","steam_id":76561198196736457,"connected_time":2302000000000,"state":"active","ping":75},{"user_id":438,"name":"Torttu","steam_id":76561198013980029,"connected_time":1659000000000,"state":"active","ping":60},{"user_id":393,"name":"Hexagon","steam_id":76561198151205758,"connected_time":4825000000000,"state":"active","ping":52},{"user_id":465,"name":"Endi","steam_id":76561198914938199,"connected_time":88000000000,"state":"active","ping":98},{"user_id":444,"name":"finbar","steam_id":76561198056812396,"connected_time":1530000000000,"state":"active","ping":74},{"user_id":466,"name":"TJ1212","steam_id":76561199013575313,"connected_time":86000000000,"state":"active","ping":65},{"user_id":467,"name":"osssssu","steam_id":76561199259508166,"connected_time":81000000000,"state":"active","ping":83},{"user_id":397,"name":"Lopat","steam_id":76561198820264239,"connected_time":4198000000000,"state":"active","ping":85},{"user_id":453,"name":"Morgan BullFrog","steam_id":76561198088334623,"connected_time":962000000000,"state":"active","ping":82},{"user_id":328,"name":"Fu Manchu","steam_id":76561197995224539,"connected_time":10196000000000,"state":"active","ping":72},{"user_id":454,"name":"Olufsen","steam_id":76561198009324148,"connected_time":938000000000,"state":"active","ping":96},{"user_id":396,"name":"Rock..","steam_id":76561198004641963,"connected_time":4391000000000,"state":"active","ping":74},{"user_id":468,"name":"KlyZian","steam_id":76561199074480286,"connected_time":81000000000,"state":"active","ping":80},{"user_id":461,"name":"Vexu","steam_id":76561198113145846,"connected_time":547000000000,"state":"active","ping":85},{"user_id":442,"name":"Kuntmeister","steam_id":76561198016076012,"connected_time":1649000000000,"state":"active","ping":116},{"user_id":433,"name":"Laz","steam_id":76561199035531550,"connected_time":2057000000000,"state":"active","ping":57},{"user_id":469,"name":"8 Ball","steam_id":76561197960988736,"connected_time":61000000000,"state":"active","ping":62},{"user_id":470,"name":"snowycoast","steam_id":76561198346638308,"connected_time":53000000000,"state":"active","ping":61},{"user_id":435,"name":"CreepyYellowDuck","steam_id":76561198000479387,"connected_time":1865000000000,"state":"active","ping":50},{"user_id":445,"name":"MR BUBBLES","steam_id":76561198019005259,"connected_time":1254000000000,"state":"active","ping":101},{"user_id":471,"name":"Phil","steam_id":76561198056877069,"connected_time":51000000000,"state":"active","ping":54},{"user_id":456,"name":"R@DIO","steam_id":76561197995533046,"connected_time":902000000000,"state":"active","ping":76},{"user_id":472,"name":"Kamanie","steam_id":76561198135448255,"connected_time":19000000000,"state":"spawning","ping":65}]},{"server_id":110,"name":"Uncletopia | Frankfurt | 2 | All Maps","name_short":"frk-2","host":"frk-1.de.uncletopia.com","port":27025,"enabled":true,"region":"eu","cc":"de","latitude":50.110924,"longitude":8.682127,"reserved":0,"last_update":"0001-01-01T00:00:00Z","name_a2s":"Uncletopia | Frankfurt | 2 | All Maps","protocol":17,"map":"cp_process_final","folder":"tf","game":"Team Fortress","app_id":440,"player_count":24,"max_players":24,"Bots":0,"server_type":"Dedicated","server_os":"Linux","password":true,"vac":true,"version":"7961495","steam_id":85568392924469990,"keywords":["cp","nocrits","nodmgspread","uncletopia"],"game_id":440,"stv_port":27026,"stv_name":"Uncletopia | Frankfurt | 2 | All Maps | STV","players":[{"user_id":385,"name":"Daruun","steam_id":76561198019068781,"connected_time":3973000000000,"state":"active","ping":72},{"user_id":388,"name":"XPullaHiiri","steam_id":76561198031652375,"connected_time":3591000000000,"state":"active","ping":91},{"user_id":348,"name":"Mister","steam_id":76561199049647854,"connected_time":6195000000000,"state":"active","ping":45},{"user_id":418,"name":"dinorno","steam_id":76561198146276830,"connected_time":287000000000,"state":"active","ping":72},{"user_id":411,"name":"glorpis","steam_id":76561199225333422,"connected_time":1238000000000,"state":"active","ping":71},{"user_id":378,"name":"housethatwearingpurple","steam_id":76561198381266785,"connected_time":4336000000000,"state":"active","ping":133},{"user_id":409,"name":"GoatLord1","steam_id":76561198157964544,"connected_time":1378000000000,"state":"active","ping":64},{"user_id":406,"name":"I AM SUMMER SLAYCATION","steam_id":76561198179339326,"connected_time":1491000000000,"state":"active","ping":79},{"user_id":407,"name":"Dƒ´ng.Zh√®n1996","steam_id":76561198152681460,"connected_time":1484000000000,"state":"active","ping":72},{"user_id":339,"name":"Alice","steam_id":76561198052410860,"connected_time":6559000000000,"state":"active","ping":137},{"user_id":325,"name":"lulu","steam_id":76561199147764133,"connected_time":7475000000000,"state":"active","ping":85},{"user_id":403,"name":"Hasamnas","steam_id":76561199125038537,"connected_time":1814000000000,"state":"active","ping":64},{"user_id":356,"name":"Maksllla","steam_id":76561198043921628,"connected_time":5096000000000,"state":"active","ping":116},{"user_id":400,"name":"PP_master69420","steam_id":76561199019913910,"connected_time":2807000000000,"state":"active","ping":83},{"user_id":401,"name":"xavier","steam_id":76561198076494034,"connected_time":2607000000000,"state":"active","ping":56},{"user_id":390,"name":"I may do things (on the scorebo","steam_id":76561199012566222,"connected_time":3565000000000,"state":"active","ping":56},{"user_id":402,"name":"Pilaarius","steam_id":76561198120273212,"connected_time":2582000000000,"state":"active","ping":96},{"user_id":416,"name":"Fat Pigeon","steam_id":76561198817940142,"connected_time":294000000000,"state":"active","ping":55},{"user_id":415,"name":"Just Navlis (on the scoreboard)","steam_id":76561198090479609,"connected_time":312000000000,"state":"active","ping":48},{"user_id":396,"name":"I am on the TF2 Scoreboard...","steam_id":76561198043850884,"connected_time":2949000000000,"state":"active","ping":62},{"user_id":413,"name":"bernkastel","steam_id":76561198030909125,"connected_time":982000000000,"state":"active","ping":93},{"user_id":417,"name":"cat","steam_id":76561198837071509,"connected_time":294000000000,"state":"active","ping":85},{"user_id":384,"name":"Vershal Smershal","steam_id":76561198116223995,"connected_time":4023000000000,"state":"active","ping":61},{"user_id":351,"name":"sareena","steam_id":76561198810194062,"connected_time":6013000000000,"state":"active","ping":75}]},{"server_id":308,"name":"Uncletopia | Frankfurt | 3 | All Maps","name_short":"frk-3","host":"frk-1.de.uncletopia.com","port":27035,"enabled":true,"region":"eu","cc":"de","latitude":50.110924,"longitude":8.682127,"reserved":0,"last_update":"0001-01-01T00:00:00Z","name_a2s":"Uncletopia | Frankfurt | 3 | All Maps","protocol":17,"map":"pl_badwater","folder":"tf","game":"Team Fortress","app_id":440,"player_count":24,"max_players":24,"Bots":0,"server_type":"Dedicated","server_os":"Linux","password":true,"vac":true,"version":"7961495","steam_id":85568392924504274,"keywords":["nocrits","nodmgspread","payload","uncletopia"],"game_id":440,"stv_port":27036,"stv_name":"Uncletopia | Frankfurt | 3 | All Maps | STV","players":[{"user_id":371,"name":"Erection Man","steam_id":76561198021714542,"connected_time":1059000000000,"state":"active","ping":61},{"user_id":304,"name":"chickenoidi","steam_id":76561198449498382,"connected_time":5788000000000,"state":"active","ping":92},{"user_id":334,"name":"red guy looking to the left","steam_id":76561198031573426,"connected_time":3272000000000,"state":"active","ping":68},{"user_id":362,"name":"Brittle Bob","steam_id":76561198146310039,"connected_time":1641000000000,"state":"active","ping":91},{"user_id":342,"name":"kurage","steam_id":76561198021221288,"connected_time":2959000000000,"state":"active","ping":59},{"user_id":375,"name":"Peskyplumber64","steam_id":76561198044458330,"connected_time":614000000000,"state":"active","ping":69},{"user_id":381,"name":"Wodaz","steam_id":76561198043263557,"connected_time":348000000000,"state":"active","ping":60},{"user_id":358,"name":"joachym","steam_id":76561198428579761,"connected_time":1758000000000,"state":"active","ping":62},{"user_id":378,"name":"brtaba","steam_id":76561198796334790,"connected_time":579000000000,"state":"active","ping":63},{"user_id":351,"name":"sam-","steam_id":76561198013770973,"connected_time":2690000000000,"state":"active","ping":73},{"user_id":374,"name":"Father","steam_id":76561198055542054,"connected_time":622000000000,"state":"active","ping":174},{"user_id":344,"name":"Itai","steam_id":76561198804555329,"connected_time":2948000000000,"state":"active","ping":99},{"user_id":366,"name":"‚ù§ Femboy Furry ‚ù§","steam_id":76561198305562516,"connected_time":1515000000000,"state":"active","ping":80},{"user_id":376,"name":"Walle","steam_id":76561197995148937,"connected_time":593000000000,"state":"active","ping":69},{"user_id":332,"name":"turbo shart","steam_id":76561198012351808,"connected_time":3495000000000,"state":"active","ping":71},{"user_id":328,"name":"Sentry hater","steam_id":76561199269309068,"connected_time":4026000000000,"state":"active","ping":85},{"user_id":367,"name":"FPFP","steam_id":76561198026073059,"connected_time":1501000000000,"state":"active","ping":77},{"user_id":368,"name":"M0rek","steam_id":76561198378143361,"connected_time":1486000000000,"state":"active","ping":76},{"user_id":370,"name":"–°–∞–Ω–µ—á–∫–∞","steam_id":76561198258884232,"connected_time":1211000000000,"state":"active","ping":77},{"user_id":382,"name":"onlinergnome","steam_id":76561198129828715,"connected_time":139000000000,"state":"active","ping":60},{"user_id":360,"name":"dongujs","steam_id":76561198042774930,"connected_time":1745000000000,"state":"active","ping":82},{"user_id":369,"name":"mesŒª","steam_id":76561198324582918,"connected_time":1456000000000,"state":"active","ping":94},{"user_id":380,"name":"Hey, I¬¥m Andy!","steam_id":76561198060337777,"connected_time":512000000000,"state":"active","ping":73},{"user_id":361,"name":"Kapitan Polska","steam_id":76561197968069413,"connected_time":1731000000000,"state":"active","ping":71}]},{"server_id":309,"name":"Uncletopia | Frankfurt | 4 | All Maps","name_short":"frk-4","host":"frk-1.de.uncletopia.com","port":27045,"enabled":true,"region":"eu","cc":"de","latitude":50.110924,"longitude":8.682127,"reserved":0,"last_update":"0001-01-01T00:00:00Z","name_a2s":"Uncletopia | Frankfurt | 4 | All Maps","protocol":17,"map":"pl_badwater","folder":"tf","game":"Team Fortress","app_id":440,"player_count":24,"max_players":24,"Bots":0,"server_type":"Dedicated","server_os":"Linux","password":true,"vac":true,"version":"7961495","steam_id":85568392924504275,"keywords":["nocrits","nodmgspread","payload","uncletopia"],"game_id":440,"stv_port":27046,"stv_name":"Uncletopia | Frankfurt | 4 | All Maps | STV","players":[{"user_id":114,"name":"alien","steam_id":76561197968892194,"connected_time":30000000000,"state":"active","ping":50},{"user_id":99,"name":"Prototype M.A.K","steam_id":76561198416932796,"connected_time":1243000000000,"state":"active","ping":88},{"user_id":31,"name":"Yelowchy","steam_id":76561198199416121,"connected_time":5821000000000,"state":"active","ping":64},{"user_id":102,"name":"VictoriaFae (She/Her)","steam_id":76561198093221218,"connected_time":1226000000000,"state":"active","ping":68},{"user_id":39,"name":"Anti math insurrectionist","steam_id":76561198799097492,"connected_time":5391000000000,"state":"active","ping":45},{"user_id":105,"name":"suhistus","steam_id":76561198043067707,"connected_time":1071000000000,"state":"active","ping":89},{"user_id":97,"name":"Stalin","steam_id":76561199221478774,"connected_time":2063000000000,"state":"active","ping":71},{"user_id":77,"name":"Scrypted","steam_id":76561198316702673,"connected_time":3516000000000,"state":"active","ping":56},{"user_id":104,"name":"Schmack","steam_id":76561198026535437,"connected_time":1099000000000,"state":"active","ping":60},{"user_id":93,"name":"Lammet","steam_id":76561198149409729,"connected_time":2378000000000,"state":"active","ping":70},{"user_id":84,"name":"f0x","steam_id":76561198072921704,"connected_time":3395000000000,"state":"active","ping":46},{"user_id":80,"name":"mcdoddelz","steam_id":76561198071043647,"connected_time":3477000000000,"state":"active","ping":77},{"user_id":81,"name":"Neko","steam_id":76561198313611504,"connected_time":3475000000000,"state":"active","ping":76},{"user_id":103,"name":"Koli","steam_id":76561197992428783,"connected_time":1214000000000,"state":"active","ping":56},{"user_id":100,"name":"Ape","steam_id":76561198119347598,"connected_time":1239000000000,"state":"active","ping":77},{"user_id":107,"name":"Egor Pomidor","steam_id":76561199175688390,"connected_time":862000000000,"state":"active","ping":77},{"user_id":111,"name":"Sondre","steam_id":76561198023013092,"connected_time":582000000000,"state":"active","ping":79},{"user_id":113,"name":"Umbro","steam_id":76561198087930438,"connected_time":115000000000,"state":"active","ping":75},{"user_id":112,"name":"[GANGSTER] Hakyoma","steam_id":76561198041279766,"connected_time":355000000000,"state":"active","ping":60},{"user_id":89,"name":"Fang","steam_id":76561199124749328,"connected_time":2772000000000,"state":"active","ping":64},{"user_id":98,"name":"Thors","steam_id":76561197968739075,"connected_time":1267000000000,"state":"active","ping":50},{"user_id":55,"name":"Dude‚Ñ¢","steam_id":76561198082099161,"connected_time":4825000000000,"state":"active","ping":82},{"user_id":108,"name":"swagmaster9000","steam_id":76561198232259356,"connected_time":809000000000,"state":"active","ping":77},{"user_id":92,"name":"Monke Hartmann","steam_id":76561198281389701,"connected_time":2437000000000,"state":"active","ping":100}]},{"server_id":310,"name":"Uncletopia | Frankfurt | 5 | All Maps","name_short":"frk-5","host":"frk-1.de.uncletopia.com","port":27055,"enabled":true,"region":"eu","cc":"de","latitude":50.110924,"longitude":8.682127,"reserved":0,"last_update":"0001-01-01T00:00:00Z","name_a2s":"Uncletopia | Frankfurt | 5 | All Maps","protocol":17,"map":"pl_upward","folder":"tf","game":"Team Fortress","app_id":440,"player_count":24,"max_players":24,"Bots":0,"server_type":"Dedicated","server_os":"Linux","password":true,"vac":true,"version":"7961495","steam_id":85568392924504277,"keywords":["nocrits","nodmgspread","payload","uncletopia"],"game_id":440,"stv_port":27056,"stv_name":"Uncletopia | Frankfurt | 5 | All Maps | STV","players":[{"user_id":426,"name":"NotAmazed","steam_id":76561199125729567,"connected_time":6321000000000,"state":"active","ping":70},{"user_id":480,"name":"H√©rosFunk","steam_id":76561198053110916,"connected_time":362000000000,"state":"active","ping":50},{"user_id":416,"name":"AdeAAa","steam_id":76561198974207724,"connected_time":7248000000000,"state":"active","ping":101},{"user_id":456,"name":"kaitseliitlane","steam_id":76561198159695292,"connected_time":3626000000000,"state":"active","ping":75},{"user_id":464,"name":"Zor","steam_id":76561198009851383,"connected_time":2394000000000,"state":"active","ping":76},{"user_id":479,"name":"Tri-","steam_id":76561198133524794,"connected_time":397000000000,"state":"active","ping":53},{"user_id":418,"name":"Ozzie","steam_id":76561197992915315,"connected_time":7151000000000,"state":"active","ping":75},{"user_id":477,"name":"Jannisxxl","steam_id":76561198048377916,"connected_time":779000000000,"state":"active","ping":70},{"user_id":439,"name":"Urfangonultasadana","steam_id":76561199389286151,"connected_time":5249000000000,"state":"active","ping":94},{"user_id":481,"name":"BenteBent","steam_id":76561198297920637,"connected_time":353000000000,"state":"active","ping":44},{"user_id":478,"name":"WLAN-Kabel","steam_id":76561198008943024,"connected_time":692000000000,"state":"active","ping":50},{"user_id":474,"name":"piers morgan (black lesbian)","steam_id":76561199401283123,"connected_time":1710000000000,"state":"active","ping":66},{"user_id":462,"name":"Gwishin","steam_id":76561198328642774,"connected_time":2414000000000,"state":"active","ping":137},{"user_id":470,"name":"Dizzy","steam_id":76561198010192462,"connected_time":2028000000000,"state":"active","ping":54},{"user_id":466,"name":"LionKing","steam_id":76561198023399545,"connected_time":2330000000000,"state":"active","ping":57},{"user_id":445,"name":"Gold","steam_id":76561198071111501,"connected_time":4618000000000,"state":"active","ping":60},{"user_id":473,"name":"PROFILE NAME","steam_id":76561198180056982,"connected_time":1935000000000,"state":"active","ping":71},{"user_id":419,"name":"Piox","steam_id":76561198125689157,"connected_time":7114000000000,"state":"active","ping":75},{"user_id":454,"name":"NeonCat","steam_id":76561198072456995,"connected_time":3686000000000,"state":"active","ping":77},{"user_id":420,"name":"fynta","steam_id":76561198315371425,"connected_time":7084000000000,"state":"active","ping":57},{"user_id":469,"name":".tv/red_naxela","steam_id":76561197998803950,"connected_time":2117000000000,"state":"active","ping":58},{"user_id":482,"name":"KajaStorm","steam_id":76561199215842872,"connected_time":79000000000,"state":"active","ping":134},{"user_id":467,"name":"cez","steam_id":76561198361380956,"connected_time":2329000000000,"state":"active","ping":71},{"user_id":476,"name":"transgender communist","steam_id":76561198189664639,"connected_time":883000000000,"state":"active","ping":154}]},{"server_id":311,"name":"Uncletopia | Frankfurt | 6 | All Maps","name_short":"frk-6","host":"frk-1.de.uncletopia.com","port":27065,"enabled":true,"region":"eu","cc":"de","latitude":50.110924,"longitude":8.682127,"reserved":0,"last_update":"0001-01-01T00:00:00Z","name_a2s":"Uncletopia | Frankfurt | 6 | All Maps","protocol":17,"map":"plr_bananabay","folder":"tf","game":"Team Fortress","app_id":440,"player_count":24,"max_players":24,"Bots":0,"server_type":"Dedicated","server_os":"Linux","password":true,"vac":true,"version":"7961495","steam_id":85568392924504278,"keywords":["nocrits","nodmgspread","payload","uncletopia"],"game_id":440,"stv_port":27066,"stv_name":"Uncletopia | Frankfurt | 6 | All Maps | STV","players":[{"user_id":320,"name":"Weed Fortress 2","steam_id":76561198860424456,"connected_time":1681000000000,"state":"active","ping":60},{"user_id":337,"name":"Pointer LF","steam_id":76561198054572570,"connected_time":72000000000,"state":"active","ping":118},{"user_id":332,"name":"ea","steam_id":76561198039254055,"connected_time":174000000000,"state":"active","ping":131},{"user_id":327,"name":"Hamedius","steam_id":76561199152512027,"connected_time":1533000000000,"state":"active","ping":63},{"user_id":267,"name":"killerdiam","steam_id":76561198806422317,"connected_time":5018000000000,"state":"active","ping":65},{"user_id":284,"name":"The Leaf","steam_id":76561199219653853,"connected_time":3345000000000,"state":"active","ping":47},{"user_id":334,"name":"Proper Noun","steam_id":76561198055264269,"connected_time":133000000000,"state":"active","ping":80},{"user_id":333,"name":"powej","steam_id":76561198056381418,"connected_time":161000000000,"state":"active","ping":45},{"user_id":335,"name":"N√∫√∫b","steam_id":76561198111933414,"connected_time":123000000000,"state":"active","ping":74},{"user_id":336,"name":"LazerMaster","steam_id":76561198880611571,"connected_time":117000000000,"state":"active","ping":63},{"user_id":245,"name":"BELADIT","steam_id":76561198011911501,"connected_time":7271000000000,"state":"active","ping":71},{"user_id":206,"name":"Rappin' Sebastian","steam_id":76561198453928256,"connected_time":10097000000000,"state":"active","ping":69},{"user_id":338,"name":"Dextragon","steam_id":76561198173920498,"connected_time":33000000000,"state":"active","ping":58},{"user_id":328,"name":"Meff","steam_id":76561197970610839,"connected_time":1303000000000,"state":"active","ping":47},{"user_id":321,"name":"God's Goofiest Goober","steam_id":76561198103175187,"connected_time":1665000000000,"state":"active","ping":64},{"user_id":331,"name":"Skogstrollet","steam_id":76561199058504535,"connected_time":897000000000,"state":"active","ping":59},{"user_id":309,"name":"Cortez -A-","steam_id":76561198064000348,"connected_time":1978000000000,"state":"active","ping":85},{"user_id":315,"name":"Dr. Cox","steam_id":76561198246629218,"connected_time":1828000000000,"state":"active","ping":102},{"user_id":323,"name":"AwZooom","steam_id":76561198154061149,"connected_time":1636000000000,"state":"active","ping":44},{"user_id":339,"name":"robyc","steam_id":76561199444448724,"connected_time":33000000000,"state":"active","ping":78},{"user_id":326,"name":"laza","steam_id":76561199074095198,"connected_time":1548000000000,"state":"active","ping":117},{"user_id":289,"name":"spy in the base","steam_id":76561198284570752,"connected_time":3191000000000,"state":"active","ping":59},{"user_id":293,"name":"ExotiiC ‚òØ","steam_id":76561198046149866,"connected_time":3080000000000,"state":"active","ping":74},{"user_id":304,"name":"Verggy","steam_id":76561198068565268,"connected_time":2140000000000,"state":"active","ping":85}]},{"server_id":23,"name":"Uncletopia | Frankfurt | 7 | Stopwatch","name_short":"frk-7","host":"frk-1.de.uncletopia.com","port":27075,"enabled":true,"region":"eu","cc":"de","latitude":50.110924,"longitude":8.682127,"reserved":0,"last_update":"0001-01-01T00:00:00Z","name_a2s":"Uncletopia | Frankfurt | 7 | Stopwatch","protocol":17,"map":"cp_snakewater_final1","folder":"tf","game":"Team Fortress","app_id":440,"player_count":4,"max_players":24,"Bots":0,"server_type":"Dedicated","server_os":"Linux","password":true,"vac":true,"version":"7961495","steam_id":85568392924742827,"keywords":["cp","nocrits","nodmgspread","uncletopia"],"game_id":440,"stv_port":27076,"stv_name":"Uncletopia | Frankfurt | 7 | Stopwatch | STV","players":[{"user_id":18,"name":"DeterminedXD[HUN]","steam_id":76561199469006453,"connected_time":308000000000,"state":"active","ping":88},{"user_id":16,"name":"_Erick_T92[HUN]","steam_id":76561199222111563,"connected_time":478000000000,"state":"active","ping":134},{"user_id":11,"name":"76561199237954069","steam_id":76561199237954069,"connected_time":1552000000000,"state":"active","ping":69},{"user_id":13,"name":"Turret","steam_id":76561199231598017,"connected_time":1337000000000,"state":"active","ping":87}]},{"server_id":24,"name":"Uncletopia | Frankfurt | 8 | Community","name_short":"frk-8","host":"frk-1.de.uncletopia.com","port":27085,"enabled":true,"region":"eu","cc":"de","latitude":50.110924,"longitude":8.682127,"reserved":0,"last_update":"0001-01-01T00:00:00Z","name_a2s":"Uncletopia | Frankfurt | 8 | Community","protocol":17,"map":"workshop/rd_asteroid_redux_b1.ugc2154902912","folder":"tf","game":"Team Fortress","app_id":440,"player_count":1,"max_players":24,"Bots":0,"server_type":"Dedicated","server_os":"Linux","password":true,"vac":true,"version":"7961495","steam_id":85568392924742828,"keywords":["beta","nocrits","nodmgspread","rd","uncletopia"],"game_id":440,"stv_port":27086,"stv_name":"Uncletopia | Frankfurt | 8 | Community | STV","players":[{"user_id":9,"name":"‚Ñ¶","steam_id":76561199088570961,"connected_time":63000000000,"state":"active","ping":161}]},{"server_id":202,"name":"Uncletopia | Hong Kong | 1 | All Maps","name_short":"hgk-1","host":"hgk-1.hk.uncletopia.com","port":27015,"enabled":true,"region":"asia","cc":"hk","latitude":22.302711,"longitude":114.177216,"reserved":0,"last_update":"0001-01-01T00:00:00Z","name_a2s":"Uncletopia | Hong Kong | 1 | All Maps","protocol":17,"map":"koth_highpass","folder":"tf","game":"Team Fortress","app_id":440,"player_count":0,"max_players":24,"Bots":0,"server_type":"Dedicated","server_os":"Linux","password":true,"vac":true,"version":"7961495","steam_id":85568392924494504,"keywords":["cp","nocrits","nodmgspread","uncletopia"],"game_id":440,"stv_port":27016,"stv_name":"Uncletopia | Hong Kong | 1 | All Maps | STV","players":null},{"server_id":1,"name":"Uncletopia | Los Angeles | 1 | All Maps","name_short":"lax-1","host":"lax-1.us.uncletopia.com","port":27015,"enabled":true,"region":"us-west","cc":"us","latitude":33.94279,"longitude":-118.41004,"reserved":0,"last_update":"0001-01-01T00:00:00Z","name_a2s":"Uncletopia | Los Angeles | 1 | All Maps","protocol":17,"map":"koth_sawmill","folder":"tf","game":"Team Fortress","app_id":440,"player_count":22,"max_players":24,"Bots":0,"server_type":"Dedicated","server_os":"Linux","password":true,"vac":true,"version":"7961495","steam_id":85568392924469991,"keywords":["cp","nocrits","nodmgspread","uncletopia"],"game_id":440,"stv_port":27016,"stv_name":"Uncletopia | Los Angeles | 1 | All Maps | STV","players":[{"user_id":164,"name":"XxDragon4321xX","steam_id":76561198046705735,"connected_time":564000000000,"state":"active","ping":69},{"user_id":144,"name":"Weh","steam_id":76561198325912228,"connected_time":1750000000000,"state":"active","ping":97},{"user_id":173,"name":"schnedwob","steam_id":76561197999146588,"connected_time":105000000000,"state":"active","ping":84},{"user_id":160,"name":"TheDoctorIsIn","steam_id":76561198322058639,"connected_time":1029000000000,"state":"active","ping":92},{"user_id":161,"name":"Senator Armstrong","steam_id":76561198097998607,"connected_time":803000000000,"state":"active","ping":100},{"user_id":159,"name":"Neophyte","steam_id":76561198027183394,"connected_time":1078000000000,"state":"active","ping":87},{"user_id":147,"name":"FI LO","steam_id":76561198976530881,"connected_time":1655000000000,"state":"active","ping":41},{"user_id":148,"name":"lazy catboy","steam_id":76561198359994674,"connected_time":1652000000000,"state":"active","ping":124},{"user_id":167,"name":"Zurg","steam_id":76561198316995374,"connected_time":488000000000,"state":"active","ping":91},{"user_id":166,"name":"daddog","steam_id":76561198286968297,"connected_time":517000000000,"state":"active","ping":76},{"user_id":123,"name":"don't get mad","steam_id":76561198064662875,"connected_time":3370000000000,"state":"active","ping":49},{"user_id":122,"name":"wow! you're goated","steam_id":76561198084708100,"connected_time":3377000000000,"state":"active","ping":53},{"user_id":133,"name":"OrangeSodaMachine","steam_id":76561198079230156,"connected_time":2615000000000,"state":"active","ping":107},{"user_id":162,"name":"NERV","steam_id":76561198111023744,"connected_time":792000000000,"state":"active","ping":114},{"user_id":172,"name":"bonsai ‚Ä†","steam_id":76561199141321381,"connected_time":183000000000,"state":"active","ping":132},{"user_id":153,"name":"hittign dabong","steam_id":76561198097588802,"connected_time":1315000000000,"state":"active","ping":98},{"user_id":171,"name":"Havi","steam_id":76561198197832829,"connected_time":284000000000,"state":"active","ping":73},{"user_id":169,"name":"Frank","steam_id":76561198428759980,"connected_time":442000000000,"state":"active","ping":65},{"user_id":170,"name":"Plague Dr.","steam_id":76561198142468986,"connected_time":400000000000,"state":"active","ping":89},{"user_id":116,"name":"Nibotshooter","steam_id":76561199284825579,"connected_time":3768000000000,"state":"active","ping":61},{"user_id":155,"name":"randomnumeral68","steam_id":76561199486147967,"connected_time":1274000000000,"state":"active","ping":80},{"user_id":163,"name":"‡∏∏","steam_id":76561198404271005,"connected_time":566000000000,"state":"active","ping":58}]},{"server_id":112,"name":"Uncletopia | Los Angeles | 2 | All Maps","name_short":"lax-2","host":"lax-1.us.uncletopia.com","port":27025,"enabled":true,"region":"us-west","cc":"us","latitude":33.94279,"longitude":-118.41004,"reserved":0,"last_update":"0001-01-01T00:00:00Z","name_a2s":"Uncletopia | Los Angeles | 2 | All Maps","protocol":17,"map":"koth_lakeside_final","folder":"tf","game":"Team Fortress","app_id":440,"player_count":1,"max_players":24,"Bots":0,"server_type":"Dedicated","server_os":"Linux","password":true,"vac":true,"version":"7961495","steam_id":85568392924469992,"keywords":["cp","nocrits","nodmgspread","uncletopia"],"game_id":440,"stv_port":27026,"stv_name":"Uncletopia | Los Angeles | 2 | All Maps | STV","players":[{"user_id":9,"name":"Yackaboi","steam_id":76561199444911765,"connected_time":75000000000,"state":"active","ping":87}]},{"server_id":324,"name":"Uncletopia | Los Angeles | 3 | All Maps","name_short":"lax-3","host":"lax-1.us.uncletopia.com","port":27035,"enabled":true,"region":"us-west","cc":"us","latitude":33.94279,"longitude":-118.41004,"reserved":0,"last_update":"0001-01-01T00:00:00Z","name_a2s":"Uncletopia | Los Angeles | 3 | All Maps","protocol":17,"map":"pl_pier","folder":"tf","game":"Team Fortress","app_id":440,"player_count":2,"max_players":24,"Bots":0,"server_type":"Dedicated","server_os":"Linux","password":true,"vac":true,"version":"7961495","steam_id":85568392924510198,"keywords":["nocrits","nodmgspread","payload","uncletopia"],"game_id":440,"stv_port":27036,"stv_name":"Uncletopia | Los Angeles | 3 | All Maps | STV","players":[{"user_id":13,"name":"MrCharlieBoss #savetf2","steam_id":76561198979539993,"connected_time":91000000000,"state":"connecting","ping":162},{"user_id":14,"name":"niffty","steam_id":76561199341645052,"connected_time":85000000000,"state":"connecting","ping":363}]},{"server_id":25,"name":"Uncletopia | Los Angeles | 4 | Stopwatch","name_short":"lax-4","host":"lax-1.us.uncletopia.com","port":27045,"enabled":true,"region":"us-west","cc":"us","latitude":33.94279,"longitude":-118.41004,"reserved":0,"last_update":"0001-01-01T00:00:00Z","name_a2s":"Uncletopia | Los Angeles | 4 | Stopwatch","protocol":17,"map":"workshop/pl_summercoast_rc8e.ugc1761528829","folder":"tf","game":"Team Fortress","app_id":440,"player_count":0,"max_players":24,"Bots":0,"server_type":"Dedicated","server_os":"Linux","password":true,"vac":true,"version":"7961495","steam_id":85568392924510199,"keywords":["nocrits","nodmgspread","payload","uncletopia"],"game_id":440,"stv_port":27046,"stv_name":"Uncletopia | Los Angeles | 4 | Stopwatch | STV","players":null},{"server_id":11,"name":"Uncletopia | London | 1 | All Maps","name_short":"lon-1","host":"lon-1.uk.uncletopia.com","port":27015,"enabled":true,"region":"eu","cc":"gb","latitude":51.509865,"longitude":-0.118092,"reserved":0,"last_update":"0001-01-01T00:00:00Z","name_a2s":"Uncletopia | London | 1 | All Maps","protocol":17,"map":"koth_cascade","folder":"tf","game":"Team Fortress","app_id":440,"player_count":24,"max_players":24,"Bots":0,"server_type":"Dedicated","server_os":"Linux","password":true,"vac":true,"version":"7961495","steam_id":85568392924367362,"keywords":["cp","nocrits","nodmgspread","uncletopia"],"game_id":440,"stv_port":27016,"stv_name":"Uncletopia | London | 1 | All Maps | STV","players":[{"user_id":442,"name":"Janneke Maan","steam_id":76561198069290924,"connected_time":1179000000000,"state":"active","ping":62},{"user_id":434,"name":"Waffle","steam_id":76561198397024973,"connected_time":1963000000000,"state":"active","ping":40},{"user_id":437,"name":"EagleDeath","steam_id":76561198282441198,"connected_time":1497000000000,"state":"active","ping":124},{"user_id":445,"name":"Axel","steam_id":76561198060618024,"connected_time":697000000000,"state":"active","ping":71},{"user_id":430,"name":"Gustavo Fring","steam_id":76561198034769199,"connected_time":2340000000000,"state":"active","ping":45},{"user_id":450,"name":"Bombilla","steam_id":76561198084281798,"connected_time":170000000000,"state":"active","ping":75},{"user_id":449,"name":"hamilton","steam_id":76561198034096096,"connected_time":201000000000,"state":"active","ping":134},{"user_id":413,"name":"Slifer, Guardian of the Furries","steam_id":76561198062255803,"connected_time":4016000000000,"state":"active","ping":71},{"user_id":415,"name":"Kahvi","steam_id":76561198723244199,"connected_time":3969000000000,"state":"active","ping":76},{"user_id":444,"name":"The Bugs Under Your Skin","steam_id":76561198064795519,"connected_time":870000000000,"state":"active","ping":51},{"user_id":451,"name":"Someone","steam_id":76561199030195879,"connected_time":170000000000,"state":"active","ping":53},{"user_id":439,"name":"7 7","steam_id":76561198190663138,"connected_time":1488000000000,"state":"active","ping":104},{"user_id":380,"name":"direct miss","steam_id":76561198300586007,"connected_time":6934000000000,"state":"active","ping":80},{"user_id":362,"name":"shooer!","steam_id":76561198110531281,"connected_time":7788000000000,"state":"active","ping":85},{"user_id":429,"name":"png.png","steam_id":76561198444446521,"connected_time":2635000000000,"state":"active","ping":119},{"user_id":433,"name":"Kaziocalvice","steam_id":76561198146425583,"connected_time":1977000000000,"state":"active","ping":69},{"user_id":435,"name":"Tree","steam_id":76561198054795379,"connected_time":1666000000000,"state":"active","ping":60},{"user_id":452,"name":"Noob_with_source","steam_id":76561198870362103,"connected_time":162000000000,"state":"active","ping":61},{"user_id":446,"name":"exRage","steam_id":76561198449953655,"connected_time":507000000000,"state":"active","ping":70},{"user_id":421,"name":"Minimi","steam_id":76561198873850443,"connected_time":3778000000000,"state":"active","ping":44},{"user_id":407,"name":"halow","steam_id":76561198061505163,"connected_time":4743000000000,"state":"active","ping":111},{"user_id":368,"name":"Der Herr Doktor","steam_id":76561198119476089,"connected_time":7705000000000,"state":"active","ping":65},{"user_id":357,"name":"transgender e-girl","steam_id":76561198168589809,"connected_time":8408000000000,"state":"active","ping":57},{"user_id":417,"name":"unconditional love","steam_id":76561199026097466,"connected_time":3833000000000,"state":"active","ping":73}]},{"server_id":114,"name":"Uncletopia | London | 2 | All Maps","name_short":"lon-2","host":"lon-1.uk.uncletopia.com","port":27025,"enabled":true,"region":"eu","cc":"gb","latitude":51.509865,"longitude":-0.118092,"reserved":0,"last_update":"0001-01-01T00:00:00Z","name_a2s":"Uncletopia | London | 2 | All Maps","protocol":17,"map":"cp_process_final","folder":"tf","game":"Team Fortress","app_id":440,"player_count":24,"max_players":24,"Bots":0,"server_type":"Dedicated","server_os":"Linux","password":true,"vac":true,"version":"7961495","steam_id":85568392924470941,"keywords":["cp","nocrits","nodmgspread","uncletopia"],"game_id":440,"stv_port":27026,"stv_name":"Uncletopia | London | 2 | All Maps | STV","players":[{"user_id":16,"name":"Flying Squirrel","steam_id":76561198005202791,"connected_time":5247000000000,"state":"active","ping":77},{"user_id":96,"name":"skilltissues","steam_id":76561198025828664,"connected_time":233000000000,"state":"active","ping":48},{"user_id":97,"name":"‚ò≠ybercat","steam_id":76561198014070417,"connected_time":222000000000,"state":"active","ping":67},{"user_id":82,"name":"I sell exotic parrots","steam_id":76561199192434258,"connected_time":1600000000000,"state":"active","ping":89},{"user_id":81,"name":"Lubrsi","steam_id":76561198040208195,"connected_time":1706000000000,"state":"active","ping":52},{"user_id":68,"name":"Oxer","steam_id":76561198055942412,"connected_time":2833000000000,"state":"active","ping":89},{"user_id":98,"name":"[AXG] PK Blizzard","steam_id":76561198039836567,"connected_time":175000000000,"state":"active","ping":49},{"user_id":61,"name":"Apocalypse Potatoes","steam_id":76561199001466356,"connected_time":2928000000000,"state":"active","ping":85},{"user_id":95,"name":"ack","steam_id":76561198139796077,"connected_time":260000000000,"state":"active","ping":58},{"user_id":99,"name":"medic gaming","steam_id":76561198866194704,"connected_time":174000000000,"state":"active","ping":78},{"user_id":26,"name":"aur0ra","steam_id":76561198209781091,"connected_time":4238000000000,"state":"active","ping":129},{"user_id":76,"name":"ATH1234","steam_id":76561199164853373,"connected_time":2231000000000,"state":"active","ping":77},{"user_id":93,"name":"Tombobx","steam_id":76561198862443949,"connected_time":903000000000,"state":"active","ping":62},{"user_id":102,"name":"Lag","steam_id":76561198159360376,"connected_time":109000000000,"state":"active","ping":49},{"user_id":67,"name":"Caro","steam_id":76561198065506317,"connected_time":2836000000000,"state":"active","ping":76},{"user_id":94,"name":"Warkzt","steam_id":76561198098166869,"connected_time":887000000000,"state":"active","ping":70},{"user_id":103,"name":"Moohsem","steam_id":76561198172198154,"connected_time":26000000000,"state":"active","ping":112},{"user_id":87,"name":"Hosenbrunzer","steam_id":76561198331151538,"connected_time":1315000000000,"state":"active","ping":68},{"user_id":34,"name":"rets_","steam_id":76561198061551392,"connected_time":3868000000000,"state":"active","ping":64},{"user_id":53,"name":"sent from my iPig","steam_id":76561198170026338,"connected_time":3082000000000,"state":"active","ping":72},{"user_id":66,"name":"hondjo","steam_id":76561198119324108,"connected_time":2853000000000,"state":"active","ping":45},{"user_id":38,"name":"Mafew","steam_id":76561198119993886,"connected_time":3839000000000,"state":"active","ping":59},{"user_id":86,"name":"saywoo","steam_id":76561198904469197,"connected_time":1514000000000,"state":"active","ping":69},{"user_id":90,"name":"Daemon","steam_id":76561198007015109,"connected_time":1065000000000,"state":"active","ping":52}]},{"server_id":320,"name":"Uncletopia | London | 3 | All Maps","name_short":"lon-3","host":"lon-1.uk.uncletopia.com","port":27035,"enabled":true,"region":"eu","cc":"gb","latitude":51.509865,"longitude":-0.118092,"reserved":0,"last_update":"0001-01-01T00:00:00Z","name_a2s":"Uncletopia | London | 3 | All Maps","protocol":17,"map":"cp_altitude","folder":"tf","game":"Team Fortress","app_id":440,"player_count":24,"max_players":24,"Bots":0,"server_type":"Dedicated","server_os":"Linux","password":true,"vac":true,"version":"7961495","steam_id":85568392924510192,"keywords":["cp","nocrits","nodmgspread","uncletopia"],"game_id":440,"stv_port":27036,"stv_name":"Uncletopia | London | 3 | All Maps | STV","players":[{"user_id":79,"name":"random guy (real)","steam_id":76561199199499453,"connected_time":468000000000,"state":"active","ping":76},{"user_id":70,"name":"kbourbery","steam_id":76561198109943492,"connected_time":639000000000,"state":"active","ping":50},{"user_id":69,"name":"sirrad","steam_id":76561199403589748,"connected_time":685000000000,"state":"active","ping":123},{"user_id":94,"name":"asdfgpiojunior","steam_id":76561199053611779,"connected_time":222000000000,"state":"active","ping":57},{"user_id":72,"name":"B-Lo Swag","steam_id":76561198271422358,"connected_time":617000000000,"state":"active","ping":138},{"user_id":54,"name":"Spoof059","steam_id":76561198356116829,"connected_time":1705000000000,"state":"active","ping":60},{"user_id":95,"name":"IMM0RTAL","steam_id":76561198013747901,"connected_time":186000000000,"state":"active","ping":140},{"user_id":96,"name":"Vintage","steam_id":76561197991017153,"connected_time":180000000000,"state":"active","ping":67},{"user_id":66,"name":"FPSindian","steam_id":76561199060414259,"connected_time":729000000000,"state":"active","ping":49},{"user_id":73,"name":"notane","steam_id":76561198182987846,"connected_time":611000000000,"state":"active","ping":58},{"user_id":67,"name":"Real (Real)","steam_id":76561198323425034,"connected_time":725000000000,"state":"active","ping":77},{"user_id":76,"name":"PyroSoup","steam_id":76561199178018465,"connected_time":550000000000,"state":"active","ping":75},{"user_id":68,"name":"pl.haker","steam_id":76561198278440186,"connected_time":723000000000,"state":"active","ping":91},{"user_id":90,"name":"Mr_Spappy","steam_id":76561199106707541,"connected_time":331000000000,"state":"active","ping":60},{"user_id":81,"name":"Momovsky","steam_id":76561198005738407,"connected_time":457000000000,"state":"active","ping":89},{"user_id":82,"name":"Lucky B.üèÜ","steam_id":76561198077571162,"connected_time":454000000000,"state":"active","ping":54},{"user_id":87,"name":"manure merchant","steam_id":76561198010109316,"connected_time":367000000000,"state":"active","ping":49},{"user_id":85,"name":"Weegad Wobus","steam_id":76561199429562693,"connected_time":425000000000,"state":"active","ping":75},{"user_id":86,"name":"splarvis","steam_id":76561198007792525,"connected_time":423000000000,"state":"active","ping":45},{"user_id":88,"name":"oog","steam_id":76561199239325179,"connected_time":358000000000,"state":"active","ping":60},{"user_id":91,"name":"MrClyde","steam_id":76561198132627420,"connected_time":289000000000,"state":"active","ping":73},{"user_id":92,"name":"Mr.O","steam_id":76561198039567498,"connected_time":285000000000,"state":"active","ping":57},{"user_id":98,"name":"Virginty Rocks","steam_id":76561198040120219,"connected_time":154000000000,"state":"active","ping":96},{"user_id":99,"name":"Eki","steam_id":76561199056176547,"connected_time":151000000000,"state":"active","ping":89}]},{"server_id":321,"name":"Uncletopia | London | 4 | All Maps","name_short":"lon-4","host":"lon-1.uk.uncletopia.com","port":27045,"enabled":true,"region":"eu","cc":"gb","latitude":51.509865,"longitude":-0.118092,"reserved":0,"last_update":"0001-01-01T00:00:00Z","name_a2s":"Uncletopia | London | 4 | All Maps","protocol":17,"map":"cp_dustbowl","folder":"tf","game":"Team Fortress","app_id":440,"player_count":24,"max_players":24,"Bots":0,"server_type":"Dedicated","server_os":"Linux","password":true,"vac":true,"version":"7961495","steam_id":85568392924510193,"keywords":["cp","nocrits","nodmgspread","uncletopia"],"game_id":440,"stv_port":27046,"stv_name":"Uncletopia | London | 4 | All Maps | STV","players":[{"user_id":631,"name":"RLCrazyCat3","steam_id":76561197983757878,"connected_time":3593000000000,"state":"active","ping":64},{"user_id":632,"name":"very_cool_gamer","steam_id":76561199376433147,"connected_time":3589000000000,"state":"active","ping":49},{"user_id":666,"name":"Portal2Player","steam_id":76561198062870114,"connected_time":1250000000000,"state":"active","ping":147},{"user_id":676,"name":"more than im breathing","steam_id":76561198036730191,"connected_time":2000000000,"state":"spawning","ping":23},{"user_id":626,"name":"TreatFly","steam_id":76561198069707362,"connected_time":3830000000000,"state":"active","ping":52},{"user_id":668,"name":"nug","steam_id":76561198055396568,"connected_time":1240000000000,"state":"active","ping":77},{"user_id":608,"name":"WETBUSSY69","steam_id":76561198263233108,"connected_time":5342000000000,"state":"active","ping":92},{"user_id":614,"name":"snowball","steam_id":76561198026525289,"connected_time":4685000000000,"state":"active","ping":96},{"user_id":624,"name":"Enjoyer","steam_id":76561198147399855,"connected_time":3926000000000,"state":"active","ping":132},{"user_id":594,"name":"lillunya ‚ô°","steam_id":76561198330418866,"connected_time":5729000000000,"state":"active","ping":70},{"user_id":674,"name":"Big Al","steam_id":76561198079585198,"connected_time":661000000000,"state":"active","ping":57},{"user_id":656,"name":"SnasTheSkeleton","steam_id":76561199469223463,"connected_time":1444000000000,"state":"active","ping":48},{"user_id":657,"name":"EES719","steam_id":76561199367581233,"connected_time":1417000000000,"state":"active","ping":70},{"user_id":672,"name":"dzefersons","steam_id":76561199210767484,"connected_time":1177000000000,"state":"active","ping":106},{"user_id":660,"name":"Cosmetic brain","steam_id":76561198055936410,"connected_time":1387000000000,"state":"active","ping":75},{"user_id":661,"name":"Parky","steam_id":76561198013803623,"connected_time":1376000000000,"state":"active","ping":40},{"user_id":635,"name":"Bun","steam_id":76561197989239999,"connected_time":3504000000000,"state":"active","ping":60},{"user_id":653,"name":"Tyber","steam_id":76561198125886061,"connected_time":1633000000000,"state":"active","ping":83},{"user_id":673,"name":"miclejacskon","steam_id":76561199238833234,"connected_time":1093000000000,"state":"active","ping":107},{"user_id":640,"name":"epic party rat","steam_id":76561199100632053,"connected_time":2978000000000,"state":"active","ping":48},{"user_id":613,"name":"Karpatel1s","steam_id":76561198882617329,"connected_time":4695000000000,"state":"active","ping":116},{"user_id":675,"name":"Doctor Glizzy","steam_id":76561198315474018,"connected_time":651000000000,"state":"active","ping":62},{"user_id":669,"name":"gabagool","steam_id":76561198307111838,"connected_time":1239000000000,"state":"active","ping":30},{"user_id":610,"name":"speedy gonzales gaming 2007","steam_id":76561197972287320,"connected_time":5020000000000,"state":"active","ping":79}]},{"server_id":21,"name":"Uncletopia | London | 5 | All Maps","name_short":"lon-5","host":"lon-1.uk.uncletopia.com","port":27055,"enabled":true,"region":"eu","cc":"gb","latitude":51.509865,"longitude":-0.118092,"reserved":0,"last_update":"0001-01-01T00:00:00Z","name_a2s":"Uncletopia | London | 5 | All Maps","protocol":17,"map":"pl_borneo","folder":"tf","game":"Team Fortress","app_id":440,"player_count":24,"max_players":24,"Bots":0,"server_type":"Dedicated","server_os":"Linux","password":true,"vac":true,"version":"7961495","steam_id":85568392924742829,"keywords":["nocrits","nodmgspread","payload","uncletopia"],"game_id":440,"stv_port":27056,"stv_name":"Uncletopia | London | 5 | All Maps | STV","players":[{"user_id":273,"name":"Breddie Mercury","steam_id":76561198804590384,"connected_time":2808000000000,"state":"active","ping":82},{"user_id":259,"name":"RJErik","steam_id":76561198321118547,"connected_time":3453000000000,"state":"active","ping":75},{"user_id":47,"name":"Flank Scout‚Ñ¢","steam_id":76561198148115584,"connected_time":18590000000000,"state":"active","ping":73},{"user_id":283,"name":"clock tower","steam_id":76561199394371317,"connected_time":2181000000000,"state":"active","ping":65},{"user_id":250,"name":"C√∂ffee","steam_id":76561198115131952,"connected_time":4517000000000,"state":"active","ping":93},{"user_id":297,"name":"SausageRoll","steam_id":76561197994072622,"connected_time":498000000000,"state":"active","ping":46},{"user_id":301,"name":"def","steam_id":76561198857396812,"connected_time":31000000000,"state":"active","ping":52},{"user_id":260,"name":"Eox","steam_id":76561198028179912,"connected_time":3418000000000,"state":"active","ping":50},{"user_id":295,"name":"3L","steam_id":76561198007208996,"connected_time":559000000000,"state":"active","ping":58},{"user_id":288,"name":"starlightartist","steam_id":76561198050608456,"connected_time":1884000000000,"state":"active","ping":38},{"user_id":237,"name":"1914","steam_id":76561198257383813,"connected_time":5772000000000,"state":"active","ping":60},{"user_id":279,"name":"McPeeWee","steam_id":76561198292374825,"connected_time":2471000000000,"state":"active","ping":52},{"user_id":261,"name":"Adrian Picche","steam_id":76561198009335657,"connected_time":3414000000000,"state":"active","ping":54},{"user_id":298,"name":"board","steam_id":76561198031682308,"connected_time":492000000000,"state":"active","ping":63},{"user_id":249,"name":"Penis Contortionist","steam_id":76561198073663784,"connected_time":4713000000000,"state":"active","ping":42},{"user_id":299,"name":"Remenos","steam_id":76561198029337778,"connected_time":251000000000,"state":"active","ping":93},{"user_id":286,"name":"Frawst","steam_id":76561197966660897,"connected_time":1958000000000,"state":"active","ping":46},{"user_id":280,"name":"I I","steam_id":76561199101935057,"connected_time":2310000000000,"state":"active","ping":107},{"user_id":274,"name":"SynthBox3","steam_id":76561199094075745,"connected_time":2788000000000,"state":"active","ping":106},{"user_id":294,"name":"Salih","steam_id":76561198287934839,"connected_time":723000000000,"state":"active","ping":71},{"user_id":282,"name":"FlyDown","steam_id":76561198073949495,"connected_time":2251000000000,"state":"active","ping":120},{"user_id":290,"name":"SpyCrab  Erik Twice","steam_id":76561198009710309,"connected_time":1153000000000,"state":"active","ping":57},{"user_id":300,"name":"herr_p","steam_id":76561198033072222,"connected_time":85000000000,"state":"active","ping":74},{"user_id":278,"name":"The Lion, The Bitch, and Nornia","steam_id":76561198040509712,"connected_time":2578000000000,"state":"active","ping":72}]},{"server_id":22,"name":"Uncletopia | London | 6 | All Maps","name_short":"lon-6","host":"lon-1.uk.uncletopia.com","port":27065,"enabled":true,"region":"eu","cc":"gb","latitude":51.509865,"longitude":-0.118092,"reserved":0,"last_update":"0001-01-01T00:00:00Z","name_a2s":"Uncletopia | London | 6 | All Maps","protocol":17,"map":"pl_thundermountain","folder":"tf","game":"Team Fortress","app_id":440,"player_count":17,"max_players":24,"Bots":0,"server_type":"Dedicated","server_os":"Linux","password":true,"vac":true,"version":"7961495","steam_id":85568392924742830,"keywords":["nocrits","nodmgspread","payload","uncletopia"],"game_id":440,"stv_port":27066,"stv_name":"Uncletopia | London | 6 | All Maps | STV","players":[{"user_id":254,"name":"sm√∂rg√•st√•rta","steam_id":76561198119449463,"connected_time":1263000000000,"state":"active","ping":60},{"user_id":239,"name":"XxBenShapiro420xX","steam_id":76561199229373972,"connected_time":2417000000000,"state":"active","ping":61},{"user_id":187,"name":"Baklava Enjoyer","steam_id":76561198990679631,"connected_time":6638000000000,"state":"active","ping":82},{"user_id":261,"name":"Maddox","steam_id":76561198026419869,"connected_time":860000000000,"state":"active","ping":77},{"user_id":226,"name":"TylowStar","steam_id":76561198357107806,"connected_time":3654000000000,"state":"active","ping":68},{"user_id":258,"name":"MR.BLOTTO","steam_id":76561198067920111,"connected_time":1055000000000,"state":"active","ping":60},{"user_id":229,"name":"Pottery Knight","steam_id":76561198094455814,"connected_time":3618000000000,"state":"active","ping":86},{"user_id":247,"name":"TheBeardedM1G","steam_id":76561198040208946,"connected_time":1600000000000,"state":"active","ping":44},{"user_id":250,"name":"Pruffle","steam_id":76561198377084417,"connected_time":1499000000000,"state":"active","ping":66},{"user_id":257,"name":"MostSereneDogeBestDoge","steam_id":76561198061196566,"connected_time":1166000000000,"state":"active","ping":60},{"user_id":263,"name":"Cesar","steam_id":76561199244427790,"connected_time":142000000000,"state":"active","ping":189},{"user_id":196,"name":"FoOzTV","steam_id":76561197998636728,"connected_time":6345000000000,"state":"active","ping":68},{"user_id":236,"name":"The Yes Man","steam_id":76561198112558416,"connected_time":2655000000000,"state":"active","ping":29},{"user_id":210,"name":"After8","steam_id":76561198090750865,"connected_time":5341000000000,"state":"active","ping":74},{"user_id":256,"name":"KnugenIV","steam_id":76561198127091993,"connected_time":1181000000000,"state":"active","ping":60},{"user_id":253,"name":"BritishBeef","steam_id":76561197971054321,"connected_time":1457000000000,"state":"active","ping":58},{"user_id":242,"name":"Zu","steam_id":76561198054192354,"connected_time":2111000000000,"state":"active","ping":46}]},{"server_id":40,"name":"Uncletopia | London | 7 | Stopwatch","name_short":"lon-7","host":"lon-1.uk.uncletopia.com","port":27075,"enabled":true,"region":"eu","cc":"gb","latitude":51.509865,"longitude":-0.118092,"reserved":0,"last_update":"0001-01-01T00:00:00Z","name_a2s":"Uncletopia | London | 7 | Stopwatch","protocol":17,"map":"workshop/pl_badwater_pro_v12.ugc2142942074","folder":"tf","game":"Team Fortress","app_id":440,"player_count":0,"max_players":24,"Bots":0,"server_type":"Dedicated","server_os":"Linux","password":true,"vac":true,"version":"7961495","steam_id":85568392924964314,"keywords":["nocrits","nodmgspread","payload","uncletopia"],"game_id":440,"stv_port":27076,"stv_name":"Uncletopia | London | 7 | Stopwatch | STV","players":null},{"server_id":41,"name":"Uncletopia | London | 8 | Community","name_short":"lon-8","host":"lon-1.uk.uncletopia.com","port":27085,"enabled":true,"region":"eu","cc":"gb","latitude":51.509865,"longitude":-0.118092,"reserved":0,"last_update":"0001-01-01T00:00:00Z","name_a2s":"Uncletopia | London | 8 | Community","protocol":17,"map":"workshop/koth_ramjam_rc1.ugc459778887","folder":"tf","game":"Team Fortress","app_id":440,"player_count":0,"max_players":24,"Bots":0,"server_type":"Dedicated","server_os":"Linux","password":true,"vac":true,"version":"7961495","steam_id":85568392924964315,"keywords":["cp","nocrits","nodmgspread","uncletopia"],"game_id":440,"stv_port":27086,"stv_name":"Uncletopia | London | 8 | Community | STV","players":null},{"server_id":300,"name":"Uncletopia | Montr√©al | 1 | One Thousand Uncles","name_short":"mtl-1","host":"mtl-1.ca.uncletopia.com","port":27015,"enabled":true,"region":"us-east","cc":"ca","latitude":45.50889,"longitude":-73.56167,"reserved":0,"last_update":"0001-01-01T00:00:00Z","name_a2s":"","protocol":0,"map":"","folder":"","game":"","app_id":0,"player_count":9,"max_players":0,"Bots":0,"server_type":"","server_os":"","password":false,"vac":false,"version":"","steam_id":0,"keywords":null,"game_id":0,"stv_port":0,"stv_name":"","players":[{"user_id":83,"name":"LightBulbGlue #SaveTF2","steam_id":76561198329573529,"connected_time":1942000000000,"state":"active","ping":72},{"user_id":89,"name":"Jake_Spencer","steam_id":76561198025176750,"connected_time":494000000000,"state":"active","ping":87},{"user_id":84,"name":"Kibeka the Weird","steam_id":76561198116534133,"connected_time":1653000000000,"state":"active","ping":54},{"user_id":82,"name":"I just joined","steam_id":76561198057999536,"connected_time":2494000000000,"state":"active","ping":105},{"user_id":92,"name":"Mr. Call You Back","steam_id":76561198025172811,"connected_time":158000000000,"state":"active","ping":45},{"user_id":86,"name":"CreeperCatBengal","steam_id":76561198213193221,"connected_time":817000000000,"state":"active","ping":84},{"user_id":87,"name":"mge player no. 232","steam_id":76561198350747953,"connected_time":657000000000,"state":"active","ping":40},{"user_id":88,"name":"mountain goat","steam_id":76561198326628884,"connected_time":545000000000,"state":"active","ping":34},{"user_id":90,"name":"GoodInternetMan","steam_id":76561198027938300,"connected_time":447000000000,"state":"active","ping":153}]},{"server_id":301,"name":"Uncletopia | Montr√©al | 2 | One Thousand Uncles","name_short":"mtl-2","host":"mtl-1.ca.uncletopia.com","port":27025,"enabled":true,"region":"us-east","cc":"ca","latitude":45.50889,"longitude":-73.56167,"reserved":0,"last_update":"0001-01-01T00:00:00Z","name_a2s":"","protocol":0,"map":"","folder":"","game":"","app_id":0,"player_count":0,"max_players":0,"Bots":0,"server_type":"","server_os":"","password":false,"vac":false,"version":"","steam_id":0,"keywords":null,"game_id":0,"stv_port":0,"stv_name":"","players":null},{"server_id":302,"name":"Uncletopia | Montr√©al | 3 | One Thousand Uncles","name_short":"mtl-3","host":"mtl-1.ca.uncletopia.com","port":27035,"enabled":true,"region":"us-east","cc":"ca","latitude":45.50889,"longitude":-73.56167,"reserved":0,"last_update":"0001-01-01T00:00:00Z","name_a2s":"","protocol":0,"map":"","folder":"","game":"","app_id":0,"player_count":0,"max_players":0,"Bots":0,"server_type":"","server_os":"","password":false,"vac":false,"version":"","steam_id":0,"keywords":null,"game_id":0,"stv_port":0,"stv_name":"","players":null},{"server_id":13,"name":"Uncletopia | New York City | 1 | All Maps","name_short":"nyc-1","host":"nyc-1.us.uncletopia.com","port":27015,"enabled":true,"region":"us-east","cc":"us","latitude":40.73061,"longitude":-73.93524,"reserved":0,"last_update":"0001-01-01T00:00:00Z","name_a2s":"Uncletopia | New York City | 1 | All Maps","protocol":17,"map":"cp_5gorge","folder":"tf","game":"Team Fortress","app_id":440,"player_count":24,"max_players":24,"Bots":0,"server_type":"Dedicated","server_os":"Linux","password":true,"vac":true,"version":"7961495","steam_id":85568392924469993,"keywords":["cp","nocrits","nodmgspread","uncletopia"],"game_id":440,"stv_port":27016,"stv_name":"Uncletopia | New York City | 1 | All Maps | STV","players":[{"user_id":214,"name":"TheBanditScout","steam_id":76561198380435383,"connected_time":313000000000,"state":"active","ping":115},{"user_id":195,"name":"some tree","steam_id":76561198166093346,"connected_time":1869000000000,"state":"active","ping":70},{"user_id":211,"name":"Pox4Dinner","steam_id":76561198036958101,"connected_time":405000000000,"state":"active","ping":57},{"user_id":212,"name":"Cold shoulder","steam_id":76561198453824178,"connected_time":372000000000,"state":"active","ping":120},{"user_id":220,"name":"Merpling","steam_id":76561198048272047,"connected_time":0,"state":"connecting","ping":0},{"user_id":188,"name":"ttv/Everfrost Samoyed","steam_id":76561198072580699,"connected_time":2718000000000,"state":"active","ping":58},{"user_id":182,"name":"Operation_SeaLion","steam_id":76561198048726691,"connected_time":3127000000000,"state":"active","ping":39},{"user_id":198,"name":"Dynalope","steam_id":76561198042463504,"connected_time":1667000000000,"state":"active","ping":131},{"user_id":191,"name":"Pyromania","steam_id":76561199000742298,"connected_time":2378000000000,"state":"active","ping":46},{"user_id":218,"name":"taigaxx","steam_id":76561198202669250,"connected_time":171000000000,"state":"active","ping":74},{"user_id":189,"name":"DaybreakerYa","steam_id":76561199013632613,"connected_time":2433000000000,"state":"active","ping":69},{"user_id":201,"name":"Arjen PSN 23","steam_id":76561198963682232,"connected_time":1527000000000,"state":"active","ping":45},{"user_id":216,"name":"‚ô• alixei! ‚ô•","steam_id":76561198014557455,"connected_time":269000000000,"state":"active","ping":91},{"user_id":190,"name":"lost joe","steam_id":76561198856016840,"connected_time":2422000000000,"state":"active","ping":48},{"user_id":209,"name":"cyberas","steam_id":76561198257092290,"connected_time":641000000000,"state":"active","ping":67},{"user_id":219,"name":"Top Quacker","steam_id":76561198261316128,"connected_time":105000000000,"state":"active","ping":57},{"user_id":185,"name":"Hydroxianchaos","steam_id":76561198043786828,"connected_time":3044000000000,"state":"active","ping":47},{"user_id":208,"name":"cellogamer","steam_id":76561198016937098,"connected_time":656000000000,"state":"active","ping":55},{"user_id":196,"name":"Hummbirb","steam_id":76561198327686110,"connected_time":1863000000000,"state":"active","ping":67},{"user_id":206,"name":"CTRLZ0Y","steam_id":76561198183346187,"connected_time":729000000000,"state":"active","ping":47},{"user_id":217,"name":"lushtakular","steam_id":76561198840080823,"connected_time":269000000000,"state":"active","ping":83},{"user_id":202,"name":"SonOfZombie","steam_id":76561198056709393,"connected_time":1524000000000,"state":"active","ping":60},{"user_id":187,"name":"Bother","steam_id":76561198336750909,"connected_time":2917000000000,"state":"active","ping":37},{"user_id":205,"name":"noided","steam_id":76561198353924837,"connected_time":1046000000000,"state":"active","ping":66}]},{"server_id":14,"name":"Uncletopia | New York City | 2 | All Maps","name_short":"nyc-2","host":"nyc-1.us.uncletopia.com","port":27025,"enabled":true,"region":"us-east","cc":"us","latitude":40.73061,"longitude":-73.93524,"reserved":0,"last_update":"0001-01-01T00:00:00Z","name_a2s":"Uncletopia | New York City | 2 | All Maps","protocol":17,"map":"cp_mountainlab","folder":"tf","game":"Team Fortress","app_id":440,"player_count":1,"max_players":24,"Bots":0,"server_type":"Dedicated","server_os":"Linux","password":true,"vac":true,"version":"7961495","steam_id":85568392924469994,"keywords":["cp","nocrits","nodmgspread","uncletopia"],"game_id":440,"stv_port":27026,"stv_name":"Uncletopia | New York City | 2 | All Maps | STV","players":[{"user_id":12,"name":"Wlater white","steam_id":76561198171273287,"connected_time":237000000000,"state":"active","ping":55}]},{"server_id":15,"name":"Uncletopia | New York City | 3 | Stopwatch","name_short":"nyc-3","host":"nyc-1.us.uncletopia.com","port":27035,"enabled":true,"region":"us-east","cc":"us","latitude":40.73061,"longitude":-73.93524,"reserved":0,"last_update":"0001-01-01T00:00:00Z","name_a2s":"Uncletopia | New York City | 3 | Stopwatch","protocol":17,"map":"workshop/pl_summercoast_rc8e.ugc1761528829","folder":"tf","game":"Team Fortress","app_id":440,"player_count":1,"max_players":24,"Bots":0,"server_type":"Dedicated","server_os":"Linux","password":true,"vac":true,"version":"7961495","steam_id":85568392924742820,"keywords":["nocrits","nodmgspread","payload","uncletopia"],"game_id":440,"stv_port":27036,"stv_name":"Uncletopia | New York City | 3 | Stopwatch | STV","players":[{"user_id":9,"name":"steakneggs12","steam_id":76561199407031464,"connected_time":15000000000,"state":"spawning","ping":128}]},{"server_id":16,"name":"Uncletopia | New York City | 4 | Community","name_short":"nyc-4","host":"nyc-1.us.uncletopia.com","port":27045,"enabled":true,"region":"us-east","cc":"us","latitude":40.73061,"longitude":-73.93524,"reserved":0,"last_update":"0001-01-01T00:00:00Z","name_a2s":"Uncletopia | New York City | 4 | Community","protocol":17,"map":"cp_altitude","folder":"tf","game":"Team Fortress","app_id":440,"player_count":0,"max_players":24,"Bots":0,"server_type":"Dedicated","server_os":"Linux","password":true,"vac":true,"version":"7961495","steam_id":85568392924742821,"keywords":["cp","nocrits","nodmgspread","uncletopia"],"game_id":440,"stv_port":27046,"stv_name":"Uncletopia | New York City | 4 | Community | STV","players":null},{"server_id":142,"name":"Uncletopia | S√£o Paulo | 1 | All Maps","name_short":"sao-1","host":"sao-1.br.uncletopia.com","port":27015,"enabled":true,"region":"sa","cc":"br","latitude":-23.533773,"longitude":-46.62529,"reserved":0,"last_update":"0001-01-01T00:00:00Z","name_a2s":"Uncletopia | S√£o Paulo | 1 | All Maps","protocol":17,"map":"koth_cascade","folder":"tf","game":"Team Fortress","app_id":440,"player_count":0,"max_players":24,"Bots":0,"server_type":"Dedicated","server_os":"Linux","password":true,"vac":true,"version":"7961495","steam_id":85568392924469996,"keywords":["cp","nocrits","nodmgspread","uncletopia"],"game_id":440,"stv_port":27016,"stv_name":"Uncletopia | S√£o Paulo | 1 | All Maps | STV","players":null},{"server_id":143,"name":"Uncletopia | S√£o Paulo | 2 | Community","name_short":"sao-2","host":"sao-2.br.uncletopia.com","port":27015,"enabled":true,"region":"sa","cc":"br","latitude":-23.533773,"longitude":-46.62529,"reserved":0,"last_update":"0001-01-01T00:00:00Z","name_a2s":"Uncletopia | S√£o Paulo | 2 | Community","protocol":17,"map":"workshop/pl_cashworks_final1.ugc2904065412","folder":"tf","game":"Team Fortress","app_id":440,"player_count":0,"max_players":24,"Bots":0,"server_type":"Dedicated","server_os":"Linux","password":true,"vac":true,"version":"7961495","steam_id":85568392924485349,"keywords":["nocrits","nodmgspread","payload","uncletopia"],"game_id":440,"stv_port":27016,"stv_name":"Uncletopia | S√£o Paulo | 2 | Community | STV","players":null},{"server_id":7,"name":"Uncletopia | Seattle | 1 | All Maps","name_short":"sea-1","host":"sea-1.us.uncletopia.com","port":27015,"enabled":true,"region":"us-west","cc":"us","latitude":47.608013,"longitude":-122.33517,"reserved":0,"last_update":"0001-01-01T00:00:00Z","name_a2s":"Uncletopia | Seattle | 1 | All Maps","protocol":17,"map":"koth_harvest_final","folder":"tf","game":"Team Fortress","app_id":440,"player_count":22,"max_players":24,"Bots":0,"server_type":"Dedicated","server_os":"Linux","password":true,"vac":true,"version":"7961495","steam_id":85568392924469997,"keywords":["cp","nocrits","nodmgspread","uncletopia"],"game_id":440,"stv_port":27016,"stv_name":"Uncletopia | Seattle | 1 | All Maps | STV","players":[{"user_id":162,"name":"gloobern","steam_id":76561198341190679,"connected_time":1416000000000,"state":"active","ping":47},{"user_id":185,"name":"oil","steam_id":76561198099980149,"connected_time":59000000000,"state":"active","ping":74},{"user_id":175,"name":"Pneumo.","steam_id":76561197987911883,"connected_time":438000000000,"state":"active","ping":56},{"user_id":172,"name":"lynks disease no sound","steam_id":76561198043465434,"connected_time":1057000000000,"state":"active","ping":63},{"user_id":81,"name":"UserLeft","steam_id":76561197998297379,"connected_time":7777000000000,"state":"active","ping":64},{"user_id":136,"name":"[TrC] Dackstrus","steam_id":76561197973518509,"connected_time":2914000000000,"state":"active","ping":49},{"user_id":158,"name":"miguelrodriguez2013","steam_id":76561198269253587,"connected_time":2141000000000,"state":"active","ping":60},{"user_id":131,"name":"Who loves orange soda?","steam_id":76561198059808982,"connected_time":3328000000000,"state":"active","ping":71},{"user_id":164,"name":"tr","steam_id":76561198046944222,"connected_time":1402000000000,"state":"active","ping":41},{"user_id":181,"name":"Pidud","steam_id":76561198079350325,"connected_time":238000000000,"state":"active","ping":38},{"user_id":171,"name":"my monitor is off","steam_id":76561198074499537,"connected_time":1147000000000,"state":"active","ping":73},{"user_id":133,"name":"Drone #0432 (they/it)","steam_id":76561198027321950,"connected_time":3275000000000,"state":"active","ping":45},{"user_id":150,"name":"COOL master_9","steam_id":76561198073041151,"connected_time":2594000000000,"state":"active","ping":84},{"user_id":160,"name":"Coffeemelon","steam_id":76561198285891257,"connected_time":1923000000000,"state":"active","ping":64},{"user_id":166,"name":"captain red","steam_id":76561198191587983,"connected_time":1351000000000,"state":"active","ping":78},{"user_id":183,"name":"Stupid Rat (Extra Stupid)","steam_id":76561199091290729,"connected_time":213000000000,"state":"active","ping":106},{"user_id":134,"name":"[TrC] Nosy","steam_id":76561197978859310,"connected_time":2922000000000,"state":"active","ping":54},{"user_id":177,"name":"Charles","steam_id":76561198155322277,"connected_time":372000000000,"state":"active","ping":65},{"user_id":168,"name":"Rock Kickass","steam_id":76561198450510841,"connected_time":1278000000000,"state":"active","ping":89},{"user_id":178,"name":"Corbezy","steam_id":76561197993398349,"connected_time":369000000000,"state":"active","ping":130},{"user_id":153,"name":"hl3 hot gay sex","steam_id":76561199122281764,"connected_time":2481000000000,"state":"active","ping":78},{"user_id":184,"name":"a.w.e.kwardness","steam_id":76561199218177050,"connected_time":194000000000,"state":"active","ping":115}]},{"server_id":119,"name":"Uncletopia | Seattle | 2 | All Maps","name_short":"sea-2","host":"sea-1.us.uncletopia.com","port":27025,"enabled":true,"region":"us-west","cc":"us","latitude":47.608013,"longitude":-122.33517,"reserved":0,"last_update":"0001-01-01T00:00:00Z","name_a2s":"Uncletopia | Seattle | 2 | All Maps","protocol":17,"map":"pl_badwater","folder":"tf","game":"Team Fortress","app_id":440,"player_count":0,"max_players":24,"Bots":0,"server_type":"Dedicated","server_os":"Linux","password":true,"vac":true,"version":"7961495","steam_id":85568392924469998,"keywords":["nocrits","nodmgspread","payload","uncletopia"],"game_id":440,"stv_port":27026,"stv_name":"Uncletopia | Seattle | 2 | All Maps | STV","players":null},{"server_id":406,"name":"Uncletopia | Seattle | 3 | Stopwatch","name_short":"sea-3","host":"sea-1.us.uncletopia.com","port":27035,"enabled":true,"region":"us-west","cc":"us","latitude":47.608013,"longitude":-122.33517,"reserved":0,"last_update":"0001-01-01T00:00:00Z","name_a2s":"Uncletopia | Seattle | 3 | Stopwatch","protocol":17,"map":"pl_pier","folder":"tf","game":"Team Fortress","app_id":440,"player_count":0,"max_players":24,"Bots":0,"server_type":"Dedicated","server_os":"Linux","password":true,"vac":true,"version":"7961495","steam_id":85568392924515217,"keywords":["nocrits","nodmgspread","payload","uncletopia"],"game_id":440,"stv_port":27036,"stv_name":"Uncletopia | Seattle | 3 | Stopwatch | STV","players":null},{"server_id":17,"name":"Uncletopia | San Francisco | 1 | All Maps","name_short":"sfo-1","host":"sfo-1.us.uncletopia.com","port":27015,"enabled":true,"region":"us-west","cc":"us","latitude":37.77397,"longitude":-122.4313,"reserved":0,"last_update":"0001-01-01T00:00:00Z","name_a2s":"Uncletopia | San Francisco | 1 | All Maps","protocol":17,"map":"koth_cascade","folder":"tf","game":"Team Fortress","app_id":440,"player_count":0,"max_players":24,"Bots":0,"server_type":"Dedicated","server_os":"Linux","password":true,"vac":true,"version":"7961495","steam_id":85568392924469999,"keywords":["cp","nocrits","nodmgspread","uncletopia"],"game_id":440,"stv_port":27016,"stv_name":"Uncletopia | San Francisco | 1 | All Maps | STV","players":null},{"server_id":18,"name":"Uncletopia | San Francisco | 2 | All Maps","name_short":"sfo-2","host":"sfo-1.us.uncletopia.com","port":27025,"enabled":true,"region":"us-west","cc":"us","latitude":37.77397,"longitude":-122.4313,"reserved":0,"last_update":"0001-01-01T00:00:00Z","name_a2s":"Uncletopia | San Francisco | 2 | All Maps","protocol":17,"map":"pl_frontier_final","folder":"tf","game":"Team Fortress","app_id":440,"player_count":0,"max_players":24,"Bots":0,"server_type":"Dedicated","server_os":"Linux","password":true,"vac":true,"version":"7961495","steam_id":85568392924470000,"keywords":["nocrits","nodmgspread","payload","uncletopia"],"game_id":440,"stv_port":27026,"stv_name":"Uncletopia | San Francisco | 2 | All Maps | STV","players":null},{"server_id":19,"name":"Uncletopia | San Francisco | 3 | Stopwatch","name_short":"sfo-3","host":"sfo-1.us.uncletopia.com","port":27035,"enabled":true,"region":"us-west","cc":"us","latitude":37.77397,"longitude":-122.4313,"reserved":0,"last_update":"0001-01-01T00:00:00Z","name_a2s":"Uncletopia | San Francisco | 3 | Stopwatch","protocol":17,"map":"cp_sunshine","folder":"tf","game":"Team Fortress","app_id":440,"player_count":0,"max_players":24,"Bots":0,"server_type":"Dedicated","server_os":"Linux","password":true,"vac":true,"version":"7961495","steam_id":85568392924742824,"keywords":["cp","nocrits","nodmgspread","uncletopia"],"game_id":440,"stv_port":27036,"stv_name":"Uncletopia | San Francisco | 3 | Stopwatch | STV","players":null},{"server_id":20,"name":"Uncletopia | San Francisco | 4 | Community","name_short":"sfo-4","host":"sfo-1.us.uncletopia.com","port":27045,"enabled":true,"region":"us-west","cc":"us","latitude":37.77397,"longitude":-122.4313,"reserved":0,"last_update":"0001-01-01T00:00:00Z","name_a2s":"Uncletopia | San Francisco | 4 | Community","protocol":17,"map":"pl_pier","folder":"tf","game":"Team Fortress","app_id":440,"player_count":0,"max_players":24,"Bots":0,"server_type":"Dedicated","server_os":"Linux","password":true,"vac":true,"version":"7961495","steam_id":85568392924742826,"keywords":["nocrits","nodmgspread","payload","uncletopia"],"game_id":440,"stv_port":27046,"stv_name":"Uncletopia | San Francisco | 4 | Community | STV","players":null},{"server_id":141,"name":"Uncletopia | Sydney | 1 | All Maps","name_short":"syd-1","host":"syd-1.au.uncletopia.com","port":27015,"enabled":true,"region":"au","cc":"au","latitude":-33.865143,"longitude":151.2099,"reserved":0,"last_update":"0001-01-01T00:00:00Z","name_a2s":"Uncletopia | Sydney | 1 | All Maps","protocol":17,"map":"cp_dustbowl","folder":"tf","game":"Team Fortress","app_id":440,"player_count":0,"max_players":24,"Bots":0,"server_type":"Dedicated","server_os":"Linux","password":true,"vac":true,"version":"7961495","steam_id":85568392924470001,"keywords":["cp","nocrits","nodmgspread","uncletopia"],"game_id":440,"stv_port":27016,"stv_name":"Uncletopia | Sydney | 1 | All Maps | STV","players":null},{"server_id":123,"name":"Uncletopia | Sydney | 2 | All Maps","name_short":"syd-2","host":"syd-1.au.uncletopia.com","port":27025,"enabled":true,"region":"au","cc":"au","latitude":-33.865143,"longitude":151.2099,"reserved":0,"last_update":"0001-01-01T00:00:00Z","name_a2s":"Uncletopia | Sydney | 2 | All Maps","protocol":17,"map":"koth_viaduct","folder":"tf","game":"Team Fortress","app_id":440,"player_count":0,"max_players":24,"Bots":0,"server_type":"Dedicated","server_os":"Linux","password":true,"vac":true,"version":"7961495","steam_id":85568392924470002,"keywords":["cp","nocrits","nodmgspread","uncletopia"],"game_id":440,"stv_port":27026,"stv_name":"Uncletopia | Sydney | 2 | All Maps | STV","players":null},{"server_id":395,"name":"Uncletopia | Sydney | 3 | All Maps","name_short":"syd-3","host":"syd-1.au.uncletopia.com","port":27035,"enabled":true,"region":"au","cc":"au","latitude":-33.865143,"longitude":151.2099,"reserved":0,"last_update":"0001-01-01T00:00:00Z","name_a2s":"Uncletopia | Sydney | 3 | All Maps","protocol":17,"map":"pl_upward","folder":"tf","game":"Team Fortress","app_id":440,"player_count":0,"max_players":24,"Bots":0,"server_type":"Dedicated","server_os":"Linux","password":true,"vac":true,"version":"7961495","steam_id":85568392925194467,"keywords":["nocrits","nodmgspread","payload","uncletopia"],"game_id":440,"stv_port":27036,"stv_name":"Uncletopia | Sydney | 3 | All Maps | STV","players":null},{"server_id":396,"name":"Uncletopia | Sydney | 4 | All Maps","name_short":"syd-4","host":"syd-1.au.uncletopia.com","port":27045,"enabled":true,"region":"au","cc":"au","latitude":-33.865143,"longitude":151.2099,"reserved":0,"last_update":"0001-01-01T00:00:00Z","name_a2s":"Uncletopia | Sydney | 4 | All Maps","protocol":17,"map":"koth_viaduct","folder":"tf","game":"Team Fortress","app_id":440,"player_count":0,"max_players":24,"Bots":0,"server_type":"Dedicated","server_os":"Linux","password":true,"vac":true,"version":"7961495","steam_id":85568392925397958,"keywords":["cp","nocrits","nodmgspread","uncletopia"],"game_id":440,"stv_port":27046,"stv_name":"Uncletopia | Sydney | 4 | All Maps | STV","players":null},{"server_id":58,"name":"Uncletopia | Sydney | 5 | Stopwatch","name_short":"syd-5","host":"syd-1.au.uncletopia.com","port":27055,"enabled":true,"region":"au","cc":"au","latitude":-33.865143,"longitude":151.2099,"reserved":0,"last_update":"0001-01-01T00:00:00Z","name_a2s":"Uncletopia | Sydney | 5 | Stopwatch","protocol":17,"map":"workshop/koth_ashville_final.ugc2130459942","folder":"tf","game":"Team Fortress","app_id":440,"player_count":0,"max_players":24,"Bots":0,"server_type":"Dedicated","server_os":"Linux","password":true,"vac":true,"version":"7961495","steam_id":85568392925397959,"keywords":["cp","nocrits","nodmgspread","uncletopia"],"game_id":440,"stv_port":27056,"stv_name":"Uncletopia | Sydney | 5 | Stopwatch | STV","players":null},{"server_id":59,"name":"Uncletopia | Sydney | 6 | Community","name_short":"syd-6","host":"syd-1.au.uncletopia.com","port":27065,"enabled":true,"region":"au","cc":"au","latitude":-33.865143,"longitude":151.2099,"reserved":0,"last_update":"0001-01-01T00:00:00Z","name_a2s":"Uncletopia | Sydney | 6 | Community","protocol":17,"map":"workshop/koth_slaughter_rc1.ugc1712845210","folder":"tf","game":"Team Fortress","app_id":440,"player_count":0,"max_players":24,"Bots":0,"server_type":"Dedicated","server_os":"Linux","password":true,"vac":true,"version":"7961495","steam_id":85568392925397960,"keywords":["cp","nocrits","nodmgspread","uncletopia"],"game_id":440,"stv_port":27066,"stv_name":"Uncletopia | Sydney | 6 | Community | STV","players":null},{"server_id":49,"name":"Uncletopia | Warsaw | 1 | One Thousand Uncles","name_short":"waw-1","host":"waw-1.pl.uncletopia.com","port":27015,"enabled":true,"region":"eu","cc":"pl","latitude":52.2297,"longitude":21.017532,"reserved":0,"last_update":"0001-01-01T00:00:00Z","name_a2s":"Uncletopia | Warsaw | 1 | One Thousand Uncles","protocol":17,"map":"cp_dustbowl","folder":"tf","game":"Team Fortress","app_id":440,"player_count":29,"max_players":32,"Bots":16,"server_type":"Dedicated","server_os":"Linux","password":true,"vac":true,"version":"7961495","steam_id":85568392925397850,"keywords":["alltalk","bots","cp","danepve","increased_maxplayers","nocrits","norespawntime","uncletopia"],"game_id":440,"stv_port":0,"stv_name":"","players":[{"user_id":472,"name":"ChrisLuckycharm","steam_id":76561199490969322,"connected_time":2230000000000,"state":"active","ping":106},{"user_id":474,"name":"bryophyta","steam_id":76561197968945306,"connected_time":1545000000000,"state":"active","ping":86},{"user_id":473,"name":"muztikmuztiko","steam_id":76561199272029074,"connected_time":2017000000000,"state":"active","ping":92},{"user_id":475,"name":"Qracz","steam_id":76561198192056119,"connected_time":1382000000000,"state":"active","ping":60},{"user_id":484,"name":"‚ô•AgitatedHorrorquin‚ô•","steam_id":76561198442099883,"connected_time":296000000000,"state":"active","ping":166},{"user_id":396,"name":"Eujekas","steam_id":76561198010527145,"connected_time":6346000000000,"state":"active","ping":117},{"user_id":478,"name":"mr.sans","steam_id":76561199204934004,"connected_time":704000000000,"state":"active","ping":322},{"user_id":402,"name":"ifre3","steam_id":76561198052545817,"connected_time":5959000000000,"state":"active","ping":118},{"user_id":483,"name":"maksym.purski","steam_id":76561199381038035,"connected_time":382000000000,"state":"active","ping":35},{"user_id":480,"name":"Slazaa","steam_id":76561197993252446,"connected_time":644000000000,"state":"active","ping":76},{"user_id":421,"name":"Flint","steam_id":76561197995920776,"connected_time":4928000000000,"state":"active","ping":61},{"user_id":481,"name":"L'H√¥te","steam_id":76561198050912763,"connected_time":520000000000,"state":"active","ping":161},{"user_id":469,"name":"Kacperos12","steam_id":76561198044168268,"connected_time":2700000000000,"state":"active","ping":74}]},{"server_id":50,"name":"Uncletopia | Warsaw | 2 | One Thousand Uncles","name_short":"waw-2","host":"waw-1.pl.uncletopia.com","port":27025,"enabled":true,"region":"eu","cc":"pl","latitude":52.2297,"longitude":21.017532,"reserved":0,"last_update":"0001-01-01T00:00:00Z","name_a2s":"Uncletopia | Warsaw | 2 | One Thousand Uncles","protocol":17,"map":"pl_goldrush","folder":"tf","game":"Team Fortress","app_id":440,"player_count":25,"max_players":32,"Bots":16,"server_type":"Dedicated","server_os":"Linux","password":true,"vac":true,"version":"7961495","steam_id":85568392925397851,"keywords":["alltalk","bots","danepve","increased_maxplayers","nocrits","norespawntime","payload","uncletopia"],"game_id":440,"stv_port":0,"stv_name":"","players":[{"user_id":756,"name":"tanyathsus","steam_id":76561198089522447,"connected_time":1505000000000,"state":"active","ping":90},{"user_id":757,"name":"Nikt Wa≈ºny","steam_id":76561199273293257,"connected_time":1412000000000,"state":"active","ping":91},{"user_id":762,"name":"onion","steam_id":76561198403442434,"connected_time":1045000000000,"state":"active","ping":71},{"user_id":784,"name":"Meerkat","steam_id":76561199245435539,"connected_time":242000000000,"state":"active","ping":227},{"user_id":747,"name":"matvejisakov7","steam_id":76561199493568179,"connected_time":2929000000000,"state":"active","ping":107},{"user_id":780,"name":"BonBon_","steam_id":76561198838398801,"connected_time":951000000000,"state":"active","ping":58},{"user_id":752,"name":"o_o","steam_id":76561198113045011,"connected_time":2511000000000,"state":"active","ping":110},{"user_id":761,"name":"God","steam_id":76561199049925843,"connected_time":1056000000000,"state":"active","ping":95},{"user_id":697,"name":"LuckLuster","steam_id":76561198092986647,"connected_time":4607000000000,"state":"active","ping":57}]},{"server_id":51,"name":"Uncletopia | Warsaw | 3 | All Maps","name_short":"waw-3","host":"waw-1.pl.uncletopia.com","port":27035,"enabled":true,"region":"eu","cc":"pl","latitude":52.2297,"longitude":21.017532,"reserved":0,"last_update":"0001-01-01T00:00:00Z","name_a2s":"Uncletopia | Warsaw | 3 | All Maps","protocol":17,"map":"koth_harvest_final","folder":"tf","game":"Team Fortress","app_id":440,"player_count":14,"max_players":24,"Bots":0,"server_type":"Dedicated","server_os":"Linux","password":true,"vac":true,"version":"7961495","steam_id":85568392925397852,"keywords":["cp","nocrits","nodmgspread","uncletopia"],"game_id":440,"stv_port":27036,"stv_name":"Uncletopia | Warsaw | 3 | All Maps | STV","players":[{"user_id":29,"name":"kkppro35","steam_id":76561199495842147,"connected_time":2305000000000,"state":"active","ping":47},{"user_id":25,"name":"Jaglanka Brownie","steam_id":76561198979768779,"connected_time":2587000000000,"state":"active","ping":29},{"user_id":26,"name":"Futatsuiwa Mamizou","steam_id":76561198799303596,"connected_time":2527000000000,"state":"active","ping":80},{"user_id":38,"name":"Lynx","steam_id":76561199274008207,"connected_time":860000000000,"state":"active","ping":51},{"user_id":43,"name":"–ë–∞—Ä—Ö–∞—Ç–Ω—ã–µ –¢—è–≥–∏","steam_id":76561199480969491,"connected_time":155000000000,"state":"active","ping":45},{"user_id":44,"name":"Stucent","steam_id":76561198147498713,"connected_time":148000000000,"state":"active","ping":77},{"user_id":35,"name":"Nlrr0_0","steam_id":76561199059920758,"connected_time":1532000000000,"state":"active","ping":57},{"user_id":33,"name":"banankgh","steam_id":76561199108845534,"connected_time":1932000000000,"state":"active","ping":47},{"user_id":36,"name":"TheVikingTheRed","steam_id":76561199221731253,"connected_time":1270000000000,"state":"active","ping":68},{"user_id":39,"name":"purplecan","steam_id":76561199208283508,"connected_time":764000000000,"state":"active","ping":53},{"user_id":42,"name":"winter sun","steam_id":76561198043659045,"connected_time":487000000000,"state":"active","ping":102},{"user_id":46,"name":"Olympic Toe Curling","steam_id":76561198433807531,"connected_time":82000000000,"state":"active","ping":151},{"user_id":47,"name":"stefanbejenari","steam_id":76561199466718294,"connected_time":24000000000,"state":"active","ping":68},{"user_id":48,"name":"êÇÉêÇÉ","steam_id":76561198991221534,"connected_time":6000000000,"state":"spawning","ping":109}]},{"server_id":52,"name":"Uncletopia | Warsaw | 4 | All Maps","name_short":"waw-4","host":"waw-1.pl.uncletopia.com","port":27045,"enabled":true,"region":"eu","cc":"pl","latitude":52.2297,"longitude":21.017532,"reserved":0,"last_update":"0001-01-01T00:00:00Z","name_a2s":"Uncletopia | Warsaw | 4 | All Maps","protocol":17,"map":"koth_cascade","folder":"tf","game":"Team Fortress","app_id":440,"player_count":0,"max_players":24,"Bots":0,"server_type":"Dedicated","server_os":"Linux","password":true,"vac":true,"version":"7961495","steam_id":85568392925397853,"keywords":["cp","nocrits","nodmgspread","uncletopia"],"game_id":440,"stv_port":27046,"stv_name":"Uncletopia | Warsaw | 4 | All Maps | STV","players":null},{"server_id":53,"name":"Uncletopia | Warsaw | 5 | Stopwatch","name_short":"waw-5","host":"waw-1.pl.uncletopia.com","port":27055,"enabled":true,"region":"eu","cc":"pl","latitude":52.2297,"longitude":21.017532,"reserved":0,"last_update":"0001-01-01T00:00:00Z","name_a2s":"Uncletopia | Warsaw | 5 | Stopwatch","protocol":17,"map":"workshop/koth_ramjam_rc1.ugc459778887","folder":"tf","game":"Team Fortress","app_id":440,"player_count":0,"max_players":24,"Bots":0,"server_type":"Dedicated","server_os":"Linux","password":true,"vac":true,"version":"7961495","steam_id":85568392925397854,"keywords":["cp","nocrits","nodmgspread","uncletopia"],"game_id":440,"stv_port":27056,"stv_name":"Uncletopia | Warsaw | 5 | Stopwatch | STV","players":null},{"server_id":54,"name":"Uncletopia | Warsaw | 6 | Community","name_short":"waw-6","host":"waw-1.pl.uncletopia.com","port":27065,"enabled":true,"region":"eu","cc":"pl","latitude":52.2297,"longitude":21.017532,"reserved":0,"last_update":"0001-01-01T00:00:00Z","name_a2s":"Uncletopia | Warsaw | 6 | Community","protocol":17,"map":"workshop/cp_bruhstbowl_b6.ugc2878604990","folder":"tf","game":"Team Fortress","app_id":440,"player_count":0,"max_players":24,"Bots":0,"server_type":"Dedicated","server_os":"Linux","password":true,"vac":true,"version":"7961495","steam_id":85568392925397856,"keywords":["cp","nocrits","nodmgspread","uncletopia"],"game_id":440,"stv_port":27066,"stv_name":"Uncletopia | Warsaw | 6 | Community | STV","players":null}]}