{"status":true,"message":"","result":[{"server_id":9,"name":"Uncletopia | Atlanta | 1 | All Maps","name_short":"atl-1","host":"atl-1.us.uncletopia.com","port":27015,"enabled":true,"region":"us-east","cc":"us","latitude":33.753746,"longitude":-84.38633,"reserved":0,"last_update":"0001-01-01T00:00:00Z","name_a2s":"Uncletopia | Atlanta | 1 | All Maps","protocol":17,"map":"pl_borneo","folder":"tf","game":"Team Fortress","app_id":440,"player_count":24,"max_players":24,"Bots":0,"server_type":"Dedicated","server_os":"Linux","password":true,"vac":true,"version":"7757534","steam_id":85568392924469982,"keywords":["nocrits","nodmgspread","payload","uncletopia"],"game_id":440,"stv_port":27016,"stv_name":"Uncletopia | Atlanta | 1 | All Maps | STV","players":[{"user_id":115,"name":"lu","steam_id":76561198080731872,"connected_time":283000000000,"state":"active","ping":72},{"user_id":87,"name":"A Glazed Donut","steam_id":76561198297536267,"connected_time":2686000000000,"state":"active","ping":102},{"user_id":106,"name":"atlas","steam_id":76561198398383076,"connected_time":1472000000000,"state":"active","ping":92},{"user_id":110,"name":"majormace64","steam_id":76561198045078098,"connected_time":1239000000000,"state":"active","ping":98},{"user_id":94,"name":"violet.gb","steam_id":76561198248461754,"connected_time":2354000000000,"state":"active","ping":113},{"user_id":97,"name":"Scab Collector","steam_id":76561198346425545,"connected_time":2263000000000,"state":"active","ping":68},{"user_id":104,"name":"harry gooch","steam_id":76561198024817457,"connected_time":2041000000000,"state":"active","ping":63},{"user_id":44,"name":"owl","steam_id":76561198105374054,"connected_time":6292000000000,"state":"active","ping":116},{"user_id":68,"name":"god approaches","steam_id":76561198081617990,"connected_time":4827000000000,"state":"active","ping":115},{"user_id":80,"name":"Lilith","steam_id":76561198125102885,"connected_time":3613000000000,"state":"active","ping":69},{"user_id":82,"name":"\\|)=|_|=(|/","steam_id":76561198171491110,"connected_time":3163000000000,"state":"active","ping":79},{"user_id":37,"name":"gghfgfgfg","steam_id":76561198064823861,"connected_time":6769000000000,"state":"active","ping":63},{"user_id":98,"name":"mobe","steam_id":76561198121633820,"connected_time":2249000000000,"state":"active","ping":115},{"user_id":105,"name":"Prof. Eggnog","steam_id":76561198193389166,"connected_time":1563000000000,"state":"active","ping":119},{"user_id":113,"name":"Huntiairi","steam_id":76561198065935917,"connected_time":671000000000,"state":"active","ping":50},{"user_id":101,"name":"‚à∞","steam_id":76561198064424202,"connected_time":2205000000000,"state":"active","ping":60},{"user_id":112,"name":"indi","steam_id":76561198045917538,"connected_time":1069000000000,"state":"active","ping":62},{"user_id":84,"name":"Walmus","steam_id":76561198111416393,"connected_time":2970000000000,"state":"active","ping":92},{"user_id":116,"name":"Cirno","steam_id":76561198283602302,"connected_time":265000000000,"state":"active","ping":46},{"user_id":117,"name":"Dill","steam_id":76561197995325198,"connected_time":256000000000,"state":"active","ping":77},{"user_id":103,"name":"crunchy and spicy wasp snack","steam_id":76561199322728703,"connected_time":2166000000000,"state":"active","ping":68},{"user_id":89,"name":"CFG Ponder","steam_id":76561198127039453,"connected_time":2521000000000,"state":"active","ping":100},{"user_id":114,"name":"Bali","steam_id":76561198038693845,"connected_time":422000000000,"state":"active","ping":70},{"user_id":107,"name":"barbara","steam_id":76561198072417792,"connected_time":1428000000000,"state":"active","ping":87}]},{"server_id":400,"name":"Uncletopia | Atlanta | 3 | Community","name_short":"atl-3","host":"atl-1.us.uncletopia.com","port":27035,"enabled":true,"region":"us-east","cc":"us","latitude":33.753746,"longitude":-84.38633,"reserved":0,"last_update":"0001-01-01T00:00:00Z","name_a2s":"Uncletopia | Atlanta | 3 | Community","protocol":17,"map":"workshop/pl_badwater_pro_v12.ugc2142942074","folder":"tf","game":"Team Fortress","app_id":440,"player_count":0,"max_players":24,"Bots":0,"server_type":"Dedicated","server_os":"Linux","password":true,"vac":true,"version":"7757534","steam_id":85568392924515187,"keywords":["nocrits","nodmgspread","payload","uncletopia"],"game_id":440,"stv_port":27036,"stv_name":"Uncletopia | Atlanta | 3 | Community | STV","players":null},{"server_id":401,"name":"Uncletopia | Atlanta | 4 | No Payload","name_short":"atl-4","host":"atl-1.us.uncletopia.com","port":27045,"enabled":true,"region":"us-east","cc":"us","latitude":33.753746,"longitude":-84.38633,"reserved":0,"last_update":"0001-01-01T00:00:00Z","name_a2s":"","protocol":0,"map":"","folder":"","game":"","app_id":0,"player_count":0,"max_players":0,"Bots":0,"server_type":"","server_os":"","password":false,"vac":false,"version":"","steam_id":0,"keywords":null,"game_id":0,"stv_port":0,"stv_name":"","players":null},{"server_id":2,"name":"Uncletopia | Chicago | 1 | All Maps","name_short":"chi-1","host":"chi-1.us.uncletopia.com","port":27015,"enabled":true,"region":"us-central","cc":"us","latitude":41.881832,"longitude":-87.62318,"reserved":0,"last_update":"0001-01-01T00:00:00Z","name_a2s":"Uncletopia | Chicago | 1 | All Maps","protocol":17,"map":"pl_swiftwater_final1","folder":"tf","game":"Team Fortress","app_id":440,"player_count":0,"max_players":24,"Bots":0,"server_type":"Dedicated","server_os":"Linux","password":true,"vac":true,"version":"7757534","steam_id":85568392924469984,"keywords":["nocrits","nodmgspread","payload","uncletopia"],"game_id":440,"stv_port":27016,"stv_name":"Uncletopia | Chicago | 1 | All Maps | STV","players":null},{"server_id":106,"name":"Uncletopia | Chicago | 2 | All Maps","name_short":"chi-2","host":"chi-1.us.uncletopia.com","port":27025,"enabled":true,"region":"us-central","cc":"us","latitude":41.881832,"longitude":-87.62318,"reserved":0,"last_update":"0001-01-01T00:00:00Z","name_a2s":"Uncletopia | Chicago | 2 | All Maps","protocol":17,"map":"cp_process_final","folder":"tf","game":"Team Fortress","app_id":440,"player_count":0,"max_players":24,"Bots":0,"server_type":"Dedicated","server_os":"Linux","password":true,"vac":true,"version":"7757534","steam_id":85568392924469985,"keywords":["cp","nocrits","nodmgspread","uncletopia"],"game_id":440,"stv_port":27026,"stv_name":"Uncletopia | Chicago | 2 | All Maps | STV","players":null},{"server_id":402,"name":"Uncletopia | Chicago | 3 | All Maps","name_short":"chi-3","host":"chi-1.us.uncletopia.com","port":27035,"enabled":true,"region":"us-central","cc":"us","latitude":41.881832,"longitude":-87.62318,"reserved":0,"last_update":"0001-01-01T00:00:00Z","name_a2s":"Uncletopia | Chicago | 3 | All Maps","protocol":17,"map":"koth_cascade","folder":"tf","game":"Team Fortress","app_id":440,"player_count":0,"max_players":24,"Bots":0,"server_type":"Dedicated","server_os":"Linux","password":true,"vac":true,"version":"7757534","steam_id":85568392924515191,"keywords":["cp","nocrits","nodmgspread","uncletopia"],"game_id":440,"stv_port":27036,"stv_name":"Uncletopia | Chicago | 3 | All Maps | STV","players":null},{"server_id":403,"name":"Uncletopia | Chicago | 4 | All Maps","name_short":"chi-4","host":"chi-1.us.uncletopia.com","port":27045,"enabled":true,"region":"us-central","cc":"us","latitude":41.881832,"longitude":-87.62318,"reserved":0,"last_update":"0001-01-01T00:00:00Z","name_a2s":"Uncletopia | Chicago | 4 | All Maps","protocol":17,"map":"cp_mercenarypark","folder":"tf","game":"Team Fortress","app_id":440,"player_count":24,"max_players":24,"Bots":0,"server_type":"Dedicated","server_os":"Linux","password":true,"vac":true,"version":"7757534","steam_id":85568392924515193,"keywords":["cp","nocrits","nodmgspread","uncletopia"],"game_id":440,"stv_port":27046,"stv_name":"Uncletopia | Chicago | 4 | All Maps | STV","players":[{"user_id":215,"name":"Whys there a level 3 there?","steam_id":76561198309696109,"connected_time":3873000000000,"state":"active","ping":76},{"user_id":208,"name":"Saggy","steam_id":76561198166706479,"connected_time":4599000000000,"state":"active","ping":67},{"user_id":260,"name":"Uso","steam_id":76561198012093238,"connected_time":1431000000000,"state":"active","ping":50},{"user_id":266,"name":"Anthony","steam_id":76561199439030933,"connected_time":629000000000,"state":"active","ping":76},{"user_id":241,"name":"Hylic","steam_id":76561199051314589,"connected_time":1935000000000,"state":"active","ping":62},{"user_id":244,"name":"just had 3 mcgriddles","steam_id":76561199438698036,"connected_time":1880000000000,"state":"active","ping":64},{"user_id":213,"name":"quint","steam_id":76561198046797995,"connected_time":3911000000000,"state":"active","ping":54},{"user_id":251,"name":"Drileyx","steam_id":76561197989545404,"connected_time":1655000000000,"state":"active","ping":83},{"user_id":269,"name":"deech","steam_id":76561198066429444,"connected_time":605000000000,"state":"active","ping":63},{"user_id":261,"name":"Ninty","steam_id":76561199364725776,"connected_time":1290000000000,"state":"active","ping":68},{"user_id":254,"name":"xXtios_muertosXx","steam_id":76561199143773774,"connected_time":1600000000000,"state":"active","ping":111},{"user_id":246,"name":"MoonlightDragon","steam_id":76561198124808865,"connected_time":1805000000000,"state":"active","ping":77},{"user_id":272,"name":"√Üƒüis","steam_id":76561198105421633,"connected_time":488000000000,"state":"active","ping":71},{"user_id":270,"name":"Ejaculation Zach","steam_id":76561198203765200,"connected_time":602000000000,"state":"active","ping":59},{"user_id":259,"name":"„Äåiam3nigma„Äç","steam_id":76561198081580177,"connected_time":1443000000000,"state":"active","ping":68},{"user_id":136,"name":"Omega\"Hell's Wall\"EXE","steam_id":76561198395291970,"connected_time":9391000000000,"state":"active","ping":101},{"user_id":271,"name":"still bad at video games","steam_id":76561198328675913,"connected_time":598000000000,"state":"active","ping":112},{"user_id":235,"name":"Gangusman","steam_id":76561198061223493,"connected_time":2762000000000,"state":"active","ping":128},{"user_id":166,"name":"Little Linguine","steam_id":76561198816986370,"connected_time":8239000000000,"state":"active","ping":108},{"user_id":264,"name":"[RE] Oppressor","steam_id":76561198880977190,"connected_time":644000000000,"state":"active","ping":64},{"user_id":236,"name":"rustyorion","steam_id":76561198439186347,"connected_time":2599000000000,"state":"active","ping":178},{"user_id":240,"name":"Viokik","steam_id":76561198408846602,"connected_time":2090000000000,"state":"active","ping":65},{"user_id":273,"name":"mel","steam_id":76561198215559840,"connected_time":416000000000,"state":"active","ping":60},{"user_id":262,"name":"AdmiralSharpie","steam_id":76561198066394239,"connected_time":1290000000000,"state":"active","ping":70}]},{"server_id":36,"name":"Uncletopia | Chicago | 5 | All Maps","name_short":"chi-5","host":"chi-2.us.uncletopia.com","port":27015,"enabled":true,"region":"us-central","cc":"us","latitude":41.881832,"longitude":-87.62318,"reserved":0,"last_update":"0001-01-01T00:00:00Z","name_a2s":"Uncletopia | Chicago | 5 | All Maps","protocol":17,"map":"koth_lakeside_final","folder":"tf","game":"Team Fortress","app_id":440,"player_count":0,"max_players":24,"Bots":0,"server_type":"Dedicated","server_os":"Linux","password":true,"vac":true,"version":"7757534","steam_id":85568392924866362,"keywords":["cp","nocrits","nodmgspread","uncletopia"],"game_id":440,"stv_port":27016,"stv_name":"Uncletopia | Chicago | 5 | All Maps | STV","players":null},{"server_id":37,"name":"Uncletopia | Chicago | 6 | All Maps","name_short":"chi-6","host":"chi-2.us.uncletopia.com","port":27025,"enabled":true,"region":"us-central","cc":"us","latitude":41.881832,"longitude":-87.62318,"reserved":0,"last_update":"0001-01-01T00:00:00Z","name_a2s":"Uncletopia | Chicago | 6 | All Maps","protocol":17,"map":"cp_altitude","folder":"tf","game":"Team Fortress","app_id":440,"player_count":0,"max_players":24,"Bots":0,"server_type":"Dedicated","server_os":"Linux","password":true,"vac":true,"version":"7757534","steam_id":85568392924866363,"keywords":["cp","nocrits","nodmgspread","uncletopia"],"game_id":440,"stv_port":27026,"stv_name":"Uncletopia | Chicago | 6 | All Maps | STV","players":null},{"server_id":38,"name":"Uncletopia | Chicago | 7 | Stopwatch Beta","name_short":"chi-7","host":"chi-2.us.uncletopia.com","port":27035,"enabled":true,"region":"us-central","cc":"us","latitude":41.881832,"longitude":-87.62318,"reserved":0,"last_update":"0001-01-01T00:00:00Z","name_a2s":"Uncletopia | Chicago | 7 | Stopwatch Beta","protocol":17,"map":"koth_viaduct","folder":"tf","game":"Team Fortress","app_id":440,"player_count":0,"max_players":24,"Bots":0,"server_type":"Dedicated","server_os":"Linux","password":true,"vac":true,"version":"7757534","steam_id":85568392924866364,"keywords":["cp","nocrits","nodmgspread","uncletopia"],"game_id":440,"stv_port":27036,"stv_name":"Uncletopia | Chicago | 7 | Stopwatch Beta | STV","players":null},{"server_id":39,"name":"Uncletopia | Chicago | 8 | Community","name_short":"chi-8","host":"chi-2.us.uncletopia.com","port":27045,"enabled":true,"region":"us-central","cc":"us","latitude":41.881832,"longitude":-87.62318,"reserved":0,"last_update":"0001-01-01T00:00:00Z","name_a2s":"Uncletopia | Chicago | 8 | Community","protocol":17,"map":"koth_lakeside_final","folder":"tf","game":"Team Fortress","app_id":440,"player_count":0,"max_players":24,"Bots":0,"server_type":"Dedicated","server_os":"Linux","password":true,"vac":true,"version":"7757534","steam_id":85568392924866365,"keywords":["cp","nocrits","nodmgspread","uncletopia"],"game_id":440,"stv_port":27046,"stv_name":"Uncletopia | Chicago | 8 | Community | STV","players":null},{"server_id":8,"name":"Uncletopia | Dallas | 1 | All Maps","name_short":"dal-1","host":"dal-1.us.uncletopia.com","port":27015,"enabled":true,"region":"us-central","cc":"us","latitude":32.779167,"longitude":-96.80889,"reserved":0,"last_update":"0001-01-01T00:00:00Z","name_a2s":"Uncletopia | Dallas | 1 | All Maps","protocol":17,"map":"pl_pier","folder":"tf","game":"Team Fortress","app_id":440,"player_count":5,"max_players":24,"Bots":0,"server_type":"Dedicated","server_os":"Linux","password":true,"vac":true,"version":"7757534","steam_id":85568392924469986,"keywords":["nocrits","nodmgspread","payload","uncletopia"],"game_id":440,"stv_port":27016,"stv_name":"Uncletopia | Dallas | 1 | All Maps | STV","players":[{"user_id":3,"name":"Funtimeshadow","steam_id":76561199254055123,"connected_time":1033000000000,"state":"active","ping":55},{"user_id":4,"name":"Dr.Feelgood","steam_id":76561198873340760,"connected_time":874000000000,"state":"active","ping":70},{"user_id":5,"name":"CrackedSanity","steam_id":76561198279841251,"connected_time":837000000000,"state":"active","ping":75},{"user_id":7,"name":"BIGMONEYZONE","steam_id":76561199160422863,"connected_time":286000000000,"state":"active","ping":142},{"user_id":8,"name":"Duckywinner","steam_id":76561198254828139,"connected_time":272000000000,"state":"active","ping":69}]},{"server_id":108,"name":"Uncletopia | Dallas | 2 | All Maps","name_short":"dal-2","host":"dal-1.us.uncletopia.com","port":27025,"enabled":true,"region":"us-central","cc":"us","latitude":32.779167,"longitude":-96.80889,"reserved":0,"last_update":"0001-01-01T00:00:00Z","name_a2s":"Uncletopia | Dallas | 2 | All Maps","protocol":17,"map":"pl_snowycoast","folder":"tf","game":"Team Fortress","app_id":440,"player_count":0,"max_players":24,"Bots":0,"server_type":"Dedicated","server_os":"Linux","password":true,"vac":true,"version":"7757534","steam_id":85568392924469988,"keywords":["nocrits","nodmgspread","payload","uncletopia"],"game_id":440,"stv_port":27026,"stv_name":"Uncletopia | Dallas | 2 | All Maps | STV","players":null},{"server_id":5,"name":"Uncletopia | Frankfurt | 1 | All Maps","name_short":"frk-1","host":"frk-1.de.uncletopia.com","port":27015,"enabled":true,"region":"eu","cc":"de","latitude":50.110924,"longitude":8.682127,"reserved":0,"last_update":"0001-01-01T00:00:00Z","name_a2s":"Uncletopia | Frankfurt | 1 | All Maps","protocol":17,"map":"cp_altitude","folder":"tf","game":"Team Fortress","app_id":440,"player_count":0,"max_players":24,"Bots":0,"server_type":"Dedicated","server_os":"Linux","password":true,"vac":true,"version":"7757534","steam_id":85568392924469989,"keywords":["cp","nocrits","nodmgspread","uncletopia"],"game_id":440,"stv_port":27016,"stv_name":"Uncletopia | Frankfurt | 1 | All Maps | STV","players":null},{"server_id":110,"name":"Uncletopia | Frankfurt | 2 | All Maps","name_short":"frk-2","host":"frk-1.de.uncletopia.com","port":27025,"enabled":true,"region":"eu","cc":"de","latitude":50.110924,"longitude":8.682127,"reserved":0,"last_update":"0001-01-01T00:00:00Z","name_a2s":"Uncletopia | Frankfurt | 2 | All Maps","protocol":17,"map":"cp_mountainlab","folder":"tf","game":"Team Fortress","app_id":440,"player_count":0,"max_players":24,"Bots":0,"server_type":"Dedicated","server_os":"Linux","password":true,"vac":true,"version":"7757534","steam_id":85568392924469990,"keywords":["cp","nocrits","nodmgspread","uncletopia"],"game_id":440,"stv_port":27026,"stv_name":"Uncletopia | Frankfurt | 2 | All Maps | STV","players":null},{"server_id":308,"name":"Uncletopia | Frankfurt | 3 | All Maps","name_short":"frk-3","host":"frk-1.de.uncletopia.com","port":27035,"enabled":true,"region":"eu","cc":"de","latitude":50.110924,"longitude":8.682127,"reserved":0,"last_update":"0001-01-01T00:00:00Z","name_a2s":"Uncletopia | Frankfurt | 3 | All Maps","protocol":17,"map":"pl_borneo","folder":"tf","game":"Team Fortress","app_id":440,"player_count":24,"max_players":24,"Bots":0,"server_type":"Dedicated","server_os":"Linux","password":true,"vac":true,"version":"7757534","steam_id":85568392924504274,"keywords":["nocrits","nodmgspread","payload","uncletopia"],"game_id":440,"stv_port":27036,"stv_name":"Uncletopia | Frankfurt | 3 | All Maps | STV","players":[{"user_id":198,"name":"Ballfondler","steam_id":76561199165355017,"connected_time":2504000000000,"state":"active","ping":102},{"user_id":184,"name":"steriml (swe)","steam_id":76561198109984023,"connected_time":3322000000000,"state":"active","ping":100},{"user_id":217,"name":"thekoolest88","steam_id":76561199022415672,"connected_time":1167000000000,"state":"active","ping":145},{"user_id":203,"name":"vikp09","steam_id":76561198107197937,"connected_time":2200000000000,"state":"active","ping":72},{"user_id":188,"name":"mt","steam_id":76561197961319303,"connected_time":3029000000000,"state":"active","ping":53},{"user_id":183,"name":"PyroHam","steam_id":76561198206285837,"connected_time":3499000000000,"state":"active","ping":74},{"user_id":221,"name":"Qwichi","steam_id":76561198264893430,"connected_time":1103000000000,"state":"active","ping":80},{"user_id":222,"name":"mr K","steam_id":76561198120166752,"connected_time":1082000000000,"state":"active","ping":72},{"user_id":209,"name":"on1on (pickled)","steam_id":76561197995304137,"connected_time":1842000000000,"state":"active","ping":67},{"user_id":170,"name":"pepper","steam_id":76561198059782462,"connected_time":4345000000000,"state":"active","ping":45},{"user_id":229,"name":"Deacon Dracul","steam_id":76561198046880663,"connected_time":543000000000,"state":"active","ping":98},{"user_id":212,"name":"Ansari","steam_id":76561198074982971,"connected_time":1416000000000,"state":"active","ping":52},{"user_id":210,"name":"Zogg","steam_id":76561198352683491,"connected_time":1556000000000,"state":"active","ping":53},{"user_id":230,"name":"MAKENTAKEN","steam_id":76561199127359587,"connected_time":430000000000,"state":"active","ping":100},{"user_id":190,"name":"smrk","steam_id":76561198066926098,"connected_time":2930000000000,"state":"active","ping":57},{"user_id":150,"name":"The real Postal Dude","steam_id":76561198799097492,"connected_time":6558000000000,"state":"active","ping":54},{"user_id":225,"name":"insanitY","steam_id":76561198055666742,"connected_time":891000000000,"state":"active","ping":101},{"user_id":206,"name":"Princess Fuzz","steam_id":76561198025783000,"connected_time":1993000000000,"state":"active","ping":52},{"user_id":192,"name":"Jacket II #SaveTF2","steam_id":76561198297594947,"connected_time":2905000000000,"state":"active","ping":116},{"user_id":216,"name":"AleXandriX","steam_id":76561198035203950,"connected_time":1213000000000,"state":"active","ping":60},{"user_id":163,"name":"√ÉNVS DR√ÉNVS","steam_id":76561198138733015,"connected_time":5348000000000,"state":"active","ping":117},{"user_id":228,"name":"Art","steam_id":76561198823514629,"connected_time":625000000000,"state":"active","ping":119},{"user_id":211,"name":"Edgy Name","steam_id":76561198378270820,"connected_time":1552000000000,"state":"active","ping":68},{"user_id":219,"name":"Dolcelatte","steam_id":76561198038501770,"connected_time":1144000000000,"state":"active","ping":48}]},{"server_id":309,"name":"Uncletopia | Frankfurt | 4 | All Maps","name_short":"frk-4","host":"frk-1.de.uncletopia.com","port":27045,"enabled":true,"region":"eu","cc":"de","latitude":50.110924,"longitude":8.682127,"reserved":0,"last_update":"0001-01-01T00:00:00Z","name_a2s":"Uncletopia | Frankfurt | 4 | All Maps","protocol":17,"map":"pl_badwater","folder":"tf","game":"Team Fortress","app_id":440,"player_count":24,"max_players":24,"Bots":0,"server_type":"Dedicated","server_os":"Linux","password":true,"vac":true,"version":"7757534","steam_id":85568392924504275,"keywords":["nocrits","nodmgspread","payload","uncletopia"],"game_id":440,"stv_port":27046,"stv_name":"Uncletopia | Frankfurt | 4 | All Maps | STV","players":[{"user_id":72,"name":"ZazyLou_","steam_id":76561198411134617,"connected_time":2813000000000,"state":"active","ping":59},{"user_id":83,"name":"WojStaGra","steam_id":76561198157277370,"connected_time":2217000000000,"state":"active","ping":88},{"user_id":117,"name":"morco3420","steam_id":76561199360257938,"connected_time":72000000000,"state":"active","ping":71},{"user_id":116,"name":"john fortress","steam_id":76561198013237629,"connected_time":77000000000,"state":"active","ping":97},{"user_id":118,"name":"jones","steam_id":76561198044434971,"connected_time":69000000000,"state":"active","ping":60},{"user_id":112,"name":"Miles","steam_id":76561198084891833,"connected_time":780000000000,"state":"active","ping":60},{"user_id":93,"name":"LOBZIK","steam_id":76561198114830120,"connected_time":1649000000000,"state":"active","ping":75},{"user_id":99,"name":"nachtraaf","steam_id":76561197960473205,"connected_time":1531000000000,"state":"active","ping":44},{"user_id":102,"name":"hirmunen r√∂lli","steam_id":76561198283846056,"connected_time":1270000000000,"state":"active","ping":60},{"user_id":106,"name":"Utkunator","steam_id":76561198967463151,"connected_time":1161000000000,"state":"active","ping":90},{"user_id":31,"name":"Mozza","steam_id":76561198035915570,"connected_time":5655000000000,"state":"active","ping":85},{"user_id":49,"name":"WICKED BARSIK","steam_id":76561198120927230,"connected_time":5274000000000,"state":"active","ping":114},{"user_id":75,"name":"rizook","steam_id":76561198055010039,"connected_time":2689000000000,"state":"active","ping":70},{"user_id":94,"name":"After8","steam_id":76561198090750865,"connected_time":1634000000000,"state":"active","ping":61},{"user_id":65,"name":"quickfast","steam_id":76561199438900919,"connected_time":3676000000000,"state":"active","ping":63},{"user_id":113,"name":"Arcader","steam_id":76561198109860110,"connected_time":701000000000,"state":"active","ping":60},{"user_id":95,"name":"kbbq","steam_id":76561198346638308,"connected_time":1629000000000,"state":"active","ping":60},{"user_id":119,"name":"wxyz kapƒ±cƒ± izzet","steam_id":76561198241873438,"connected_time":68000000000,"state":"active","ping":77},{"user_id":89,"name":"triangle","steam_id":76561198046838168,"connected_time":1909000000000,"state":"active","ping":47},{"user_id":77,"name":"Dzan50","steam_id":76561198059758591,"connected_time":2641000000000,"state":"active","ping":97},{"user_id":107,"name":"Kemalismus","steam_id":76561198394441106,"connected_time":1048000000000,"state":"active","ping":121},{"user_id":109,"name":"stonebum","steam_id":76561198057004606,"connected_time":899000000000,"state":"active","ping":60},{"user_id":115,"name":"HUGO","steam_id":76561198317134996,"connected_time":405000000000,"state":"active","ping":75},{"user_id":111,"name":"EdSuedi","steam_id":76561199387956486,"connected_time":824000000000,"state":"active","ping":59}]},{"server_id":310,"name":"Uncletopia | Frankfurt | 5 | All Maps","name_short":"frk-5","host":"frk-1.de.uncletopia.com","port":27055,"enabled":true,"region":"eu","cc":"de","latitude":50.110924,"longitude":8.682127,"reserved":0,"last_update":"0001-01-01T00:00:00Z","name_a2s":"Uncletopia | Frankfurt | 5 | All Maps","protocol":17,"map":"cp_dustbowl","folder":"tf","game":"Team Fortress","app_id":440,"player_count":17,"max_players":24,"Bots":0,"server_type":"Dedicated","server_os":"Linux","password":true,"vac":true,"version":"7757534","steam_id":85568392924504277,"keywords":["cp","nocrits","nodmgspread","uncletopia"],"game_id":440,"stv_port":27056,"stv_name":"Uncletopia | Frankfurt | 5 | All Maps | STV","players":[{"user_id":161,"name":"Scottish Resistance","steam_id":76561198071360214,"connected_time":26000000000,"state":"active","ping":53},{"user_id":159,"name":"Soulman25 (FIN)","steam_id":76561198103611974,"connected_time":74000000000,"state":"active","ping":97},{"user_id":148,"name":"Gumit","steam_id":76561198208126512,"connected_time":771000000000,"state":"active","ping":141},{"user_id":145,"name":"RussianPingLord","steam_id":76561199055517485,"connected_time":1351000000000,"state":"active","ping":107},{"user_id":160,"name":"strahphic","steam_id":76561199279295106,"connected_time":47000000000,"state":"active","ping":123},{"user_id":147,"name":"murderwow","steam_id":76561198024566944,"connected_time":821000000000,"state":"active","ping":96},{"user_id":135,"name":"TJ1212","steam_id":76561199013575313,"connected_time":1651000000000,"state":"active","ping":60},{"user_id":136,"name":"Foreskin Gamer","steam_id":76561198283106341,"connected_time":1642000000000,"state":"active","ping":57},{"user_id":119,"name":"_Cpt.Decoder_","steam_id":76561198236937010,"connected_time":3175000000000,"state":"active","ping":72},{"user_id":126,"name":"eoy","steam_id":76561198116511067,"connected_time":2773000000000,"state":"active","ping":76},{"user_id":162,"name":"Kendo-6","steam_id":76561198318748304,"connected_time":14000000000,"state":"spawning","ping":118},{"user_id":163,"name":"Radegast the Brown","steam_id":76561198075489505,"connected_time":5000000000,"state":"spawning","ping":141},{"user_id":156,"name":"FreeMarket","steam_id":76561198029916416,"connected_time":107000000000,"state":"active","ping":57},{"user_id":146,"name":"halo 3 rat","steam_id":76561198439007717,"connected_time":1151000000000,"state":"active","ping":87},{"user_id":142,"name":"Charlie Sheen","steam_id":76561198136160579,"connected_time":1542000000000,"state":"active","ping":72},{"user_id":151,"name":"Caliban","steam_id":76561197999696839,"connected_time":715000000000,"state":"active","ping":99},{"user_id":144,"name":"gwa≈Çt wƒÖtroby 0,7 i 5 piw","steam_id":76561199038973360,"connected_time":1492000000000,"state":"active","ping":106}]},{"server_id":311,"name":"Uncletopia | Frankfurt | 6 | All Maps","name_short":"frk-6","host":"frk-1.de.uncletopia.com","port":27065,"enabled":true,"region":"eu","cc":"de","latitude":50.110924,"longitude":8.682127,"reserved":0,"last_update":"0001-01-01T00:00:00Z","name_a2s":"Uncletopia | Frankfurt | 6 | All Maps","protocol":17,"map":"cp_process_final","folder":"tf","game":"Team Fortress","app_id":440,"player_count":0,"max_players":24,"Bots":0,"server_type":"Dedicated","server_os":"Linux","password":true,"vac":true,"version":"7757534","steam_id":85568392924504278,"keywords":["cp","nocrits","nodmgspread","uncletopia"],"game_id":440,"stv_port":27066,"stv_name":"Uncletopia | Frankfurt | 6 | All Maps | STV","players":null},{"server_id":23,"name":"Uncletopia | Frankfurt | 7 | Stopwatch Beta","name_short":"frk-7","host":"frk-1.de.uncletopia.com","port":27075,"enabled":true,"region":"eu","cc":"de","latitude":50.110924,"longitude":8.682127,"reserved":0,"last_update":"0001-01-01T00:00:00Z","name_a2s":"Uncletopia | Frankfurt | 7 | Stopwatch Beta","protocol":17,"map":"pl_borneo","folder":"tf","game":"Team Fortress","app_id":440,"player_count":0,"max_players":24,"Bots":0,"server_type":"Dedicated","server_os":"Linux","password":true,"vac":true,"version":"7757534","steam_id":85568392924742827,"keywords":["nocrits","nodmgspread","payload","uncletopia"],"game_id":440,"stv_port":27076,"stv_name":"Uncletopia | Frankfurt | 7 | Stopwatch Beta | STV","players":null},{"server_id":24,"name":"Uncletopia | Frankfurt | 8 | Community","name_short":"frk-8","host":"frk-1.de.uncletopia.com","port":27085,"enabled":true,"region":"eu","cc":"de","latitude":50.110924,"longitude":8.682127,"reserved":0,"last_update":"0001-01-01T00:00:00Z","name_a2s":"Uncletopia | Frankfurt | 8 | Community","protocol":17,"map":"workshop/cp_indulge.ugc528106646","folder":"tf","game":"Team Fortress","app_id":440,"player_count":0,"max_players":24,"Bots":0,"server_type":"Dedicated","server_os":"Linux","password":true,"vac":true,"version":"7757534","steam_id":85568392924742828,"keywords":["cp","nocrits","nodmgspread","uncletopia"],"game_id":440,"stv_port":27086,"stv_name":"Uncletopia | Frankfurt | 8 | Community | STV","players":null},{"server_id":202,"name":"Uncletopia | Hong Kong | 1 | All Maps","name_short":"hgk-1","host":"hgk-1.hk.uncletopia.com","port":27015,"enabled":true,"region":"asia","cc":"hk","latitude":22.302711,"longitude":114.177216,"reserved":0,"last_update":"0001-01-01T00:00:00Z","name_a2s":"Uncletopia | Hong Kong | 1 | All Maps","protocol":17,"map":"koth_lakeside_final","folder":"tf","game":"Team Fortress","app_id":440,"player_count":0,"max_players":24,"Bots":0,"server_type":"Dedicated","server_os":"Linux","password":true,"vac":true,"version":"7757534","steam_id":85568392924494504,"keywords":["cp","nocrits","nodmgspread","uncletopia"],"game_id":440,"stv_port":27016,"stv_name":"Uncletopia | Hong Kong | 1 | All Maps | STV","players":null},{"server_id":1,"name":"Uncletopia | Los Angeles | 1 | All Maps","name_short":"lax-1","host":"lax-1.us.uncletopia.com","port":27015,"enabled":true,"region":"us-west","cc":"us","latitude":33.94279,"longitude":-118.41004,"reserved":0,"last_update":"0001-01-01T00:00:00Z","name_a2s":"Uncletopia | Los Angeles | 1 | All Maps","protocol":17,"map":"cp_process_final","folder":"tf","game":"Team Fortress","app_id":440,"player_count":0,"max_players":24,"Bots":0,"server_type":"Dedicated","server_os":"Linux","password":true,"vac":true,"version":"7757534","steam_id":85568392924469991,"keywords":["cp","nocrits","nodmgspread","uncletopia"],"game_id":440,"stv_port":27016,"stv_name":"Uncletopia | Los Angeles | 1 | All Maps | STV","players":null},{"server_id":112,"name":"Uncletopia | Los Angeles | 2 | All Maps","name_short":"lax-2","host":"lax-1.us.uncletopia.com","port":27025,"enabled":true,"region":"us-west","cc":"us","latitude":33.94279,"longitude":-118.41004,"reserved":0,"last_update":"0001-01-01T00:00:00Z","name_a2s":"Uncletopia | Los Angeles | 2 | All Maps","protocol":17,"map":"koth_viaduct","folder":"tf","game":"Team Fortress","app_id":440,"player_count":0,"max_players":24,"Bots":0,"server_type":"Dedicated","server_os":"Linux","password":true,"vac":true,"version":"7757534","steam_id":85568392924469992,"keywords":["cp","nocrits","nodmgspread","uncletopia"],"game_id":440,"stv_port":27026,"stv_name":"Uncletopia | Los Angeles | 2 | All Maps | STV","players":null},{"server_id":324,"name":"Uncletopia | Los Angeles | 3 | All Maps","name_short":"lax-3","host":"lax-1.us.uncletopia.com","port":27035,"enabled":true,"region":"us-west","cc":"us","latitude":33.94279,"longitude":-118.41004,"reserved":0,"last_update":"0001-01-01T00:00:00Z","name_a2s":"Uncletopia | Los Angeles | 3 | All Maps","protocol":17,"map":"cp_altitude","folder":"tf","game":"Team Fortress","app_id":440,"player_count":0,"max_players":24,"Bots":0,"server_type":"Dedicated","server_os":"Linux","password":true,"vac":true,"version":"7757534","steam_id":85568392924510198,"keywords":["cp","nocrits","nodmgspread","uncletopia"],"game_id":440,"stv_port":27036,"stv_name":"Uncletopia | Los Angeles | 3 | All Maps | STV","players":null},{"server_id":25,"name":"Uncletopia | Los Angeles | 4 | Stopwatch Beta","name_short":"lax-4","host":"lax-1.us.uncletopia.com","port":27045,"enabled":true,"region":"us-west","cc":"us","latitude":33.94279,"longitude":-118.41004,"reserved":0,"last_update":"0001-01-01T00:00:00Z","name_a2s":"Uncletopia | Los Angeles | 4 | Stopwatch Beta","protocol":17,"map":"cp_dustbowl","folder":"tf","game":"Team Fortress","app_id":440,"player_count":0,"max_players":24,"Bots":0,"server_type":"Dedicated","server_os":"Linux","password":true,"vac":true,"version":"7757534","steam_id":85568392924510199,"keywords":["cp","nocrits","nodmgspread","uncletopia"],"game_id":440,"stv_port":27046,"stv_name":"Uncletopia | Los Angeles | 4 | Stopwatch Beta | STV","players":null},{"server_id":11,"name":"Uncletopia | London | 1 | All Maps","name_short":"lon-1","host":"lon-1.uk.uncletopia.com","port":27015,"enabled":true,"region":"eu","cc":"gb","latitude":51.509865,"longitude":-0.118092,"reserved":0,"last_update":"0001-01-01T00:00:00Z","name_a2s":"Uncletopia | London | 1 | All Maps","protocol":17,"map":"cp_process_final","folder":"tf","game":"Team Fortress","app_id":440,"player_count":24,"max_players":24,"Bots":0,"server_type":"Dedicated","server_os":"Linux","password":true,"vac":true,"version":"7757534","steam_id":85568392924367362,"keywords":["cp","nocrits","nodmgspread","uncletopia"],"game_id":440,"stv_port":27016,"stv_name":"Uncletopia | London | 1 | All Maps | STV","players":[{"user_id":221,"name":"Oxer","steam_id":76561198055942412,"connected_time":198000000000,"state":"active","ping":92},{"user_id":222,"name":"Alfred Schroom","steam_id":76561198117990411,"connected_time":186000000000,"state":"active","ping":79},{"user_id":214,"name":"Jon (alt)","steam_id":76561199380849468,"connected_time":428000000000,"state":"active","ping":66},{"user_id":223,"name":"‡∂ûbominasus 2137  #SaveTF2","steam_id":76561198030062981,"connected_time":180000000000,"state":"active","ping":73},{"user_id":210,"name":"Son Goku","steam_id":76561199383437138,"connected_time":629000000000,"state":"active","ping":120},{"user_id":168,"name":"kelpie","steam_id":76561198128327529,"connected_time":5054000000000,"state":"active","ping":50},{"user_id":211,"name":"Dingus","steam_id":76561198140514058,"connected_time":601000000000,"state":"active","ping":37},{"user_id":209,"name":"I HAVE EBOLA","steam_id":76561198059635136,"connected_time":642000000000,"state":"active","ping":59},{"user_id":178,"name":"Senator Armstrong","steam_id":76561198984346408,"connected_time":3123000000000,"state":"active","ping":74},{"user_id":206,"name":"–î–µ–Ω–∏—Å –ë–∞–∑—É–∫–∞","steam_id":76561198835849082,"connected_time":719000000000,"state":"active","ping":103},{"user_id":187,"name":"cockwater","steam_id":76561198209101861,"connected_time":2223000000000,"state":"active","ping":74},{"user_id":212,"name":"Hussite","steam_id":76561199293036742,"connected_time":570000000000,"state":"active","ping":58},{"user_id":215,"name":"üåº HugeE","steam_id":76561198245495152,"connected_time":366000000000,"state":"active","ping":62},{"user_id":216,"name":"Burgoo_King","steam_id":76561198133572225,"connected_time":363000000000,"state":"active","ping":81},{"user_id":217,"name":"Key","steam_id":76561198121647920,"connected_time":330000000000,"state":"active","ping":119},{"user_id":218,"name":"jill valentine","steam_id":76561198075068529,"connected_time":267000000000,"state":"active","ping":63},{"user_id":219,"name":"yeldad","steam_id":76561198447264153,"connected_time":266000000000,"state":"active","ping":116},{"user_id":220,"name":"Rachel","steam_id":76561199474256638,"connected_time":246000000000,"state":"active","ping":71},{"user_id":224,"name":"Thor2008","steam_id":76561197983048776,"connected_time":171000000000,"state":"active","ping":70},{"user_id":226,"name":"rz-/Atomic Punch","steam_id":76561199195508541,"connected_time":142000000000,"state":"active","ping":73},{"user_id":193,"name":"steakman10","steam_id":76561198152584691,"connected_time":1442000000000,"state":"active","ping":69},{"user_id":227,"name":"HueJazz","steam_id":76561198168125993,"connected_time":136000000000,"state":"active","ping":91},{"user_id":190,"name":"Purps","steam_id":76561198053886680,"connected_time":2126000000000,"state":"active","ping":43},{"user_id":228,"name":"PizzaPete123","steam_id":76561198089478290,"connected_time":135000000000,"state":"active","ping":41}]},{"server_id":114,"name":"Uncletopia | London | 2 | All Maps","name_short":"lon-2","host":"lon-1.uk.uncletopia.com","port":27025,"enabled":true,"region":"eu","cc":"gb","latitude":51.509865,"longitude":-0.118092,"reserved":0,"last_update":"0001-01-01T00:00:00Z","name_a2s":"Uncletopia | London | 2 | All Maps","protocol":17,"map":"pl_frontier_final","folder":"tf","game":"Team Fortress","app_id":440,"player_count":2,"max_players":24,"Bots":0,"server_type":"Dedicated","server_os":"Linux","password":true,"vac":true,"version":"7757534","steam_id":85568392924470941,"keywords":["nocrits","nodmgspread","payload","uncletopia"],"game_id":440,"stv_port":27026,"stv_name":"Uncletopia | London | 2 | All Maps | STV","players":[{"user_id":34,"name":"Kwizine","steam_id":76561198147999400,"connected_time":1350000000000,"state":"active","ping":60},{"user_id":39,"name":"copium addict","steam_id":76561199401665282,"connected_time":1020000000000,"state":"active","ping":100}]},{"server_id":320,"name":"Uncletopia | London | 3 | All Maps","name_short":"lon-3","host":"lon-1.uk.uncletopia.com","port":27035,"enabled":true,"region":"eu","cc":"gb","latitude":51.509865,"longitude":-0.118092,"reserved":0,"last_update":"0001-01-01T00:00:00Z","name_a2s":"Uncletopia | London | 3 | All Maps","protocol":17,"map":"pl_borneo","folder":"tf","game":"Team Fortress","app_id":440,"player_count":24,"max_players":24,"Bots":0,"server_type":"Dedicated","server_os":"Linux","password":true,"vac":true,"version":"7757534","steam_id":85568392924510192,"keywords":["nocrits","nodmgspread","payload","uncletopia"],"game_id":440,"stv_port":27036,"stv_name":"Uncletopia | London | 3 | All Maps | STV","players":[{"user_id":491,"name":"aura","steam_id":76561197991687793,"connected_time":262000000000,"state":"active","ping":69},{"user_id":467,"name":"Oak","steam_id":76561198067315672,"connected_time":1691000000000,"state":"active","ping":41},{"user_id":426,"name":"Noob_with_source","steam_id":76561198870362103,"connected_time":5020000000000,"state":"active","ping":53},{"user_id":490,"name":"Flint","steam_id":76561197995920776,"connected_time":445000000000,"state":"active","ping":43},{"user_id":476,"name":"Alpaca","steam_id":76561198071132354,"connected_time":1241000000000,"state":"active","ping":119},{"user_id":448,"name":"Ander Escobar","steam_id":76561198335366902,"connected_time":3579000000000,"state":"active","ping":93},{"user_id":475,"name":"Canis[Magnus]Pectus","steam_id":76561198363775072,"connected_time":1289000000000,"state":"active","ping":122},{"user_id":480,"name":"chuumin","steam_id":76561198993127867,"connected_time":1169000000000,"state":"active","ping":100},{"user_id":473,"name":"HorizonPear","steam_id":76561198179808389,"connected_time":1391000000000,"state":"active","ping":154},{"user_id":433,"name":"Reed","steam_id":76561198048226025,"connected_time":3946000000000,"state":"active","ping":151},{"user_id":470,"name":"InsectKing","steam_id":76561199013519071,"connected_time":1545000000000,"state":"active","ping":38},{"user_id":454,"name":"B1urred","steam_id":76561198263657694,"connected_time":2593000000000,"state":"active","ping":48},{"user_id":450,"name":"Aigan","steam_id":76561198130354707,"connected_time":3342000000000,"state":"active","ping":93},{"user_id":477,"name":"MEDiUM","steam_id":76561198112328561,"connected_time":1224000000000,"state":"active","ping":90},{"user_id":487,"name":"SexyHotChocolate","steam_id":76561198164087698,"connected_time":590000000000,"state":"active","ping":90},{"user_id":474,"name":"night.s","steam_id":76561198326287823,"connected_time":1390000000000,"state":"active","ping":73},{"user_id":481,"name":"Spootnak","steam_id":76561198049052518,"connected_time":1138000000000,"state":"active","ping":52},{"user_id":483,"name":"einsMax","steam_id":76561198129594042,"connected_time":851000000000,"state":"active","ping":71},{"user_id":464,"name":"poliakov.noam","steam_id":76561199259322961,"connected_time":2008000000000,"state":"active","ping":96},{"user_id":479,"name":"Certified Hood pybro (ua)","steam_id":76561198970562699,"connected_time":1174000000000,"state":"active","ping":41},{"user_id":485,"name":"outlaw","steam_id":76561198323805289,"connected_time":623000000000,"state":"active","ping":31},{"user_id":441,"name":"Carter","steam_id":76561198005243938,"connected_time":3758000000000,"state":"active","ping":70},{"user_id":482,"name":"Creative","steam_id":76561198835034247,"connected_time":1089000000000,"state":"active","ping":92},{"user_id":486,"name":"9034kh-bgtio","steam_id":76561198401523966,"connected_time":616000000000,"state":"active","ping":100}]},{"server_id":321,"name":"Uncletopia | London | 4 | All Maps","name_short":"lon-4","host":"lon-1.uk.uncletopia.com","port":27045,"enabled":true,"region":"eu","cc":"gb","latitude":51.509865,"longitude":-0.118092,"reserved":0,"last_update":"0001-01-01T00:00:00Z","name_a2s":"Uncletopia | London | 4 | All Maps","protocol":17,"map":"pl_barnblitz","folder":"tf","game":"Team Fortress","app_id":440,"player_count":0,"max_players":24,"Bots":0,"server_type":"Dedicated","server_os":"Linux","password":true,"vac":true,"version":"7757534","steam_id":85568392924510193,"keywords":["nocrits","nodmgspread","payload","uncletopia"],"game_id":440,"stv_port":27046,"stv_name":"Uncletopia | London | 4 | All Maps | STV","players":null},{"server_id":21,"name":"Uncletopia | London | 5 | All Maps","name_short":"lon-5","host":"lon-1.uk.uncletopia.com","port":27055,"enabled":true,"region":"eu","cc":"gb","latitude":51.509865,"longitude":-0.118092,"reserved":0,"last_update":"0001-01-01T00:00:00Z","name_a2s":"Uncletopia | London | 5 | All Maps","protocol":17,"map":"koth_cascade","folder":"tf","game":"Team Fortress","app_id":440,"player_count":0,"max_players":24,"Bots":0,"server_type":"Dedicated","server_os":"Linux","password":true,"vac":true,"version":"7757534","steam_id":85568392924742829,"keywords":["cp","nocrits","nodmgspread","uncletopia"],"game_id":440,"stv_port":27056,"stv_name":"Uncletopia | London | 5 | All Maps | STV","players":null},{"server_id":22,"name":"Uncletopia | London | 6 | All Maps","name_short":"lon-6","host":"lon-1.uk.uncletopia.com","port":27065,"enabled":true,"region":"eu","cc":"gb","latitude":51.509865,"longitude":-0.118092,"reserved":0,"last_update":"0001-01-01T00:00:00Z","name_a2s":"Uncletopia | London | 6 | All Maps","protocol":17,"map":"koth_highpass","folder":"tf","game":"Team Fortress","app_id":440,"player_count":0,"max_players":24,"Bots":0,"server_type":"Dedicated","server_os":"Linux","password":true,"vac":true,"version":"7757534","steam_id":85568392924742830,"keywords":["cp","nocrits","nodmgspread","uncletopia"],"game_id":440,"stv_port":27066,"stv_name":"Uncletopia | London | 6 | All Maps | STV","players":null},{"server_id":40,"name":"Uncletopia | London | 7 | No Payload","name_short":"lon-7","host":"lon-1.uk.uncletopia.com","port":27075,"enabled":true,"region":"eu","cc":"gb","latitude":51.509865,"longitude":-0.118092,"reserved":0,"last_update":"0001-01-01T00:00:00Z","name_a2s":"Uncletopia | London | 7 | No Payload","protocol":17,"map":"koth_highpass","folder":"tf","game":"Team Fortress","app_id":440,"player_count":0,"max_players":24,"Bots":0,"server_type":"Dedicated","server_os":"Linux","password":true,"vac":true,"version":"7757534","steam_id":85568392924964314,"keywords":["cp","nocrits","nodmgspread","uncletopia"],"game_id":440,"stv_port":27076,"stv_name":"Uncletopia | London | 7 | No Payload | STV","players":null},{"server_id":41,"name":"Uncletopia | London | 8 | Community","name_short":"lon-8","host":"lon-1.uk.uncletopia.com","port":27085,"enabled":true,"region":"eu","cc":"gb","latitude":51.509865,"longitude":-0.118092,"reserved":0,"last_update":"0001-01-01T00:00:00Z","name_a2s":"Uncletopia | London | 8 | Community","protocol":17,"map":"workshop/cp_propaganda_b18.ugc1603743849","folder":"tf","game":"Team Fortress","app_id":440,"player_count":0,"max_players":24,"Bots":0,"server_type":"Dedicated","server_os":"Linux","password":true,"vac":true,"version":"7757534","steam_id":85568392924964315,"keywords":["cp","nocrits","nodmgspread","uncletopia"],"game_id":440,"stv_port":27086,"stv_name":"Uncletopia | London | 8 | Community | STV","players":null},{"server_id":300,"name":"Uncletopia | Montr√©al | 1 | All Maps","name_short":"mtl-1","host":"mtl-1.ca.uncletopia.com","port":27015,"enabled":true,"region":"us-east","cc":"ca","latitude":45.50889,"longitude":-73.56167,"reserved":0,"last_update":"0001-01-01T00:00:00Z","name_a2s":"Uncletopia | Montr√©al | 1 | All Maps","protocol":17,"map":"pl_barnblitz","folder":"tf","game":"Team Fortress","app_id":440,"player_count":9,"max_players":24,"Bots":0,"server_type":"Dedicated","server_os":"Linux","password":true,"vac":true,"version":"7757534","steam_id":85568392924500087,"keywords":["nocrits","nodmgspread","payload","uncletopia"],"game_id":440,"stv_port":27016,"stv_name":"Uncletopia | Montr√©al | 1 | All Maps | STV","players":[{"user_id":3,"name":"plaid catgirl","steam_id":76561198036965113,"connected_time":2627000000000,"state":"active","ping":44},{"user_id":5,"name":"‚öß AylaBB ‚öß","steam_id":76561198119211246,"connected_time":2287000000000,"state":"active","ping":45},{"user_id":7,"name":"navis","steam_id":76561198996230924,"connected_time":1476000000000,"state":"active","ping":62},{"user_id":8,"name":"kirbo","steam_id":76561198057895955,"connected_time":1354000000000,"state":"active","ping":81},{"user_id":9,"name":"alldogsgotoheaven2fan","steam_id":76561199085931379,"connected_time":1082000000000,"state":"active","ping":87},{"user_id":14,"name":"beats","steam_id":76561199245717718,"connected_time":205000000000,"state":"active","ping":41},{"user_id":11,"name":"Steven Minecraft","steam_id":76561198060072829,"connected_time":948000000000,"state":"active","ping":89},{"user_id":12,"name":"Fish Roe Man","steam_id":76561198197796766,"connected_time":845000000000,"state":"active","ping":41},{"user_id":15,"name":"Oddjob","steam_id":76561198976160793,"connected_time":111000000000,"state":"active","ping":68}]},{"server_id":301,"name":"Uncletopia | Montr√©al | 2 | All Maps","name_short":"mtl-2","host":"mtl-1.ca.uncletopia.com","port":27025,"enabled":true,"region":"us-east","cc":"ca","latitude":45.50889,"longitude":-73.56167,"reserved":0,"last_update":"0001-01-01T00:00:00Z","name_a2s":"Uncletopia | Montr√©al | 2 | All Maps","protocol":17,"map":"cp_sunshine","folder":"tf","game":"Team Fortress","app_id":440,"player_count":0,"max_players":24,"Bots":0,"server_type":"Dedicated","server_os":"Linux","password":true,"vac":true,"version":"7757534","steam_id":85568392924500088,"keywords":["cp","nocrits","nodmgspread","uncletopia"],"game_id":440,"stv_port":27026,"stv_name":"Uncletopia | Montr√©al | 2 | All Maps | STV","players":null},{"server_id":302,"name":"Uncletopia | Montr√©al | 3 | All Maps","name_short":"mtl-3","host":"mtl-1.ca.uncletopia.com","port":27035,"enabled":true,"region":"us-east","cc":"ca","latitude":45.50889,"longitude":-73.56167,"reserved":0,"last_update":"0001-01-01T00:00:00Z","name_a2s":"Uncletopia | Montr√©al | 3 | All Maps","protocol":17,"map":"pl_frontier_final","folder":"tf","game":"Team Fortress","app_id":440,"player_count":0,"max_players":24,"Bots":0,"server_type":"Dedicated","server_os":"Linux","password":true,"vac":true,"version":"7757534","steam_id":85568392924500089,"keywords":["nocrits","nodmgspread","payload","uncletopia"],"game_id":440,"stv_port":27036,"stv_name":"Uncletopia | Montr√©al | 3 | All Maps | STV","players":null},{"server_id":303,"name":"Uncletopia | Montr√©al | 4 | No Payload","name_short":"mtl-4","host":"mtl-1.ca.uncletopia.com","port":27045,"enabled":true,"region":"us-east","cc":"ca","latitude":45.50889,"longitude":-73.56167,"reserved":0,"last_update":"0001-01-01T00:00:00Z","name_a2s":"Uncletopia | Montr√©al | 4 | No Payload","protocol":17,"map":"pl_pier","folder":"tf","game":"Team Fortress","app_id":440,"player_count":0,"max_players":24,"Bots":0,"server_type":"Dedicated","server_os":"Linux","password":true,"vac":true,"version":"7757534","steam_id":85568392924500090,"keywords":["nocrits","nodmgspread","payload","uncletopia"],"game_id":440,"stv_port":27046,"stv_name":"Uncletopia | Montr√©al | 4 | No Payload | STV","players":null},{"server_id":13,"name":"Uncletopia | New York City | 1 | All Maps","name_short":"nyc-1","host":"nyc-1.us.uncletopia.com","port":27015,"enabled":true,"region":"us-east","cc":"us","latitude":40.73061,"longitude":-73.93524,"reserved":0,"last_update":"0001-01-01T00:00:00Z","name_a2s":"Uncletopia | New York City | 1 | All Maps","protocol":17,"map":"cp_dustbowl","folder":"tf","game":"Team Fortress","app_id":440,"player_count":0,"max_players":24,"Bots":0,"server_type":"Dedicated","server_os":"Linux","password":true,"vac":true,"version":"7757534","steam_id":85568392924469993,"keywords":["cp","nocrits","nodmgspread","uncletopia"],"game_id":440,"stv_port":27016,"stv_name":"Uncletopia | New York City | 1 | All Maps | STV","players":null},{"server_id":14,"name":"Uncletopia | New York City | 2 | All Maps","name_short":"nyc-2","host":"nyc-1.us.uncletopia.com","port":27025,"enabled":true,"region":"us-east","cc":"us","latitude":40.73061,"longitude":-73.93524,"reserved":0,"last_update":"0001-01-01T00:00:00Z","name_a2s":"Uncletopia | New York City | 2 | All Maps","protocol":17,"map":"cp_process_final","folder":"tf","game":"Team Fortress","app_id":440,"player_count":0,"max_players":24,"Bots":0,"server_type":"Dedicated","server_os":"Linux","password":true,"vac":true,"version":"7757534","steam_id":85568392924469994,"keywords":["cp","nocrits","nodmgspread","uncletopia"],"game_id":440,"stv_port":27026,"stv_name":"Uncletopia | New York City | 2 | All Maps | STV","players":null},{"server_id":15,"name":"Uncletopia | New York City | 3 | Stopwatch Beta","name_short":"nyc-3","host":"nyc-1.us.uncletopia.com","port":27035,"enabled":true,"region":"us-east","cc":"us","latitude":40.73061,"longitude":-73.93524,"reserved":0,"last_update":"0001-01-01T00:00:00Z","name_a2s":"Uncletopia | New York City | 3 | Stopwatch Beta","protocol":17,"map":"koth_cascade","folder":"tf","game":"Team Fortress","app_id":440,"player_count":0,"max_players":24,"Bots":0,"server_type":"Dedicated","server_os":"Linux","password":true,"vac":true,"version":"7757534","steam_id":85568392924742820,"keywords":["cp","nocrits","nodmgspread","uncletopia"],"game_id":440,"stv_port":27036,"stv_name":"Uncletopia | New York City | 3 | Stopwatch Beta | STV","players":null},{"server_id":16,"name":"Uncletopia | New York City | 4 | Community","name_short":"nyc-4","host":"nyc-1.us.uncletopia.com","port":27045,"enabled":true,"region":"us-east","cc":"us","latitude":40.73061,"longitude":-73.93524,"reserved":0,"last_update":"0001-01-01T00:00:00Z","name_a2s":"Uncletopia | New York City | 4 | Community","protocol":17,"map":"pl_frontier_final","folder":"tf","game":"Team Fortress","app_id":440,"player_count":0,"max_players":24,"Bots":0,"server_type":"Dedicated","server_os":"Linux","password":true,"vac":true,"version":"7757534","steam_id":85568392924742821,"keywords":["nocrits","nodmgspread","payload","uncletopia"],"game_id":440,"stv_port":27046,"stv_name":"Uncletopia | New York City | 4 | Community | STV","players":null},{"server_id":142,"name":"Uncletopia | S√£o Paulo | 1 | All Maps","name_short":"sao-1","host":"sao-1.br.uncletopia.com","port":27015,"enabled":true,"region":"sa","cc":"br","latitude":-23.533773,"longitude":-46.62529,"reserved":0,"last_update":"0001-01-01T00:00:00Z","name_a2s":"Uncletopia | S√£o Paulo | 1 | All Maps","protocol":17,"map":"cp_altitude","folder":"tf","game":"Team Fortress","app_id":440,"player_count":0,"max_players":24,"Bots":0,"server_type":"Dedicated","server_os":"Linux","password":true,"vac":true,"version":"7757534","steam_id":85568392924469996,"keywords":["cp","nocrits","nodmgspread","uncletopia"],"game_id":440,"stv_port":27016,"stv_name":"Uncletopia | S√£o Paulo | 1 | All Maps | STV","players":null},{"server_id":143,"name":"Uncletopia | S√£o Paulo | 2 | All Maps","name_short":"sao-2","host":"sao-2.br.uncletopia.com","port":27015,"enabled":true,"region":"sa","cc":"br","latitude":-23.533773,"longitude":-46.62529,"reserved":0,"last_update":"0001-01-01T00:00:00Z","name_a2s":"Uncletopia | S√£o Paulo | 2 | All Maps","protocol":17,"map":"cp_dustbowl","folder":"tf","game":"Team Fortress","app_id":440,"player_count":0,"max_players":24,"Bots":0,"server_type":"Dedicated","server_os":"Linux","password":true,"vac":true,"version":"7757534","steam_id":85568392924485349,"keywords":["cp","nocrits","nodmgspread","uncletopia"],"game_id":440,"stv_port":27016,"stv_name":"Uncletopia | S√£o Paulo | 2 | All Maps | STV","players":null},{"server_id":7,"name":"Uncletopia | Seattle | 1 | All Maps","name_short":"sea-1","host":"sea-1.us.uncletopia.com","port":27015,"enabled":true,"region":"us-west","cc":"us","latitude":47.608013,"longitude":-122.33517,"reserved":0,"last_update":"0001-01-01T00:00:00Z","name_a2s":"Uncletopia | Seattle | 1 | All Maps","protocol":17,"map":"pl_snowycoast","folder":"tf","game":"Team Fortress","app_id":440,"player_count":24,"max_players":24,"Bots":0,"server_type":"Dedicated","server_os":"Linux","password":true,"vac":true,"version":"7757534","steam_id":85568392924469997,"keywords":["nocrits","nodmgspread","payload","uncletopia"],"game_id":440,"stv_port":27016,"stv_name":"Uncletopia | Seattle | 1 | All Maps | STV","players":[{"user_id":3,"name":"Banzai Blitz","steam_id":76561198196503877,"connected_time":5904000000000,"state":"active","ping":45},{"user_id":71,"name":"Rubber Pineapple","steam_id":76561198048574958,"connected_time":827000000000,"state":"active","ping":88},{"user_id":48,"name":"NeverAcedIt (Pinnacle -\u003e Pit)","steam_id":76561198406671743,"connected_time":2192000000000,"state":"active","ping":150},{"user_id":79,"name":"kebo","steam_id":76561198237159430,"connected_time":96000000000,"state":"active","ping":89},{"user_id":7,"name":"LILIUM","steam_id":76561198086591493,"connected_time":4701000000000,"state":"active","ping":87},{"user_id":14,"name":"CoPilot","steam_id":76561198798217843,"connected_time":4052000000000,"state":"active","ping":94},{"user_id":49,"name":"[DEEP] Roz257","steam_id":76561198842844532,"connected_time":2150000000000,"state":"active","ping":118},{"user_id":76,"name":"Din√∂bro","steam_id":76561198065597770,"connected_time":479000000000,"state":"active","ping":75},{"user_id":13,"name":"LightBulbGlue #SaveTF2","steam_id":76561198329573529,"connected_time":4163000000000,"state":"active","ping":127},{"user_id":68,"name":"Combustionaut","steam_id":76561198164877813,"connected_time":1012000000000,"state":"active","ping":47},{"user_id":16,"name":"LesserAce","steam_id":76561198153258132,"connected_time":3956000000000,"state":"active","ping":134},{"user_id":80,"name":"crumblejon","steam_id":76561198111273302,"connected_time":92000000000,"state":"active","ping":74},{"user_id":81,"name":"choi","steam_id":76561198053669887,"connected_time":73000000000,"state":"active","ping":90},{"user_id":77,"name":"Kit Carson","steam_id":76561198115691546,"connected_time":292000000000,"state":"active","ping":88},{"user_id":78,"name":"John Calibur","steam_id":76561197999986606,"connected_time":174000000000,"state":"active","ping":78},{"user_id":70,"name":"ShredMaan","steam_id":76561198429982138,"connected_time":945000000000,"state":"active","ping":84},{"user_id":24,"name":"Crunchy","steam_id":76561198240523882,"connected_time":3501000000000,"state":"active","ping":82},{"user_id":72,"name":"Scoron","steam_id":76561198062099305,"connected_time":825000000000,"state":"active","ping":81},{"user_id":54,"name":"Spoilt Pudding","steam_id":76561198001195423,"connected_time":2014000000000,"state":"active","ping":104},{"user_id":31,"name":"TheGrassMan (He/Him)","steam_id":76561198118984048,"connected_time":3182000000000,"state":"active","ping":134},{"user_id":66,"name":"Quansen","steam_id":76561198151594550,"connected_time":1270000000000,"state":"active","ping":96},{"user_id":73,"name":"[TrC] Dackstrus","steam_id":76561197973518509,"connected_time":752000000000,"state":"active","ping":52},{"user_id":74,"name":"WalkinMan","steam_id":76561198047941142,"connected_time":752000000000,"state":"active","ping":60},{"user_id":61,"name":"a finger named kid","steam_id":76561198170928310,"connected_time":1496000000000,"state":"active","ping":125}]},{"server_id":119,"name":"Uncletopia | Seattle | 2 | All Maps","name_short":"sea-2","host":"sea-1.us.uncletopia.com","port":27025,"enabled":true,"region":"us-west","cc":"us","latitude":47.608013,"longitude":-122.33517,"reserved":0,"last_update":"0001-01-01T00:00:00Z","name_a2s":"Uncletopia | Seattle | 2 | All Maps","protocol":17,"map":"pl_barnblitz","folder":"tf","game":"Team Fortress","app_id":440,"player_count":0,"max_players":24,"Bots":0,"server_type":"Dedicated","server_os":"Linux","password":true,"vac":true,"version":"7757534","steam_id":85568392924469998,"keywords":["nocrits","nodmgspread","payload","uncletopia"],"game_id":440,"stv_port":27026,"stv_name":"Uncletopia | Seattle | 2 | All Maps | STV","players":null},{"server_id":406,"name":"Uncletopia | Seattle | 3 | Stopwatch Beta","name_short":"sea-3","host":"sea-1.us.uncletopia.com","port":27035,"enabled":true,"region":"us-west","cc":"us","latitude":47.608013,"longitude":-122.33517,"reserved":0,"last_update":"0001-01-01T00:00:00Z","name_a2s":"Uncletopia | Seattle | 3 | Stopwatch Beta","protocol":17,"map":"cp_process_final","folder":"tf","game":"Team Fortress","app_id":440,"player_count":0,"max_players":24,"Bots":0,"server_type":"Dedicated","server_os":"Linux","password":true,"vac":true,"version":"7757534","steam_id":85568392924515217,"keywords":["cp","nocrits","nodmgspread","uncletopia"],"game_id":440,"stv_port":27036,"stv_name":"Uncletopia | Seattle | 3 | Stopwatch Beta | STV","players":null},{"server_id":17,"name":"Uncletopia | San Francisco | 1 | All Maps","name_short":"sfo-1","host":"sfo-1.us.uncletopia.com","port":27015,"enabled":true,"region":"us-west","cc":"us","latitude":37.77397,"longitude":-122.4313,"reserved":0,"last_update":"0001-01-01T00:00:00Z","name_a2s":"Uncletopia | San Francisco | 1 | All Maps","protocol":17,"map":"pl_badwater","folder":"tf","game":"Team Fortress","app_id":440,"player_count":0,"max_players":24,"Bots":0,"server_type":"Dedicated","server_os":"Linux","password":true,"vac":true,"version":"7757534","steam_id":85568392924469999,"keywords":["nocrits","nodmgspread","payload","uncletopia"],"game_id":440,"stv_port":27016,"stv_name":"Uncletopia | San Francisco | 1 | All Maps | STV","players":null},{"server_id":18,"name":"Uncletopia | San Francisco | 2 | All Maps","name_short":"sfo-2","host":"sfo-1.us.uncletopia.com","port":27025,"enabled":true,"region":"us-west","cc":"us","latitude":37.77397,"longitude":-122.4313,"reserved":0,"last_update":"0001-01-01T00:00:00Z","name_a2s":"Uncletopia | San Francisco | 2 | All Maps","protocol":17,"map":"koth_viaduct","folder":"tf","game":"Team Fortress","app_id":440,"player_count":0,"max_players":24,"Bots":0,"server_type":"Dedicated","server_os":"Linux","password":true,"vac":true,"version":"7757534","steam_id":85568392924470000,"keywords":["cp","nocrits","nodmgspread","uncletopia"],"game_id":440,"stv_port":27026,"stv_name":"Uncletopia | San Francisco | 2 | All Maps | STV","players":null},{"server_id":19,"name":"Uncletopia | San Francisco | 3 | Stopwatch Beta","name_short":"sfo-3","host":"sfo-1.us.uncletopia.com","port":27035,"enabled":true,"region":"us-west","cc":"us","latitude":37.77397,"longitude":-122.4313,"reserved":0,"last_update":"0001-01-01T00:00:00Z","name_a2s":"Uncletopia | San Francisco | 3 | Stopwatch Beta","protocol":17,"map":"cp_snakewater_final1","folder":"tf","game":"Team Fortress","app_id":440,"player_count":0,"max_players":24,"Bots":0,"server_type":"Dedicated","server_os":"Linux","password":true,"vac":true,"version":"7757534","steam_id":85568392924742824,"keywords":["cp","nocrits","nodmgspread","uncletopia"],"game_id":440,"stv_port":27036,"stv_name":"Uncletopia | San Francisco | 3 | Stopwatch Beta | STV","players":null},{"server_id":20,"name":"Uncletopia | San Francisco | 4 | Community","name_short":"sfo-4","host":"sfo-1.us.uncletopia.com","port":27045,"enabled":true,"region":"us-west","cc":"us","latitude":37.77397,"longitude":-122.4313,"reserved":0,"last_update":"0001-01-01T00:00:00Z","name_a2s":"Uncletopia | San Francisco | 4 | Community","protocol":17,"map":"pl_frontier_final","folder":"tf","game":"Team Fortress","app_id":440,"player_count":0,"max_players":24,"Bots":0,"server_type":"Dedicated","server_os":"Linux","password":true,"vac":true,"version":"7757534","steam_id":85568392924742826,"keywords":["nocrits","nodmgspread","payload","uncletopia"],"game_id":440,"stv_port":27046,"stv_name":"Uncletopia | San Francisco | 4 | Community | STV","players":null},{"server_id":141,"name":"Uncletopia | Sydney | 1 | All Maps","name_short":"syd-1","host":"syd-1.au.uncletopia.com","port":27015,"enabled":true,"region":"au","cc":"au","latitude":-33.865143,"longitude":151.2099,"reserved":0,"last_update":"0001-01-01T00:00:00Z","name_a2s":"Uncletopia | Sydney | 1 | All Maps","protocol":17,"map":"cp_dustbowl","folder":"tf","game":"Team Fortress","app_id":440,"player_count":0,"max_players":24,"Bots":0,"server_type":"Dedicated","server_os":"Linux","password":true,"vac":true,"version":"7757534","steam_id":85568392924470001,"keywords":["cp","nocrits","nodmgspread","uncletopia"],"game_id":440,"stv_port":27016,"stv_name":"Uncletopia | Sydney | 1 | All Maps | STV","players":null},{"server_id":123,"name":"Uncletopia | Sydney | 2 | All Maps","name_short":"syd-2","host":"syd-1.au.uncletopia.com","port":27025,"enabled":true,"region":"au","cc":"au","latitude":-33.865143,"longitude":151.2099,"reserved":0,"last_update":"0001-01-01T00:00:00Z","name_a2s":"Uncletopia | Sydney | 2 | All Maps","protocol":17,"map":"pl_barnblitz","folder":"tf","game":"Team Fortress","app_id":440,"player_count":0,"max_players":24,"Bots":0,"server_type":"Dedicated","server_os":"Linux","password":true,"vac":true,"version":"7757534","steam_id":85568392924470002,"keywords":["nocrits","nodmgspread","payload","uncletopia"],"game_id":440,"stv_port":27026,"stv_name":"Uncletopia | Sydney | 2 | All Maps | STV","players":null},{"server_id":395,"name":"Uncletopia | Sydney | 3 | All Maps","name_short":"syd-3","host":"syd-1.au.uncletopia.com","port":27035,"enabled":true,"region":"au","cc":"au","latitude":-33.865143,"longitude":151.2099,"reserved":0,"last_update":"0001-01-01T00:00:00Z","name_a2s":"Uncletopia | Sydney | 3 | All Maps","protocol":17,"map":"pl_barnblitz","folder":"tf","game":"Team Fortress","app_id":440,"player_count":0,"max_players":24,"Bots":0,"server_type":"Dedicated","server_os":"Linux","password":true,"vac":true,"version":"7757534","steam_id":85568392925194467,"keywords":["nocrits","nodmgspread","payload","uncletopia"],"game_id":440,"stv_port":27036,"stv_name":"Uncletopia | Sydney | 3 | All Maps | STV","players":null},{"server_id":396,"name":"Uncletopia | Sydney | 4 | All Maps","name_short":"syd-4","host":"syd-1.au.uncletopia.com","port":27045,"enabled":true,"region":"au","cc":"au","latitude":-33.865143,"longitude":151.2099,"reserved":0,"last_update":"0001-01-01T00:00:00Z","name_a2s":"Uncletopia | Sydney | 4 | All Maps","protocol":17,"map":"koth_lakeside_final","folder":"tf","game":"Team Fortress","app_id":440,"player_count":0,"max_players":24,"Bots":0,"server_type":"Dedicated","server_os":"Linux","password":true,"vac":true,"version":"7757534","steam_id":85568392925397958,"keywords":["cp","nocrits","nodmgspread","uncletopia"],"game_id":440,"stv_port":27046,"stv_name":"Uncletopia | Sydney | 4 | All Maps | STV","players":null},{"server_id":58,"name":"Uncletopia | Sydney | 5 | Stopwatch Beta","name_short":"syd-5","host":"syd-1.au.uncletopia.com","port":27055,"enabled":true,"region":"au","cc":"au","latitude":-33.865143,"longitude":151.2099,"reserved":0,"last_update":"0001-01-01T00:00:00Z","name_a2s":"Uncletopia | Sydney | 5 | Stopwatch Beta","protocol":17,"map":"workshop/koth_clearcut_b15.ugc2107050255","folder":"tf","game":"Team Fortress","app_id":440,"player_count":0,"max_players":24,"Bots":0,"server_type":"Dedicated","server_os":"Linux","password":true,"vac":true,"version":"7757534","steam_id":85568392925397959,"keywords":["cp","nocrits","nodmgspread","uncletopia"],"game_id":440,"stv_port":27056,"stv_name":"Uncletopia | Sydney | 5 | Stopwatch Beta | STV","players":null},{"server_id":59,"name":"Uncletopia | Sydney | 6 | Community","name_short":"syd-6","host":"syd-1.au.uncletopia.com","port":27065,"enabled":true,"region":"au","cc":"au","latitude":-33.865143,"longitude":151.2099,"reserved":0,"last_update":"0001-01-01T00:00:00Z","name_a2s":"Uncletopia | Sydney | 6 | Community","protocol":17,"map":"workshop/koth_trenchfoot_b1a.ugc731436616","folder":"tf","game":"Team Fortress","app_id":440,"player_count":0,"max_players":24,"Bots":0,"server_type":"Dedicated","server_os":"Linux","password":true,"vac":true,"version":"7757534","steam_id":85568392925397960,"keywords":["cp","nocrits","nodmgspread","uncletopia"],"game_id":440,"stv_port":27066,"stv_name":"Uncletopia | Sydney | 6 | Community | STV","players":null},{"server_id":49,"name":"Uncletopia | Warsaw | 1 | All Maps","name_short":"waw-1","host":"waw-1.pl.uncletopia.com","port":27015,"enabled":true,"region":"eu","cc":"pl","latitude":52.2297,"longitude":21.017532,"reserved":0,"last_update":"0001-01-01T00:00:00Z","name_a2s":"","protocol":0,"map":"","folder":"","game":"","app_id":0,"player_count":0,"max_players":0,"Bots":0,"server_type":"","server_os":"","password":false,"vac":false,"version":"","steam_id":0,"keywords":null,"game_id":0,"stv_port":0,"stv_name":"","players":null},{"server_id":50,"name":"Uncletopia | Warsaw | 2 | All Maps","name_short":"waw-2","host":"waw-1.pl.uncletopia.com","port":27025,"enabled":true,"region":"eu","cc":"pl","latitude":52.2297,"longitude":21.017532,"reserved":0,"last_update":"0001-01-01T00:00:00Z","name_a2s":"Uncletopia | Warsaw | 2 | All Maps","protocol":17,"map":"cp_snakewater_final1","folder":"tf","game":"Team Fortress","app_id":440,"player_count":0,"max_players":24,"Bots":0,"server_type":"Dedicated","server_os":"Linux","password":true,"vac":true,"version":"7757534","steam_id":85568392925397851,"keywords":["cp","nocrits","nodmgspread","uncletopia"],"game_id":440,"stv_port":27026,"stv_name":"Uncletopia | Warsaw | 2 | All Maps | STV","players":null},{"server_id":51,"name":"Uncletopia | Warsaw | 3 | All Maps","name_short":"waw-3","host":"waw-1.pl.uncletopia.com","port":27035,"enabled":true,"region":"eu","cc":"pl","latitude":52.2297,"longitude":21.017532,"reserved":0,"last_update":"0001-01-01T00:00:00Z","name_a2s":"Uncletopia | Warsaw | 3 | All Maps","protocol":17,"map":"pl_barnblitz","folder":"tf","game":"Team Fortress","app_id":440,"player_count":0,"max_players":24,"Bots":0,"server_type":"Dedicated","server_os":"Linux","password":true,"vac":true,"version":"7757534","steam_id":85568392925397852,"keywords":["nocrits","nodmgspread","payload","uncletopia"],"game_id":440,"stv_port":27036,"stv_name":"Uncletopia | Warsaw | 3 | All Maps | STV","players":null},{"server_id":52,"name":"Uncletopia | Warsaw | 4 | All Maps","name_short":"waw-4","host":"waw-1.pl.uncletopia.com","port":27045,"enabled":true,"region":"eu","cc":"pl","latitude":52.2297,"longitude":21.017532,"reserved":0,"last_update":"0001-01-01T00:00:00Z","name_a2s":"Uncletopia | Warsaw | 4 | All Maps","protocol":17,"map":"koth_lakeside_final","folder":"tf","game":"Team Fortress","app_id":440,"player_count":0,"max_players":24,"Bots":0,"server_type":"Dedicated","server_os":"Linux","password":true,"vac":true,"version":"7757534","steam_id":85568392925397853,"keywords":["cp","nocrits","nodmgspread","uncletopia"],"game_id":440,"stv_port":27046,"stv_name":"Uncletopia | Warsaw | 4 | All Maps | STV","players":null},{"server_id":53,"name":"Uncletopia | Warsaw | 5 | Stopwatch Beta","name_short":"waw-5","host":"waw-1.pl.uncletopia.com","port":27055,"enabled":true,"region":"eu","cc":"pl","latitude":52.2297,"longitude":21.017532,"reserved":0,"last_update":"0001-01-01T00:00:00Z","name_a2s":"Uncletopia | Warsaw | 5 | Stopwatch Beta","protocol":17,"map":"pl_pier","folder":"tf","game":"Team Fortress","app_id":440,"player_count":0,"max_players":24,"Bots":0,"server_type":"Dedicated","server_os":"Linux","password":true,"vac":true,"version":"7757534","steam_id":85568392925397854,"keywords":["nocrits","nodmgspread","payload","uncletopia"],"game_id":440,"stv_port":27056,"stv_name":"Uncletopia | Warsaw | 5 | Stopwatch Beta | STV","players":null},{"server_id":54,"name":"Uncletopia | Warsaw | 6 | Community","name_short":"waw-6","host":"waw-1.pl.uncletopia.com","port":27065,"enabled":true,"region":"eu","cc":"pl","latitude":52.2297,"longitude":21.017532,"reserved":0,"last_update":"0001-01-01T00:00:00Z","name_a2s":"Uncletopia | Warsaw | 6 | Community","protocol":17,"map":"koth_highpass","folder":"tf","game":"Team Fortress","app_id":440,"player_count":0,"max_players":24,"Bots":0,"server_type":"Dedicated","server_os":"Linux","password":true,"vac":true,"version":"7757534","steam_id":85568392925397856,"keywords":["cp","nocrits","nodmgspread","uncletopia"],"game_id":440,"stv_port":27066,"stv_name":"Uncletopia | Warsaw | 6 | Community | STV","players":null}]}