{"status":true,"message":"","result":[{"server_id":9,"name":"Uncletopia | Atlanta | 1 | All Maps","name_short":"atl-1","host":"atl-1.us.uncletopia.com","port":27015,"enabled":true,"region":"us-east","cc":"us","latitude":33.753746,"longitude":-84.38633,"reserved":0,"last_update":"0001-01-01T00:00:00Z","name_a2s":"Uncletopia | Atlanta | 1 | All Maps","protocol":17,"map":"pl_frontier_final","folder":"tf","game":"Team Fortress","app_id":440,"player_count":0,"max_players":24,"Bots":0,"server_type":"Dedicated","server_os":"Linux","password":true,"vac":true,"version":"7757534","steam_id":85568392924469982,"keywords":["nocrits","nodmgspread","payload","uncletopia"],"game_id":440,"stv_port":27016,"stv_name":"Uncletopia | Atlanta | 1 | All Maps | STV","players":null},{"server_id":104,"name":"Uncletopia | Atlanta | 2 | All Maps","name_short":"atl-2","host":"atl-1.us.uncletopia.com","port":27025,"enabled":true,"region":"us-east","cc":"us","latitude":33.753746,"longitude":-84.38633,"reserved":0,"last_update":"0001-01-01T00:00:00Z","name_a2s":"Uncletopia | Atlanta | 2 | All Maps","protocol":17,"map":"cp_process_final","folder":"tf","game":"Team Fortress","app_id":440,"player_count":16,"max_players":24,"Bots":0,"server_type":"Dedicated","server_os":"Linux","password":true,"vac":true,"version":"7757534","steam_id":85568392924469983,"keywords":["cp","nocrits","nodmgspread","uncletopia"],"game_id":440,"stv_port":27026,"stv_name":"Uncletopia | Atlanta | 2 | All Maps | STV","players":[{"user_id":950,"name":"Takumi-exe","steam_id":76561198155048645,"connected_time":5774000000000,"state":"active","ping":48},{"user_id":952,"name":".jpegged","steam_id":76561198120078454,"connected_time":5030000000000,"state":"active","ping":60},{"user_id":1008,"name":"yomo","steam_id":76561198063175935,"connected_time":327000000000,"state":"active","ping":53},{"user_id":990,"name":"Cdesmondd","steam_id":76561198072774462,"connected_time":1771000000000,"state":"active","ping":80},{"user_id":994,"name":"Zoro01","steam_id":76561198407989540,"connected_time":1558000000000,"state":"active","ping":198},{"user_id":995,"name":"Tomoko2001","steam_id":76561198047117990,"connected_time":1511000000000,"state":"active","ping":79},{"user_id":984,"name":"Rusted Cake","steam_id":76561198209755931,"connected_time":2202000000000,"state":"active","ping":129},{"user_id":1010,"name":"Yummy Kabobz","steam_id":76561198067661705,"connected_time":313000000000,"state":"active","ping":52},{"user_id":1011,"name":"valentino","steam_id":76561199112655950,"connected_time":66000000000,"state":"active","ping":105},{"user_id":1012,"name":"mechiimi ★","steam_id":76561198321627268,"connected_time":48000000000,"state":"active","ping":104},{"user_id":1006,"name":"Intestinal Straw","steam_id":76561198082095303,"connected_time":416000000000,"state":"active","ping":70},{"user_id":974,"name":"Mayo Monkey","steam_id":76561198090023039,"connected_time":2835000000000,"state":"active","ping":84},{"user_id":998,"name":"0","steam_id":76561198046065237,"connected_time":1376000000000,"state":"active","ping":71},{"user_id":1001,"name":"Genetic Komodo (He/Him)","steam_id":76561198174806758,"connected_time":1332000000000,"state":"active","ping":45},{"user_id":986,"name":"Hyper","steam_id":76561198976760150,"connected_time":2112000000000,"state":"active","ping":94},{"user_id":987,"name":"JPEG Image","steam_id":76561199126026126,"connected_time":2056000000000,"state":"active","ping":113}]},{"server_id":400,"name":"Uncletopia | Atlanta | 3 | Community","name_short":"atl-3","host":"atl-1.us.uncletopia.com","port":27035,"enabled":true,"region":"us-east","cc":"us","latitude":33.753746,"longitude":-84.38633,"reserved":0,"last_update":"0001-01-01T00:00:00Z","name_a2s":"Uncletopia | Atlanta | 3 | Community","protocol":17,"map":"workshop/cp_glassworks_rc6a.ugc454118349","folder":"tf","game":"Team Fortress","app_id":440,"player_count":0,"max_players":24,"Bots":0,"server_type":"Dedicated","server_os":"Linux","password":true,"vac":true,"version":"7757534","steam_id":85568392924515187,"keywords":["cp","nocrits","nodmgspread","uncletopia"],"game_id":440,"stv_port":27036,"stv_name":"Uncletopia | Atlanta | 3 | Community | STV","players":null},{"server_id":401,"name":"Uncletopia | Atlanta | 4 | No Payload","name_short":"atl-4","host":"atl-1.us.uncletopia.com","port":27045,"enabled":true,"region":"us-east","cc":"us","latitude":33.753746,"longitude":-84.38633,"reserved":0,"last_update":"0001-01-01T00:00:00Z","name_a2s":"","protocol":0,"map":"","folder":"","game":"","app_id":0,"player_count":0,"max_players":0,"Bots":0,"server_type":"","server_os":"","password":false,"vac":false,"version":"","steam_id":0,"keywords":null,"game_id":0,"stv_port":0,"stv_name":"","players":null},{"server_id":2,"name":"Uncletopia | Chicago | 1 | All Maps","name_short":"chi-1","host":"chi-1.us.uncletopia.com","port":27015,"enabled":true,"region":"us-central","cc":"us","latitude":41.881832,"longitude":-87.62318,"reserved":0,"last_update":"0001-01-01T00:00:00Z","name_a2s":"Uncletopia | Chicago | 1 | All Maps","protocol":17,"map":"cp_sunshine","folder":"tf","game":"Team Fortress","app_id":440,"player_count":24,"max_players":24,"Bots":0,"server_type":"Dedicated","server_os":"Linux","password":true,"vac":true,"version":"7757534","steam_id":85568392924469984,"keywords":["cp","nocrits","nodmgspread","uncletopia"],"game_id":440,"stv_port":27016,"stv_name":"Uncletopia | Chicago | 1 | All Maps | STV","players":[{"user_id":916,"name":"Sirius","steam_id":76561198031295225,"connected_time":659000000000,"state":"active","ping":44},{"user_id":893,"name":"Bearegard","steam_id":76561198061926542,"connected_time":3244000000000,"state":"active","ping":60},{"user_id":894,"name":"HTA","steam_id":76561198043879140,"connected_time":3067000000000,"state":"active","ping":45},{"user_id":892,"name":"Pop","steam_id":76561199012562851,"connected_time":3309000000000,"state":"active","ping":84},{"user_id":847,"name":"Scooter O'Boyl","steam_id":76561197971687069,"connected_time":7610000000000,"state":"active","ping":79},{"user_id":915,"name":"69 odd goat","steam_id":76561198116908911,"connected_time":1235000000000,"state":"active","ping":74},{"user_id":863,"name":"roast pig with apple in mouth","steam_id":76561198051353647,"connected_time":6256000000000,"state":"active","ping":58},{"user_id":920,"name":"lemdie","steam_id":76561199066825164,"connected_time":547000000000,"state":"active","ping":157},{"user_id":881,"name":"GamingJoker2012","steam_id":76561198247589168,"connected_time":4430000000000,"state":"active","ping":60},{"user_id":879,"name":"Krome","steam_id":76561198087317232,"connected_time":4840000000000,"state":"active","ping":75},{"user_id":921,"name":"touka","steam_id":76561198171521806,"connected_time":501000000000,"state":"active","ping":120},{"user_id":918,"name":"auurr","steam_id":76561198028572994,"connected_time":561000000000,"state":"active","ping":54},{"user_id":912,"name":"Star_Mann_Jr.","steam_id":76561198071148924,"connected_time":1429000000000,"state":"active","ping":111},{"user_id":875,"name":"Stan","steam_id":76561199057962816,"connected_time":5219000000000,"state":"active","ping":46},{"user_id":819,"name":"Lemon Drop","steam_id":76561198023684559,"connected_time":10591000000000,"state":"active","ping":91},{"user_id":922,"name":"Influrrno","steam_id":76561198398893302,"connected_time":294000000000,"state":"active","ping":66},{"user_id":896,"name":"Flaming O'Gaming","steam_id":76561198044185725,"connected_time":2831000000000,"state":"active","ping":76},{"user_id":897,"name":"Galactamarx","steam_id":76561198028065755,"connected_time":2820000000000,"state":"active","ping":110},{"user_id":913,"name":"Yoshimelon","steam_id":76561198253054325,"connected_time":1300000000000,"state":"active","ping":73},{"user_id":828,"name":"Dot.","steam_id":76561198149463984,"connected_time":9576000000000,"state":"active","ping":44},{"user_id":919,"name":"✧*̥˚ taz *̥˚✧","steam_id":76561198046152530,"connected_time":559000000000,"state":"active","ping":92},{"user_id":914,"name":"Shipmunk","steam_id":76561198063062670,"connected_time":1296000000000,"state":"active","ping":60},{"user_id":924,"name":"Voodo133","steam_id":76561198042670351,"connected_time":37000000000,"state":"active","ping":84},{"user_id":923,"name":"The Horselords and Animal Gods","steam_id":76561197975094050,"connected_time":217000000000,"state":"active","ping":113}]},{"server_id":106,"name":"Uncletopia | Chicago | 2 | All Maps","name_short":"chi-2","host":"chi-1.us.uncletopia.com","port":27025,"enabled":true,"region":"us-central","cc":"us","latitude":41.881832,"longitude":-87.62318,"reserved":0,"last_update":"0001-01-01T00:00:00Z","name_a2s":"Uncletopia | Chicago | 2 | All Maps","protocol":17,"map":"cp_sunshine","folder":"tf","game":"Team Fortress","app_id":440,"player_count":23,"max_players":24,"Bots":0,"server_type":"Dedicated","server_os":"Linux","password":true,"vac":true,"version":"7757534","steam_id":85568392924469985,"keywords":["cp","nocrits","nodmgspread","uncletopia"],"game_id":440,"stv_port":27026,"stv_name":"Uncletopia | Chicago | 2 | All Maps | STV","players":[{"user_id":1057,"name":"kratomSnorter.1quarter","steam_id":76561198946987511,"connected_time":189000000000,"state":"active","ping":76},{"user_id":1054,"name":"THEY LET YOU PUT ANYTHING HERE","steam_id":76561198056214875,"connected_time":354000000000,"state":"active","ping":66},{"user_id":1064,"name":"- K.K.-","steam_id":76561198825567047,"connected_time":110000000000,"state":"active","ping":89},{"user_id":1058,"name":"Notation","steam_id":76561198119509319,"connected_time":183000000000,"state":"active","ping":59},{"user_id":1059,"name":"lucil3 on Bandcamp","steam_id":76561198149063013,"connected_time":180000000000,"state":"active","ping":60},{"user_id":1015,"name":"Vynthex","steam_id":76561198990762666,"connected_time":3839000000000,"state":"active","ping":88},{"user_id":1036,"name":"Ghoulbreath","steam_id":76561198062517442,"connected_time":2108000000000,"state":"active","ping":127},{"user_id":974,"name":"googa","steam_id":76561198133130452,"connected_time":7122000000000,"state":"active","ping":60},{"user_id":1066,"name":"PS2","steam_id":76561198108799902,"connected_time":83000000000,"state":"active","ping":101},{"user_id":1061,"name":"Big Oil","steam_id":76561199238964574,"connected_time":175000000000,"state":"active","ping":73},{"user_id":1062,"name":"tyg","steam_id":76561198056246867,"connected_time":154000000000,"state":"active","ping":71},{"user_id":1063,"name":"Alfie Solomons #Shelby2020","steam_id":76561198061870046,"connected_time":148000000000,"state":"active","ping":116},{"user_id":1043,"name":"FLASH ASSANOVA","steam_id":76561197996266992,"connected_time":1327000000000,"state":"active","ping":89},{"user_id":1014,"name":"FiZZy","steam_id":76561198990783547,"connected_time":3877000000000,"state":"active","ping":83},{"user_id":1067,"name":"Giant Dad","steam_id":76561198042088837,"connected_time":75000000000,"state":"active","ping":96},{"user_id":1005,"name":"Kendrick LaFarm","steam_id":76561198099843841,"connected_time":4500000000000,"state":"active","ping":92},{"user_id":1068,"name":"Hong Xiuquan","steam_id":76561198110046630,"connected_time":71000000000,"state":"active","ping":56},{"user_id":1069,"name":"dzcreeper","steam_id":76561198072250723,"connected_time":68000000000,"state":"active","ping":75},{"user_id":1071,"name":"Joocebox","steam_id":76561198259997021,"connected_time":44000000000,"state":"active","ping":67},{"user_id":1070,"name":"Bort","steam_id":76561198161476974,"connected_time":61000000000,"state":"active","ping":105},{"user_id":1010,"name":"kermitcreeper(ZAZA)","steam_id":76561199222829972,"connected_time":4361000000000,"state":"active","ping":52},{"user_id":1072,"name":"Ltn. What's-his-Nuts","steam_id":76561198133834262,"connected_time":19000000000,"state":"active","ping":61},{"user_id":1073,"name":"Arcane","steam_id":76561198093439807,"connected_time":0,"state":"connecting","ping":0}]},{"server_id":402,"name":"Uncletopia | Chicago | 3 | All Maps","name_short":"chi-3","host":"chi-1.us.uncletopia.com","port":27035,"enabled":true,"region":"us-central","cc":"us","latitude":41.881832,"longitude":-87.62318,"reserved":0,"last_update":"0001-01-01T00:00:00Z","name_a2s":"Uncletopia | Chicago | 3 | All Maps","protocol":17,"map":"pl_swiftwater_final1","folder":"tf","game":"Team Fortress","app_id":440,"player_count":0,"max_players":24,"Bots":0,"server_type":"Dedicated","server_os":"Linux","password":true,"vac":true,"version":"7757534","steam_id":85568392924515191,"keywords":["nocrits","nodmgspread","payload","uncletopia"],"game_id":440,"stv_port":27036,"stv_name":"Uncletopia | Chicago | 3 | All Maps | STV","players":null},{"server_id":403,"name":"Uncletopia | Chicago | 4 | All Maps","name_short":"chi-4","host":"chi-1.us.uncletopia.com","port":27045,"enabled":true,"region":"us-central","cc":"us","latitude":41.881832,"longitude":-87.62318,"reserved":0,"last_update":"0001-01-01T00:00:00Z","name_a2s":"Uncletopia | Chicago | 4 | All Maps","protocol":17,"map":"koth_cascade","folder":"tf","game":"Team Fortress","app_id":440,"player_count":0,"max_players":24,"Bots":0,"server_type":"Dedicated","server_os":"Linux","password":true,"vac":true,"version":"7757534","steam_id":85568392924515193,"keywords":["cp","nocrits","nodmgspread","uncletopia"],"game_id":440,"stv_port":27046,"stv_name":"Uncletopia | Chicago | 4 | All Maps | STV","players":null},{"server_id":36,"name":"Uncletopia | Chicago | 5 | All Maps","name_short":"chi-5","host":"chi-2.us.uncletopia.com","port":27015,"enabled":true,"region":"us-central","cc":"us","latitude":41.881832,"longitude":-87.62318,"reserved":0,"last_update":"0001-01-01T00:00:00Z","name_a2s":"Uncletopia | Chicago | 5 | All Maps","protocol":17,"map":"pl_snowycoast","folder":"tf","game":"Team Fortress","app_id":440,"player_count":0,"max_players":24,"Bots":0,"server_type":"Dedicated","server_os":"Linux","password":true,"vac":true,"version":"7757534","steam_id":85568392924866362,"keywords":["nocrits","nodmgspread","payload","uncletopia"],"game_id":440,"stv_port":27016,"stv_name":"Uncletopia | Chicago | 5 | All Maps | STV","players":null},{"server_id":37,"name":"Uncletopia | Chicago | 6 | All Maps","name_short":"chi-6","host":"chi-2.us.uncletopia.com","port":27025,"enabled":true,"region":"us-central","cc":"us","latitude":41.881832,"longitude":-87.62318,"reserved":0,"last_update":"0001-01-01T00:00:00Z","name_a2s":"Uncletopia | Chicago | 6 | All Maps","protocol":17,"map":"koth_viaduct","folder":"tf","game":"Team Fortress","app_id":440,"player_count":0,"max_players":24,"Bots":0,"server_type":"Dedicated","server_os":"Linux","password":true,"vac":true,"version":"7757534","steam_id":85568392924866363,"keywords":["cp","nocrits","nodmgspread","uncletopia"],"game_id":440,"stv_port":27026,"stv_name":"Uncletopia | Chicago | 6 | All Maps | STV","players":null},{"server_id":38,"name":"Uncletopia | Chicago | 7 | Stopwatch Beta","name_short":"chi-7","host":"chi-2.us.uncletopia.com","port":27035,"enabled":true,"region":"us-central","cc":"us","latitude":41.881832,"longitude":-87.62318,"reserved":0,"last_update":"0001-01-01T00:00:00Z","name_a2s":"Uncletopia | Chicago | 7 | Stopwatch Beta","protocol":17,"map":"workshop/pl_badwater_pro_v12.ugc2142942074","folder":"tf","game":"Team Fortress","app_id":440,"player_count":0,"max_players":24,"Bots":0,"server_type":"Dedicated","server_os":"Linux","password":true,"vac":true,"version":"7757534","steam_id":85568392924866364,"keywords":["nocrits","nodmgspread","payload","uncletopia"],"game_id":440,"stv_port":27036,"stv_name":"Uncletopia | Chicago | 7 | Stopwatch Beta | STV","players":null},{"server_id":39,"name":"Uncletopia | Chicago | 8 | Community","name_short":"chi-8","host":"chi-2.us.uncletopia.com","port":27045,"enabled":true,"region":"us-central","cc":"us","latitude":41.881832,"longitude":-87.62318,"reserved":0,"last_update":"0001-01-01T00:00:00Z","name_a2s":"Uncletopia | Chicago | 8 | Community","protocol":17,"map":"workshop/pl_barnblitz_pro7.ugc582280235","folder":"tf","game":"Team Fortress","app_id":440,"player_count":0,"max_players":24,"Bots":0,"server_type":"Dedicated","server_os":"Linux","password":true,"vac":true,"version":"7757534","steam_id":85568392924866365,"keywords":["nocrits","nodmgspread","payload","uncletopia"],"game_id":440,"stv_port":27046,"stv_name":"Uncletopia | Chicago | 8 | Community | STV","players":null},{"server_id":8,"name":"Uncletopia | Dallas | 1 | All Maps","name_short":"dal-1","host":"dal-1.us.uncletopia.com","port":27015,"enabled":true,"region":"us-central","cc":"us","latitude":32.779167,"longitude":-96.80889,"reserved":0,"last_update":"0001-01-01T00:00:00Z","name_a2s":"Uncletopia | Dallas | 1 | All Maps","protocol":17,"map":"pl_upward","folder":"tf","game":"Team Fortress","app_id":440,"player_count":8,"max_players":24,"Bots":0,"server_type":"Dedicated","server_os":"Linux","password":true,"vac":true,"version":"7757534","steam_id":85568392924469986,"keywords":["nocrits","nodmgspread","payload","uncletopia"],"game_id":440,"stv_port":27016,"stv_name":"Uncletopia | Dallas | 1 | All Maps | STV","players":[{"user_id":810,"name":"stigma","steam_id":76561197960315263,"connected_time":1034000000000,"state":"active","ping":75},{"user_id":808,"name":"Mr.Roko","steam_id":76561198297223309,"connected_time":1588000000000,"state":"active","ping":75},{"user_id":813,"name":"Commie","steam_id":76561198149370115,"connected_time":703000000000,"state":"active","ping":64},{"user_id":803,"name":"Nekro Kitty","steam_id":76561198025054596,"connected_time":2279000000000,"state":"active","ping":70},{"user_id":815,"name":"DefaultCube","steam_id":76561198276316715,"connected_time":513000000000,"state":"active","ping":89},{"user_id":814,"name":"deb","steam_id":76561198414336279,"connected_time":688000000000,"state":"active","ping":47},{"user_id":816,"name":"私は不正行為をしてい","steam_id":76561199465653959,"connected_time":469000000000,"state":"active","ping":131},{"user_id":817,"name":"sun","steam_id":76561198011329825,"connected_time":44000000000,"state":"active","ping":88}]},{"server_id":108,"name":"Uncletopia | Dallas | 2 | All Maps","name_short":"dal-2","host":"dal-1.us.uncletopia.com","port":27025,"enabled":true,"region":"us-central","cc":"us","latitude":32.779167,"longitude":-96.80889,"reserved":0,"last_update":"0001-01-01T00:00:00Z","name_a2s":"Uncletopia | Dallas | 2 | All Maps","protocol":17,"map":"pl_pier","folder":"tf","game":"Team Fortress","app_id":440,"player_count":0,"max_players":24,"Bots":0,"server_type":"Dedicated","server_os":"Linux","password":true,"vac":true,"version":"7757534","steam_id":85568392924469988,"keywords":["nocrits","nodmgspread","payload","uncletopia"],"game_id":440,"stv_port":27026,"stv_name":"Uncletopia | Dallas | 2 | All Maps | STV","players":null},{"server_id":5,"name":"Uncletopia | Frankfurt | 1 | All Maps","name_short":"frk-1","host":"frk-1.de.uncletopia.com","port":27015,"enabled":true,"region":"eu","cc":"de","latitude":50.110924,"longitude":8.682127,"reserved":0,"last_update":"0001-01-01T00:00:00Z","name_a2s":"Uncletopia | Frankfurt | 1 | All Maps","protocol":17,"map":"cp_snakewater_final1","folder":"tf","game":"Team Fortress","app_id":440,"player_count":0,"max_players":24,"Bots":0,"server_type":"Dedicated","server_os":"Linux","password":true,"vac":true,"version":"7757534","steam_id":85568392924469989,"keywords":["cp","nocrits","nodmgspread","uncletopia"],"game_id":440,"stv_port":27016,"stv_name":"Uncletopia | Frankfurt | 1 | All Maps | STV","players":null},{"server_id":110,"name":"Uncletopia | Frankfurt | 2 | All Maps","name_short":"frk-2","host":"frk-1.de.uncletopia.com","port":27025,"enabled":true,"region":"eu","cc":"de","latitude":50.110924,"longitude":8.682127,"reserved":0,"last_update":"0001-01-01T00:00:00Z","name_a2s":"Uncletopia | Frankfurt | 2 | All Maps","protocol":17,"map":"cp_snakewater_final1","folder":"tf","game":"Team Fortress","app_id":440,"player_count":0,"max_players":24,"Bots":0,"server_type":"Dedicated","server_os":"Linux","password":true,"vac":true,"version":"7757534","steam_id":85568392924469990,"keywords":["cp","nocrits","nodmgspread","uncletopia"],"game_id":440,"stv_port":27026,"stv_name":"Uncletopia | Frankfurt | 2 | All Maps | STV","players":null},{"server_id":308,"name":"Uncletopia | Frankfurt | 3 | All Maps","name_short":"frk-3","host":"frk-1.de.uncletopia.com","port":27035,"enabled":true,"region":"eu","cc":"de","latitude":50.110924,"longitude":8.682127,"reserved":0,"last_update":"0001-01-01T00:00:00Z","name_a2s":"Uncletopia | Frankfurt | 3 | All Maps","protocol":17,"map":"pl_swiftwater_final1","folder":"tf","game":"Team Fortress","app_id":440,"player_count":0,"max_players":24,"Bots":0,"server_type":"Dedicated","server_os":"Linux","password":true,"vac":true,"version":"7757534","steam_id":85568392924504274,"keywords":["nocrits","nodmgspread","payload","uncletopia"],"game_id":440,"stv_port":27036,"stv_name":"Uncletopia | Frankfurt | 3 | All Maps | STV","players":null},{"server_id":309,"name":"Uncletopia | Frankfurt | 4 | All Maps","name_short":"frk-4","host":"frk-1.de.uncletopia.com","port":27045,"enabled":true,"region":"eu","cc":"de","latitude":50.110924,"longitude":8.682127,"reserved":0,"last_update":"0001-01-01T00:00:00Z","name_a2s":"Uncletopia | Frankfurt | 4 | All Maps","protocol":17,"map":"koth_viaduct","folder":"tf","game":"Team Fortress","app_id":440,"player_count":0,"max_players":24,"Bots":0,"server_type":"Dedicated","server_os":"Linux","password":true,"vac":true,"version":"7757534","steam_id":85568392924504275,"keywords":["cp","nocrits","nodmgspread","uncletopia"],"game_id":440,"stv_port":27046,"stv_name":"Uncletopia | Frankfurt | 4 | All Maps | STV","players":null},{"server_id":310,"name":"Uncletopia | Frankfurt | 5 | All Maps","name_short":"frk-5","host":"frk-1.de.uncletopia.com","port":27055,"enabled":true,"region":"eu","cc":"de","latitude":50.110924,"longitude":8.682127,"reserved":0,"last_update":"0001-01-01T00:00:00Z","name_a2s":"Uncletopia | Frankfurt | 5 | All Maps","protocol":17,"map":"koth_lakeside_final","folder":"tf","game":"Team Fortress","app_id":440,"player_count":0,"max_players":24,"Bots":0,"server_type":"Dedicated","server_os":"Linux","password":true,"vac":true,"version":"7757534","steam_id":85568392924504277,"keywords":["cp","nocrits","nodmgspread","uncletopia"],"game_id":440,"stv_port":27056,"stv_name":"Uncletopia | Frankfurt | 5 | All Maps | STV","players":null},{"server_id":311,"name":"Uncletopia | Frankfurt | 6 | All Maps","name_short":"frk-6","host":"frk-1.de.uncletopia.com","port":27065,"enabled":true,"region":"eu","cc":"de","latitude":50.110924,"longitude":8.682127,"reserved":0,"last_update":"0001-01-01T00:00:00Z","name_a2s":"Uncletopia | Frankfurt | 6 | All Maps","protocol":17,"map":"pl_frontier_final","folder":"tf","game":"Team Fortress","app_id":440,"player_count":0,"max_players":24,"Bots":0,"server_type":"Dedicated","server_os":"Linux","password":true,"vac":true,"version":"7757534","steam_id":85568392924504278,"keywords":["nocrits","nodmgspread","payload","uncletopia"],"game_id":440,"stv_port":27066,"stv_name":"Uncletopia | Frankfurt | 6 | All Maps | STV","players":null},{"server_id":23,"name":"Uncletopia | Frankfurt | 7 | Stopwatch Beta","name_short":"frk-7","host":"frk-1.de.uncletopia.com","port":27075,"enabled":true,"region":"eu","cc":"de","latitude":50.110924,"longitude":8.682127,"reserved":0,"last_update":"0001-01-01T00:00:00Z","name_a2s":"Uncletopia | Frankfurt | 7 | Stopwatch Beta","protocol":17,"map":"cp_sunshine","folder":"tf","game":"Team Fortress","app_id":440,"player_count":0,"max_players":24,"Bots":0,"server_type":"Dedicated","server_os":"Linux","password":true,"vac":true,"version":"7757534","steam_id":85568392924742827,"keywords":["cp","nocrits","nodmgspread","uncletopia"],"game_id":440,"stv_port":27076,"stv_name":"Uncletopia | Frankfurt | 7 | Stopwatch Beta | STV","players":null},{"server_id":24,"name":"Uncletopia | Frankfurt | 8 | Community","name_short":"frk-8","host":"frk-1.de.uncletopia.com","port":27085,"enabled":true,"region":"eu","cc":"de","latitude":50.110924,"longitude":8.682127,"reserved":0,"last_update":"0001-01-01T00:00:00Z","name_a2s":"Uncletopia | Frankfurt | 8 | Community","protocol":17,"map":"koth_lakeside_final","folder":"tf","game":"Team Fortress","app_id":440,"player_count":0,"max_players":24,"Bots":0,"server_type":"Dedicated","server_os":"Linux","password":true,"vac":true,"version":"7757534","steam_id":85568392924742828,"keywords":["cp","nocrits","nodmgspread","uncletopia"],"game_id":440,"stv_port":27086,"stv_name":"Uncletopia | Frankfurt | 8 | Community | STV","players":null},{"server_id":202,"name":"Uncletopia | Hong Kong | 1 | All Maps","name_short":"hgk-1","host":"hgk-1.hk.uncletopia.com","port":27015,"enabled":true,"region":"asia","cc":"hk","latitude":22.302711,"longitude":114.177216,"reserved":0,"last_update":"0001-01-01T00:00:00Z","name_a2s":"Uncletopia | Hong Kong | 1 | All Maps","protocol":17,"map":"pl_pier","folder":"tf","game":"Team Fortress","app_id":440,"player_count":24,"max_players":24,"Bots":0,"server_type":"Dedicated","server_os":"Linux","password":true,"vac":true,"version":"7757534","steam_id":85568392924494504,"keywords":["nocrits","nodmgspread","payload","uncletopia"],"game_id":440,"stv_port":27016,"stv_name":"Uncletopia | Hong Kong | 1 | All Maps | STV","players":[{"user_id":135,"name":"Silent","steam_id":76561198048945940,"connected_time":145000000000,"state":"active","ping":91},{"user_id":92,"name":"Windmill","steam_id":76561199230997986,"connected_time":3593000000000,"state":"active","ping":78},{"user_id":118,"name":"RP birdzz","steam_id":76561198318077734,"connected_time":1360000000000,"state":"active","ping":60},{"user_id":96,"name":"i saved my fart for lunch","steam_id":76561199146847474,"connected_time":3075000000000,"state":"active","ping":68},{"user_id":129,"name":"Pyro","steam_id":76561198144194541,"connected_time":494000000000,"state":"active","ping":105},{"user_id":136,"name":"quake","steam_id":76561199000482422,"connected_time":109000000000,"state":"active","ping":98},{"user_id":119,"name":"|=|","steam_id":76561198260896310,"connected_time":1354000000000,"state":"active","ping":75},{"user_id":112,"name":"pincat","steam_id":76561198878176849,"connected_time":1521000000000,"state":"active","ping":84},{"user_id":121,"name":"malas solat","steam_id":76561198154470283,"connected_time":663000000000,"state":"active","ping":81},{"user_id":131,"name":"Milk❤","steam_id":76561198163911560,"connected_time":473000000000,"state":"active","ping":119},{"user_id":84,"name":"c","steam_id":76561199099271055,"connected_time":4596000000000,"state":"active","ping":83},{"user_id":86,"name":"dax.","steam_id":76561198321885643,"connected_time":4500000000000,"state":"active","ping":44},{"user_id":132,"name":"braces","steam_id":76561198812686396,"connected_time":432000000000,"state":"active","ping":60},{"user_id":70,"name":":uroSmonk:","steam_id":76561198074339034,"connected_time":6128000000000,"state":"active","ping":74},{"user_id":124,"name":"corpse_cadaver","steam_id":76561199225360457,"connected_time":526000000000,"state":"active","ping":69},{"user_id":113,"name":"쿠키","steam_id":76561197997220367,"connected_time":1503000000000,"state":"active","ping":46},{"user_id":137,"name":"water tastes good","steam_id":76561199375947670,"connected_time":17000000000,"state":"spawning","ping":73},{"user_id":120,"name":"17","steam_id":76561198241530712,"connected_time":1209000000000,"state":"active","ping":54},{"user_id":133,"name":"ketsu","steam_id":76561197966171554,"connected_time":319000000000,"state":"active","ping":123},{"user_id":134,"name":"Kek","steam_id":76561199004616229,"connected_time":282000000000,"state":"active","ping":101},{"user_id":105,"name":". ᴗ.","steam_id":76561198208632261,"connected_time":2363000000000,"state":"active","ping":45},{"user_id":67,"name":"brainless bozo","steam_id":76561198055553140,"connected_time":7011000000000,"state":"active","ping":76},{"user_id":104,"name":"Xx_EpicTrickstabber_xX","steam_id":76561199024960087,"connected_time":2578000000000,"state":"active","ping":60},{"user_id":125,"name":"man","steam_id":76561198073752902,"connected_time":526000000000,"state":"active","ping":88}]},{"server_id":1,"name":"Uncletopia | Los Angeles | 1 | All Maps","name_short":"lax-1","host":"lax-1.us.uncletopia.com","port":27015,"enabled":true,"region":"us-west","cc":"us","latitude":33.94279,"longitude":-118.41004,"reserved":0,"last_update":"0001-01-01T00:00:00Z","name_a2s":"Uncletopia | Los Angeles | 1 | All Maps","protocol":17,"map":"cp_sunshine","folder":"tf","game":"Team Fortress","app_id":440,"player_count":0,"max_players":24,"Bots":0,"server_type":"Dedicated","server_os":"Linux","password":true,"vac":true,"version":"7757534","steam_id":85568392924469991,"keywords":["cp","nocrits","nodmgspread","uncletopia"],"game_id":440,"stv_port":27016,"stv_name":"Uncletopia | Los Angeles | 1 | All Maps | STV","players":null},{"server_id":112,"name":"Uncletopia | Los Angeles | 2 | All Maps","name_short":"lax-2","host":"lax-1.us.uncletopia.com","port":27025,"enabled":true,"region":"us-west","cc":"us","latitude":33.94279,"longitude":-118.41004,"reserved":0,"last_update":"0001-01-01T00:00:00Z","name_a2s":"Uncletopia | Los Angeles | 2 | All Maps","protocol":17,"map":"pl_pier","folder":"tf","game":"Team Fortress","app_id":440,"player_count":6,"max_players":24,"Bots":0,"server_type":"Dedicated","server_os":"Linux","password":true,"vac":true,"version":"7757534","steam_id":85568392924469992,"keywords":["nocrits","nodmgspread","payload","uncletopia"],"game_id":440,"stv_port":27026,"stv_name":"Uncletopia | Los Angeles | 2 | All Maps | STV","players":[{"user_id":489,"name":"Stoofy","steam_id":76561198280750328,"connected_time":1994000000000,"state":"active","ping":87},{"user_id":525,"name":"koncept","steam_id":76561198027812652,"connected_time":63000000000,"state":"active","ping":44},{"user_id":526,"name":"beatrix","steam_id":76561199057103062,"connected_time":30000000000,"state":"active","ping":58},{"user_id":501,"name":"Marge \"ZaZa\" Simpson","steam_id":76561198156496197,"connected_time":1331000000000,"state":"active","ping":100},{"user_id":512,"name":"luminary","steam_id":76561198126358045,"connected_time":703000000000,"state":"active","ping":106},{"user_id":459,"name":"Pudsla","steam_id":76561198258974036,"connected_time":3589000000000,"state":"active","ping":60}]},{"server_id":324,"name":"Uncletopia | Los Angeles | 3 | All Maps","name_short":"lax-3","host":"lax-1.us.uncletopia.com","port":27035,"enabled":true,"region":"us-west","cc":"us","latitude":33.94279,"longitude":-118.41004,"reserved":0,"last_update":"0001-01-01T00:00:00Z","name_a2s":"Uncletopia | Los Angeles | 3 | All Maps","protocol":17,"map":"cp_dustbowl","folder":"tf","game":"Team Fortress","app_id":440,"player_count":0,"max_players":24,"Bots":0,"server_type":"Dedicated","server_os":"Linux","password":true,"vac":true,"version":"7757534","steam_id":85568392924510198,"keywords":["cp","nocrits","nodmgspread","uncletopia"],"game_id":440,"stv_port":27036,"stv_name":"Uncletopia | Los Angeles | 3 | All Maps | STV","players":null},{"server_id":25,"name":"Uncletopia | Los Angeles | 4 | Stopwatch Beta","name_short":"lax-4","host":"lax-1.us.uncletopia.com","port":27045,"enabled":true,"region":"us-west","cc":"us","latitude":33.94279,"longitude":-118.41004,"reserved":0,"last_update":"0001-01-01T00:00:00Z","name_a2s":"Uncletopia | Los Angeles | 4 | Stopwatch Beta","protocol":17,"map":"pl_swiftwater_final1","folder":"tf","game":"Team Fortress","app_id":440,"player_count":0,"max_players":24,"Bots":0,"server_type":"Dedicated","server_os":"Linux","password":true,"vac":true,"version":"7757534","steam_id":85568392924510199,"keywords":["nocrits","nodmgspread","payload","uncletopia"],"game_id":440,"stv_port":27046,"stv_name":"Uncletopia | Los Angeles | 4 | Stopwatch Beta | STV","players":null},{"server_id":11,"name":"Uncletopia | London | 1 | All Maps","name_short":"lon-1","host":"lon-1.uk.uncletopia.com","port":27015,"enabled":true,"region":"eu","cc":"gb","latitude":51.509865,"longitude":-0.118092,"reserved":0,"last_update":"0001-01-01T00:00:00Z","name_a2s":"Uncletopia | London | 1 | All Maps","protocol":17,"map":"cp_vanguard","folder":"tf","game":"Team Fortress","app_id":440,"player_count":22,"max_players":24,"Bots":0,"server_type":"Dedicated","server_os":"Linux","password":true,"vac":true,"version":"7757534","steam_id":85568392924367362,"keywords":["cp","nocrits","nodmgspread","uncletopia"],"game_id":440,"stv_port":27016,"stv_name":"Uncletopia | London | 1 | All Maps | STV","players":[{"user_id":199,"name":"Son Goku","steam_id":76561199383437138,"connected_time":52000000000,"state":"active","ping":124},{"user_id":176,"name":"kag","steam_id":76561198059813166,"connected_time":1857000000000,"state":"active","ping":42},{"user_id":174,"name":"sailend","steam_id":76561198045209959,"connected_time":1948000000000,"state":"active","ping":70},{"user_id":190,"name":"Bonduelle#Savetf2","steam_id":76561199041992422,"connected_time":632000000000,"state":"active","ping":172},{"user_id":189,"name":"Specialluxurytouring2007","steam_id":76561198236015392,"connected_time":844000000000,"state":"active","ping":119},{"user_id":186,"name":"Rolloden","steam_id":76561198069414404,"connected_time":1132000000000,"state":"active","ping":69},{"user_id":195,"name":"Vitamin Weee","steam_id":76561199183937747,"connected_time":113000000000,"state":"active","ping":84},{"user_id":131,"name":"A stripper","steam_id":76561198034865891,"connected_time":4860000000000,"state":"active","ping":57},{"user_id":191,"name":"Tammi","steam_id":76561199480009781,"connected_time":310000000000,"state":"active","ping":143},{"user_id":180,"name":"r0la","steam_id":76561198128315340,"connected_time":1357000000000,"state":"active","ping":80},{"user_id":159,"name":"tummaluppo taivaltaja","steam_id":76561198093458326,"connected_time":3209000000000,"state":"active","ping":74},{"user_id":168,"name":"on1on (fried)","steam_id":76561197995304137,"connected_time":2243000000000,"state":"active","ping":73},{"user_id":149,"name":"Shynii","steam_id":76561198194682105,"connected_time":3802000000000,"state":"active","ping":59},{"user_id":150,"name":"Dododid","steam_id":76561198159185258,"connected_time":3791000000000,"state":"active","ping":56},{"user_id":197,"name":"Yuzu","steam_id":76561198121694613,"connected_time":89000000000,"state":"spawning","ping":48},{"user_id":187,"name":"Joro_Kudo","steam_id":76561198954912403,"connected_time":1131000000000,"state":"active","ping":73},{"user_id":179,"name":"øpossum","steam_id":76561198056152479,"connected_time":1404000000000,"state":"active","ping":30},{"user_id":173,"name":"Dawg","steam_id":76561199087506644,"connected_time":2023000000000,"state":"active","ping":97},{"user_id":182,"name":"Salad's Warband","steam_id":76561198214089583,"connected_time":1302000000000,"state":"active","ping":69},{"user_id":142,"name":"Minecraftamere","steam_id":76561198045358081,"connected_time":4268000000000,"state":"active","ping":53},{"user_id":169,"name":"1ggy","steam_id":76561199051285912,"connected_time":2210000000000,"state":"active","ping":83},{"user_id":194,"name":"Marchioly","steam_id":76561198335079215,"connected_time":224000000000,"state":"active","ping":117}]},{"server_id":114,"name":"Uncletopia | London | 2 | All Maps","name_short":"lon-2","host":"lon-1.uk.uncletopia.com","port":27025,"enabled":true,"region":"eu","cc":"gb","latitude":51.509865,"longitude":-0.118092,"reserved":0,"last_update":"0001-01-01T00:00:00Z","name_a2s":"Uncletopia | London | 2 | All Maps","protocol":17,"map":"koth_viaduct","folder":"tf","game":"Team Fortress","app_id":440,"player_count":0,"max_players":24,"Bots":0,"server_type":"Dedicated","server_os":"Linux","password":true,"vac":true,"version":"7757534","steam_id":85568392924470941,"keywords":["cp","nocrits","nodmgspread","uncletopia"],"game_id":440,"stv_port":27026,"stv_name":"Uncletopia | London | 2 | All Maps | STV","players":null},{"server_id":320,"name":"Uncletopia | London | 3 | All Maps","name_short":"lon-3","host":"lon-1.uk.uncletopia.com","port":27035,"enabled":true,"region":"eu","cc":"gb","latitude":51.509865,"longitude":-0.118092,"reserved":0,"last_update":"0001-01-01T00:00:00Z","name_a2s":"Uncletopia | London | 3 | All Maps","protocol":17,"map":"cp_dustbowl","folder":"tf","game":"Team Fortress","app_id":440,"player_count":0,"max_players":24,"Bots":0,"server_type":"Dedicated","server_os":"Linux","password":true,"vac":true,"version":"7757534","steam_id":85568392924510192,"keywords":["cp","nocrits","nodmgspread","uncletopia"],"game_id":440,"stv_port":27036,"stv_name":"Uncletopia | London | 3 | All Maps | STV","players":null},{"server_id":321,"name":"Uncletopia | London | 4 | All Maps","name_short":"lon-4","host":"lon-1.uk.uncletopia.com","port":27045,"enabled":true,"region":"eu","cc":"gb","latitude":51.509865,"longitude":-0.118092,"reserved":0,"last_update":"0001-01-01T00:00:00Z","name_a2s":"Uncletopia | London | 4 | All Maps","protocol":17,"map":"cp_dustbowl","folder":"tf","game":"Team Fortress","app_id":440,"player_count":0,"max_players":24,"Bots":0,"server_type":"Dedicated","server_os":"Linux","password":true,"vac":true,"version":"7757534","steam_id":85568392924510193,"keywords":["cp","nocrits","nodmgspread","uncletopia"],"game_id":440,"stv_port":27046,"stv_name":"Uncletopia | London | 4 | All Maps | STV","players":null},{"server_id":21,"name":"Uncletopia | London | 5 | All Maps","name_short":"lon-5","host":"lon-1.uk.uncletopia.com","port":27055,"enabled":true,"region":"eu","cc":"gb","latitude":51.509865,"longitude":-0.118092,"reserved":0,"last_update":"0001-01-01T00:00:00Z","name_a2s":"Uncletopia | London | 5 | All Maps","protocol":17,"map":"cp_altitude","folder":"tf","game":"Team Fortress","app_id":440,"player_count":0,"max_players":24,"Bots":0,"server_type":"Dedicated","server_os":"Linux","password":true,"vac":true,"version":"7757534","steam_id":85568392924742829,"keywords":["cp","nocrits","nodmgspread","uncletopia"],"game_id":440,"stv_port":27056,"stv_name":"Uncletopia | London | 5 | All Maps | STV","players":null},{"server_id":22,"name":"Uncletopia | London | 6 | All Maps","name_short":"lon-6","host":"lon-1.uk.uncletopia.com","port":27065,"enabled":true,"region":"eu","cc":"gb","latitude":51.509865,"longitude":-0.118092,"reserved":0,"last_update":"0001-01-01T00:00:00Z","name_a2s":"Uncletopia | London | 6 | All Maps","protocol":17,"map":"pl_pier","folder":"tf","game":"Team Fortress","app_id":440,"player_count":6,"max_players":24,"Bots":0,"server_type":"Dedicated","server_os":"Linux","password":true,"vac":true,"version":"7757534","steam_id":85568392924742830,"keywords":["nocrits","nodmgspread","payload","uncletopia"],"game_id":440,"stv_port":27066,"stv_name":"Uncletopia | London | 6 | All Maps | STV","players":[{"user_id":4,"name":"Uncle Terry","steam_id":76561198396415736,"connected_time":496000000000,"state":"active","ping":51},{"user_id":5,"name":"Brasidas","steam_id":76561197966629582,"connected_time":482000000000,"state":"active","ping":63},{"user_id":6,"name":"MAKENTAKEN","steam_id":76561199127359587,"connected_time":472000000000,"state":"active","ping":99},{"user_id":9,"name":"Dachowiec","steam_id":76561198195408281,"connected_time":309000000000,"state":"active","ping":68},{"user_id":8,"name":"Perci","steam_id":76561198097789669,"connected_time":356000000000,"state":"active","ping":66},{"user_id":10,"name":"uncle dnae","steam_id":76561199184000174,"connected_time":283000000000,"state":"active","ping":52}]},{"server_id":40,"name":"Uncletopia | London | 7 | No Payload","name_short":"lon-7","host":"lon-1.uk.uncletopia.com","port":27075,"enabled":true,"region":"eu","cc":"gb","latitude":51.509865,"longitude":-0.118092,"reserved":0,"last_update":"0001-01-01T00:00:00Z","name_a2s":"Uncletopia | London | 7 | No Payload","protocol":17,"map":"pl_badwater","folder":"tf","game":"Team Fortress","app_id":440,"player_count":0,"max_players":24,"Bots":0,"server_type":"Dedicated","server_os":"Linux","password":true,"vac":true,"version":"7757534","steam_id":85568392924964314,"keywords":["nocrits","nodmgspread","payload","uncletopia"],"game_id":440,"stv_port":27076,"stv_name":"Uncletopia | London | 7 | No Payload | STV","players":null},{"server_id":41,"name":"Uncletopia | London | 8 | Community","name_short":"lon-8","host":"lon-1.uk.uncletopia.com","port":27085,"enabled":true,"region":"eu","cc":"gb","latitude":51.509865,"longitude":-0.118092,"reserved":0,"last_update":"0001-01-01T00:00:00Z","name_a2s":"Uncletopia | London | 8 | Community","protocol":17,"map":"pl_barnblitz","folder":"tf","game":"Team Fortress","app_id":440,"player_count":0,"max_players":24,"Bots":0,"server_type":"Dedicated","server_os":"Linux","password":true,"vac":true,"version":"7757534","steam_id":85568392924964315,"keywords":["nocrits","nodmgspread","payload","uncletopia"],"game_id":440,"stv_port":27086,"stv_name":"Uncletopia | London | 8 | Community | STV","players":null},{"server_id":300,"name":"Uncletopia | Montréal | 1 | All Maps","name_short":"mtl-1","host":"mtl-1.ca.uncletopia.com","port":27015,"enabled":true,"region":"us-east","cc":"ca","latitude":45.50889,"longitude":-73.56167,"reserved":0,"last_update":"0001-01-01T00:00:00Z","name_a2s":"Uncletopia | Montréal | 1 | All Maps","protocol":17,"map":"koth_viaduct","folder":"tf","game":"Team Fortress","app_id":440,"player_count":0,"max_players":24,"Bots":0,"server_type":"Dedicated","server_os":"Linux","password":true,"vac":true,"version":"7757534","steam_id":85568392924500087,"keywords":["cp","nocrits","nodmgspread","uncletopia"],"game_id":440,"stv_port":27016,"stv_name":"Uncletopia | Montréal | 1 | All Maps | STV","players":null},{"server_id":301,"name":"Uncletopia | Montréal | 2 | All Maps","name_short":"mtl-2","host":"mtl-1.ca.uncletopia.com","port":27025,"enabled":true,"region":"us-east","cc":"ca","latitude":45.50889,"longitude":-73.56167,"reserved":0,"last_update":"0001-01-01T00:00:00Z","name_a2s":"Uncletopia | Montréal | 2 | All Maps","protocol":17,"map":"koth_lakeside_final","folder":"tf","game":"Team Fortress","app_id":440,"player_count":0,"max_players":24,"Bots":0,"server_type":"Dedicated","server_os":"Linux","password":true,"vac":true,"version":"7757534","steam_id":85568392924500088,"keywords":["cp","nocrits","nodmgspread","uncletopia"],"game_id":440,"stv_port":27026,"stv_name":"Uncletopia | Montréal | 2 | All Maps | STV","players":null},{"server_id":302,"name":"Uncletopia | Montréal | 3 | All Maps","name_short":"mtl-3","host":"mtl-1.ca.uncletopia.com","port":27035,"enabled":true,"region":"us-east","cc":"ca","latitude":45.50889,"longitude":-73.56167,"reserved":0,"last_update":"0001-01-01T00:00:00Z","name_a2s":"Uncletopia | Montréal | 3 | All Maps","protocol":17,"map":"koth_cascade","folder":"tf","game":"Team Fortress","app_id":440,"player_count":6,"max_players":24,"Bots":0,"server_type":"Dedicated","server_os":"Linux","password":true,"vac":true,"version":"7757534","steam_id":85568392924500089,"keywords":["cp","nocrits","nodmgspread","uncletopia"],"game_id":440,"stv_port":27036,"stv_name":"Uncletopia | Montréal | 3 | All Maps | STV","players":[{"user_id":62,"name":"thebigannoyance","steam_id":76561198851604387,"connected_time":14318000000000,"state":"active","ping":60},{"user_id":63,"name":"kriglar","steam_id":76561198346652267,"connected_time":14259000000000,"state":"active","ping":71},{"user_id":85,"name":"Mario","steam_id":76561198321794277,"connected_time":5833000000000,"state":"active","ping":62},{"user_id":86,"name":"Umami Socks","steam_id":76561198062688146,"connected_time":1657000000000,"state":"active","ping":139},{"user_id":66,"name":"dtjauch","steam_id":76561198152364093,"connected_time":14024000000000,"state":"active","ping":60},{"user_id":87,"name":"Chocolate","steam_id":76561198133253767,"connected_time":1328000000000,"state":"active","ping":88}]},{"server_id":303,"name":"Uncletopia | Montréal | 4 | No Payload","name_short":"mtl-4","host":"mtl-1.ca.uncletopia.com","port":27045,"enabled":true,"region":"us-east","cc":"ca","latitude":45.50889,"longitude":-73.56167,"reserved":0,"last_update":"0001-01-01T00:00:00Z","name_a2s":"Uncletopia | Montréal | 4 | No Payload","protocol":17,"map":"cp_mercenarypark","folder":"tf","game":"Team Fortress","app_id":440,"player_count":0,"max_players":24,"Bots":0,"server_type":"Dedicated","server_os":"Linux","password":true,"vac":true,"version":"7757534","steam_id":85568392924500090,"keywords":["cp","nocrits","nodmgspread","uncletopia"],"game_id":440,"stv_port":27046,"stv_name":"Uncletopia | Montréal | 4 | No Payload | STV","players":null},{"server_id":13,"name":"Uncletopia | New York City | 1 | All Maps","name_short":"nyc-1","host":"nyc-1.us.uncletopia.com","port":27015,"enabled":true,"region":"us-east","cc":"us","latitude":40.73061,"longitude":-73.93524,"reserved":0,"last_update":"0001-01-01T00:00:00Z","name_a2s":"Uncletopia | New York City | 1 | All Maps","protocol":17,"map":"cp_sunshine","folder":"tf","game":"Team Fortress","app_id":440,"player_count":0,"max_players":24,"Bots":0,"server_type":"Dedicated","server_os":"Linux","password":true,"vac":true,"version":"7757534","steam_id":85568392924469993,"keywords":["cp","nocrits","nodmgspread","uncletopia"],"game_id":440,"stv_port":27016,"stv_name":"Uncletopia | New York City | 1 | All Maps | STV","players":null},{"server_id":14,"name":"Uncletopia | New York City | 2 | All Maps","name_short":"nyc-2","host":"nyc-1.us.uncletopia.com","port":27025,"enabled":true,"region":"us-east","cc":"us","latitude":40.73061,"longitude":-73.93524,"reserved":0,"last_update":"0001-01-01T00:00:00Z","name_a2s":"Uncletopia | New York City | 2 | All Maps","protocol":17,"map":"koth_cascade","folder":"tf","game":"Team Fortress","app_id":440,"player_count":0,"max_players":24,"Bots":0,"server_type":"Dedicated","server_os":"Linux","password":true,"vac":true,"version":"7757534","steam_id":85568392924469994,"keywords":["cp","nocrits","nodmgspread","uncletopia"],"game_id":440,"stv_port":27026,"stv_name":"Uncletopia | New York City | 2 | All Maps | STV","players":null},{"server_id":15,"name":"Uncletopia | New York City | 3 | Stopwatch Beta","name_short":"nyc-3","host":"nyc-1.us.uncletopia.com","port":27035,"enabled":true,"region":"us-east","cc":"us","latitude":40.73061,"longitude":-73.93524,"reserved":0,"last_update":"0001-01-01T00:00:00Z","name_a2s":"Uncletopia | New York City | 3 | Stopwatch Beta","protocol":17,"map":"pl_upward","folder":"tf","game":"Team Fortress","app_id":440,"player_count":0,"max_players":24,"Bots":0,"server_type":"Dedicated","server_os":"Linux","password":true,"vac":true,"version":"7757534","steam_id":85568392924742820,"keywords":["nocrits","nodmgspread","payload","uncletopia"],"game_id":440,"stv_port":27036,"stv_name":"Uncletopia | New York City | 3 | Stopwatch Beta | STV","players":null},{"server_id":16,"name":"Uncletopia | New York City | 4 | Community","name_short":"nyc-4","host":"nyc-1.us.uncletopia.com","port":27045,"enabled":true,"region":"us-east","cc":"us","latitude":40.73061,"longitude":-73.93524,"reserved":0,"last_update":"0001-01-01T00:00:00Z","name_a2s":"Uncletopia | New York City | 4 | Community","protocol":17,"map":"workshop/cp_fulgur_rc2a.ugc2068252300","folder":"tf","game":"Team Fortress","app_id":440,"player_count":0,"max_players":24,"Bots":0,"server_type":"Dedicated","server_os":"Linux","password":true,"vac":true,"version":"7757534","steam_id":85568392924742821,"keywords":["cp","nocrits","nodmgspread","uncletopia"],"game_id":440,"stv_port":27046,"stv_name":"Uncletopia | New York City | 4 | Community | STV","players":null},{"server_id":142,"name":"Uncletopia | São Paulo | 1 | All Maps","name_short":"sao-1","host":"sao-1.br.uncletopia.com","port":27015,"enabled":true,"region":"sa","cc":"br","latitude":-23.533773,"longitude":-46.62529,"reserved":0,"last_update":"0001-01-01T00:00:00Z","name_a2s":"Uncletopia | São Paulo | 1 | All Maps","protocol":17,"map":"koth_lakeside_final","folder":"tf","game":"Team Fortress","app_id":440,"player_count":0,"max_players":24,"Bots":0,"server_type":"Dedicated","server_os":"Linux","password":true,"vac":true,"version":"7757534","steam_id":85568392924469996,"keywords":["cp","nocrits","nodmgspread","uncletopia"],"game_id":440,"stv_port":27016,"stv_name":"Uncletopia | São Paulo | 1 | All Maps | STV","players":null},{"server_id":143,"name":"Uncletopia | São Paulo | 2 | All Maps","name_short":"sao-2","host":"sao-2.br.uncletopia.com","port":27015,"enabled":true,"region":"sa","cc":"br","latitude":-23.533773,"longitude":-46.62529,"reserved":0,"last_update":"0001-01-01T00:00:00Z","name_a2s":"Uncletopia | São Paulo | 2 | All Maps","protocol":17,"map":"pl_borneo","folder":"tf","game":"Team Fortress","app_id":440,"player_count":0,"max_players":24,"Bots":0,"server_type":"Dedicated","server_os":"Linux","password":true,"vac":true,"version":"7757534","steam_id":85568392924485349,"keywords":["nocrits","nodmgspread","payload","uncletopia"],"game_id":440,"stv_port":27016,"stv_name":"Uncletopia | São Paulo | 2 | All Maps | STV","players":null},{"server_id":7,"name":"Uncletopia | Seattle | 1 | All Maps","name_short":"sea-1","host":"sea-1.us.uncletopia.com","port":27015,"enabled":true,"region":"us-west","cc":"us","latitude":47.608013,"longitude":-122.33517,"reserved":0,"last_update":"0001-01-01T00:00:00Z","name_a2s":"Uncletopia | Seattle | 1 | All Maps","protocol":17,"map":"pl_barnblitz","folder":"tf","game":"Team Fortress","app_id":440,"player_count":24,"max_players":24,"Bots":0,"server_type":"Dedicated","server_os":"Linux","password":true,"vac":true,"version":"7757534","steam_id":85568392924469997,"keywords":["nocrits","nodmgspread","payload","uncletopia"],"game_id":440,"stv_port":27016,"stv_name":"Uncletopia | Seattle | 1 | All Maps | STV","players":[{"user_id":719,"name":"Pineapple Pizza","steam_id":76561197997233176,"connected_time":332000000000,"state":"active","ping":134},{"user_id":720,"name":"TrueCharles","steam_id":76561198431098809,"connected_time":229000000000,"state":"active","ping":99},{"user_id":721,"name":"Training Arc","steam_id":76561198038832034,"connected_time":204000000000,"state":"active","ping":57},{"user_id":723,"name":"XslPleb","steam_id":76561198309265358,"connected_time":178000000000,"state":"active","ping":98},{"user_id":722,"name":"Spoofle","steam_id":76561199003655066,"connected_time":188000000000,"state":"active","ping":80},{"user_id":677,"name":"Yosh","steam_id":76561198027078899,"connected_time":3877000000000,"state":"active","ping":88},{"user_id":724,"name":"H0wlr","steam_id":76561198012332824,"connected_time":164000000000,"state":"active","ping":105},{"user_id":699,"name":"seve pick up the phone!","steam_id":76561197974470963,"connected_time":1961000000000,"state":"active","ping":120},{"user_id":725,"name":"Shoomsie","steam_id":76561198047405791,"connected_time":129000000000,"state":"active","ping":144},{"user_id":716,"name":"big vro","steam_id":76561197998911283,"connected_time":343000000000,"state":"active","ping":114},{"user_id":707,"name":"ttv/californjoe","steam_id":76561197965047795,"connected_time":790000000000,"state":"active","ping":88},{"user_id":709,"name":"TheGreatDong","steam_id":76561198000634178,"connected_time":760000000000,"state":"active","ping":74},{"user_id":688,"name":"HellaCopter","steam_id":76561198062313698,"connected_time":2662000000000,"state":"active","ping":45},{"user_id":694,"name":"Nov","steam_id":76561198384982192,"connected_time":2125000000000,"state":"active","ping":73},{"user_id":599,"name":"Closed.","steam_id":76561198212598967,"connected_time":9635000000000,"state":"active","ping":75},{"user_id":700,"name":"Well-off Walnut","steam_id":76561198092494136,"connected_time":1935000000000,"state":"active","ping":107},{"user_id":726,"name":"minerkid2004","steam_id":76561198044262827,"connected_time":120000000000,"state":"active","ping":71},{"user_id":680,"name":"doopsies","steam_id":76561198083000867,"connected_time":3734000000000,"state":"active","ping":57},{"user_id":727,"name":"177013","steam_id":76561198072303290,"connected_time":108000000000,"state":"active","ping":122},{"user_id":684,"name":"smeasly","steam_id":76561198028718812,"connected_time":3258000000000,"state":"active","ping":45},{"user_id":676,"name":"Michiru","steam_id":76561198878701671,"connected_time":4125000000000,"state":"active","ping":103},{"user_id":695,"name":"alaska","steam_id":76561198017030029,"connected_time":2100000000000,"state":"active","ping":73},{"user_id":603,"name":"gorlab","steam_id":76561198025089694,"connected_time":9428000000000,"state":"active","ping":61},{"user_id":714,"name":"Heiv","steam_id":76561198355613063,"connected_time":622000000000,"state":"active","ping":145}]},{"server_id":119,"name":"Uncletopia | Seattle | 2 | All Maps","name_short":"sea-2","host":"sea-1.us.uncletopia.com","port":27025,"enabled":true,"region":"us-west","cc":"us","latitude":47.608013,"longitude":-122.33517,"reserved":0,"last_update":"0001-01-01T00:00:00Z","name_a2s":"Uncletopia | Seattle | 2 | All Maps","protocol":17,"map":"pl_upward","folder":"tf","game":"Team Fortress","app_id":440,"player_count":24,"max_players":24,"Bots":0,"server_type":"Dedicated","server_os":"Linux","password":true,"vac":true,"version":"7757534","steam_id":85568392924469998,"keywords":["nocrits","nodmgspread","payload","uncletopia"],"game_id":440,"stv_port":27026,"stv_name":"Uncletopia | Seattle | 2 | All Maps | STV","players":[{"user_id":935,"name":"Goober","steam_id":76561198931169208,"connected_time":316000000000,"state":"active","ping":73},{"user_id":899,"name":"Minedark","steam_id":76561198250995706,"connected_time":3083000000000,"state":"active","ping":57},{"user_id":917,"name":"Mr. Empty Pants","steam_id":76561197994720499,"connected_time":1651000000000,"state":"active","ping":80},{"user_id":927,"name":"Jumbletoon","steam_id":76561198021351865,"connected_time":663000000000,"state":"active","ping":57},{"user_id":945,"name":"CheeseCake488","steam_id":76561199407617942,"connected_time":6000000000,"state":"spawning","ping":99},{"user_id":911,"name":"Goblin Mode","steam_id":76561198064870076,"connected_time":2381000000000,"state":"active","ping":125},{"user_id":926,"name":"Reptile DysFunktion","steam_id":76561198018725250,"connected_time":907000000000,"state":"active","ping":68},{"user_id":868,"name":"pineaple","steam_id":76561198119048742,"connected_time":5975000000000,"state":"active","ping":68},{"user_id":928,"name":"raf","steam_id":76561197999439695,"connected_time":639000000000,"state":"active","ping":85},{"user_id":941,"name":"Sauron","steam_id":76561198986468004,"connected_time":125000000000,"state":"active","ping":90},{"user_id":940,"name":"skittle ducks jr.","steam_id":76561198309823950,"connected_time":177000000000,"state":"active","ping":45},{"user_id":929,"name":"Ninjia202","steam_id":76561198891979195,"connected_time":598000000000,"state":"active","ping":59},{"user_id":915,"name":"the forbidden one","steam_id":76561198844273999,"connected_time":2098000000000,"state":"active","ping":44},{"user_id":930,"name":"Fang Lopez","steam_id":76561198141800967,"connected_time":588000000000,"state":"active","ping":62},{"user_id":931,"name":"jaymae999","steam_id":76561199109286410,"connected_time":584000000000,"state":"active","ping":125},{"user_id":932,"name":"Cutie Pyro \u003c3","steam_id":76561197997820384,"connected_time":429000000000,"state":"active","ping":74},{"user_id":938,"name":"lker","steam_id":76561197976975075,"connected_time":208000000000,"state":"active","ping":105},{"user_id":890,"name":"Alcohol Hominid","steam_id":76561198320313950,"connected_time":4044000000000,"state":"active","ping":111},{"user_id":934,"name":"the grind dont stop","steam_id":76561199013671994,"connected_time":351000000000,"state":"active","ping":74},{"user_id":937,"name":"hardfork","steam_id":76561197960958019,"connected_time":214000000000,"state":"active","ping":47},{"user_id":891,"name":"Chubby Monarch","steam_id":76561198027487285,"connected_time":4041000000000,"state":"active","ping":116},{"user_id":939,"name":"deathstar0611","steam_id":76561198120476410,"connected_time":198000000000,"state":"active","ping":90},{"user_id":944,"name":"Alf Creepypasta","steam_id":76561198841844093,"connected_time":60000000000,"state":"active","ping":70},{"user_id":943,"name":"Blue Protogen - 001198","steam_id":76561198145791867,"connected_time":111000000000,"state":"active","ping":83}]},{"server_id":406,"name":"Uncletopia | Seattle | 3 | Stopwatch Beta","name_short":"sea-3","host":"sea-1.us.uncletopia.com","port":27035,"enabled":true,"region":"us-west","cc":"us","latitude":47.608013,"longitude":-122.33517,"reserved":0,"last_update":"0001-01-01T00:00:00Z","name_a2s":"Uncletopia | Seattle | 3 | Stopwatch Beta","protocol":17,"map":"workshop/pl_summercoast_rc8e.ugc1761528829","folder":"tf","game":"Team Fortress","app_id":440,"player_count":0,"max_players":24,"Bots":0,"server_type":"Dedicated","server_os":"Linux","password":true,"vac":true,"version":"7757534","steam_id":85568392924515217,"keywords":["nocrits","nodmgspread","payload","uncletopia"],"game_id":440,"stv_port":27036,"stv_name":"Uncletopia | Seattle | 3 | Stopwatch Beta | STV","players":null},{"server_id":17,"name":"Uncletopia | San Francisco | 1 | All Maps","name_short":"sfo-1","host":"sfo-1.us.uncletopia.com","port":27015,"enabled":true,"region":"us-west","cc":"us","latitude":37.77397,"longitude":-122.4313,"reserved":0,"last_update":"0001-01-01T00:00:00Z","name_a2s":"Uncletopia | San Francisco | 1 | All Maps","protocol":17,"map":"koth_viaduct","folder":"tf","game":"Team Fortress","app_id":440,"player_count":2,"max_players":24,"Bots":0,"server_type":"Dedicated","server_os":"Linux","password":true,"vac":true,"version":"7757534","steam_id":85568392924469999,"keywords":["cp","nocrits","nodmgspread","uncletopia"],"game_id":440,"stv_port":27016,"stv_name":"Uncletopia | San Francisco | 1 | All Maps | STV","players":[{"user_id":660,"name":"IDrinkCoffee","steam_id":76561198196987279,"connected_time":618000000000,"state":"active","ping":60},{"user_id":661,"name":"Tohru Adachi","steam_id":76561198302118756,"connected_time":614000000000,"state":"active","ping":58}]},{"server_id":18,"name":"Uncletopia | San Francisco | 2 | All Maps","name_short":"sfo-2","host":"sfo-1.us.uncletopia.com","port":27025,"enabled":true,"region":"us-west","cc":"us","latitude":37.77397,"longitude":-122.4313,"reserved":0,"last_update":"0001-01-01T00:00:00Z","name_a2s":"Uncletopia | San Francisco | 2 | All Maps","protocol":17,"map":"cp_sunshine","folder":"tf","game":"Team Fortress","app_id":440,"player_count":0,"max_players":24,"Bots":0,"server_type":"Dedicated","server_os":"Linux","password":true,"vac":true,"version":"7757534","steam_id":85568392924470000,"keywords":["cp","nocrits","nodmgspread","uncletopia"],"game_id":440,"stv_port":27026,"stv_name":"Uncletopia | San Francisco | 2 | All Maps | STV","players":null},{"server_id":19,"name":"Uncletopia | San Francisco | 3 | Stopwatch Beta","name_short":"sfo-3","host":"sfo-1.us.uncletopia.com","port":27035,"enabled":true,"region":"us-west","cc":"us","latitude":37.77397,"longitude":-122.4313,"reserved":0,"last_update":"0001-01-01T00:00:00Z","name_a2s":"Uncletopia | San Francisco | 3 | Stopwatch Beta","protocol":17,"map":"pl_borneo","folder":"tf","game":"Team Fortress","app_id":440,"player_count":0,"max_players":24,"Bots":0,"server_type":"Dedicated","server_os":"Linux","password":true,"vac":true,"version":"7757534","steam_id":85568392924742824,"keywords":["nocrits","nodmgspread","payload","uncletopia"],"game_id":440,"stv_port":27036,"stv_name":"Uncletopia | San Francisco | 3 | Stopwatch Beta | STV","players":null},{"server_id":20,"name":"Uncletopia | San Francisco | 4 | Community","name_short":"sfo-4","host":"sfo-1.us.uncletopia.com","port":27045,"enabled":true,"region":"us-west","cc":"us","latitude":37.77397,"longitude":-122.4313,"reserved":0,"last_update":"0001-01-01T00:00:00Z","name_a2s":"Uncletopia | San Francisco | 4 | Community","protocol":17,"map":"workshop/cp_snowbase_b18.ugc2081770490","folder":"tf","game":"Team Fortress","app_id":440,"player_count":0,"max_players":24,"Bots":0,"server_type":"Dedicated","server_os":"Linux","password":true,"vac":true,"version":"7757534","steam_id":85568392924742826,"keywords":["cp","nocrits","nodmgspread","uncletopia"],"game_id":440,"stv_port":27046,"stv_name":"Uncletopia | San Francisco | 4 | Community | STV","players":null},{"server_id":141,"name":"Uncletopia | Sydney | 1 | All Maps","name_short":"syd-1","host":"syd-1.au.uncletopia.com","port":27015,"enabled":true,"region":"au","cc":"au","latitude":-33.865143,"longitude":151.2099,"reserved":0,"last_update":"0001-01-01T00:00:00Z","name_a2s":"Uncletopia | Sydney | 1 | All Maps","protocol":17,"map":"koth_viaduct","folder":"tf","game":"Team Fortress","app_id":440,"player_count":0,"max_players":24,"Bots":0,"server_type":"Dedicated","server_os":"Linux","password":true,"vac":true,"version":"7757534","steam_id":85568392924470001,"keywords":["cp","nocrits","nodmgspread","uncletopia"],"game_id":440,"stv_port":27016,"stv_name":"Uncletopia | Sydney | 1 | All Maps | STV","players":null},{"server_id":123,"name":"Uncletopia | Sydney | 2 | All Maps","name_short":"syd-2","host":"syd-1.au.uncletopia.com","port":27025,"enabled":true,"region":"au","cc":"au","latitude":-33.865143,"longitude":151.2099,"reserved":0,"last_update":"0001-01-01T00:00:00Z","name_a2s":"Uncletopia | Sydney | 2 | All Maps","protocol":17,"map":"pl_frontier_final","folder":"tf","game":"Team Fortress","app_id":440,"player_count":24,"max_players":24,"Bots":0,"server_type":"Dedicated","server_os":"Linux","password":true,"vac":true,"version":"7757534","steam_id":85568392924470002,"keywords":["nocrits","nodmgspread","payload","uncletopia"],"game_id":440,"stv_port":27026,"stv_name":"Uncletopia | Sydney | 2 | All Maps | STV","players":[{"user_id":71,"name":"soupy","steam_id":76561198073734936,"connected_time":1442000000000,"state":"active","ping":87},{"user_id":87,"name":"Zzep_","steam_id":76561198059402662,"connected_time":588000000000,"state":"active","ping":84},{"user_id":70,"name":"Mooty","steam_id":76561198301293435,"connected_time":1490000000000,"state":"active","ping":51},{"user_id":75,"name":"JayCatnip","steam_id":76561198125106357,"connected_time":1127000000000,"state":"active","ping":72},{"user_id":33,"name":"Mr Mahal","steam_id":76561198123234137,"connected_time":3779000000000,"state":"active","ping":62},{"user_id":34,"name":"The Bisoneer Tf2","steam_id":76561199446773766,"connected_time":3767000000000,"state":"active","ping":95},{"user_id":81,"name":"Vet","steam_id":76561198343414549,"connected_time":985000000000,"state":"active","ping":149},{"user_id":76,"name":"wombatrat","steam_id":76561199375834537,"connected_time":1114000000000,"state":"active","ping":132},{"user_id":77,"name":"Tiger_Tan","steam_id":76561198221733844,"connected_time":1061000000000,"state":"active","ping":73},{"user_id":58,"name":"The Goon","steam_id":76561198434696450,"connected_time":1774000000000,"state":"active","ping":154},{"user_id":48,"name":"Slippo","steam_id":76561198079649290,"connected_time":2042000000000,"state":"active","ping":50},{"user_id":49,"name":"Splooge Fellow","steam_id":76561198067993108,"connected_time":2002000000000,"state":"active","ping":41},{"user_id":86,"name":"you have been deemed, Gilbert","steam_id":76561198301282416,"connected_time":599000000000,"state":"active","ping":49},{"user_id":55,"name":"Rizeo","steam_id":76561198147901488,"connected_time":1893000000000,"state":"active","ping":72},{"user_id":52,"name":"rougebot","steam_id":76561198085154748,"connected_time":1959000000000,"state":"active","ping":123},{"user_id":72,"name":"crack","steam_id":76561198077370413,"connected_time":1432000000000,"state":"active","ping":66},{"user_id":54,"name":"lemur","steam_id":76561198278239170,"connected_time":1932000000000,"state":"active","ping":87},{"user_id":79,"name":"Abraham Lincoln","steam_id":76561198095292515,"connected_time":1028000000000,"state":"active","ping":64},{"user_id":82,"name":"nick","steam_id":76561198000149800,"connected_time":939000000000,"state":"active","ping":58},{"user_id":64,"name":"honkybus thruttlebop","steam_id":76561198063481761,"connected_time":1634000000000,"state":"active","ping":44},{"user_id":89,"name":"Pr1nce","steam_id":76561198116791394,"connected_time":164000000000,"state":"active","ping":67},{"user_id":88,"name":"cocaine bear","steam_id":76561198129112901,"connected_time":428000000000,"state":"active","ping":60},{"user_id":68,"name":"Puff Puff","steam_id":76561199480263293,"connected_time":1542000000000,"state":"active","ping":89},{"user_id":85,"name":"yobbo woollies employee","steam_id":76561198153796383,"connected_time":886000000000,"state":"active","ping":53}]},{"server_id":395,"name":"Uncletopia | Sydney | 3 | All Maps","name_short":"syd-3","host":"syd-1.au.uncletopia.com","port":27035,"enabled":true,"region":"au","cc":"au","latitude":-33.865143,"longitude":151.2099,"reserved":0,"last_update":"0001-01-01T00:00:00Z","name_a2s":"Uncletopia | Sydney | 3 | All Maps","protocol":17,"map":"cp_dustbowl","folder":"tf","game":"Team Fortress","app_id":440,"player_count":22,"max_players":24,"Bots":0,"server_type":"Dedicated","server_os":"Linux","password":true,"vac":true,"version":"7757534","steam_id":85568392925194467,"keywords":["cp","nocrits","nodmgspread","uncletopia"],"game_id":440,"stv_port":27036,"stv_name":"Uncletopia | Sydney | 3 | All Maps | STV","players":[{"user_id":280,"name":"Deerstop","steam_id":76561198042248554,"connected_time":1642000000000,"state":"active","ping":64},{"user_id":261,"name":"Jodelkönig Franzl Lang","steam_id":76561198007667830,"connected_time":3548000000000,"state":"active","ping":58},{"user_id":297,"name":"beet","steam_id":76561198097873940,"connected_time":415000000000,"state":"active","ping":54},{"user_id":283,"name":"Frog Friend","steam_id":76561198054505772,"connected_time":1467000000000,"state":"active","ping":59},{"user_id":298,"name":"Motormouth","steam_id":76561197980851839,"connected_time":307000000000,"state":"active","ping":84},{"user_id":242,"name":"Distilledrain41","steam_id":76561198272717119,"connected_time":4153000000000,"state":"active","ping":50},{"user_id":285,"name":"BruceWillis235","steam_id":76561198884324029,"connected_time":1335000000000,"state":"active","ping":85},{"user_id":264,"name":"Bigrichard","steam_id":76561198032092945,"connected_time":3361000000000,"state":"active","ping":87},{"user_id":287,"name":"søren","steam_id":76561199126710327,"connected_time":1243000000000,"state":"active","ping":61},{"user_id":288,"name":"B. F. Bugleberry","steam_id":76561198137335569,"connected_time":1228000000000,"state":"active","ping":55},{"user_id":291,"name":"4-Star Yelp Review","steam_id":76561197995258180,"connected_time":765000000000,"state":"active","ping":52},{"user_id":247,"name":"Zoey","steam_id":76561198126153554,"connected_time":3950000000000,"state":"active","ping":77},{"user_id":194,"name":"perturb","steam_id":76561198085124297,"connected_time":8060000000000,"state":"active","ping":58},{"user_id":271,"name":"Xodohtro","steam_id":76561197986660525,"connected_time":2965000000000,"state":"active","ping":55},{"user_id":230,"name":"Atner","steam_id":76561198442934454,"connected_time":5472000000000,"state":"active","ping":88},{"user_id":213,"name":"shaymii","steam_id":76561198058562392,"connected_time":6516000000000,"state":"active","ping":88},{"user_id":275,"name":"Trins","steam_id":76561198040922808,"connected_time":2242000000000,"state":"active","ping":66},{"user_id":300,"name":"alpha1zer0ready","steam_id":76561199206731331,"connected_time":27000000000,"state":"active","ping":298},{"user_id":292,"name":"AmethystDragon10","steam_id":76561198412979983,"connected_time":679000000000,"state":"active","ping":76},{"user_id":294,"name":"MR Martian","steam_id":76561198157854561,"connected_time":592000000000,"state":"active","ping":90},{"user_id":296,"name":"Ratbagus","steam_id":76561197993827486,"connected_time":523000000000,"state":"active","ping":75},{"user_id":208,"name":"Sentry Gun (EpicGuy4227)","steam_id":76561198094132328,"connected_time":7103000000000,"state":"active","ping":59}]},{"server_id":396,"name":"Uncletopia | Sydney | 4 | All Maps","name_short":"syd-4","host":"syd-1.au.uncletopia.com","port":27045,"enabled":true,"region":"au","cc":"au","latitude":-33.865143,"longitude":151.2099,"reserved":0,"last_update":"0001-01-01T00:00:00Z","name_a2s":"Uncletopia | Sydney | 4 | All Maps","protocol":17,"map":"koth_highpass","folder":"tf","game":"Team Fortress","app_id":440,"player_count":0,"max_players":24,"Bots":0,"server_type":"Dedicated","server_os":"Linux","password":true,"vac":true,"version":"7757534","steam_id":85568392925397958,"keywords":["cp","nocrits","nodmgspread","uncletopia"],"game_id":440,"stv_port":27046,"stv_name":"Uncletopia | Sydney | 4 | All Maps | STV","players":null},{"server_id":58,"name":"Uncletopia | Sydney | 5 | Stopwatch Beta","name_short":"syd-5","host":"syd-1.au.uncletopia.com","port":27055,"enabled":true,"region":"au","cc":"au","latitude":-33.865143,"longitude":151.2099,"reserved":0,"last_update":"0001-01-01T00:00:00Z","name_a2s":"Uncletopia | Sydney | 5 | Stopwatch Beta","protocol":17,"map":"pl_upward","folder":"tf","game":"Team Fortress","app_id":440,"player_count":0,"max_players":24,"Bots":0,"server_type":"Dedicated","server_os":"Linux","password":true,"vac":true,"version":"7757534","steam_id":85568392925397959,"keywords":["nocrits","nodmgspread","payload","uncletopia"],"game_id":440,"stv_port":27056,"stv_name":"Uncletopia | Sydney | 5 | Stopwatch Beta | STV","players":null},{"server_id":59,"name":"Uncletopia | Sydney | 6 | Community","name_short":"syd-6","host":"syd-1.au.uncletopia.com","port":27065,"enabled":true,"region":"au","cc":"au","latitude":-33.865143,"longitude":151.2099,"reserved":0,"last_update":"0001-01-01T00:00:00Z","name_a2s":"Uncletopia | Sydney | 6 | Community","protocol":17,"map":"workshop/koth_ashville_final.ugc2130459942","folder":"tf","game":"Team Fortress","app_id":440,"player_count":2,"max_players":24,"Bots":0,"server_type":"Dedicated","server_os":"Linux","password":true,"vac":true,"version":"7757534","steam_id":85568392925397960,"keywords":["cp","nocrits","nodmgspread","uncletopia"],"game_id":440,"stv_port":27066,"stv_name":"Uncletopia | Sydney | 6 | Community | STV","players":[{"user_id":15,"name":"FreeBeers","steam_id":76561198095448607,"connected_time":712000000000,"state":"active","ping":74},{"user_id":16,"name":"NiceName","steam_id":76561198398046309,"connected_time":508000000000,"state":"active","ping":59}]},{"server_id":49,"name":"Uncletopia | Warsaw | 1 | All Maps","name_short":"waw-1","host":"waw-1.pl.uncletopia.com","port":27015,"enabled":true,"region":"eu","cc":"pl","latitude":52.2297,"longitude":21.017532,"reserved":0,"last_update":"0001-01-01T00:00:00Z","name_a2s":"","protocol":0,"map":"","folder":"","game":"","app_id":0,"player_count":0,"max_players":0,"Bots":0,"server_type":"","server_os":"","password":false,"vac":false,"version":"","steam_id":0,"keywords":null,"game_id":0,"stv_port":0,"stv_name":"","players":null},{"server_id":50,"name":"Uncletopia | Warsaw | 2 | All Maps","name_short":"waw-2","host":"waw-1.pl.uncletopia.com","port":27025,"enabled":true,"region":"eu","cc":"pl","latitude":52.2297,"longitude":21.017532,"reserved":0,"last_update":"0001-01-01T00:00:00Z","name_a2s":"Uncletopia | Warsaw | 2 | All Maps","protocol":17,"map":"koth_viaduct","folder":"tf","game":"Team Fortress","app_id":440,"player_count":0,"max_players":24,"Bots":0,"server_type":"Dedicated","server_os":"Linux","password":true,"vac":true,"version":"7757534","steam_id":85568392925397851,"keywords":["cp","nocrits","nodmgspread","uncletopia"],"game_id":440,"stv_port":27026,"stv_name":"Uncletopia | Warsaw | 2 | All Maps | STV","players":null},{"server_id":51,"name":"Uncletopia | Warsaw | 3 | All Maps","name_short":"waw-3","host":"waw-1.pl.uncletopia.com","port":27035,"enabled":true,"region":"eu","cc":"pl","latitude":52.2297,"longitude":21.017532,"reserved":0,"last_update":"0001-01-01T00:00:00Z","name_a2s":"Uncletopia | Warsaw | 3 | All Maps","protocol":17,"map":"pl_badwater","folder":"tf","game":"Team Fortress","app_id":440,"player_count":0,"max_players":24,"Bots":0,"server_type":"Dedicated","server_os":"Linux","password":true,"vac":true,"version":"7757534","steam_id":85568392925397852,"keywords":["nocrits","nodmgspread","payload","uncletopia"],"game_id":440,"stv_port":27036,"stv_name":"Uncletopia | Warsaw | 3 | All Maps | STV","players":null},{"server_id":52,"name":"Uncletopia | Warsaw | 4 | All Maps","name_short":"waw-4","host":"waw-1.pl.uncletopia.com","port":27045,"enabled":true,"region":"eu","cc":"pl","latitude":52.2297,"longitude":21.017532,"reserved":0,"last_update":"0001-01-01T00:00:00Z","name_a2s":"Uncletopia | Warsaw | 4 | All Maps","protocol":17,"map":"koth_lakeside_final","folder":"tf","game":"Team Fortress","app_id":440,"player_count":0,"max_players":24,"Bots":0,"server_type":"Dedicated","server_os":"Linux","password":true,"vac":true,"version":"7757534","steam_id":85568392925397853,"keywords":["cp","nocrits","nodmgspread","uncletopia"],"game_id":440,"stv_port":27046,"stv_name":"Uncletopia | Warsaw | 4 | All Maps | STV","players":null},{"server_id":53,"name":"Uncletopia | Warsaw | 5 | Stopwatch Beta","name_short":"waw-5","host":"waw-1.pl.uncletopia.com","port":27055,"enabled":true,"region":"eu","cc":"pl","latitude":52.2297,"longitude":21.017532,"reserved":0,"last_update":"0001-01-01T00:00:00Z","name_a2s":"Uncletopia | Warsaw | 5 | Stopwatch Beta","protocol":17,"map":"pl_borneo","folder":"tf","game":"Team Fortress","app_id":440,"player_count":0,"max_players":24,"Bots":0,"server_type":"Dedicated","server_os":"Linux","password":true,"vac":true,"version":"7757534","steam_id":85568392925397854,"keywords":["nocrits","nodmgspread","payload","uncletopia"],"game_id":440,"stv_port":27056,"stv_name":"Uncletopia | Warsaw | 5 | Stopwatch Beta | STV","players":null},{"server_id":54,"name":"Uncletopia | Warsaw | 6 | Community","name_short":"waw-6","host":"waw-1.pl.uncletopia.com","port":27065,"enabled":true,"region":"eu","cc":"pl","latitude":52.2297,"longitude":21.017532,"reserved":0,"last_update":"0001-01-01T00:00:00Z","name_a2s":"Uncletopia | Warsaw | 6 | Community","protocol":17,"map":"koth_lakeside_final","folder":"tf","game":"Team Fortress","app_id":440,"player_count":0,"max_players":24,"Bots":0,"server_type":"Dedicated","server_os":"Linux","password":true,"vac":true,"version":"7757534","steam_id":85568392925397856,"keywords":["cp","nocrits","nodmgspread","uncletopia"],"game_id":440,"stv_port":27066,"stv_name":"Uncletopia | Warsaw | 6 | Community | STV","players":null}]}