{"status":true,"message":"","result":[{"server_id":9,"name":"Uncletopia | Atlanta | 1 | All Maps","name_short":"atl-1","host":"atl-1.us.uncletopia.com","port":27015,"enabled":true,"region":"us-east","cc":"us","latitude":33.753746,"longitude":-84.38633,"reserved":0,"last_update":"0001-01-01T00:00:00Z","name_a2s":"Uncletopia | Atlanta | 1 | All Maps","protocol":17,"map":"pl_frontier_final","folder":"tf","game":"Team Fortress","app_id":440,"player_count":24,"max_players":24,"Bots":0,"server_type":"Dedicated","server_os":"Linux","password":true,"vac":true,"version":"7961495","steam_id":85568392924469982,"keywords":["nocrits","nodmgspread","payload","uncletopia"],"game_id":440,"stv_port":27016,"stv_name":"Uncletopia | Atlanta | 1 | All Maps | STV","players":null},{"server_id":104,"name":"Uncletopia | Atlanta | 2 | All Maps","name_short":"atl-2","host":"atl-1.us.uncletopia.com","port":27025,"enabled":true,"region":"us-east","cc":"us","latitude":33.753746,"longitude":-84.38633,"reserved":0,"last_update":"0001-01-01T00:00:00Z","name_a2s":"Uncletopia | Atlanta | 2 | All Maps","protocol":17,"map":"pl_thundermountain","folder":"tf","game":"Team Fortress","app_id":440,"player_count":24,"max_players":24,"Bots":0,"server_type":"Dedicated","server_os":"Linux","password":true,"vac":true,"version":"7961495","steam_id":85568392924469983,"keywords":["nocrits","nodmgspread","payload","uncletopia"],"game_id":440,"stv_port":27026,"stv_name":"Uncletopia | Atlanta | 2 | All Maps | STV","players":null},{"server_id":400,"name":"Uncletopia | Atlanta | 3 | Stopwatch","name_short":"atl-3","host":"atl-1.us.uncletopia.com","port":27035,"enabled":true,"region":"us-east","cc":"us","latitude":33.753746,"longitude":-84.38633,"reserved":0,"last_update":"0001-01-01T00:00:00Z","name_a2s":"Uncletopia | Atlanta | 3 | Stopwatch","protocol":17,"map":"koth_highpass","folder":"tf","game":"Team Fortress","app_id":440,"player_count":0,"max_players":24,"Bots":0,"server_type":"Dedicated","server_os":"Linux","password":true,"vac":true,"version":"7961495","steam_id":85568392924515187,"keywords":["cp","nocrits","nodmgspread","uncletopia"],"game_id":440,"stv_port":27036,"stv_name":"Uncletopia | Atlanta | 3 | Stopwatch | STV","players":null},{"server_id":401,"name":"Uncletopia | Atlanta | 4 | Community","name_short":"atl-4","host":"atl-1.us.uncletopia.com","port":27045,"enabled":true,"region":"us-east","cc":"us","latitude":33.753746,"longitude":-84.38633,"reserved":0,"last_update":"0001-01-01T00:00:00Z","name_a2s":"Uncletopia | Atlanta | 4 | Community","protocol":17,"map":"koth_product_final","folder":"tf","game":"Team Fortress","app_id":440,"player_count":0,"max_players":24,"Bots":0,"server_type":"Dedicated","server_os":"Linux","password":true,"vac":true,"version":"7961495","steam_id":85568392924515188,"keywords":["cp","nocrits","nodmgspread","uncletopia"],"game_id":440,"stv_port":27046,"stv_name":"Uncletopia | Atlanta | 4 | Community | STV","players":null},{"server_id":2,"name":"Uncletopia | Chicago | 1 | All Maps","name_short":"chi-1","host":"chi-1.us.uncletopia.com","port":27015,"enabled":true,"region":"us-central","cc":"us","latitude":41.881832,"longitude":-87.62318,"reserved":0,"last_update":"0001-01-01T00:00:00Z","name_a2s":"Uncletopia | Chicago | 1 | All Maps","protocol":17,"map":"pl_swiftwater_final1","folder":"tf","game":"Team Fortress","app_id":440,"player_count":24,"max_players":24,"Bots":0,"server_type":"Dedicated","server_os":"Linux","password":true,"vac":true,"version":"7961495","steam_id":85568392924469984,"keywords":["nocrits","nodmgspread","payload","uncletopia"],"game_id":440,"stv_port":27016,"stv_name":"Uncletopia | Chicago | 1 | All Maps | STV","players":[{"user_id":735,"name":"rice white","steam_id":76561198320732910,"connected_time":318000000000,"state":"active","ping":72},{"user_id":713,"name":"Raccoon Wizard","steam_id":76561198072562591,"connected_time":1392000000000,"state":"active","ping":89},{"user_id":728,"name":"Arab","steam_id":76561198284164847,"connected_time":695000000000,"state":"active","ping":73},{"user_id":736,"name":"Let Œµ \u003e 0","steam_id":76561198111790388,"connected_time":171000000000,"state":"active","ping":94},{"user_id":703,"name":"genius of love","steam_id":76561198282764599,"connected_time":2495000000000,"state":"active","ping":48},{"user_id":729,"name":"durrbill","steam_id":76561198127149121,"connected_time":558000000000,"state":"active","ping":83},{"user_id":738,"name":"Liquid Oxycodone","steam_id":76561198154162664,"connected_time":23000000000,"state":"spawning","ping":59},{"user_id":716,"name":"Carvhana","steam_id":76561198142629517,"connected_time":1347000000000,"state":"active","ping":68},{"user_id":717,"name":"Danmar33","steam_id":76561198056453091,"connected_time":1342000000000,"state":"active","ping":54},{"user_id":718,"name":"Rez LeRoux","steam_id":76561198451503538,"connected_time":1337000000000,"state":"active","ping":75},{"user_id":675,"name":"Rex NITRO","steam_id":76561198165374439,"connected_time":3058000000000,"state":"active","ping":64},{"user_id":719,"name":"Your Pal, Vegeta","steam_id":76561198064916816,"connected_time":1321000000000,"state":"active","ping":88},{"user_id":720,"name":"Ê≠ª","steam_id":76561198057884377,"connected_time":1298000000000,"state":"active","ping":59},{"user_id":721,"name":"·¥ø·¥∫·¥≥ G Ä…™·¥ç·¥†…™ ô·¥ás","steam_id":76561198065621941,"connected_time":1274000000000,"state":"active","ping":99},{"user_id":722,"name":"joyeuxnoelle","steam_id":76561198062423120,"connected_time":1202000000000,"state":"active","ping":71},{"user_id":723,"name":"notLoona","steam_id":76561198861851215,"connected_time":1201000000000,"state":"active","ping":89},{"user_id":726,"name":"Chestnut","steam_id":76561198078198968,"connected_time":1055000000000,"state":"active","ping":69},{"user_id":709,"name":"StudioMania (#SAVETF2)","steam_id":76561198211315795,"connected_time":2341000000000,"state":"active","ping":66},{"user_id":737,"name":"Neophyte","steam_id":76561198027183394,"connected_time":111000000000,"state":"active","ping":93},{"user_id":733,"name":"Daksuki","steam_id":76561198084127751,"connected_time":419000000000,"state":"active","ping":82},{"user_id":727,"name":"databuzz","steam_id":76561197997594778,"connected_time":1037000000000,"state":"active","ping":74},{"user_id":683,"name":"High School Nudical","steam_id":76561198172120615,"connected_time":2881000000000,"state":"active","ping":58},{"user_id":734,"name":"KBoneski ‚ô°","steam_id":76561198307409065,"connected_time":412000000000,"state":"active","ping":103},{"user_id":620,"name":"ATL1 Lav4ie She/They","steam_id":76561198825997674,"connected_time":8584000000000,"state":"active","ping":74}]},{"server_id":106,"name":"Uncletopia | Chicago | 2 | All Maps","name_short":"chi-2","host":"chi-1.us.uncletopia.com","port":27025,"enabled":true,"region":"us-central","cc":"us","latitude":41.881832,"longitude":-87.62318,"reserved":0,"last_update":"0001-01-01T00:00:00Z","name_a2s":"Uncletopia | Chicago | 2 | All Maps","protocol":17,"map":"koth_cascade","folder":"tf","game":"Team Fortress","app_id":440,"player_count":1,"max_players":24,"Bots":0,"server_type":"Dedicated","server_os":"Linux","password":true,"vac":true,"version":"7961495","steam_id":85568392924469985,"keywords":["cp","nocrits","nodmgspread","uncletopia"],"game_id":440,"stv_port":27026,"stv_name":"Uncletopia | Chicago | 2 | All Maps | STV","players":[{"user_id":555,"name":"Simon","steam_id":76561198332763962,"connected_time":95000000000,"state":"spawning","ping":52}]},{"server_id":402,"name":"Uncletopia | Chicago | 3 | All Maps","name_short":"chi-3","host":"chi-1.us.uncletopia.com","port":27035,"enabled":true,"region":"us-central","cc":"us","latitude":41.881832,"longitude":-87.62318,"reserved":0,"last_update":"0001-01-01T00:00:00Z","name_a2s":"Uncletopia | Chicago | 3 | All Maps","protocol":17,"map":"koth_viaduct","folder":"tf","game":"Team Fortress","app_id":440,"player_count":24,"max_players":24,"Bots":0,"server_type":"Dedicated","server_os":"Linux","password":true,"vac":true,"version":"7961495","steam_id":85568392924515191,"keywords":["cp","nocrits","nodmgspread","uncletopia"],"game_id":440,"stv_port":27036,"stv_name":"Uncletopia | Chicago | 3 | All Maps | STV","players":[{"user_id":761,"name":":3","steam_id":76561198158463152,"connected_time":1198000000000,"state":"active","ping":94},{"user_id":768,"name":"Nyquilis Dillwad","steam_id":76561198840340418,"connected_time":503000000000,"state":"active","ping":61},{"user_id":759,"name":"brando_not_lando","steam_id":76561198163197384,"connected_time":1333000000000,"state":"active","ping":96},{"user_id":774,"name":"MilliePop","steam_id":76561198146233078,"connected_time":305000000000,"state":"active","ping":100},{"user_id":770,"name":"Skeleton Hotel","steam_id":76561198041704727,"connected_time":431000000000,"state":"active","ping":50},{"user_id":769,"name":"duneblaster0","steam_id":76561198040364680,"connected_time":477000000000,"state":"active","ping":45},{"user_id":772,"name":"KYLE KYLESON","steam_id":76561198021920887,"connected_time":341000000000,"state":"active","ping":37},{"user_id":776,"name":"Loogey03","steam_id":76561198155483586,"connected_time":291000000000,"state":"active","ping":57},{"user_id":750,"name":"aphexjh","steam_id":76561197985854658,"connected_time":1973000000000,"state":"active","ping":56},{"user_id":736,"name":"Squiddysquibbles","steam_id":76561198268476001,"connected_time":3262000000000,"state":"active","ping":68},{"user_id":773,"name":"Pete","steam_id":76561198044797506,"connected_time":335000000000,"state":"active","ping":73},{"user_id":760,"name":"chunk","steam_id":76561198134775401,"connected_time":1250000000000,"state":"active","ping":55},{"user_id":713,"name":"sloth (be nice im cringe)","steam_id":76561198047098172,"connected_time":4174000000000,"state":"active","ping":67},{"user_id":775,"name":"üçíbutaüçí","steam_id":76561198135538212,"connected_time":297000000000,"state":"active","ping":54},{"user_id":767,"name":"masonmark265","steam_id":76561199230441293,"connected_time":718000000000,"state":"active","ping":66},{"user_id":720,"name":"ark","steam_id":76561198041066271,"connected_time":3723000000000,"state":"active","ping":75},{"user_id":755,"name":"y0","steam_id":76561198143894333,"connected_time":1508000000000,"state":"active","ping":57},{"user_id":777,"name":"Pancakes","steam_id":76561198828900729,"connected_time":275000000000,"state":"active","ping":96},{"user_id":721,"name":"TF2C | fac -AA-","steam_id":76561198009818412,"connected_time":3700000000000,"state":"active","ping":73},{"user_id":783,"name":"NeonBean","steam_id":76561198088335827,"connected_time":48000000000,"state":"active","ping":144},{"user_id":779,"name":"Hidden Phantom","steam_id":76561198115531799,"connected_time":228000000000,"state":"active","ping":80},{"user_id":780,"name":"Melocity","steam_id":76561198137187430,"connected_time":211000000000,"state":"active","ping":73},{"user_id":781,"name":"pajoohehe","steam_id":76561199175214505,"connected_time":172000000000,"state":"active","ping":70},{"user_id":782,"name":"eryn üó∫","steam_id":76561198004433070,"connected_time":168000000000,"state":"active","ping":74}]},{"server_id":403,"name":"Uncletopia | Chicago | 4 | All Maps","name_short":"chi-4","host":"chi-1.us.uncletopia.com","port":27045,"enabled":true,"region":"us-central","cc":"us","latitude":41.881832,"longitude":-87.62318,"reserved":0,"last_update":"0001-01-01T00:00:00Z","name_a2s":"Uncletopia | Chicago | 4 | All Maps","protocol":17,"map":"pl_pier","folder":"tf","game":"Team Fortress","app_id":440,"player_count":24,"max_players":24,"Bots":0,"server_type":"Dedicated","server_os":"Linux","password":true,"vac":true,"version":"7961495","steam_id":85568392924515193,"keywords":["nocrits","nodmgspread","payload","uncletopia"],"game_id":440,"stv_port":27046,"stv_name":"Uncletopia | Chicago | 4 | All Maps | STV","players":[{"user_id":690,"name":"Invis","steam_id":76561198084260431,"connected_time":5230000000000,"state":"active","ping":82},{"user_id":722,"name":"Planetary","steam_id":76561199064085811,"connected_time":2388000000000,"state":"active","ping":90},{"user_id":721,"name":"Lore","steam_id":76561198098407538,"connected_time":2558000000000,"state":"active","ping":49},{"user_id":757,"name":"totoro","steam_id":76561198210420871,"connected_time":1892000000000,"state":"active","ping":43},{"user_id":715,"name":"Ojen","steam_id":76561197998414482,"connected_time":3794000000000,"state":"active","ping":60},{"user_id":716,"name":"OddSlaush","steam_id":76561198043898488,"connected_time":3476000000000,"state":"active","ping":107},{"user_id":775,"name":"xXshrek_jrXx","steam_id":76561199241882759,"connected_time":267000000000,"state":"active","ping":112},{"user_id":783,"name":"Poodge","steam_id":76561198158733839,"connected_time":20000000000,"state":"spawning","ping":65},{"user_id":768,"name":"Joculatrix","steam_id":76561198012795457,"connected_time":1453000000000,"state":"active","ping":69},{"user_id":776,"name":"for4ever","steam_id":76561198047852423,"connected_time":210000000000,"state":"active","ping":73},{"user_id":777,"name":"chud pack","steam_id":76561198120973162,"connected_time":205000000000,"state":"active","ping":74},{"user_id":780,"name":"DiamondDragon","steam_id":76561198979733214,"connected_time":127000000000,"state":"active","ping":126},{"user_id":734,"name":"tailorturtle","steam_id":76561198107481127,"connected_time":2278000000000,"state":"active","ping":71},{"user_id":778,"name":"BeakerofSalt","steam_id":76561198986000125,"connected_time":148000000000,"state":"active","ping":54},{"user_id":729,"name":"roman","steam_id":76561198170066797,"connected_time":2309000000000,"state":"active","ping":67},{"user_id":779,"name":"Gummy","steam_id":76561198098801598,"connected_time":138000000000,"state":"active","ping":66},{"user_id":781,"name":"Jae","steam_id":76561198042030231,"connected_time":97000000000,"state":"active","ping":92},{"user_id":711,"name":"Pirate‚Ñ¢","steam_id":76561198140698982,"connected_time":3936000000000,"state":"active","ping":64},{"user_id":731,"name":"Chap","steam_id":76561198294226443,"connected_time":2293000000000,"state":"active","ping":112},{"user_id":782,"name":"e doctor","steam_id":76561198081851446,"connected_time":89000000000,"state":"active","ping":46},{"user_id":774,"name":"Rein | Comms  Open","steam_id":76561198300340427,"connected_time":362000000000,"state":"active","ping":60},{"user_id":682,"name":"Yarman53","steam_id":76561198099889202,"connected_time":6142000000000,"state":"active","ping":45},{"user_id":769,"name":"uheye whuant moy ehmdeevee","steam_id":76561198028981154,"connected_time":1410000000000,"state":"active","ping":105},{"user_id":770,"name":"mn","steam_id":76561198042357436,"connected_time":1388000000000,"state":"active","ping":80}]},{"server_id":36,"name":"Uncletopia | Chicago | 5 | All Maps","name_short":"chi-5","host":"chi-2.us.uncletopia.com","port":27015,"enabled":true,"region":"us-central","cc":"us","latitude":41.881832,"longitude":-87.62318,"reserved":0,"last_update":"0001-01-01T00:00:00Z","name_a2s":"Uncletopia | Chicago | 5 | All Maps","protocol":17,"map":"pl_barnblitz","folder":"tf","game":"Team Fortress","app_id":440,"player_count":14,"max_players":24,"Bots":0,"server_type":"Dedicated","server_os":"Linux","password":true,"vac":true,"version":"7961495","steam_id":85568392924866362,"keywords":["nocrits","nodmgspread","payload","uncletopia"],"game_id":440,"stv_port":27016,"stv_name":"Uncletopia | Chicago | 5 | All Maps | STV","players":[{"user_id":436,"name":"NotTony69","steam_id":76561199122717140,"connected_time":80000000000,"state":"active","ping":93},{"user_id":435,"name":"new york city pizza rat","steam_id":76561198202589758,"connected_time":129000000000,"state":"active","ping":76},{"user_id":423,"name":"Dan","steam_id":76561199236719411,"connected_time":1241000000000,"state":"active","ping":70},{"user_id":437,"name":"Spy Gaming (#SaveTF2)","steam_id":76561198049101428,"connected_time":79000000000,"state":"active","ping":71},{"user_id":404,"name":"Galactamarx","steam_id":76561198028065755,"connected_time":3877000000000,"state":"active","ping":98},{"user_id":438,"name":"Perfectly Generic Object","steam_id":76561198992039900,"connected_time":68000000000,"state":"active","ping":88},{"user_id":397,"name":"big guapo","steam_id":76561198103228695,"connected_time":4120000000000,"state":"active","ping":64},{"user_id":439,"name":"the archmage","steam_id":76561198380018244,"connected_time":51000000000,"state":"active","ping":75},{"user_id":440,"name":"Final_MarioXD","steam_id":76561199184862419,"connected_time":27000000000,"state":"active","ping":98},{"user_id":384,"name":"Shystie","steam_id":76561198025371440,"connected_time":5455000000000,"state":"active","ping":87},{"user_id":433,"name":"Gaming","steam_id":76561198107080532,"connected_time":313000000000,"state":"active","ping":61},{"user_id":350,"name":"Reality Loser","steam_id":76561198001541433,"connected_time":9020000000000,"state":"active","ping":49},{"user_id":429,"name":"the guy","steam_id":76561199350870177,"connected_time":804000000000,"state":"active","ping":68},{"user_id":432,"name":"PyroTechno","steam_id":76561198060929872,"connected_time":416000000000,"state":"active","ping":79}]},{"server_id":37,"name":"Uncletopia | Chicago | 6 | All Maps","name_short":"chi-6","host":"chi-2.us.uncletopia.com","port":27025,"enabled":true,"region":"us-central","cc":"us","latitude":41.881832,"longitude":-87.62318,"reserved":0,"last_update":"0001-01-01T00:00:00Z","name_a2s":"Uncletopia | Chicago | 6 | All Maps","protocol":17,"map":"pl_badwater","folder":"tf","game":"Team Fortress","app_id":440,"player_count":24,"max_players":24,"Bots":0,"server_type":"Dedicated","server_os":"Linux","password":true,"vac":true,"version":"7961495","steam_id":85568392924866363,"keywords":["nocrits","nodmgspread","payload","uncletopia"],"game_id":440,"stv_port":27026,"stv_name":"Uncletopia | Chicago | 6 | All Maps | STV","players":[{"user_id":682,"name":"ChickenBagel","steam_id":76561198114485002,"connected_time":828000000000,"state":"active","ping":71},{"user_id":681,"name":"bob_killed_you","steam_id":76561199049501312,"connected_time":871000000000,"state":"active","ping":70},{"user_id":688,"name":"[S]Mr. X [No Monitor]","steam_id":76561197963746035,"connected_time":755000000000,"state":"active","ping":112},{"user_id":691,"name":"Jones","steam_id":76561198046037216,"connected_time":626000000000,"state":"active","ping":78},{"user_id":707,"name":"ultralisk52","steam_id":76561198051666604,"connected_time":193000000000,"state":"active","ping":60},{"user_id":662,"name":"euphoricfilth","steam_id":76561198100160865,"connected_time":2231000000000,"state":"active","ping":60},{"user_id":689,"name":"cheetaz","steam_id":76561198224614084,"connected_time":689000000000,"state":"active","ping":61},{"user_id":655,"name":"TCR_Arma","steam_id":76561198828378688,"connected_time":3405000000000,"state":"active","ping":116},{"user_id":694,"name":"Mr. Quinsidence","steam_id":76561197996079255,"connected_time":562000000000,"state":"active","ping":74},{"user_id":667,"name":"`o2","steam_id":76561197992030936,"connected_time":1895000000000,"state":"active","ping":73},{"user_id":650,"name":"Misterwipeout","steam_id":76561198068900320,"connected_time":4268000000000,"state":"active","ping":101},{"user_id":690,"name":"Class-D","steam_id":76561198016290546,"connected_time":641000000000,"state":"active","ping":76},{"user_id":692,"name":"Flamewreathed Shitposter","steam_id":76561198092093803,"connected_time":619000000000,"state":"active","ping":93},{"user_id":695,"name":"head in the ceiling fan","steam_id":76561198420237035,"connected_time":539000000000,"state":"active","ping":133},{"user_id":699,"name":"Double Tapp","steam_id":76561197993847700,"connected_time":500000000000,"state":"active","ping":102},{"user_id":696,"name":"45Amazing","steam_id":76561198303081758,"connected_time":536000000000,"state":"active","ping":96},{"user_id":612,"name":"Ludcmorais","steam_id":76561198359217809,"connected_time":6848000000000,"state":"active","ping":186},{"user_id":703,"name":"Gay Cake","steam_id":76561198004388831,"connected_time":447000000000,"state":"active","ping":70},{"user_id":700,"name":"njokuani","steam_id":76561199061380038,"connected_time":480000000000,"state":"active","ping":71},{"user_id":701,"name":"uneducated guess","steam_id":76561198140846580,"connected_time":474000000000,"state":"active","ping":62},{"user_id":672,"name":"i am so sed","steam_id":76561199064964587,"connected_time":1816000000000,"state":"active","ping":80},{"user_id":702,"name":"RocketRabbit","steam_id":76561198803062131,"connected_time":466000000000,"state":"active","ping":71},{"user_id":704,"name":"Holiday Fartcruise","steam_id":76561198043851584,"connected_time":419000000000,"state":"active","ping":120},{"user_id":706,"name":"drunk and violent","steam_id":76561198157100347,"connected_time":312000000000,"state":"active","ping":74}]},{"server_id":38,"name":"Uncletopia | Chicago | 7 | Stopwatch","name_short":"chi-7","host":"chi-2.us.uncletopia.com","port":27035,"enabled":true,"region":"us-central","cc":"us","latitude":41.881832,"longitude":-87.62318,"reserved":0,"last_update":"0001-01-01T00:00:00Z","name_a2s":"Uncletopia | Chicago | 7 | Stopwatch","protocol":17,"map":"koth_highpass","folder":"tf","game":"Team Fortress","app_id":440,"player_count":0,"max_players":24,"Bots":0,"server_type":"Dedicated","server_os":"Linux","password":true,"vac":true,"version":"7961495","steam_id":85568392924866364,"keywords":["cp","nocrits","nodmgspread","uncletopia"],"game_id":440,"stv_port":27036,"stv_name":"Uncletopia | Chicago | 7 | Stopwatch | STV","players":null},{"server_id":39,"name":"Uncletopia | Chicago | 8 | Community","name_short":"chi-8","host":"chi-2.us.uncletopia.com","port":27045,"enabled":true,"region":"us-central","cc":"us","latitude":41.881832,"longitude":-87.62318,"reserved":0,"last_update":"0001-01-01T00:00:00Z","name_a2s":"Uncletopia | Chicago | 8 | Community","protocol":17,"map":"workshop/pl_vigil_rc10.ugc1266210012","folder":"tf","game":"Team Fortress","app_id":440,"player_count":0,"max_players":24,"Bots":0,"server_type":"Dedicated","server_os":"Linux","password":true,"vac":true,"version":"7961495","steam_id":85568392924866365,"keywords":["nocrits","nodmgspread","payload","uncletopia"],"game_id":440,"stv_port":27046,"stv_name":"Uncletopia | Chicago | 8 | Community | STV","players":null},{"server_id":8,"name":"Uncletopia | Dallas | 1 | All Maps","name_short":"dal-1","host":"dal-1.us.uncletopia.com","port":27015,"enabled":true,"region":"us-central","cc":"us","latitude":32.779167,"longitude":-96.80889,"reserved":0,"last_update":"0001-01-01T00:00:00Z","name_a2s":"Uncletopia | Dallas | 1 | All Maps","protocol":17,"map":"pl_badwater","folder":"tf","game":"Team Fortress","app_id":440,"player_count":24,"max_players":24,"Bots":0,"server_type":"Dedicated","server_os":"Linux","password":true,"vac":true,"version":"7961495","steam_id":85568392924469986,"keywords":["nocrits","nodmgspread","payload","uncletopia"],"game_id":440,"stv_port":27016,"stv_name":"Uncletopia | Dallas | 1 | All Maps | STV","players":[{"user_id":783,"name":"Misfit","steam_id":76561198044561021,"connected_time":1122000000000,"state":"active","ping":98},{"user_id":774,"name":"axolotl","steam_id":76561198028490882,"connected_time":1532000000000,"state":"active","ping":73},{"user_id":736,"name":"Kramer's Apology (Full Video)","steam_id":76561198009339435,"connected_time":7276000000000,"state":"active","ping":55},{"user_id":773,"name":"A Straw","steam_id":76561199367935846,"connected_time":1650000000000,"state":"active","ping":76},{"user_id":701,"name":"Kipados","steam_id":76561197997147319,"connected_time":9196000000000,"state":"active","ping":93},{"user_id":775,"name":"MonkyBoo","steam_id":76561198304371716,"connected_time":1471000000000,"state":"active","ping":45},{"user_id":742,"name":"LampMan","steam_id":76561198079857527,"connected_time":7066000000000,"state":"active","ping":58},{"user_id":763,"name":"Datguy","steam_id":76561198009429780,"connected_time":3674000000000,"state":"active","ping":73},{"user_id":737,"name":"turnsley runnenteldat","steam_id":76561197979921291,"connected_time":7179000000000,"state":"active","ping":48},{"user_id":676,"name":"Moonflower ‚ú¶","steam_id":76561198191782483,"connected_time":11782000000000,"state":"active","ping":63},{"user_id":779,"name":"sora","steam_id":76561198094256973,"connected_time":1450000000000,"state":"active","ping":89},{"user_id":785,"name":"jameson drinking daddy's girl","steam_id":76561198025706300,"connected_time":245000000000,"state":"active","ping":108},{"user_id":780,"name":"RagingRoosevelt","steam_id":76561197985483153,"connected_time":1395000000000,"state":"active","ping":99},{"user_id":752,"name":"Flubdy_","steam_id":76561198073338521,"connected_time":5547000000000,"state":"active","ping":62},{"user_id":777,"name":"—ïœÖ„Äê ï‚Ä¢·¥•‚Ä¢ î„Äë","steam_id":76561198071233302,"connected_time":1462000000000,"state":"active","ping":85},{"user_id":707,"name":"slurpee #„Å´„ÇÉ","steam_id":76561197990257202,"connected_time":8769000000000,"state":"active","ping":72},{"user_id":778,"name":"BurritoCat","steam_id":76561198059822805,"connected_time":1457000000000,"state":"active","ping":85},{"user_id":760,"name":"rocketspires","steam_id":76561198800386026,"connected_time":4244000000000,"state":"active","ping":121},{"user_id":724,"name":"dumbest girl alive","steam_id":76561198062263639,"connected_time":8001000000000,"state":"active","ping":53},{"user_id":781,"name":"Major_Pippy","steam_id":76561198004482878,"connected_time":1369000000000,"state":"active","ping":109},{"user_id":761,"name":"for eel? on cod? no carp?","steam_id":76561198095121758,"connected_time":4204000000000,"state":"active","ping":87},{"user_id":765,"name":"Shiverin' Niblets","steam_id":76561198038162216,"connected_time":3018000000000,"state":"active","ping":90},{"user_id":784,"name":"RaixaR","steam_id":76561198025289430,"connected_time":1049000000000,"state":"active","ping":54},{"user_id":711,"name":"BamBam","steam_id":76561198063110026,"connected_time":8629000000000,"state":"active","ping":79}]},{"server_id":108,"name":"Uncletopia | Dallas | 2 | All Maps","name_short":"dal-2","host":"dal-1.us.uncletopia.com","port":27025,"enabled":true,"region":"us-central","cc":"us","latitude":32.779167,"longitude":-96.80889,"reserved":0,"last_update":"0001-01-01T00:00:00Z","name_a2s":"Uncletopia | Dallas | 2 | All Maps","protocol":17,"map":"pl_frontier_final","folder":"tf","game":"Team Fortress","app_id":440,"player_count":24,"max_players":24,"Bots":0,"server_type":"Dedicated","server_os":"Linux","password":true,"vac":true,"version":"7961495","steam_id":85568392924469988,"keywords":["nocrits","nodmgspread","payload","uncletopia"],"game_id":440,"stv_port":27026,"stv_name":"Uncletopia | Dallas | 2 | All Maps | STV","players":[{"user_id":566,"name":"Raiden","steam_id":76561198094841207,"connected_time":1705000000000,"state":"active","ping":56},{"user_id":537,"name":"Jolyne","steam_id":76561198169960915,"connected_time":4664000000000,"state":"active","ping":59},{"user_id":582,"name":"Mally","steam_id":76561198025013765,"connected_time":383000000000,"state":"active","ping":91},{"user_id":430,"name":"Ember The Femboy","steam_id":76561198139630565,"connected_time":12582000000000,"state":"active","ping":167},{"user_id":543,"name":"cy","steam_id":76561198146241989,"connected_time":3513000000000,"state":"active","ping":83},{"user_id":544,"name":"jules.two","steam_id":76561198283462369,"connected_time":3502000000000,"state":"active","ping":88},{"user_id":523,"name":"Skeleop","steam_id":76561198981106464,"connected_time":5316000000000,"state":"active","ping":78},{"user_id":563,"name":"PancakeSauce","steam_id":76561198404722668,"connected_time":1719000000000,"state":"active","ping":111},{"user_id":581,"name":"havarti gaming","steam_id":76561198069895678,"connected_time":415000000000,"state":"active","ping":127},{"user_id":591,"name":"Nicklouse","steam_id":76561198852629024,"connected_time":79000000000,"state":"active","ping":75},{"user_id":580,"name":"Mangoo Sage","steam_id":76561198324598029,"connected_time":428000000000,"state":"active","ping":62},{"user_id":584,"name":"Gwando","steam_id":76561198294629124,"connected_time":366000000000,"state":"active","ping":45},{"user_id":585,"name":"Raspylightining","steam_id":76561198148343305,"connected_time":329000000000,"state":"active","ping":74},{"user_id":569,"name":"magnanimity","steam_id":76561198242842394,"connected_time":1678000000000,"state":"active","ping":47},{"user_id":588,"name":"Five","steam_id":76561198026640473,"connected_time":176000000000,"state":"active","ping":70},{"user_id":586,"name":"dad playing in between naps","steam_id":76561198009425458,"connected_time":307000000000,"state":"active","ping":93},{"user_id":576,"name":"ChozoChorizo","steam_id":76561198272609196,"connected_time":1085000000000,"state":"active","ping":63},{"user_id":463,"name":"Kenku","steam_id":76561199086762926,"connected_time":10701000000000,"state":"active","ping":69},{"user_id":589,"name":"Biscipline","steam_id":76561198019206178,"connected_time":123000000000,"state":"active","ping":85},{"user_id":568,"name":"Bobwafflemanjr","steam_id":76561198271769725,"connected_time":1693000000000,"state":"active","ping":82},{"user_id":562,"name":"Alf Creepypasta","steam_id":76561198841844093,"connected_time":2420000000000,"state":"active","ping":85},{"user_id":551,"name":"Archangel","steam_id":76561198020089542,"connected_time":3367000000000,"state":"active","ping":58},{"user_id":590,"name":"Translucent‡´Æ‚Çç ‚Ä¢ ·¥• ‚Ä¢","steam_id":76561199212057076,"connected_time":120000000000,"state":"active","ping":81},{"user_id":521,"name":"dailydiamond","steam_id":76561199123582502,"connected_time":5348000000000,"state":"active","ping":117}]},{"server_id":404,"name":"Uncletopia | Dallas | 3 | All Maps","name_short":"dal-3","host":"dal-1.us.uncletopia.com","port":27035,"enabled":true,"region":"us-central","cc":"us","latitude":32.779167,"longitude":-96.80889,"reserved":0,"last_update":"0001-01-01T00:00:00Z","name_a2s":"Uncletopia | Dallas | 3 | All Maps","protocol":17,"map":"pl_frontier_final","folder":"tf","game":"Team Fortress","app_id":440,"player_count":19,"max_players":24,"Bots":0,"server_type":"Dedicated","server_os":"Linux","password":true,"vac":true,"version":"7961495","steam_id":85568392924515219,"keywords":["nocrits","nodmgspread","payload","uncletopia"],"game_id":440,"stv_port":27036,"stv_name":"Uncletopia | Dallas | 3 | All Maps | STV","players":[{"user_id":545,"name":"Terminal Brain Rot","steam_id":76561198112594672,"connected_time":2554000000000,"state":"active","ping":67},{"user_id":569,"name":"reko","steam_id":76561198278020887,"connected_time":775000000000,"state":"active","ping":58},{"user_id":554,"name":"NormalManPerson","steam_id":76561198007436312,"connected_time":1986000000000,"state":"active","ping":104},{"user_id":553,"name":"Fishandfish","steam_id":76561198298483804,"connected_time":2088000000000,"state":"active","ping":93},{"user_id":516,"name":"Baxtabbr","steam_id":76561199205187488,"connected_time":5184000000000,"state":"active","ping":64},{"user_id":578,"name":"Withered Bonnie (Real)","steam_id":76561198423310113,"connected_time":96000000000,"state":"active","ping":52},{"user_id":533,"name":"CampinCarl","steam_id":76561197997373624,"connected_time":3055000000000,"state":"active","ping":79},{"user_id":575,"name":"EdxTheFig","steam_id":76561198108650109,"connected_time":559000000000,"state":"active","ping":78},{"user_id":579,"name":"ryqset","steam_id":76561198349299874,"connected_time":49000000000,"state":"active","ping":110},{"user_id":559,"name":"KrylonHeretic","steam_id":76561198139811459,"connected_time":1722000000000,"state":"active","ping":100},{"user_id":517,"name":"Namename","steam_id":76561198263270227,"connected_time":4714000000000,"state":"active","ping":124},{"user_id":580,"name":"Seskova","steam_id":76561198090207032,"connected_time":46000000000,"state":"active","ping":115},{"user_id":535,"name":"Wunder","steam_id":76561198325846318,"connected_time":3041000000000,"state":"active","ping":110},{"user_id":581,"name":"Laogh Marbh","steam_id":76561198115240256,"connected_time":16000000000,"state":"active","ping":64},{"user_id":582,"name":"American Gamer","steam_id":76561198142292188,"connected_time":5000000000,"state":"spawning","ping":77},{"user_id":550,"name":"momo","steam_id":76561198099061153,"connected_time":2400000000000,"state":"active","ping":74},{"user_id":525,"name":"Bombsgamer","steam_id":76561198350009050,"connected_time":4461000000000,"state":"active","ping":84},{"user_id":552,"name":"ExplosiveGamer21","steam_id":76561198132370955,"connected_time":2181000000000,"state":"active","ping":92},{"user_id":549,"name":"The Super Mario Bros. Movie","steam_id":76561198871692156,"connected_time":2494000000000,"state":"active","ping":106}]},{"server_id":405,"name":"Uncletopia | Dallas | 4 | Community","name_short":"dal-4","host":"dal-1.us.uncletopia.com","port":27045,"enabled":true,"region":"us-central","cc":"us","latitude":32.779167,"longitude":-96.80889,"reserved":0,"last_update":"0001-01-01T00:00:00Z","name_a2s":"Uncletopia | Dallas | 4 | Community","protocol":17,"map":"workshop/cp_overgrown_rc8.ugc503939302","folder":"tf","game":"Team Fortress","app_id":440,"player_count":0,"max_players":24,"Bots":0,"server_type":"Dedicated","server_os":"Linux","password":true,"vac":true,"version":"7961495","steam_id":85568392924515220,"keywords":["cp","nocrits","nodmgspread","uncletopia"],"game_id":440,"stv_port":27046,"stv_name":"Uncletopia | Dallas | 4 | Community | STV","players":null},{"server_id":5,"name":"Uncletopia | Frankfurt | 1 | All Maps","name_short":"frk-1","host":"frk-1.de.uncletopia.com","port":27015,"enabled":true,"region":"eu","cc":"de","latitude":50.110924,"longitude":8.682127,"reserved":0,"last_update":"0001-01-01T00:00:00Z","name_a2s":"Uncletopia | Frankfurt | 1 | All Maps","protocol":17,"map":"koth_highpass","folder":"tf","game":"Team Fortress","app_id":440,"player_count":0,"max_players":24,"Bots":0,"server_type":"Dedicated","server_os":"Linux","password":true,"vac":true,"version":"7961495","steam_id":85568392924469989,"keywords":["cp","nocrits","nodmgspread","uncletopia"],"game_id":440,"stv_port":27016,"stv_name":"Uncletopia | Frankfurt | 1 | All Maps | STV","players":null},{"server_id":110,"name":"Uncletopia | Frankfurt | 2 | All Maps","name_short":"frk-2","host":"frk-1.de.uncletopia.com","port":27025,"enabled":true,"region":"eu","cc":"de","latitude":50.110924,"longitude":8.682127,"reserved":0,"last_update":"0001-01-01T00:00:00Z","name_a2s":"Uncletopia | Frankfurt | 2 | All Maps","protocol":17,"map":"cp_dustbowl","folder":"tf","game":"Team Fortress","app_id":440,"player_count":0,"max_players":24,"Bots":0,"server_type":"Dedicated","server_os":"Linux","password":true,"vac":true,"version":"7961495","steam_id":85568392924469990,"keywords":["cp","nocrits","nodmgspread","uncletopia"],"game_id":440,"stv_port":27026,"stv_name":"Uncletopia | Frankfurt | 2 | All Maps | STV","players":null},{"server_id":308,"name":"Uncletopia | Frankfurt | 3 | All Maps","name_short":"frk-3","host":"frk-1.de.uncletopia.com","port":27035,"enabled":true,"region":"eu","cc":"de","latitude":50.110924,"longitude":8.682127,"reserved":0,"last_update":"0001-01-01T00:00:00Z","name_a2s":"Uncletopia | Frankfurt | 3 | All Maps","protocol":17,"map":"pl_barnblitz","folder":"tf","game":"Team Fortress","app_id":440,"player_count":0,"max_players":24,"Bots":0,"server_type":"Dedicated","server_os":"Linux","password":true,"vac":true,"version":"7961495","steam_id":85568392924504274,"keywords":["nocrits","nodmgspread","payload","uncletopia"],"game_id":440,"stv_port":27036,"stv_name":"Uncletopia | Frankfurt | 3 | All Maps | STV","players":null},{"server_id":309,"name":"Uncletopia | Frankfurt | 4 | All Maps","name_short":"frk-4","host":"frk-1.de.uncletopia.com","port":27045,"enabled":true,"region":"eu","cc":"de","latitude":50.110924,"longitude":8.682127,"reserved":0,"last_update":"0001-01-01T00:00:00Z","name_a2s":"Uncletopia | Frankfurt | 4 | All Maps","protocol":17,"map":"koth_highpass","folder":"tf","game":"Team Fortress","app_id":440,"player_count":0,"max_players":24,"Bots":0,"server_type":"Dedicated","server_os":"Linux","password":true,"vac":true,"version":"7961495","steam_id":85568392924504275,"keywords":["cp","nocrits","nodmgspread","uncletopia"],"game_id":440,"stv_port":27046,"stv_name":"Uncletopia | Frankfurt | 4 | All Maps | STV","players":null},{"server_id":310,"name":"Uncletopia | Frankfurt | 5 | All Maps","name_short":"frk-5","host":"frk-1.de.uncletopia.com","port":27055,"enabled":true,"region":"eu","cc":"de","latitude":50.110924,"longitude":8.682127,"reserved":0,"last_update":"0001-01-01T00:00:00Z","name_a2s":"Uncletopia | Frankfurt | 5 | All Maps","protocol":17,"map":"pl_badwater","folder":"tf","game":"Team Fortress","app_id":440,"player_count":0,"max_players":24,"Bots":0,"server_type":"Dedicated","server_os":"Linux","password":true,"vac":true,"version":"7961495","steam_id":85568392924504277,"keywords":["nocrits","nodmgspread","payload","uncletopia"],"game_id":440,"stv_port":27056,"stv_name":"Uncletopia | Frankfurt | 5 | All Maps | STV","players":null},{"server_id":311,"name":"Uncletopia | Frankfurt | 6 | All Maps","name_short":"frk-6","host":"frk-1.de.uncletopia.com","port":27065,"enabled":true,"region":"eu","cc":"de","latitude":50.110924,"longitude":8.682127,"reserved":0,"last_update":"0001-01-01T00:00:00Z","name_a2s":"Uncletopia | Frankfurt | 6 | All Maps","protocol":17,"map":"cp_altitude","folder":"tf","game":"Team Fortress","app_id":440,"player_count":0,"max_players":24,"Bots":0,"server_type":"Dedicated","server_os":"Linux","password":true,"vac":true,"version":"7961495","steam_id":85568392924504278,"keywords":["cp","nocrits","nodmgspread","uncletopia"],"game_id":440,"stv_port":27066,"stv_name":"Uncletopia | Frankfurt | 6 | All Maps | STV","players":null},{"server_id":23,"name":"Uncletopia | Frankfurt | 7 | Stopwatch","name_short":"frk-7","host":"frk-1.de.uncletopia.com","port":27075,"enabled":true,"region":"eu","cc":"de","latitude":50.110924,"longitude":8.682127,"reserved":0,"last_update":"0001-01-01T00:00:00Z","name_a2s":"Uncletopia | Frankfurt | 7 | Stopwatch","protocol":17,"map":"pl_frontier_final","folder":"tf","game":"Team Fortress","app_id":440,"player_count":0,"max_players":24,"Bots":0,"server_type":"Dedicated","server_os":"Linux","password":true,"vac":true,"version":"7961495","steam_id":85568392924742827,"keywords":["nocrits","nodmgspread","payload","uncletopia"],"game_id":440,"stv_port":27076,"stv_name":"Uncletopia | Frankfurt | 7 | Stopwatch | STV","players":null},{"server_id":24,"name":"Uncletopia | Frankfurt | 8 | Community","name_short":"frk-8","host":"frk-1.de.uncletopia.com","port":27085,"enabled":true,"region":"eu","cc":"de","latitude":50.110924,"longitude":8.682127,"reserved":0,"last_update":"0001-01-01T00:00:00Z","name_a2s":"Uncletopia | Frankfurt | 8 | Community","protocol":17,"map":"cp_mountainlab","folder":"tf","game":"Team Fortress","app_id":440,"player_count":0,"max_players":24,"Bots":0,"server_type":"Dedicated","server_os":"Linux","password":true,"vac":true,"version":"7961495","steam_id":85568392924742828,"keywords":["cp","nocrits","nodmgspread","uncletopia"],"game_id":440,"stv_port":27086,"stv_name":"Uncletopia | Frankfurt | 8 | Community | STV","players":null},{"server_id":202,"name":"Uncletopia | Hong Kong | 1 | All Maps","name_short":"hgk-1","host":"hgk-1.hk.uncletopia.com","port":27015,"enabled":true,"region":"asia","cc":"hk","latitude":22.302711,"longitude":114.177216,"reserved":0,"last_update":"0001-01-01T00:00:00Z","name_a2s":"Uncletopia | Hong Kong | 1 | All Maps","protocol":17,"map":"pl_upward","folder":"tf","game":"Team Fortress","app_id":440,"player_count":0,"max_players":24,"Bots":0,"server_type":"Dedicated","server_os":"Linux","password":true,"vac":true,"version":"7961495","steam_id":85568392924494504,"keywords":["nocrits","nodmgspread","payload","uncletopia"],"game_id":440,"stv_port":27016,"stv_name":"Uncletopia | Hong Kong | 1 | All Maps | STV","players":null},{"server_id":1,"name":"Uncletopia | Los Angeles | 1 | All Maps","name_short":"lax-1","host":"lax-1.us.uncletopia.com","port":27015,"enabled":true,"region":"us-west","cc":"us","latitude":33.94279,"longitude":-118.41004,"reserved":0,"last_update":"0001-01-01T00:00:00Z","name_a2s":"Uncletopia | Los Angeles | 1 | All Maps","protocol":17,"map":"pl_frontier_final","folder":"tf","game":"Team Fortress","app_id":440,"player_count":24,"max_players":24,"Bots":0,"server_type":"Dedicated","server_os":"Linux","password":true,"vac":true,"version":"7961495","steam_id":85568392924469991,"keywords":["nocrits","nodmgspread","payload","uncletopia"],"game_id":440,"stv_port":27016,"stv_name":"Uncletopia | Los Angeles | 1 | All Maps | STV","players":[{"user_id":598,"name":"adam1g","steam_id":76561198025747866,"connected_time":1631000000000,"state":"active","ping":78},{"user_id":618,"name":"A Distraction!","steam_id":76561198145320480,"connected_time":86000000000,"state":"active","ping":114},{"user_id":612,"name":"sexy weapons guy","steam_id":76561198451812135,"connected_time":557000000000,"state":"active","ping":93},{"user_id":588,"name":"King","steam_id":76561199021156805,"connected_time":2088000000000,"state":"active","ping":84},{"user_id":583,"name":"Samhain","steam_id":76561198005331286,"connected_time":2149000000000,"state":"active","ping":58},{"user_id":599,"name":"mentos14","steam_id":76561198097993629,"connected_time":1599000000000,"state":"active","ping":53},{"user_id":608,"name":"Jubtice","steam_id":76561198995538396,"connected_time":1170000000000,"state":"active","ping":50},{"user_id":604,"name":"Oryx, Nightmare Daddy","steam_id":76561197989271492,"connected_time":1337000000000,"state":"active","ping":65},{"user_id":580,"name":"Mister Maze","steam_id":76561197970949652,"connected_time":2802000000000,"state":"active","ping":96},{"user_id":541,"name":"MancalaMadMan","steam_id":76561198347324053,"connected_time":6047000000000,"state":"active","ping":103},{"user_id":582,"name":"Main Opp","steam_id":76561198124910662,"connected_time":2454000000000,"state":"active","ping":71},{"user_id":590,"name":"ElectronX","steam_id":76561198116034988,"connected_time":2043000000000,"state":"active","ping":52},{"user_id":591,"name":"Krazy","steam_id":76561198835502709,"connected_time":2034000000000,"state":"active","ping":45},{"user_id":603,"name":"YOUNG MONEY CLAN","steam_id":76561198129763115,"connected_time":1345000000000,"state":"active","ping":55},{"user_id":611,"name":"roach","steam_id":76561198354811369,"connected_time":623000000000,"state":"active","ping":48},{"user_id":614,"name":"4 life","steam_id":76561198175961598,"connected_time":248000000000,"state":"active","ping":64},{"user_id":605,"name":"Sad Tony","steam_id":76561198053849851,"connected_time":1333000000000,"state":"active","ping":61},{"user_id":554,"name":"slty.badwolf","steam_id":76561198025460913,"connected_time":5212000000000,"state":"active","ping":51},{"user_id":596,"name":"McDonald","steam_id":76561199028533497,"connected_time":1819000000000,"state":"active","ping":50},{"user_id":610,"name":"Jimmy","steam_id":76561198857959855,"connected_time":1091000000000,"state":"active","ping":50},{"user_id":549,"name":"TeriyakiDynamite","steam_id":76561198050049346,"connected_time":5596000000000,"state":"active","ping":66},{"user_id":615,"name":"Admiral Butt Naked","steam_id":76561198179591062,"connected_time":247000000000,"state":"active","ping":68},{"user_id":585,"name":"john.","steam_id":76561198982939658,"connected_time":2149000000000,"state":"active","ping":57},{"user_id":502,"name":"werolat","steam_id":76561197960544784,"connected_time":9838000000000,"state":"active","ping":85}]},{"server_id":112,"name":"Uncletopia | Los Angeles | 2 | All Maps","name_short":"lax-2","host":"lax-1.us.uncletopia.com","port":27025,"enabled":true,"region":"us-west","cc":"us","latitude":33.94279,"longitude":-118.41004,"reserved":0,"last_update":"0001-01-01T00:00:00Z","name_a2s":"Uncletopia | Los Angeles | 2 | All Maps","protocol":17,"map":"koth_lakeside_final","folder":"tf","game":"Team Fortress","app_id":440,"player_count":0,"max_players":24,"Bots":0,"server_type":"Dedicated","server_os":"Linux","password":true,"vac":true,"version":"7961495","steam_id":85568392924469992,"keywords":["cp","nocrits","nodmgspread","uncletopia"],"game_id":440,"stv_port":27026,"stv_name":"Uncletopia | Los Angeles | 2 | All Maps | STV","players":null},{"server_id":324,"name":"Uncletopia | Los Angeles | 3 | All Maps","name_short":"lax-3","host":"lax-1.us.uncletopia.com","port":27035,"enabled":true,"region":"us-west","cc":"us","latitude":33.94279,"longitude":-118.41004,"reserved":0,"last_update":"0001-01-01T00:00:00Z","name_a2s":"Uncletopia | Los Angeles | 3 | All Maps","protocol":17,"map":"cp_altitude","folder":"tf","game":"Team Fortress","app_id":440,"player_count":15,"max_players":24,"Bots":0,"server_type":"Dedicated","server_os":"Linux","password":true,"vac":true,"version":"7961495","steam_id":85568392924510198,"keywords":["cp","nocrits","nodmgspread","uncletopia"],"game_id":440,"stv_port":27036,"stv_name":"Uncletopia | Los Angeles | 3 | All Maps | STV","players":[{"user_id":546,"name":"skillFAMILY|RaptorForce","steam_id":76561198295713840,"connected_time":503000000000,"state":"active","ping":71},{"user_id":549,"name":"Choctoling","steam_id":76561198351622498,"connected_time":75000000000,"state":"active","ping":47},{"user_id":551,"name":"Lithium Ion Battery","steam_id":76561198885007013,"connected_time":67000000000,"state":"active","ping":71},{"user_id":537,"name":"t.xonio","steam_id":76561198081985046,"connected_time":1941000000000,"state":"active","ping":88},{"user_id":479,"name":"GIGAHAXX","steam_id":76561197993714726,"connected_time":4704000000000,"state":"active","ping":55},{"user_id":552,"name":"Salt Cannon","steam_id":76561198014835660,"connected_time":62000000000,"state":"active","ping":68},{"user_id":554,"name":"Frankl1nDaTurtle","steam_id":76561198351785919,"connected_time":1000000000,"state":"spawning","ping":61},{"user_id":539,"name":"Drive-By-Fish-Guy","steam_id":76561198105513652,"connected_time":1800000000000,"state":"active","ping":56},{"user_id":531,"name":"EOAW","steam_id":76561198310451639,"connected_time":2372000000000,"state":"active","ping":72},{"user_id":448,"name":"ii_BlooMoon","steam_id":76561199100597391,"connected_time":7619000000000,"state":"active","ping":55},{"user_id":544,"name":"Weegee","steam_id":76561198140095755,"connected_time":1119000000000,"state":"active","ping":58},{"user_id":467,"name":"R3S0LVE_","steam_id":76561198389201130,"connected_time":5835000000000,"state":"active","ping":49},{"user_id":532,"name":"Revolver Ocelot","steam_id":76561198194248527,"connected_time":2263000000000,"state":"active","ping":70},{"user_id":534,"name":"Many Bees' Chilling","steam_id":76561198079641282,"connected_time":2162000000000,"state":"active","ping":89},{"user_id":523,"name":"*sammich","steam_id":76561198119621232,"connected_time":2971000000000,"state":"active","ping":73}]},{"server_id":25,"name":"Uncletopia | Los Angeles | 4 | Stopwatch","name_short":"lax-4","host":"lax-1.us.uncletopia.com","port":27045,"enabled":true,"region":"us-west","cc":"us","latitude":33.94279,"longitude":-118.41004,"reserved":0,"last_update":"0001-01-01T00:00:00Z","name_a2s":"Uncletopia | Los Angeles | 4 | Stopwatch","protocol":17,"map":"workshop/koth_ashville_final.ugc2130459942","folder":"tf","game":"Team Fortress","app_id":440,"player_count":0,"max_players":24,"Bots":0,"server_type":"Dedicated","server_os":"Linux","password":true,"vac":true,"version":"7961495","steam_id":85568392924510199,"keywords":["cp","nocrits","nodmgspread","uncletopia"],"game_id":440,"stv_port":27046,"stv_name":"Uncletopia | Los Angeles | 4 | Stopwatch | STV","players":null},{"server_id":11,"name":"Uncletopia | London | 1 | All Maps","name_short":"lon-1","host":"lon-1.uk.uncletopia.com","port":27015,"enabled":true,"region":"eu","cc":"gb","latitude":51.509865,"longitude":-0.118092,"reserved":0,"last_update":"0001-01-01T00:00:00Z","name_a2s":"Uncletopia | London | 1 | All Maps","protocol":17,"map":"pl_badwater","folder":"tf","game":"Team Fortress","app_id":440,"player_count":7,"max_players":24,"Bots":0,"server_type":"Dedicated","server_os":"Linux","password":true,"vac":true,"version":"7961495","steam_id":85568392924367362,"keywords":["nocrits","nodmgspread","payload","uncletopia"],"game_id":440,"stv_port":27016,"stv_name":"Uncletopia | London | 1 | All Maps | STV","players":[{"user_id":17,"name":"Sconedog04","steam_id":76561198410923783,"connected_time":285000000000,"state":"active","ping":135},{"user_id":4,"name":"lulu","steam_id":76561199147764133,"connected_time":800000000000,"state":"active","ping":69},{"user_id":18,"name":"Big Bubu","steam_id":76561197980783678,"connected_time":215000000000,"state":"active","ping":80},{"user_id":6,"name":"ANGRY RACOON","steam_id":76561198077374543,"connected_time":797000000000,"state":"active","ping":108},{"user_id":16,"name":"odran","steam_id":76561199122931272,"connected_time":383000000000,"state":"active","ping":59},{"user_id":11,"name":"sepi98","steam_id":76561198203764635,"connected_time":762000000000,"state":"active","ping":92},{"user_id":13,"name":"Morno","steam_id":76561198028519110,"connected_time":655000000000,"state":"active","ping":51}]},{"server_id":114,"name":"Uncletopia | London | 2 | All Maps","name_short":"lon-2","host":"lon-1.uk.uncletopia.com","port":27025,"enabled":true,"region":"eu","cc":"gb","latitude":51.509865,"longitude":-0.118092,"reserved":0,"last_update":"0001-01-01T00:00:00Z","name_a2s":"Uncletopia | London | 2 | All Maps","protocol":17,"map":"koth_lakeside_final","folder":"tf","game":"Team Fortress","app_id":440,"player_count":0,"max_players":24,"Bots":0,"server_type":"Dedicated","server_os":"Linux","password":true,"vac":true,"version":"7961495","steam_id":85568392924470941,"keywords":["cp","nocrits","nodmgspread","uncletopia"],"game_id":440,"stv_port":27026,"stv_name":"Uncletopia | London | 2 | All Maps | STV","players":null},{"server_id":320,"name":"Uncletopia | London | 3 | All Maps","name_short":"lon-3","host":"lon-1.uk.uncletopia.com","port":27035,"enabled":true,"region":"eu","cc":"gb","latitude":51.509865,"longitude":-0.118092,"reserved":0,"last_update":"0001-01-01T00:00:00Z","name_a2s":"Uncletopia | London | 3 | All Maps","protocol":17,"map":"cp_process_final","folder":"tf","game":"Team Fortress","app_id":440,"player_count":0,"max_players":24,"Bots":0,"server_type":"Dedicated","server_os":"Linux","password":true,"vac":true,"version":"7961495","steam_id":85568392924510192,"keywords":["cp","nocrits","nodmgspread","uncletopia"],"game_id":440,"stv_port":27036,"stv_name":"Uncletopia | London | 3 | All Maps | STV","players":null},{"server_id":321,"name":"Uncletopia | London | 4 | All Maps","name_short":"lon-4","host":"lon-1.uk.uncletopia.com","port":27045,"enabled":true,"region":"eu","cc":"gb","latitude":51.509865,"longitude":-0.118092,"reserved":0,"last_update":"0001-01-01T00:00:00Z","name_a2s":"Uncletopia | London | 4 | All Maps","protocol":17,"map":"koth_cascade","folder":"tf","game":"Team Fortress","app_id":440,"player_count":0,"max_players":24,"Bots":0,"server_type":"Dedicated","server_os":"Linux","password":true,"vac":true,"version":"7961495","steam_id":85568392924510193,"keywords":["cp","nocrits","nodmgspread","uncletopia"],"game_id":440,"stv_port":27046,"stv_name":"Uncletopia | London | 4 | All Maps | STV","players":null},{"server_id":21,"name":"Uncletopia | London | 5 | All Maps","name_short":"lon-5","host":"lon-1.uk.uncletopia.com","port":27055,"enabled":true,"region":"eu","cc":"gb","latitude":51.509865,"longitude":-0.118092,"reserved":0,"last_update":"0001-01-01T00:00:00Z","name_a2s":"Uncletopia | London | 5 | All Maps","protocol":17,"map":"koth_lakeside_final","folder":"tf","game":"Team Fortress","app_id":440,"player_count":0,"max_players":24,"Bots":0,"server_type":"Dedicated","server_os":"Linux","password":true,"vac":true,"version":"7961495","steam_id":85568392924742829,"keywords":["cp","nocrits","nodmgspread","uncletopia"],"game_id":440,"stv_port":27056,"stv_name":"Uncletopia | London | 5 | All Maps | STV","players":null},{"server_id":22,"name":"Uncletopia | London | 6 | All Maps","name_short":"lon-6","host":"lon-1.uk.uncletopia.com","port":27065,"enabled":true,"region":"eu","cc":"gb","latitude":51.509865,"longitude":-0.118092,"reserved":0,"last_update":"0001-01-01T00:00:00Z","name_a2s":"Uncletopia | London | 6 | All Maps","protocol":17,"map":"cp_dustbowl","folder":"tf","game":"Team Fortress","app_id":440,"player_count":0,"max_players":24,"Bots":0,"server_type":"Dedicated","server_os":"Linux","password":true,"vac":true,"version":"7961495","steam_id":85568392924742830,"keywords":["cp","nocrits","nodmgspread","uncletopia"],"game_id":440,"stv_port":27066,"stv_name":"Uncletopia | London | 6 | All Maps | STV","players":null},{"server_id":40,"name":"Uncletopia | London | 7 | Stopwatch","name_short":"lon-7","host":"lon-1.uk.uncletopia.com","port":27075,"enabled":true,"region":"eu","cc":"gb","latitude":51.509865,"longitude":-0.118092,"reserved":0,"last_update":"0001-01-01T00:00:00Z","name_a2s":"Uncletopia | London | 7 | Stopwatch","protocol":17,"map":"koth_lakeside_final","folder":"tf","game":"Team Fortress","app_id":440,"player_count":0,"max_players":24,"Bots":0,"server_type":"Dedicated","server_os":"Linux","password":true,"vac":true,"version":"7961495","steam_id":85568392924964314,"keywords":["cp","nocrits","nodmgspread","uncletopia"],"game_id":440,"stv_port":27076,"stv_name":"Uncletopia | London | 7 | Stopwatch | STV","players":null},{"server_id":41,"name":"Uncletopia | London | 8 | Community","name_short":"lon-8","host":"lon-1.uk.uncletopia.com","port":27085,"enabled":true,"region":"eu","cc":"gb","latitude":51.509865,"longitude":-0.118092,"reserved":0,"last_update":"0001-01-01T00:00:00Z","name_a2s":"Uncletopia | London | 8 | Community","protocol":17,"map":"cp_snakewater_final1","folder":"tf","game":"Team Fortress","app_id":440,"player_count":0,"max_players":24,"Bots":0,"server_type":"Dedicated","server_os":"Linux","password":true,"vac":true,"version":"7961495","steam_id":85568392924964315,"keywords":["cp","nocrits","nodmgspread","uncletopia"],"game_id":440,"stv_port":27086,"stv_name":"Uncletopia | London | 8 | Community | STV","players":null},{"server_id":300,"name":"Uncletopia | Montr√©al | 1 | All Maps","name_short":"mtl-1","host":"mtl-1.ca.uncletopia.com","port":27015,"enabled":true,"region":"us-east","cc":"ca","latitude":45.50889,"longitude":-73.56167,"reserved":0,"last_update":"0001-01-01T00:00:00Z","name_a2s":"","protocol":0,"map":"","folder":"","game":"","app_id":0,"player_count":0,"max_players":0,"Bots":0,"server_type":"","server_os":"","password":false,"vac":false,"version":"","steam_id":0,"keywords":null,"game_id":0,"stv_port":0,"stv_name":"","players":null},{"server_id":301,"name":"Uncletopia | Montr√©al | 2 | ???","name_short":"mtl-2","host":"mtl-1.ca.uncletopia.com","port":27025,"enabled":true,"region":"us-east","cc":"ca","latitude":45.50889,"longitude":-73.56167,"reserved":0,"last_update":"0001-01-01T00:00:00Z","name_a2s":"","protocol":0,"map":"","folder":"","game":"","app_id":0,"player_count":0,"max_players":0,"Bots":0,"server_type":"","server_os":"","password":false,"vac":false,"version":"","steam_id":0,"keywords":null,"game_id":0,"stv_port":0,"stv_name":"","players":null},{"server_id":13,"name":"Uncletopia | New York City | 1 | All Maps","name_short":"nyc-1","host":"nyc-1.us.uncletopia.com","port":27015,"enabled":true,"region":"us-east","cc":"us","latitude":40.73061,"longitude":-73.93524,"reserved":0,"last_update":"0001-01-01T00:00:00Z","name_a2s":"Uncletopia | New York City | 1 | All Maps","protocol":17,"map":"cp_altitude","folder":"tf","game":"Team Fortress","app_id":440,"player_count":8,"max_players":24,"Bots":0,"server_type":"Dedicated","server_os":"Linux","password":true,"vac":true,"version":"7961495","steam_id":85568392924469993,"keywords":["cp","nocrits","nodmgspread","uncletopia"],"game_id":440,"stv_port":27016,"stv_name":"Uncletopia | New York City | 1 | All Maps | STV","players":[{"user_id":706,"name":"minimain","steam_id":76561199219344443,"connected_time":424000000000,"state":"active","ping":314},{"user_id":701,"name":"eighntes","steam_id":76561198180607741,"connected_time":2283000000000,"state":"active","ping":47},{"user_id":703,"name":"NGPlus","steam_id":76561198348945217,"connected_time":1665000000000,"state":"active","ping":126},{"user_id":704,"name":"_noodle","steam_id":76561199278361340,"connected_time":1644000000000,"state":"active","ping":84},{"user_id":707,"name":"anjan30sep","steam_id":76561199234041343,"connected_time":420000000000,"state":"active","ping":273},{"user_id":708,"name":"Flyinglab","steam_id":76561198042161408,"connected_time":353000000000,"state":"active","ping":53},{"user_id":687,"name":"Getzinya","steam_id":76561199087918247,"connected_time":2996000000000,"state":"active","ping":61},{"user_id":665,"name":"Shapeshiftertrue","steam_id":76561198440835095,"connected_time":4362000000000,"state":"active","ping":80}]},{"server_id":14,"name":"Uncletopia | New York City | 2 | All Maps","name_short":"nyc-2","host":"nyc-1.us.uncletopia.com","port":27025,"enabled":true,"region":"us-east","cc":"us","latitude":40.73061,"longitude":-73.93524,"reserved":0,"last_update":"0001-01-01T00:00:00Z","name_a2s":"Uncletopia | New York City | 2 | All Maps","protocol":17,"map":"pl_swiftwater_final1","folder":"tf","game":"Team Fortress","app_id":440,"player_count":24,"max_players":24,"Bots":0,"server_type":"Dedicated","server_os":"Linux","password":true,"vac":true,"version":"7961495","steam_id":85568392924469994,"keywords":["nocrits","nodmgspread","payload","uncletopia"],"game_id":440,"stv_port":27026,"stv_name":"Uncletopia | New York City | 2 | All Maps | STV","players":[{"user_id":725,"name":"Samplee","steam_id":76561198063406140,"connected_time":657000000000,"state":"active","ping":134},{"user_id":711,"name":"key ingredient","steam_id":76561198046055673,"connected_time":2786000000000,"state":"active","ping":60},{"user_id":726,"name":"Oakspace_","steam_id":76561198132487015,"connected_time":565000000000,"state":"active","ping":68},{"user_id":603,"name":"Pozyomka","steam_id":76561198086331015,"connected_time":13094000000000,"state":"active","ping":36},{"user_id":727,"name":"j4miecl4rk","steam_id":76561198404312721,"connected_time":535000000000,"state":"active","ping":72},{"user_id":736,"name":"Neku","steam_id":76561198280843210,"connected_time":307000000000,"state":"active","ping":84},{"user_id":654,"name":"Dot.","steam_id":76561198149463984,"connected_time":9582000000000,"state":"active","ping":42},{"user_id":671,"name":"A Puppy","steam_id":76561198828184456,"connected_time":8366000000000,"state":"active","ping":45},{"user_id":723,"name":"OctoHam","steam_id":76561198143371318,"connected_time":784000000000,"state":"active","ping":81},{"user_id":689,"name":"Spiral Mountain","steam_id":76561198058683715,"connected_time":4941000000000,"state":"active","ping":71},{"user_id":650,"name":"space man","steam_id":76561198066333670,"connected_time":10348000000000,"state":"active","ping":57},{"user_id":737,"name":"lights","steam_id":76561198004374205,"connected_time":287000000000,"state":"active","ping":75},{"user_id":738,"name":"Giselle","steam_id":76561198064373650,"connected_time":283000000000,"state":"active","ping":68},{"user_id":709,"name":"Philo","steam_id":76561198061873341,"connected_time":2868000000000,"state":"active","ping":89},{"user_id":739,"name":"TAGC503","steam_id":76561198424169106,"connected_time":270000000000,"state":"active","ping":131},{"user_id":636,"name":"flappyflap2","steam_id":76561198285048973,"connected_time":11326000000000,"state":"active","ping":45},{"user_id":731,"name":"girthmilk","steam_id":76561198054799782,"connected_time":481000000000,"state":"active","ping":84},{"user_id":644,"name":"she","steam_id":76561197994492154,"connected_time":10710000000000,"state":"active","ping":147},{"user_id":719,"name":"Fried Water?!","steam_id":76561198053164815,"connected_time":1484000000000,"state":"active","ping":56},{"user_id":740,"name":"Sol","steam_id":76561198028822122,"connected_time":251000000000,"state":"active","ping":102},{"user_id":714,"name":"QWERTY","steam_id":76561198211430420,"connected_time":2172000000000,"state":"active","ping":81},{"user_id":724,"name":"peaball","steam_id":76561198054192430,"connected_time":734000000000,"state":"active","ping":68},{"user_id":733,"name":"aversa","steam_id":76561198840460101,"connected_time":476000000000,"state":"active","ping":48},{"user_id":734,"name":"Watt Dafuq","steam_id":76561198194402925,"connected_time":435000000000,"state":"active","ping":83}]},{"server_id":15,"name":"Uncletopia | New York City | 3 | Stopwatch","name_short":"nyc-3","host":"nyc-1.us.uncletopia.com","port":27035,"enabled":true,"region":"us-east","cc":"us","latitude":40.73061,"longitude":-73.93524,"reserved":0,"last_update":"0001-01-01T00:00:00Z","name_a2s":"Uncletopia | New York City | 3 | Stopwatch","protocol":17,"map":"workshop/koth_bagel_rc6.ugc2514036946","folder":"tf","game":"Team Fortress","app_id":440,"player_count":0,"max_players":24,"Bots":0,"server_type":"Dedicated","server_os":"Linux","password":true,"vac":true,"version":"7961495","steam_id":85568392924742820,"keywords":["cp","nocrits","nodmgspread","uncletopia"],"game_id":440,"stv_port":27036,"stv_name":"Uncletopia | New York City | 3 | Stopwatch | STV","players":null},{"server_id":16,"name":"Uncletopia | New York City | 4 | Community","name_short":"nyc-4","host":"nyc-1.us.uncletopia.com","port":27045,"enabled":true,"region":"us-east","cc":"us","latitude":40.73061,"longitude":-73.93524,"reserved":0,"last_update":"0001-01-01T00:00:00Z","name_a2s":"Uncletopia | New York City | 4 | Community","protocol":17,"map":"workshop/pl_fifthcurve_rc1.ugc648227046","folder":"tf","game":"Team Fortress","app_id":440,"player_count":0,"max_players":24,"Bots":0,"server_type":"Dedicated","server_os":"Linux","password":true,"vac":true,"version":"7961495","steam_id":85568392924742821,"keywords":["nocrits","nodmgspread","payload","uncletopia"],"game_id":440,"stv_port":27046,"stv_name":"Uncletopia | New York City | 4 | Community | STV","players":null},{"server_id":142,"name":"Uncletopia | S√£o Paulo | 1 | All Maps","name_short":"sao-1","host":"sao-1.br.uncletopia.com","port":27015,"enabled":true,"region":"sa","cc":"br","latitude":-23.533773,"longitude":-46.62529,"reserved":0,"last_update":"0001-01-01T00:00:00Z","name_a2s":"Uncletopia | S√£o Paulo | 1 | All Maps","protocol":17,"map":"pl_pier","folder":"tf","game":"Team Fortress","app_id":440,"player_count":0,"max_players":24,"Bots":0,"server_type":"Dedicated","server_os":"Linux","password":true,"vac":true,"version":"7961495","steam_id":85568392924469996,"keywords":["nocrits","nodmgspread","payload","uncletopia"],"game_id":440,"stv_port":27016,"stv_name":"Uncletopia | S√£o Paulo | 1 | All Maps | STV","players":null},{"server_id":143,"name":"Uncletopia | S√£o Paulo | 2 | Community","name_short":"sao-2","host":"sao-2.br.uncletopia.com","port":27015,"enabled":true,"region":"sa","cc":"br","latitude":-23.533773,"longitude":-46.62529,"reserved":0,"last_update":"0001-01-01T00:00:00Z","name_a2s":"Uncletopia | S√£o Paulo | 2 | Community","protocol":17,"map":"workshop/koth_product_final.ugc454272353","folder":"tf","game":"Team Fortress","app_id":440,"player_count":0,"max_players":24,"Bots":0,"server_type":"Dedicated","server_os":"Linux","password":true,"vac":true,"version":"7961495","steam_id":85568392924485349,"keywords":["cp","nocrits","nodmgspread","uncletopia"],"game_id":440,"stv_port":27016,"stv_name":"Uncletopia | S√£o Paulo | 2 | Community | STV","players":null},{"server_id":7,"name":"Uncletopia | Seattle | 1 | All Maps","name_short":"sea-1","host":"sea-1.us.uncletopia.com","port":27015,"enabled":true,"region":"us-west","cc":"us","latitude":47.608013,"longitude":-122.33517,"reserved":0,"last_update":"0001-01-01T00:00:00Z","name_a2s":"Uncletopia | Seattle | 1 | All Maps","protocol":17,"map":"pl_upward","folder":"tf","game":"Team Fortress","app_id":440,"player_count":24,"max_players":24,"Bots":0,"server_type":"Dedicated","server_os":"Linux","password":true,"vac":true,"version":"7961495","steam_id":85568392924469997,"keywords":["nocrits","nodmgspread","payload","uncletopia"],"game_id":440,"stv_port":27016,"stv_name":"Uncletopia | Seattle | 1 | All Maps | STV","players":[{"user_id":638,"name":"Gm_Trash","steam_id":76561199445091548,"connected_time":11594000000000,"state":"active","ping":54},{"user_id":745,"name":"ShackerJack","steam_id":76561198118017448,"connected_time":443000000000,"state":"active","ping":54},{"user_id":742,"name":"Cheezbeargur","steam_id":76561198164702899,"connected_time":678000000000,"state":"active","ping":66},{"user_id":740,"name":"thunderous prophet","steam_id":76561198131166135,"connected_time":715000000000,"state":"active","ping":42},{"user_id":741,"name":"Melly","steam_id":76561198045867175,"connected_time":693000000000,"state":"active","ping":74},{"user_id":683,"name":"NEBULA","steam_id":76561198086878595,"connected_time":7928000000000,"state":"active","ping":68},{"user_id":734,"name":"Cam","steam_id":76561198285054047,"connected_time":2111000000000,"state":"active","ping":76},{"user_id":725,"name":"dusty :33","steam_id":76561198045218909,"connected_time":3638000000000,"state":"active","ping":44},{"user_id":654,"name":"slushy :))","steam_id":76561198135281802,"connected_time":10109000000000,"state":"active","ping":31},{"user_id":719,"name":"MxProf","steam_id":76561198044519572,"connected_time":4087000000000,"state":"active","ping":61},{"user_id":700,"name":"gorlab","steam_id":76561198025089694,"connected_time":6497000000000,"state":"active","ping":59},{"user_id":732,"name":"ed","steam_id":76561198080475712,"connected_time":2243000000000,"state":"active","ping":68},{"user_id":744,"name":"spenca","steam_id":76561198025371154,"connected_time":637000000000,"state":"active","ping":69},{"user_id":737,"name":"mega","steam_id":76561198089520959,"connected_time":2023000000000,"state":"active","ping":98},{"user_id":743,"name":"porfer","steam_id":76561199118049168,"connected_time":676000000000,"state":"active","ping":66},{"user_id":695,"name":"plushy :))","steam_id":76561198080046542,"connected_time":7102000000000,"state":"active","ping":48},{"user_id":715,"name":"ma≈Çiƒô \u003e:))","steam_id":76561198337705174,"connected_time":4903000000000,"state":"active","ping":77},{"user_id":713,"name":"cruddy B))","steam_id":76561198031234032,"connected_time":5221000000000,"state":"active","ping":106},{"user_id":693,"name":"luuny :))","steam_id":76561198042913843,"connected_time":7110000000000,"state":"active","ping":58},{"user_id":716,"name":"jole","steam_id":76561198037292232,"connected_time":4700000000000,"state":"active","ping":119},{"user_id":728,"name":"ORANGE","steam_id":76561198000401769,"connected_time":2963000000000,"state":"active","ping":50},{"user_id":723,"name":"jayeskae","steam_id":76561198144220801,"connected_time":3853000000000,"state":"active","ping":45},{"user_id":746,"name":"jorts","steam_id":76561199041179985,"connected_time":429000000000,"state":"active","ping":57},{"user_id":738,"name":"rushy :))","steam_id":76561198065825165,"connected_time":1992000000000,"state":"active","ping":110}]},{"server_id":119,"name":"Uncletopia | Seattle | 2 | All Maps","name_short":"sea-2","host":"sea-1.us.uncletopia.com","port":27025,"enabled":true,"region":"us-west","cc":"us","latitude":47.608013,"longitude":-122.33517,"reserved":0,"last_update":"0001-01-01T00:00:00Z","name_a2s":"Uncletopia | Seattle | 2 | All Maps","protocol":17,"map":"pl_snowycoast","folder":"tf","game":"Team Fortress","app_id":440,"player_count":24,"max_players":24,"Bots":0,"server_type":"Dedicated","server_os":"Linux","password":true,"vac":true,"version":"7961495","steam_id":85568392924469998,"keywords":["nocrits","nodmgspread","payload","uncletopia"],"game_id":440,"stv_port":27026,"stv_name":"Uncletopia | Seattle | 2 | All Maps | STV","players":[{"user_id":519,"name":"^^","steam_id":76561198149902575,"connected_time":289000000000,"state":"active","ping":45},{"user_id":520,"name":"poopfart messiah","steam_id":76561198082551861,"connected_time":204000000000,"state":"active","ping":46},{"user_id":509,"name":"Drapph","steam_id":76561199384213314,"connected_time":1265000000000,"state":"active","ping":108},{"user_id":482,"name":"MonteJT","steam_id":76561198055409360,"connected_time":3435000000000,"state":"active","ping":39},{"user_id":521,"name":"‚ô• Milo Stefferson ‚ô• (Soupca","steam_id":76561198056269538,"connected_time":183000000000,"state":"active","ping":48},{"user_id":506,"name":"makeshift_burrito","steam_id":76561198042510825,"connected_time":1858000000000,"state":"active","ping":63},{"user_id":522,"name":"Woodstock","steam_id":76561198041442667,"connected_time":145000000000,"state":"active","ping":72},{"user_id":501,"name":"Zero 007","steam_id":76561198027776317,"connected_time":2098000000000,"state":"active","ping":150},{"user_id":471,"name":"Haydob13","steam_id":76561198110378191,"connected_time":3797000000000,"state":"active","ping":52},{"user_id":502,"name":"Skronky","steam_id":76561198093326810,"connected_time":2022000000000,"state":"active","ping":41},{"user_id":473,"name":"Bendidy","steam_id":76561198041964300,"connected_time":3757000000000,"state":"active","ping":64},{"user_id":511,"name":"ZincWolfWarrior","steam_id":76561199249729907,"connected_time":1023000000000,"state":"active","ping":74},{"user_id":523,"name":"Eating :)","steam_id":76561198141817197,"connected_time":143000000000,"state":"active","ping":69},{"user_id":465,"name":"Tom Skirrett","steam_id":76561198014600788,"connected_time":4336000000000,"state":"active","ping":62},{"user_id":513,"name":"Context","steam_id":76561197972634187,"connected_time":727000000000,"state":"active","ping":60},{"user_id":508,"name":"allMAX","steam_id":76561198270980670,"connected_time":1808000000000,"state":"active","ping":155},{"user_id":517,"name":"blossssssommmmm","steam_id":76561198042735130,"connected_time":446000000000,"state":"active","ping":60},{"user_id":422,"name":"The Horny","steam_id":76561198863639459,"connected_time":6997000000000,"state":"active","ping":50},{"user_id":490,"name":":)","steam_id":76561198210322871,"connected_time":2741000000000,"state":"active","ping":72},{"user_id":455,"name":"rad killl raccoon","steam_id":76561198980975595,"connected_time":4958000000000,"state":"active","ping":57},{"user_id":488,"name":"Tripll-L","steam_id":76561197998077437,"connected_time":3182000000000,"state":"active","ping":62},{"user_id":457,"name":"H2OBourne","steam_id":76561198396293109,"connected_time":4934000000000,"state":"active","ping":105},{"user_id":516,"name":"Wheaties","steam_id":76561198060909578,"connected_time":667000000000,"state":"active","ping":68},{"user_id":487,"name":"leeeeeeeeeeeeeeeeeeeeeeeeeee","steam_id":76561199083322731,"connected_time":3245000000000,"state":"active","ping":100}]},{"server_id":406,"name":"Uncletopia | Seattle | 3 | Stopwatch","name_short":"sea-3","host":"sea-1.us.uncletopia.com","port":27035,"enabled":true,"region":"us-west","cc":"us","latitude":47.608013,"longitude":-122.33517,"reserved":0,"last_update":"0001-01-01T00:00:00Z","name_a2s":"Uncletopia | Seattle | 3 | Stopwatch","protocol":17,"map":"cp_gullywash_final1","folder":"tf","game":"Team Fortress","app_id":440,"player_count":1,"max_players":24,"Bots":0,"server_type":"Dedicated","server_os":"Linux","password":true,"vac":true,"version":"7961495","steam_id":85568392924515217,"keywords":["cp","nocrits","nodmgspread","uncletopia"],"game_id":440,"stv_port":27036,"stv_name":"Uncletopia | Seattle | 3 | Stopwatch | STV","players":[{"user_id":31,"name":"dumadil","steam_id":76561199213941692,"connected_time":116000000000,"state":"active","ping":66}]},{"server_id":17,"name":"Uncletopia | San Francisco | 1 | All Maps","name_short":"sfo-1","host":"sfo-1.us.uncletopia.com","port":27015,"enabled":true,"region":"us-west","cc":"us","latitude":37.77397,"longitude":-122.4313,"reserved":0,"last_update":"0001-01-01T00:00:00Z","name_a2s":"Uncletopia | San Francisco | 1 | All Maps","protocol":17,"map":"pl_upward","folder":"tf","game":"Team Fortress","app_id":440,"player_count":23,"max_players":24,"Bots":0,"server_type":"Dedicated","server_os":"Linux","password":true,"vac":true,"version":"7961495","steam_id":85568392924469999,"keywords":["nocrits","nodmgspread","payload","uncletopia"],"game_id":440,"stv_port":27016,"stv_name":"Uncletopia | San Francisco | 1 | All Maps | STV","players":[{"user_id":564,"name":"Kuchio","steam_id":76561198161218914,"connected_time":20000000000,"state":"active","ping":62},{"user_id":456,"name":"Antzen","steam_id":76561198041343470,"connected_time":8891000000000,"state":"active","ping":56},{"user_id":552,"name":"fartstreaks employed","steam_id":76561198046073848,"connected_time":941000000000,"state":"active","ping":189},{"user_id":522,"name":"B class hero","steam_id":76561198066091050,"connected_time":3893000000000,"state":"active","ping":70},{"user_id":491,"name":"perc 10","steam_id":76561198116471653,"connected_time":6260000000000,"state":"spawning","ping":72},{"user_id":556,"name":"MintyFreshMentos","steam_id":76561198839944799,"connected_time":532000000000,"state":"active","ping":50},{"user_id":545,"name":"Karg","steam_id":76561198091387866,"connected_time":1208000000000,"state":"active","ping":62},{"user_id":549,"name":"bingo friend :)","steam_id":76561198971552734,"connected_time":1019000000000,"state":"active","ping":141},{"user_id":554,"name":"KaosInfinite","steam_id":76561198009126350,"connected_time":876000000000,"state":"active","ping":176},{"user_id":553,"name":"I UBER SPIES #SAVETF2","steam_id":76561199118711243,"connected_time":926000000000,"state":"spawning","ping":43},{"user_id":565,"name":"Bag","steam_id":76561198012395490,"connected_time":15000000000,"state":"spawning","ping":99},{"user_id":513,"name":"xD","steam_id":76561198149683030,"connected_time":4823000000000,"state":"active","ping":65},{"user_id":561,"name":"b1twoo3","steam_id":76561198159287614,"connected_time":217000000000,"state":"spawning","ping":48},{"user_id":519,"name":"Perididdle","steam_id":76561198056864606,"connected_time":4306000000000,"state":"active","ping":101},{"user_id":539,"name":"Because","steam_id":76561199482135239,"connected_time":2696000000000,"state":"active","ping":119},{"user_id":555,"name":"da-me da-ne","steam_id":76561198186208857,"connected_time":855000000000,"state":"active","ping":59},{"user_id":515,"name":"FunnyGoomba","steam_id":76561198279865229,"connected_time":4776000000000,"state":"active","ping":154},{"user_id":562,"name":"TriggerPullPone","steam_id":76561198071789810,"connected_time":165000000000,"state":"active","ping":92},{"user_id":551,"name":"Drake from State Farm","steam_id":76561199069029812,"connected_time":996000000000,"state":"active","ping":99},{"user_id":566,"name":"ankle biters","steam_id":76561198119103778,"connected_time":15000000000,"state":"active","ping":107},{"user_id":563,"name":"Loogus","steam_id":76561198811561721,"connected_time":87000000000,"state":"active","ping":70},{"user_id":497,"name":"lol","steam_id":76561198026491738,"connected_time":6188000000000,"state":"active","ping":63},{"user_id":536,"name":"cornballer","steam_id":76561199006886644,"connected_time":2793000000000,"state":"spawning","ping":214}]},{"server_id":18,"name":"Uncletopia | San Francisco | 2 | All Maps","name_short":"sfo-2","host":"sfo-1.us.uncletopia.com","port":27025,"enabled":true,"region":"us-west","cc":"us","latitude":37.77397,"longitude":-122.4313,"reserved":0,"last_update":"0001-01-01T00:00:00Z","name_a2s":"Uncletopia | San Francisco | 2 | All Maps","protocol":17,"map":"cp_altitude","folder":"tf","game":"Team Fortress","app_id":440,"player_count":12,"max_players":24,"Bots":0,"server_type":"Dedicated","server_os":"Linux","password":true,"vac":true,"version":"7961495","steam_id":85568392924470000,"keywords":["cp","nocrits","nodmgspread","uncletopia"],"game_id":440,"stv_port":27026,"stv_name":"Uncletopia | San Francisco | 2 | All Maps | STV","players":[{"user_id":15,"name":"cringy","steam_id":76561198323000455,"connected_time":2801000000000,"state":"active","ping":69},{"user_id":20,"name":"Lumity ü§éüíú","steam_id":76561198011442255,"connected_time":1999000000000,"state":"active","ping":55},{"user_id":21,"name":"KingOmegaVolt","steam_id":76561199187481231,"connected_time":1834000000000,"state":"active","ping":100},{"user_id":31,"name":"Bilbo Swagg3nz","steam_id":76561198860962294,"connected_time":100000000000,"state":"active","ping":74},{"user_id":35,"name":"chromaa","steam_id":76561198304670454,"connected_time":12000000000,"state":"active","ping":93},{"user_id":23,"name":"Khrono691","steam_id":76561198246227600,"connected_time":1578000000000,"state":"active","ping":68},{"user_id":24,"name":"billycop32","steam_id":76561198035702422,"connected_time":1205000000000,"state":"active","ping":70},{"user_id":34,"name":"Joey Swashbuckle","steam_id":76561198450316656,"connected_time":87000000000,"state":"active","ping":60},{"user_id":26,"name":"shack man","steam_id":76561199046602180,"connected_time":928000000000,"state":"active","ping":64},{"user_id":28,"name":"They could be ********","steam_id":76561198441020995,"connected_time":705000000000,"state":"active","ping":43},{"user_id":30,"name":"Penis Music","steam_id":76561198089647760,"connected_time":395000000000,"state":"active","ping":101},{"user_id":33,"name":"blue of days","steam_id":76561199113013688,"connected_time":89000000000,"state":"active","ping":35}]},{"server_id":19,"name":"Uncletopia | San Francisco | 3 | Stopwatch","name_short":"sfo-3","host":"sfo-1.us.uncletopia.com","port":27035,"enabled":true,"region":"us-west","cc":"us","latitude":37.77397,"longitude":-122.4313,"reserved":0,"last_update":"0001-01-01T00:00:00Z","name_a2s":"Uncletopia | San Francisco | 3 | Stopwatch","protocol":17,"map":"workshop/koth_ramjam_rc1.ugc459778887","folder":"tf","game":"Team Fortress","app_id":440,"player_count":0,"max_players":24,"Bots":0,"server_type":"Dedicated","server_os":"Linux","password":true,"vac":true,"version":"7961495","steam_id":85568392924742824,"keywords":["cp","nocrits","nodmgspread","uncletopia"],"game_id":440,"stv_port":27036,"stv_name":"Uncletopia | San Francisco | 3 | Stopwatch | STV","players":null},{"server_id":20,"name":"Uncletopia | San Francisco | 4 | Community","name_short":"sfo-4","host":"sfo-1.us.uncletopia.com","port":27045,"enabled":true,"region":"us-west","cc":"us","latitude":37.77397,"longitude":-122.4313,"reserved":0,"last_update":"0001-01-01T00:00:00Z","name_a2s":"Uncletopia | San Francisco | 4 | Community","protocol":17,"map":"workshop/koth_trenchfoot_b1a.ugc731436616","folder":"tf","game":"Team Fortress","app_id":440,"player_count":0,"max_players":24,"Bots":0,"server_type":"Dedicated","server_os":"Linux","password":true,"vac":true,"version":"7961495","steam_id":85568392924742826,"keywords":["cp","nocrits","nodmgspread","uncletopia"],"game_id":440,"stv_port":27046,"stv_name":"Uncletopia | San Francisco | 4 | Community | STV","players":null},{"server_id":141,"name":"Uncletopia | Sydney | 1 | All Maps","name_short":"syd-1","host":"syd-1.au.uncletopia.com","port":27015,"enabled":true,"region":"au","cc":"au","latitude":-33.865143,"longitude":151.2099,"reserved":0,"last_update":"0001-01-01T00:00:00Z","name_a2s":"Uncletopia | Sydney | 1 | All Maps","protocol":17,"map":"pl_upward","folder":"tf","game":"Team Fortress","app_id":440,"player_count":21,"max_players":24,"Bots":0,"server_type":"Dedicated","server_os":"Linux","password":true,"vac":true,"version":"7961495","steam_id":85568392924470001,"keywords":["nocrits","nodmgspread","payload","uncletopia"],"game_id":440,"stv_port":27016,"stv_name":"Uncletopia | Sydney | 1 | All Maps | STV","players":[{"user_id":28,"name":"rudra","steam_id":76561198067731912,"connected_time":2348000000000,"state":"active","ping":67},{"user_id":34,"name":"yumps","steam_id":76561198009311069,"connected_time":1788000000000,"state":"active","ping":60},{"user_id":35,"name":"Calsaintski","steam_id":76561199081848498,"connected_time":1782000000000,"state":"active","ping":60},{"user_id":15,"name":"LeoJoeD","steam_id":76561198161848749,"connected_time":4233000000000,"state":"active","ping":44},{"user_id":31,"name":"Regular Marco","steam_id":76561198806966268,"connected_time":2192000000000,"state":"active","ping":77},{"user_id":64,"name":"Frog Fingers","steam_id":76561198028733343,"connected_time":275000000000,"state":"active","ping":48},{"user_id":54,"name":"mashiro","steam_id":76561198053070636,"connected_time":773000000000,"state":"active","ping":29},{"user_id":66,"name":"Maxy","steam_id":76561198063462160,"connected_time":229000000000,"state":"active","ping":30},{"user_id":27,"name":"adammagee","steam_id":76561197972653972,"connected_time":2634000000000,"state":"active","ping":55},{"user_id":67,"name":"Theducktube","steam_id":76561198137265224,"connected_time":144000000000,"state":"active","ping":165},{"user_id":68,"name":"BeefBoss","steam_id":76561198272702233,"connected_time":78000000000,"state":"active","ping":37},{"user_id":38,"name":"I'm using a controller","steam_id":76561198152210509,"connected_time":1479000000000,"state":"active","ping":41},{"user_id":39,"name":"Bilbo Swaggins","steam_id":76561198984446872,"connected_time":1430000000000,"state":"active","ping":50},{"user_id":52,"name":"Lain","steam_id":76561198149217307,"connected_time":876000000000,"state":"active","ping":96},{"user_id":41,"name":"El Chupacabra","steam_id":76561198070641651,"connected_time":1258000000000,"state":"active","ping":40},{"user_id":69,"name":"Killing","steam_id":76561198107392931,"connected_time":0,"state":"spawning","ping":0},{"user_id":65,"name":"Sloth King ‚ô•","steam_id":76561198069431320,"connected_time":264000000000,"state":"active","ping":153},{"user_id":53,"name":"var","steam_id":76561198164892406,"connected_time":854000000000,"state":"active","ping":69},{"user_id":49,"name":"jv","steam_id":76561198267475132,"connected_time":1018000000000,"state":"active","ping":57},{"user_id":56,"name":"Sentry Gun (EpicGuy4227)","steam_id":76561198094132328,"connected_time":661000000000,"state":"active","ping":50},{"user_id":62,"name":"shirt without the r","steam_id":76561199071810220,"connected_time":499000000000,"state":"active","ping":68}]},{"server_id":123,"name":"Uncletopia | Sydney | 2 | All Maps","name_short":"syd-2","host":"syd-1.au.uncletopia.com","port":27025,"enabled":true,"region":"au","cc":"au","latitude":-33.865143,"longitude":151.2099,"reserved":0,"last_update":"0001-01-01T00:00:00Z","name_a2s":"Uncletopia | Sydney | 2 | All Maps","protocol":17,"map":"koth_lakeside_final","folder":"tf","game":"Team Fortress","app_id":440,"player_count":0,"max_players":24,"Bots":0,"server_type":"Dedicated","server_os":"Linux","password":true,"vac":true,"version":"7961495","steam_id":85568392924470002,"keywords":["cp","nocrits","nodmgspread","uncletopia"],"game_id":440,"stv_port":27026,"stv_name":"Uncletopia | Sydney | 2 | All Maps | STV","players":null},{"server_id":395,"name":"Uncletopia | Sydney | 3 | All Maps","name_short":"syd-3","host":"syd-1.au.uncletopia.com","port":27035,"enabled":true,"region":"au","cc":"au","latitude":-33.865143,"longitude":151.2099,"reserved":0,"last_update":"0001-01-01T00:00:00Z","name_a2s":"Uncletopia | Sydney | 3 | All Maps","protocol":17,"map":"pl_borneo","folder":"tf","game":"Team Fortress","app_id":440,"player_count":0,"max_players":24,"Bots":0,"server_type":"Dedicated","server_os":"Linux","password":true,"vac":true,"version":"7961495","steam_id":85568392925194467,"keywords":["nocrits","nodmgspread","payload","uncletopia"],"game_id":440,"stv_port":27036,"stv_name":"Uncletopia | Sydney | 3 | All Maps | STV","players":null},{"server_id":396,"name":"Uncletopia | Sydney | 4 | All Maps","name_short":"syd-4","host":"syd-1.au.uncletopia.com","port":27045,"enabled":true,"region":"au","cc":"au","latitude":-33.865143,"longitude":151.2099,"reserved":0,"last_update":"0001-01-01T00:00:00Z","name_a2s":"Uncletopia | Sydney | 4 | All Maps","protocol":17,"map":"koth_lakeside_final","folder":"tf","game":"Team Fortress","app_id":440,"player_count":0,"max_players":24,"Bots":0,"server_type":"Dedicated","server_os":"Linux","password":true,"vac":true,"version":"7961495","steam_id":85568392925397958,"keywords":["cp","nocrits","nodmgspread","uncletopia"],"game_id":440,"stv_port":27046,"stv_name":"Uncletopia | Sydney | 4 | All Maps | STV","players":null},{"server_id":58,"name":"Uncletopia | Sydney | 5 | Stopwatch","name_short":"syd-5","host":"syd-1.au.uncletopia.com","port":27055,"enabled":true,"region":"au","cc":"au","latitude":-33.865143,"longitude":151.2099,"reserved":0,"last_update":"0001-01-01T00:00:00Z","name_a2s":"Uncletopia | Sydney | 5 | Stopwatch","protocol":17,"map":"workshop/pl_badwater_pro_v12.ugc2142942074","folder":"tf","game":"Team Fortress","app_id":440,"player_count":0,"max_players":24,"Bots":0,"server_type":"Dedicated","server_os":"Linux","password":true,"vac":true,"version":"7961495","steam_id":85568392925397959,"keywords":["nocrits","nodmgspread","payload","uncletopia"],"game_id":440,"stv_port":27056,"stv_name":"Uncletopia | Sydney | 5 | Stopwatch | STV","players":null},{"server_id":59,"name":"Uncletopia | Sydney | 6 | Community","name_short":"syd-6","host":"syd-1.au.uncletopia.com","port":27065,"enabled":true,"region":"au","cc":"au","latitude":-33.865143,"longitude":151.2099,"reserved":0,"last_update":"0001-01-01T00:00:00Z","name_a2s":"Uncletopia | Sydney | 6 | Community","protocol":17,"map":"workshop/koth_kemptown_rc1.ugc767410655","folder":"tf","game":"Team Fortress","app_id":440,"player_count":0,"max_players":24,"Bots":0,"server_type":"Dedicated","server_os":"Linux","password":true,"vac":true,"version":"7961495","steam_id":85568392925397960,"keywords":["cp","nocrits","nodmgspread","uncletopia"],"game_id":440,"stv_port":27066,"stv_name":"Uncletopia | Sydney | 6 | Community | STV","players":null},{"server_id":49,"name":"Uncletopia | Warsaw | 1 | All Maps","name_short":"waw-1","host":"waw-1.pl.uncletopia.com","port":27015,"enabled":true,"region":"eu","cc":"pl","latitude":52.2297,"longitude":21.017532,"reserved":0,"last_update":"0001-01-01T00:00:00Z","name_a2s":"Uncletopia | Warsaw | 1 | All Maps","protocol":17,"map":"koth_lakeside_final","folder":"tf","game":"Team Fortress","app_id":440,"player_count":0,"max_players":24,"Bots":0,"server_type":"Dedicated","server_os":"Linux","password":true,"vac":true,"version":"7961495","steam_id":85568392925397850,"keywords":["cp","nocrits","nodmgspread","uncletopia"],"game_id":440,"stv_port":27016,"stv_name":"Uncletopia | Warsaw | 1 | All Maps | STV","players":null},{"server_id":50,"name":"Uncletopia | Warsaw | 2 | All Maps","name_short":"waw-2","host":"waw-1.pl.uncletopia.com","port":27025,"enabled":true,"region":"eu","cc":"pl","latitude":52.2297,"longitude":21.017532,"reserved":0,"last_update":"0001-01-01T00:00:00Z","name_a2s":"Uncletopia | Warsaw | 2 | All Maps","protocol":17,"map":"pl_borneo","folder":"tf","game":"Team Fortress","app_id":440,"player_count":0,"max_players":24,"Bots":0,"server_type":"Dedicated","server_os":"Linux","password":true,"vac":true,"version":"7961495","steam_id":85568392925397851,"keywords":["nocrits","nodmgspread","payload","uncletopia"],"game_id":440,"stv_port":27026,"stv_name":"Uncletopia | Warsaw | 2 | All Maps | STV","players":null},{"server_id":51,"name":"Uncletopia | Warsaw | 3 | All Maps","name_short":"waw-3","host":"waw-1.pl.uncletopia.com","port":27035,"enabled":true,"region":"eu","cc":"pl","latitude":52.2297,"longitude":21.017532,"reserved":0,"last_update":"0001-01-01T00:00:00Z","name_a2s":"Uncletopia | Warsaw | 3 | All Maps","protocol":17,"map":"pl_barnblitz","folder":"tf","game":"Team Fortress","app_id":440,"player_count":0,"max_players":24,"Bots":0,"server_type":"Dedicated","server_os":"Linux","password":true,"vac":true,"version":"7961495","steam_id":85568392925397852,"keywords":["nocrits","nodmgspread","payload","uncletopia"],"game_id":440,"stv_port":27036,"stv_name":"Uncletopia | Warsaw | 3 | All Maps | STV","players":null},{"server_id":52,"name":"Uncletopia | Warsaw | 4 | All Maps","name_short":"waw-4","host":"waw-1.pl.uncletopia.com","port":27045,"enabled":true,"region":"eu","cc":"pl","latitude":52.2297,"longitude":21.017532,"reserved":0,"last_update":"0001-01-01T00:00:00Z","name_a2s":"Uncletopia | Warsaw | 4 | All Maps","protocol":17,"map":"pl_borneo","folder":"tf","game":"Team Fortress","app_id":440,"player_count":0,"max_players":24,"Bots":0,"server_type":"Dedicated","server_os":"Linux","password":true,"vac":true,"version":"7961495","steam_id":85568392925397853,"keywords":["nocrits","nodmgspread","payload","uncletopia"],"game_id":440,"stv_port":27046,"stv_name":"Uncletopia | Warsaw | 4 | All Maps | STV","players":null},{"server_id":53,"name":"Uncletopia | Warsaw | 5 | Stopwatch","name_short":"waw-5","host":"waw-1.pl.uncletopia.com","port":27055,"enabled":true,"region":"eu","cc":"pl","latitude":52.2297,"longitude":21.017532,"reserved":0,"last_update":"0001-01-01T00:00:00Z","name_a2s":"Uncletopia | Warsaw | 5 | Stopwatch","protocol":17,"map":"pl_barnblitz","folder":"tf","game":"Team Fortress","app_id":440,"player_count":0,"max_players":24,"Bots":0,"server_type":"Dedicated","server_os":"Linux","password":true,"vac":true,"version":"7961495","steam_id":85568392925397854,"keywords":["nocrits","nodmgspread","payload","uncletopia"],"game_id":440,"stv_port":27056,"stv_name":"Uncletopia | Warsaw | 5 | Stopwatch | STV","players":null},{"server_id":54,"name":"Uncletopia | Warsaw | 6 | Community","name_short":"waw-6","host":"waw-1.pl.uncletopia.com","port":27065,"enabled":true,"region":"eu","cc":"pl","latitude":52.2297,"longitude":21.017532,"reserved":0,"last_update":"0001-01-01T00:00:00Z","name_a2s":"Uncletopia | Warsaw | 6 | Community","protocol":17,"map":"cp_altitude","folder":"tf","game":"Team Fortress","app_id":440,"player_count":0,"max_players":24,"Bots":0,"server_type":"Dedicated","server_os":"Linux","password":true,"vac":true,"version":"7961495","steam_id":85568392925397856,"keywords":["cp","nocrits","nodmgspread","uncletopia"],"game_id":440,"stv_port":27066,"stv_name":"Uncletopia | Warsaw | 6 | Community | STV","players":null}]}