{"status":true,"message":"","result":[{"server_id":9,"name":"Uncletopia | Atlanta | 1 | All Maps","name_short":"atl-1","host":"atl-1.us.uncletopia.com","port":27015,"enabled":true,"region":"us-east","cc":"us","latitude":33.753746,"longitude":-84.38633,"reserved":0,"last_update":"0001-01-01T00:00:00Z","name_a2s":"Uncletopia | Atlanta | 1 | All Maps","protocol":17,"map":"cp_snakewater_final1","folder":"tf","game":"Team Fortress","app_id":440,"player_count":24,"max_players":24,"Bots":0,"server_type":"Dedicated","server_os":"Linux","password":true,"vac":true,"version":"7961495","steam_id":85568392924469982,"keywords":["cp","nocrits","nodmgspread","uncletopia"],"game_id":440,"stv_port":27016,"stv_name":"Uncletopia | Atlanta | 1 | All Maps | STV","players":[{"user_id":337,"name":"keystone light","steam_id":76561198211062267,"connected_time":651000000000,"state":"active","ping":75},{"user_id":336,"name":"paetho YT","steam_id":76561198152690003,"connected_time":1100000000000,"state":"active","ping":45},{"user_id":312,"name":"diigdugg","steam_id":76561198172581861,"connected_time":2951000000000,"state":"active","ping":60},{"user_id":320,"name":"garten of peakpeak","steam_id":76561198181153199,"connected_time":2652000000000,"state":"active","ping":83},{"user_id":269,"name":"gallowsCalibrator","steam_id":76561198404707578,"connected_time":7524000000000,"state":"active","ping":59},{"user_id":316,"name":"awak","steam_id":76561198092135570,"connected_time":2814000000000,"state":"active","ping":60},{"user_id":307,"name":"QUINZEL","steam_id":76561198096738991,"connected_time":3306000000000,"state":"active","ping":94},{"user_id":317,"name":"the pest","steam_id":76561198826298849,"connected_time":2778000000000,"state":"active","ping":101},{"user_id":342,"name":"Skudge Sister","steam_id":76561198041766766,"connected_time":286000000000,"state":"active","ping":95},{"user_id":325,"name":"dilfbot","steam_id":76561198099988165,"connected_time":2030000000000,"state":"active","ping":70},{"user_id":338,"name":"s-dog","steam_id":76561198065339248,"connected_time":621000000000,"state":"active","ping":100},{"user_id":309,"name":"craven","steam_id":76561198088191503,"connected_time":3112000000000,"state":"active","ping":63},{"user_id":282,"name":"rose","steam_id":76561198048882285,"connected_time":6540000000000,"state":"active","ping":93},{"user_id":334,"name":"Female Gamer","steam_id":76561199366482682,"connected_time":1143000000000,"state":"active","ping":125},{"user_id":339,"name":"Poppet","steam_id":76561198012301951,"connected_time":453000000000,"state":"active","ping":89},{"user_id":340,"name":"LeTonzy","steam_id":76561198005806699,"connected_time":431000000000,"state":"active","ping":128},{"user_id":300,"name":"frog from pond","steam_id":76561198184900753,"connected_time":4001000000000,"state":"active","ping":69},{"user_id":327,"name":"1000 Ping","steam_id":76561198098330939,"connected_time":1962000000000,"state":"active","ping":121},{"user_id":341,"name":"ZenkoZSprite","steam_id":76561198190132250,"connected_time":394000000000,"state":"active","ping":81},{"user_id":335,"name":"King","steam_id":76561198039763676,"connected_time":1115000000000,"state":"active","ping":59},{"user_id":287,"name":"Bunt","steam_id":76561198124477567,"connected_time":5791000000000,"state":"active","ping":43},{"user_id":294,"name":"Legally Braindead","steam_id":76561198377574031,"connected_time":4861000000000,"state":"active","ping":102},{"user_id":252,"name":"Tay1Qr","steam_id":76561198082809935,"connected_time":8841000000000,"state":"active","ping":82},{"user_id":344,"name":"Nyriss","steam_id":76561198098631397,"connected_time":201000000000,"state":"active","ping":63}]},{"server_id":104,"name":"Uncletopia | Atlanta | 2 | All Maps","name_short":"atl-2","host":"atl-1.us.uncletopia.com","port":27025,"enabled":true,"region":"us-east","cc":"us","latitude":33.753746,"longitude":-84.38633,"reserved":0,"last_update":"0001-01-01T00:00:00Z","name_a2s":"Uncletopia | Atlanta | 2 | All Maps","protocol":17,"map":"koth_highpass","folder":"tf","game":"Team Fortress","app_id":440,"player_count":0,"max_players":24,"Bots":0,"server_type":"Dedicated","server_os":"Linux","password":true,"vac":true,"version":"7961495","steam_id":85568392924469983,"keywords":["cp","nocrits","nodmgspread","uncletopia"],"game_id":440,"stv_port":27026,"stv_name":"Uncletopia | Atlanta | 2 | All Maps | STV","players":null},{"server_id":400,"name":"Uncletopia | Atlanta | 3 | Stopwatch","name_short":"atl-3","host":"atl-1.us.uncletopia.com","port":27035,"enabled":true,"region":"us-east","cc":"us","latitude":33.753746,"longitude":-84.38633,"reserved":0,"last_update":"0001-01-01T00:00:00Z","name_a2s":"Uncletopia | Atlanta | 3 | Stopwatch","protocol":17,"map":"workshop/pl_summercoast_rc8e.ugc1761528829","folder":"tf","game":"Team Fortress","app_id":440,"player_count":0,"max_players":24,"Bots":0,"server_type":"Dedicated","server_os":"Linux","password":true,"vac":true,"version":"7961495","steam_id":85568392924515187,"keywords":["nocrits","nodmgspread","payload","uncletopia"],"game_id":440,"stv_port":27036,"stv_name":"Uncletopia | Atlanta | 3 | Stopwatch | STV","players":null},{"server_id":401,"name":"Uncletopia | Atlanta | 4 | Community","name_short":"atl-4","host":"atl-1.us.uncletopia.com","port":27045,"enabled":true,"region":"us-east","cc":"us","latitude":33.753746,"longitude":-84.38633,"reserved":0,"last_update":"0001-01-01T00:00:00Z","name_a2s":"Uncletopia | Atlanta | 4 | Community","protocol":17,"map":"workshop/koth_ramjam_rc1.ugc459778887","folder":"tf","game":"Team Fortress","app_id":440,"player_count":0,"max_players":24,"Bots":0,"server_type":"Dedicated","server_os":"Linux","password":true,"vac":true,"version":"7961495","steam_id":85568392924515188,"keywords":["cp","nocrits","nodmgspread","uncletopia"],"game_id":440,"stv_port":27046,"stv_name":"Uncletopia | Atlanta | 4 | Community | STV","players":null},{"server_id":2,"name":"Uncletopia | Chicago | 1 | All Maps","name_short":"chi-1","host":"chi-1.us.uncletopia.com","port":27015,"enabled":true,"region":"us-central","cc":"us","latitude":41.881832,"longitude":-87.62318,"reserved":0,"last_update":"0001-01-01T00:00:00Z","name_a2s":"Uncletopia | Chicago | 1 | All Maps","protocol":17,"map":"cp_snakewater_final1","folder":"tf","game":"Team Fortress","app_id":440,"player_count":0,"max_players":24,"Bots":0,"server_type":"Dedicated","server_os":"Linux","password":true,"vac":true,"version":"7961495","steam_id":85568392924469984,"keywords":["cp","nocrits","nodmgspread","uncletopia"],"game_id":440,"stv_port":27016,"stv_name":"Uncletopia | Chicago | 1 | All Maps | STV","players":null},{"server_id":106,"name":"Uncletopia | Chicago | 2 | All Maps","name_short":"chi-2","host":"chi-1.us.uncletopia.com","port":27025,"enabled":true,"region":"us-central","cc":"us","latitude":41.881832,"longitude":-87.62318,"reserved":0,"last_update":"0001-01-01T00:00:00Z","name_a2s":"Uncletopia | Chicago | 2 | All Maps","protocol":17,"map":"pl_borneo","folder":"tf","game":"Team Fortress","app_id":440,"player_count":0,"max_players":24,"Bots":0,"server_type":"Dedicated","server_os":"Linux","password":true,"vac":true,"version":"7961495","steam_id":85568392924469985,"keywords":["nocrits","nodmgspread","payload","uncletopia"],"game_id":440,"stv_port":27026,"stv_name":"Uncletopia | Chicago | 2 | All Maps | STV","players":null},{"server_id":402,"name":"Uncletopia | Chicago | 3 | All Maps","name_short":"chi-3","host":"chi-1.us.uncletopia.com","port":27035,"enabled":true,"region":"us-central","cc":"us","latitude":41.881832,"longitude":-87.62318,"reserved":0,"last_update":"0001-01-01T00:00:00Z","name_a2s":"Uncletopia | Chicago | 3 | All Maps","protocol":17,"map":"koth_cascade","folder":"tf","game":"Team Fortress","app_id":440,"player_count":24,"max_players":24,"Bots":0,"server_type":"Dedicated","server_os":"Linux","password":true,"vac":true,"version":"7961495","steam_id":85568392924515191,"keywords":["cp","nocrits","nodmgspread","uncletopia"],"game_id":440,"stv_port":27036,"stv_name":"Uncletopia | Chicago | 3 | All Maps | STV","players":[{"user_id":461,"name":"I wear Tie Dye Shirt","steam_id":76561199111367852,"connected_time":144000000000,"state":"active","ping":81},{"user_id":387,"name":"Arty","steam_id":76561197960445953,"connected_time":5556000000000,"state":"active","ping":108},{"user_id":407,"name":"37 septillion tapeworms","steam_id":76561198186128723,"connected_time":2366000000000,"state":"active","ping":62},{"user_id":453,"name":"Motobono9","steam_id":76561198032403516,"connected_time":689000000000,"state":"active","ping":92},{"user_id":460,"name":"Brawns","steam_id":76561198045190199,"connected_time":507000000000,"state":"active","ping":75},{"user_id":449,"name":"Guess I'm just popo","steam_id":76561197966419253,"connected_time":754000000000,"state":"active","ping":69},{"user_id":450,"name":"mudspaw","steam_id":76561198101327448,"connected_time":724000000000,"state":"active","ping":69},{"user_id":452,"name":"lys de mer","steam_id":76561198054906945,"connected_time":708000000000,"state":"active","ping":93},{"user_id":413,"name":"Muselk, but mexican","steam_id":76561199289676387,"connected_time":2193000000000,"state":"active","ping":89},{"user_id":444,"name":"ChoccyMiltank","steam_id":76561198981474284,"connected_time":1156000000000,"state":"active","ping":110},{"user_id":438,"name":"ùíØùíΩùíæùìáùìâùìé ùí©\ufffd\ufffd","steam_id":76561198111878431,"connected_time":1313000000000,"state":"active","ping":113},{"user_id":439,"name":"floofy","steam_id":76561198389769098,"connected_time":1304000000000,"state":"active","ping":72},{"user_id":445,"name":"‚òÅChaoscist","steam_id":76561198133707355,"connected_time":1152000000000,"state":"active","ping":98},{"user_id":419,"name":"Therapy Goth","steam_id":76561198048448497,"connected_time":2083000000000,"state":"active","ping":57},{"user_id":457,"name":"Salt","steam_id":76561198418001135,"connected_time":614000000000,"state":"active","ping":62},{"user_id":382,"name":"Cairna ‚ô•","steam_id":76561198035418464,"connected_time":5925000000000,"state":"active","ping":69},{"user_id":403,"name":"sleepy","steam_id":76561198255015060,"connected_time":3147000000000,"state":"active","ping":99},{"user_id":456,"name":"shadowtaco69","steam_id":76561198112453714,"connected_time":624000000000,"state":"active","ping":84},{"user_id":404,"name":"Fruity","steam_id":76561198999674564,"connected_time":3130000000000,"state":"active","ping":85},{"user_id":440,"name":"BrewsGoos","steam_id":76561198022302907,"connected_time":1283000000000,"state":"active","ping":35},{"user_id":458,"name":"PikaJW","steam_id":76561198079831429,"connected_time":604000000000,"state":"active","ping":104},{"user_id":390,"name":"The Caretaker","steam_id":76561198125241411,"connected_time":4816000000000,"state":"active","ping":107},{"user_id":441,"name":"Gaming","steam_id":76561198107080532,"connected_time":1263000000000,"state":"active","ping":69},{"user_id":459,"name":"night.s","steam_id":76561198326287823,"connected_time":589000000000,"state":"active","ping":161}]},{"server_id":403,"name":"Uncletopia | Chicago | 4 | All Maps","name_short":"chi-4","host":"chi-1.us.uncletopia.com","port":27045,"enabled":true,"region":"us-central","cc":"us","latitude":41.881832,"longitude":-87.62318,"reserved":0,"last_update":"0001-01-01T00:00:00Z","name_a2s":"Uncletopia | Chicago | 4 | All Maps","protocol":17,"map":"cp_mountainlab","folder":"tf","game":"Team Fortress","app_id":440,"player_count":24,"max_players":24,"Bots":0,"server_type":"Dedicated","server_os":"Linux","password":true,"vac":true,"version":"7961495","steam_id":85568392924515193,"keywords":["cp","nocrits","nodmgspread","uncletopia"],"game_id":440,"stv_port":27046,"stv_name":"Uncletopia | Chicago | 4 | All Maps | STV","players":[{"user_id":944,"name":"The Khronicles of Keith","steam_id":76561198056622157,"connected_time":872000000000,"state":"active","ping":60},{"user_id":947,"name":"Menachem","steam_id":76561198041226420,"connected_time":741000000000,"state":"active","ping":48},{"user_id":952,"name":"Jelqing Table","steam_id":76561198051373750,"connected_time":654000000000,"state":"active","ping":74},{"user_id":933,"name":"JoJo","steam_id":76561198377244109,"connected_time":1696000000000,"state":"active","ping":107},{"user_id":945,"name":"pootisfan585","steam_id":76561198041938330,"connected_time":865000000000,"state":"active","ping":75},{"user_id":964,"name":"Larry","steam_id":76561198334604124,"connected_time":369000000000,"state":"active","ping":78},{"user_id":939,"name":"katiedidsings","steam_id":76561198090433209,"connected_time":1461000000000,"state":"active","ping":87},{"user_id":963,"name":"TJGSASQUATCH","steam_id":76561198077806921,"connected_time":484000000000,"state":"active","ping":98},{"user_id":956,"name":"Gorenar","steam_id":76561198295113883,"connected_time":609000000000,"state":"active","ping":122},{"user_id":940,"name":"robasek","steam_id":76561198260113445,"connected_time":1412000000000,"state":"active","ping":179},{"user_id":957,"name":"Viewie","steam_id":76561198280108853,"connected_time":609000000000,"state":"active","ping":82},{"user_id":946,"name":"Gh0w0st","steam_id":76561199471261226,"connected_time":862000000000,"state":"active","ping":83},{"user_id":902,"name":"Romeo","steam_id":76561198057889522,"connected_time":3906000000000,"state":"active","ping":67},{"user_id":958,"name":"the scranton dirt smoker","steam_id":76561198305796131,"connected_time":594000000000,"state":"active","ping":44},{"user_id":894,"name":"stuffedidiot","steam_id":76561199181513019,"connected_time":4977000000000,"state":"active","ping":95},{"user_id":896,"name":"AdosOS","steam_id":76561198051624021,"connected_time":4929000000000,"state":"active","ping":79},{"user_id":949,"name":"seats","steam_id":76561197998756039,"connected_time":718000000000,"state":"active","ping":96},{"user_id":937,"name":"helen keller","steam_id":76561197979870540,"connected_time":1645000000000,"state":"active","ping":45},{"user_id":901,"name":"Rat Smacker","steam_id":76561198043629646,"connected_time":4134000000000,"state":"active","ping":83},{"user_id":959,"name":"Tohru","steam_id":76561198139393876,"connected_time":592000000000,"state":"active","ping":75},{"user_id":960,"name":"KILL YOUR PARENTS","steam_id":76561198064214000,"connected_time":578000000000,"state":"active","ping":85},{"user_id":961,"name":"Saucy Boy","steam_id":76561198178332031,"connected_time":557000000000,"state":"active","ping":83},{"user_id":951,"name":"Metbol","steam_id":76561198001362410,"connected_time":707000000000,"state":"active","ping":78},{"user_id":900,"name":"Supur","steam_id":76561198051814355,"connected_time":4645000000000,"state":"active","ping":92}]},{"server_id":36,"name":"Uncletopia | Chicago | 5 | All Maps","name_short":"chi-5","host":"chi-2.us.uncletopia.com","port":27015,"enabled":true,"region":"us-central","cc":"us","latitude":41.881832,"longitude":-87.62318,"reserved":0,"last_update":"0001-01-01T00:00:00Z","name_a2s":"Uncletopia | Chicago | 5 | All Maps","protocol":17,"map":"pl_barnblitz","folder":"tf","game":"Team Fortress","app_id":440,"player_count":0,"max_players":24,"Bots":0,"server_type":"Dedicated","server_os":"Linux","password":true,"vac":true,"version":"7961495","steam_id":85568392924866362,"keywords":["nocrits","nodmgspread","payload","uncletopia"],"game_id":440,"stv_port":27016,"stv_name":"Uncletopia | Chicago | 5 | All Maps | STV","players":null},{"server_id":37,"name":"Uncletopia | Chicago | 6 | All Maps","name_short":"chi-6","host":"chi-2.us.uncletopia.com","port":27025,"enabled":true,"region":"us-central","cc":"us","latitude":41.881832,"longitude":-87.62318,"reserved":0,"last_update":"0001-01-01T00:00:00Z","name_a2s":"Uncletopia | Chicago | 6 | All Maps","protocol":17,"map":"pl_borneo","folder":"tf","game":"Team Fortress","app_id":440,"player_count":24,"max_players":24,"Bots":0,"server_type":"Dedicated","server_os":"Linux","password":true,"vac":true,"version":"7961495","steam_id":85568392924866363,"keywords":["nocrits","nodmgspread","payload","uncletopia"],"game_id":440,"stv_port":27026,"stv_name":"Uncletopia | Chicago | 6 | All Maps | STV","players":[{"user_id":419,"name":"One Lick Sleepy Joe","steam_id":76561198116751373,"connected_time":4166000000000,"state":"active","ping":111},{"user_id":437,"name":"Colonel Knacker","steam_id":76561198151578423,"connected_time":1964000000000,"state":"active","ping":57},{"user_id":452,"name":"Sunflower","steam_id":76561198081223793,"connected_time":56000000000,"state":"active","ping":61},{"user_id":341,"name":"chrischrischris3018@yahoo.com","steam_id":76561198137316053,"connected_time":9637000000000,"state":"active","ping":75},{"user_id":422,"name":"¬°c√°lmate!","steam_id":76561198071421094,"connected_time":4033000000000,"state":"active","ping":98},{"user_id":447,"name":"Torensz64(But weezer)","steam_id":76561198239036482,"connected_time":1259000000000,"state":"active","ping":54},{"user_id":403,"name":"·óúÀ¨·óú","steam_id":76561198049076233,"connected_time":4898000000000,"state":"active","ping":72},{"user_id":385,"name":"Glover Speedrunner","steam_id":76561198015154311,"connected_time":6358000000000,"state":"active","ping":50},{"user_id":448,"name":"Thewaffleman141","steam_id":76561198083068694,"connected_time":1153000000000,"state":"active","ping":69},{"user_id":451,"name":"yesoko","steam_id":76561198072917024,"connected_time":221000000000,"state":"active","ping":56},{"user_id":406,"name":"Storethis","steam_id":76561198082792619,"connected_time":4864000000000,"state":"active","ping":55},{"user_id":368,"name":"aqua","steam_id":76561199407709552,"connected_time":7543000000000,"state":"active","ping":58},{"user_id":350,"name":"DaMultiversalist","steam_id":76561198239552412,"connected_time":9027000000000,"state":"active","ping":64},{"user_id":413,"name":"Orceus","steam_id":76561198254906285,"connected_time":4613000000000,"state":"active","ping":162},{"user_id":374,"name":"Some_Arse","steam_id":76561198039095394,"connected_time":6790000000000,"state":"active","ping":69},{"user_id":439,"name":"Kuyumiester","steam_id":76561198126835302,"connected_time":1918000000000,"state":"active","ping":63},{"user_id":405,"name":"Nazmir Boglord","steam_id":76561198162890584,"connected_time":4885000000000,"state":"active","ping":63},{"user_id":440,"name":"Alyx","steam_id":76561198064654326,"connected_time":1803000000000,"state":"active","ping":142},{"user_id":441,"name":"ma≈Çiƒô","steam_id":76561198337705174,"connected_time":1708000000000,"state":"active","ping":73},{"user_id":449,"name":"Ray","steam_id":76561198021656524,"connected_time":867000000000,"state":"active","ping":91},{"user_id":450,"name":"Skip Hop Doo Bop","steam_id":76561199161571849,"connected_time":830000000000,"state":"active","ping":90},{"user_id":446,"name":"THIS","steam_id":76561198103269397,"connected_time":1401000000000,"state":"active","ping":144},{"user_id":418,"name":"Cringelander","steam_id":76561198841559088,"connected_time":4412000000000,"state":"active","ping":71},{"user_id":361,"name":"`o2","steam_id":76561197992030936,"connected_time":8573000000000,"state":"active","ping":62}]},{"server_id":38,"name":"Uncletopia | Chicago | 7 | Stopwatch","name_short":"chi-7","host":"chi-2.us.uncletopia.com","port":27035,"enabled":true,"region":"us-central","cc":"us","latitude":41.881832,"longitude":-87.62318,"reserved":0,"last_update":"0001-01-01T00:00:00Z","name_a2s":"Uncletopia | Chicago | 7 | Stopwatch","protocol":17,"map":"pl_borneo","folder":"tf","game":"Team Fortress","app_id":440,"player_count":0,"max_players":24,"Bots":0,"server_type":"Dedicated","server_os":"Linux","password":true,"vac":true,"version":"7961495","steam_id":85568392924866364,"keywords":["nocrits","nodmgspread","payload","uncletopia"],"game_id":440,"stv_port":27036,"stv_name":"Uncletopia | Chicago | 7 | Stopwatch | STV","players":null},{"server_id":39,"name":"Uncletopia | Chicago | 8 | Community","name_short":"chi-8","host":"chi-2.us.uncletopia.com","port":27045,"enabled":true,"region":"us-central","cc":"us","latitude":41.881832,"longitude":-87.62318,"reserved":0,"last_update":"0001-01-01T00:00:00Z","name_a2s":"Uncletopia | Chicago | 8 | Community","protocol":17,"map":"workshop/koth_slaughter_rc1.ugc1712845210","folder":"tf","game":"Team Fortress","app_id":440,"player_count":0,"max_players":24,"Bots":0,"server_type":"Dedicated","server_os":"Linux","password":true,"vac":true,"version":"7961495","steam_id":85568392924866365,"keywords":["cp","nocrits","nodmgspread","uncletopia"],"game_id":440,"stv_port":27046,"stv_name":"Uncletopia | Chicago | 8 | Community | STV","players":null},{"server_id":8,"name":"Uncletopia | Dallas | 1 | All Maps","name_short":"dal-1","host":"dal-1.us.uncletopia.com","port":27015,"enabled":true,"region":"us-central","cc":"us","latitude":32.779167,"longitude":-96.80889,"reserved":0,"last_update":"0001-01-01T00:00:00Z","name_a2s":"Uncletopia | Dallas | 1 | All Maps","protocol":17,"map":"cp_snakewater_final1","folder":"tf","game":"Team Fortress","app_id":440,"player_count":0,"max_players":24,"Bots":0,"server_type":"Dedicated","server_os":"Linux","password":true,"vac":true,"version":"7961495","steam_id":85568392924469986,"keywords":["cp","nocrits","nodmgspread","uncletopia"],"game_id":440,"stv_port":27016,"stv_name":"Uncletopia | Dallas | 1 | All Maps | STV","players":null},{"server_id":108,"name":"Uncletopia | Dallas | 2 | All Maps","name_short":"dal-2","host":"dal-1.us.uncletopia.com","port":27025,"enabled":true,"region":"us-central","cc":"us","latitude":32.779167,"longitude":-96.80889,"reserved":0,"last_update":"0001-01-01T00:00:00Z","name_a2s":"Uncletopia | Dallas | 2 | All Maps","protocol":17,"map":"cp_gorge","folder":"tf","game":"Team Fortress","app_id":440,"player_count":0,"max_players":24,"Bots":0,"server_type":"Dedicated","server_os":"Linux","password":true,"vac":true,"version":"7961495","steam_id":85568392924469988,"keywords":["cp","nocrits","nodmgspread","uncletopia"],"game_id":440,"stv_port":27026,"stv_name":"Uncletopia | Dallas | 2 | All Maps | STV","players":null},{"server_id":404,"name":"Uncletopia | Dallas | 3 | All Maps","name_short":"dal-3","host":"dal-1.us.uncletopia.com","port":27035,"enabled":true,"region":"us-central","cc":"us","latitude":32.779167,"longitude":-96.80889,"reserved":0,"last_update":"0001-01-01T00:00:00Z","name_a2s":"Uncletopia | Dallas | 3 | All Maps","protocol":17,"map":"pl_barnblitz","folder":"tf","game":"Team Fortress","app_id":440,"player_count":12,"max_players":24,"Bots":0,"server_type":"Dedicated","server_os":"Linux","password":true,"vac":true,"version":"7961495","steam_id":85568392924515219,"keywords":["nocrits","nodmgspread","payload","uncletopia"],"game_id":440,"stv_port":27036,"stv_name":"Uncletopia | Dallas | 3 | All Maps | STV","players":[{"user_id":201,"name":"Caleb The Hedgehog","steam_id":76561198188496597,"connected_time":589000000000,"state":"active","ping":61},{"user_id":200,"name":"PIPPIN","steam_id":76561199013202758,"connected_time":629000000000,"state":"active","ping":66},{"user_id":203,"name":"at4p4l  her","steam_id":76561198877065517,"connected_time":292000000000,"state":"active","ping":90},{"user_id":204,"name":"monkey squirts","steam_id":76561197983101644,"connected_time":163000000000,"state":"active","ping":75},{"user_id":205,"name":"The Assistant Regional Manager","steam_id":76561199221484936,"connected_time":148000000000,"state":"active","ping":96},{"user_id":206,"name":"Creature","steam_id":76561198194585781,"connected_time":123000000000,"state":"active","ping":82},{"user_id":207,"name":"Weed Dealer","steam_id":76561198418604400,"connected_time":80000000000,"state":"active","ping":104},{"user_id":170,"name":"penzfan","steam_id":76561198230422640,"connected_time":3334000000000,"state":"active","ping":65},{"user_id":208,"name":"ChimpusGaming","steam_id":76561198060954715,"connected_time":17000000000,"state":"active","ping":71},{"user_id":209,"name":"Legit_Jaxer","steam_id":76561198172234053,"connected_time":2000000000,"state":"spawning","ping":92},{"user_id":184,"name":"KiWii","steam_id":76561199013608864,"connected_time":2246000000000,"state":"active","ping":59},{"user_id":105,"name":"tuz","steam_id":76561197979961213,"connected_time":7584000000000,"state":"active","ping":53}]},{"server_id":405,"name":"Uncletopia | Dallas | 4 | Community","name_short":"dal-4","host":"dal-1.us.uncletopia.com","port":27045,"enabled":true,"region":"us-central","cc":"us","latitude":32.779167,"longitude":-96.80889,"reserved":0,"last_update":"0001-01-01T00:00:00Z","name_a2s":"Uncletopia | Dallas | 4 | Community","protocol":17,"map":"workshop/koth_slaughter_rc1.ugc1712845210","folder":"tf","game":"Team Fortress","app_id":440,"player_count":0,"max_players":24,"Bots":0,"server_type":"Dedicated","server_os":"Linux","password":true,"vac":true,"version":"7961495","steam_id":85568392924515220,"keywords":["cp","nocrits","nodmgspread","uncletopia"],"game_id":440,"stv_port":27046,"stv_name":"Uncletopia | Dallas | 4 | Community | STV","players":null},{"server_id":5,"name":"Uncletopia | Frankfurt | 1 | All Maps","name_short":"frk-1","host":"frk-1.de.uncletopia.com","port":27015,"enabled":true,"region":"eu","cc":"de","latitude":50.110924,"longitude":8.682127,"reserved":0,"last_update":"0001-01-01T00:00:00Z","name_a2s":"Uncletopia | Frankfurt | 1 | All Maps","protocol":17,"map":"koth_highpass","folder":"tf","game":"Team Fortress","app_id":440,"player_count":0,"max_players":24,"Bots":0,"server_type":"Dedicated","server_os":"Linux","password":true,"vac":true,"version":"7961495","steam_id":85568392924469989,"keywords":["cp","nocrits","nodmgspread","uncletopia"],"game_id":440,"stv_port":27016,"stv_name":"Uncletopia | Frankfurt | 1 | All Maps | STV","players":null},{"server_id":110,"name":"Uncletopia | Frankfurt | 2 | All Maps","name_short":"frk-2","host":"frk-1.de.uncletopia.com","port":27025,"enabled":true,"region":"eu","cc":"de","latitude":50.110924,"longitude":8.682127,"reserved":0,"last_update":"0001-01-01T00:00:00Z","name_a2s":"Uncletopia | Frankfurt | 2 | All Maps","protocol":17,"map":"cp_snakewater_final1","folder":"tf","game":"Team Fortress","app_id":440,"player_count":0,"max_players":24,"Bots":0,"server_type":"Dedicated","server_os":"Linux","password":true,"vac":true,"version":"7961495","steam_id":85568392924469990,"keywords":["cp","nocrits","nodmgspread","uncletopia"],"game_id":440,"stv_port":27026,"stv_name":"Uncletopia | Frankfurt | 2 | All Maps | STV","players":null},{"server_id":308,"name":"Uncletopia | Frankfurt | 3 | All Maps","name_short":"frk-3","host":"frk-1.de.uncletopia.com","port":27035,"enabled":true,"region":"eu","cc":"de","latitude":50.110924,"longitude":8.682127,"reserved":0,"last_update":"0001-01-01T00:00:00Z","name_a2s":"Uncletopia | Frankfurt | 3 | All Maps","protocol":17,"map":"pl_barnblitz","folder":"tf","game":"Team Fortress","app_id":440,"player_count":0,"max_players":24,"Bots":0,"server_type":"Dedicated","server_os":"Linux","password":true,"vac":true,"version":"7961495","steam_id":85568392924504274,"keywords":["nocrits","nodmgspread","payload","uncletopia"],"game_id":440,"stv_port":27036,"stv_name":"Uncletopia | Frankfurt | 3 | All Maps | STV","players":null},{"server_id":309,"name":"Uncletopia | Frankfurt | 4 | All Maps","name_short":"frk-4","host":"frk-1.de.uncletopia.com","port":27045,"enabled":true,"region":"eu","cc":"de","latitude":50.110924,"longitude":8.682127,"reserved":0,"last_update":"0001-01-01T00:00:00Z","name_a2s":"Uncletopia | Frankfurt | 4 | All Maps","protocol":17,"map":"koth_highpass","folder":"tf","game":"Team Fortress","app_id":440,"player_count":0,"max_players":24,"Bots":0,"server_type":"Dedicated","server_os":"Linux","password":true,"vac":true,"version":"7961495","steam_id":85568392924504275,"keywords":["cp","nocrits","nodmgspread","uncletopia"],"game_id":440,"stv_port":27046,"stv_name":"Uncletopia | Frankfurt | 4 | All Maps | STV","players":null},{"server_id":310,"name":"Uncletopia | Frankfurt | 5 | All Maps","name_short":"frk-5","host":"frk-1.de.uncletopia.com","port":27055,"enabled":true,"region":"eu","cc":"de","latitude":50.110924,"longitude":8.682127,"reserved":0,"last_update":"0001-01-01T00:00:00Z","name_a2s":"Uncletopia | Frankfurt | 5 | All Maps","protocol":17,"map":"pl_badwater","folder":"tf","game":"Team Fortress","app_id":440,"player_count":18,"max_players":24,"Bots":0,"server_type":"Dedicated","server_os":"Linux","password":true,"vac":true,"version":"7961495","steam_id":85568392924504277,"keywords":["nocrits","nodmgspread","payload","uncletopia"],"game_id":440,"stv_port":27056,"stv_name":"Uncletopia | Frankfurt | 5 | All Maps | STV","players":[{"user_id":3,"name":"Falcon","steam_id":76561198211463916,"connected_time":1715000000000,"state":"active","ping":101},{"user_id":5,"name":"the fungus","steam_id":76561198173399643,"connected_time":1657000000000,"state":"active","ping":72},{"user_id":6,"name":"[IVe/LO]Jadore_les_Currywurst","steam_id":76561198005084382,"connected_time":1467000000000,"state":"active","ping":93},{"user_id":25,"name":"bed wetter","steam_id":76561199065405827,"connected_time":59000000000,"state":"active","ping":261},{"user_id":8,"name":"Fatmagic Mukbang ASMR","steam_id":76561198063492110,"connected_time":762000000000,"state":"active","ping":82},{"user_id":9,"name":"Zulik92","steam_id":76561198152442373,"connected_time":673000000000,"state":"active","ping":62},{"user_id":10,"name":"skelebin","steam_id":76561199480942903,"connected_time":672000000000,"state":"active","ping":63},{"user_id":13,"name":"Vincere aut mori.","steam_id":76561198170994682,"connected_time":427000000000,"state":"active","ping":79},{"user_id":12,"name":"Pfaff Ferenc","steam_id":76561199502583278,"connected_time":475000000000,"state":"active","ping":56},{"user_id":14,"name":"marvs","steam_id":76561198851777617,"connected_time":412000000000,"state":"active","ping":55},{"user_id":15,"name":"Rummin","steam_id":76561198064739834,"connected_time":401000000000,"state":"active","ping":68},{"user_id":16,"name":"Dani","steam_id":76561198211627920,"connected_time":338000000000,"state":"active","ping":64},{"user_id":17,"name":"Skelgo","steam_id":76561198439667867,"connected_time":335000000000,"state":"active","ping":58},{"user_id":22,"name":"main weapon machine broke","steam_id":76561198041329823,"connected_time":98000000000,"state":"active","ping":83},{"user_id":19,"name":"financial regret","steam_id":76561198448523433,"connected_time":220000000000,"state":"active","ping":79},{"user_id":21,"name":"j4w","steam_id":76561198174546443,"connected_time":163000000000,"state":"active","ping":57},{"user_id":23,"name":"Bungus","steam_id":76561197984426574,"connected_time":90000000000,"state":"active","ping":154},{"user_id":24,"name":"Yalls","steam_id":76561199382978934,"connected_time":83000000000,"state":"active","ping":83}]},{"server_id":311,"name":"Uncletopia | Frankfurt | 6 | All Maps","name_short":"frk-6","host":"frk-1.de.uncletopia.com","port":27065,"enabled":true,"region":"eu","cc":"de","latitude":50.110924,"longitude":8.682127,"reserved":0,"last_update":"0001-01-01T00:00:00Z","name_a2s":"Uncletopia | Frankfurt | 6 | All Maps","protocol":17,"map":"cp_altitude","folder":"tf","game":"Team Fortress","app_id":440,"player_count":0,"max_players":24,"Bots":0,"server_type":"Dedicated","server_os":"Linux","password":true,"vac":true,"version":"7961495","steam_id":85568392924504278,"keywords":["cp","nocrits","nodmgspread","uncletopia"],"game_id":440,"stv_port":27066,"stv_name":"Uncletopia | Frankfurt | 6 | All Maps | STV","players":null},{"server_id":23,"name":"Uncletopia | Frankfurt | 7 | Stopwatch","name_short":"frk-7","host":"frk-1.de.uncletopia.com","port":27075,"enabled":true,"region":"eu","cc":"de","latitude":50.110924,"longitude":8.682127,"reserved":0,"last_update":"0001-01-01T00:00:00Z","name_a2s":"Uncletopia | Frankfurt | 7 | Stopwatch","protocol":17,"map":"pl_frontier_final","folder":"tf","game":"Team Fortress","app_id":440,"player_count":0,"max_players":24,"Bots":0,"server_type":"Dedicated","server_os":"Linux","password":true,"vac":true,"version":"7961495","steam_id":85568392924742827,"keywords":["nocrits","nodmgspread","payload","uncletopia"],"game_id":440,"stv_port":27076,"stv_name":"Uncletopia | Frankfurt | 7 | Stopwatch | STV","players":null},{"server_id":24,"name":"Uncletopia | Frankfurt | 8 | Community","name_short":"frk-8","host":"frk-1.de.uncletopia.com","port":27085,"enabled":true,"region":"eu","cc":"de","latitude":50.110924,"longitude":8.682127,"reserved":0,"last_update":"0001-01-01T00:00:00Z","name_a2s":"Uncletopia | Frankfurt | 8 | Community","protocol":17,"map":"cp_mountainlab","folder":"tf","game":"Team Fortress","app_id":440,"player_count":0,"max_players":24,"Bots":0,"server_type":"Dedicated","server_os":"Linux","password":true,"vac":true,"version":"7961495","steam_id":85568392924742828,"keywords":["cp","nocrits","nodmgspread","uncletopia"],"game_id":440,"stv_port":27086,"stv_name":"Uncletopia | Frankfurt | 8 | Community | STV","players":null},{"server_id":202,"name":"Uncletopia | Hong Kong | 1 | All Maps","name_short":"hgk-1","host":"hgk-1.hk.uncletopia.com","port":27015,"enabled":true,"region":"asia","cc":"hk","latitude":22.302711,"longitude":114.177216,"reserved":0,"last_update":"0001-01-01T00:00:00Z","name_a2s":"Uncletopia | Hong Kong | 1 | All Maps","protocol":17,"map":"pl_upward","folder":"tf","game":"Team Fortress","app_id":440,"player_count":24,"max_players":24,"Bots":0,"server_type":"Dedicated","server_os":"Linux","password":true,"vac":true,"version":"7961495","steam_id":85568392924494504,"keywords":["nocrits","nodmgspread","payload","uncletopia"],"game_id":440,"stv_port":27016,"stv_name":"Uncletopia | Hong Kong | 1 | All Maps | STV","players":[{"user_id":155,"name":"Lady D.","steam_id":76561199225360457,"connected_time":488000000000,"state":"active","ping":73},{"user_id":126,"name":"Telekhine","steam_id":76561198387120618,"connected_time":3133000000000,"state":"active","ping":61},{"user_id":144,"name":"soh.cayden","steam_id":76561198985588227,"connected_time":1179000000000,"state":"active","ping":91},{"user_id":151,"name":"poopypantsjoe","steam_id":76561198204747977,"connected_time":561000000000,"state":"active","ping":72},{"user_id":141,"name":"ArcticDolphin","steam_id":76561198203626319,"connected_time":1693000000000,"state":"active","ping":127},{"user_id":124,"name":"kiyomi","steam_id":76561198240627872,"connected_time":3348000000000,"state":"active","ping":50},{"user_id":118,"name":"ÍπÄÍ¥ëÎßå","steam_id":76561198295279503,"connected_time":4454000000000,"state":"active","ping":104},{"user_id":80,"name":"noob pyro of all time","steam_id":76561198074339034,"connected_time":8594000000000,"state":"active","ping":77},{"user_id":100,"name":"cau be thieu nang","steam_id":76561199273435519,"connected_time":6030000000000,"state":"active","ping":72},{"user_id":156,"name":"g-host","steam_id":76561198298740090,"connected_time":447000000000,"state":"active","ping":99},{"user_id":132,"name":"water tastes good","steam_id":76561199375947670,"connected_time":1845000000000,"state":"active","ping":65},{"user_id":138,"name":"force","steam_id":76561199109339247,"connected_time":1777000000000,"state":"active","ping":77},{"user_id":147,"name":"Lady \u0026 The Tramp (1955)","steam_id":76561198422543918,"connected_time":804000000000,"state":"active","ping":105},{"user_id":139,"name":"TomProPlayer","steam_id":76561199223292521,"connected_time":1754000000000,"state":"active","ping":71},{"user_id":44,"name":"villy","steam_id":76561198169263597,"connected_time":12845000000000,"state":"active","ping":37},{"user_id":152,"name":"Drutzhfer","steam_id":76561198299948446,"connected_time":558000000000,"state":"active","ping":109},{"user_id":103,"name":"xXxSheesh123ProGamerxXx","steam_id":76561198835368750,"connected_time":5787000000000,"state":"active","ping":72},{"user_id":72,"name":"3wfFbdrjEze5d2G","steam_id":76561198435900451,"connected_time":10064000000000,"state":"active","ping":108},{"user_id":153,"name":"naturo uchicha","steam_id":76561199075775384,"connected_time":552000000000,"state":"active","ping":83},{"user_id":142,"name":"The Crackmas Creature","steam_id":76561198979062957,"connected_time":1577000000000,"state":"active","ping":75},{"user_id":154,"name":"Paquette Loss","steam_id":76561198870774355,"connected_time":549000000000,"state":"active","ping":150},{"user_id":136,"name":"hana014","steam_id":76561198113401862,"connected_time":1783000000000,"state":"active","ping":95},{"user_id":121,"name":"Spy CrŒªb F2P","steam_id":76561199090200486,"connected_time":3575000000000,"state":"active","ping":62},{"user_id":125,"name":"RedBee (Femboy Nurse Èõô)","steam_id":76561198976736971,"connected_time":3343000000000,"state":"active","ping":45}]},{"server_id":1,"name":"Uncletopia | Los Angeles | 1 | All Maps","name_short":"lax-1","host":"lax-1.us.uncletopia.com","port":27015,"enabled":true,"region":"us-west","cc":"us","latitude":33.94279,"longitude":-118.41004,"reserved":0,"last_update":"0001-01-01T00:00:00Z","name_a2s":"Uncletopia | Los Angeles | 1 | All Maps","protocol":17,"map":"pl_upward","folder":"tf","game":"Team Fortress","app_id":440,"player_count":0,"max_players":24,"Bots":0,"server_type":"Dedicated","server_os":"Linux","password":true,"vac":true,"version":"7961495","steam_id":85568392924469991,"keywords":["nocrits","nodmgspread","payload","uncletopia"],"game_id":440,"stv_port":27016,"stv_name":"Uncletopia | Los Angeles | 1 | All Maps | STV","players":null},{"server_id":112,"name":"Uncletopia | Los Angeles | 2 | All Maps","name_short":"lax-2","host":"lax-1.us.uncletopia.com","port":27025,"enabled":true,"region":"us-west","cc":"us","latitude":33.94279,"longitude":-118.41004,"reserved":0,"last_update":"0001-01-01T00:00:00Z","name_a2s":"Uncletopia | Los Angeles | 2 | All Maps","protocol":17,"map":"cp_altitude","folder":"tf","game":"Team Fortress","app_id":440,"player_count":0,"max_players":24,"Bots":0,"server_type":"Dedicated","server_os":"Linux","password":true,"vac":true,"version":"7961495","steam_id":85568392924469992,"keywords":["cp","nocrits","nodmgspread","uncletopia"],"game_id":440,"stv_port":27026,"stv_name":"Uncletopia | Los Angeles | 2 | All Maps | STV","players":null},{"server_id":324,"name":"Uncletopia | Los Angeles | 3 | All Maps","name_short":"lax-3","host":"lax-1.us.uncletopia.com","port":27035,"enabled":true,"region":"us-west","cc":"us","latitude":33.94279,"longitude":-118.41004,"reserved":0,"last_update":"0001-01-01T00:00:00Z","name_a2s":"Uncletopia | Los Angeles | 3 | All Maps","protocol":17,"map":"pl_frontier_final","folder":"tf","game":"Team Fortress","app_id":440,"player_count":24,"max_players":24,"Bots":0,"server_type":"Dedicated","server_os":"Linux","password":true,"vac":true,"version":"7961495","steam_id":85568392924510198,"keywords":["nocrits","nodmgspread","payload","uncletopia"],"game_id":440,"stv_port":27036,"stv_name":"Uncletopia | Los Angeles | 3 | All Maps | STV","players":[{"user_id":396,"name":"dewey","steam_id":76561198132791511,"connected_time":2751000000000,"state":"active","ping":58},{"user_id":374,"name":"EclipseHellhound","steam_id":76561199192649470,"connected_time":4088000000000,"state":"active","ping":58},{"user_id":411,"name":"Jimmy","steam_id":76561198857959855,"connected_time":1343000000000,"state":"active","ping":47},{"user_id":398,"name":"waggyaggy (it/she)","steam_id":76561197998241407,"connected_time":2741000000000,"state":"active","ping":45},{"user_id":421,"name":"June","steam_id":76561198141803658,"connected_time":425000000000,"state":"active","ping":46},{"user_id":409,"name":"SneekiCheekiQbone","steam_id":76561198045077980,"connected_time":1761000000000,"state":"active","ping":43},{"user_id":405,"name":"waffles con leche","steam_id":76561198246934872,"connected_time":2016000000000,"state":"active","ping":72},{"user_id":406,"name":"netoc6","steam_id":76561199065312168,"connected_time":1993000000000,"state":"active","ping":119},{"user_id":419,"name":"Irony is pretty cringy","steam_id":76561198120391460,"connected_time":594000000000,"state":"active","ping":45},{"user_id":386,"name":"HopeTheNeko","steam_id":76561199159285465,"connected_time":3756000000000,"state":"active","ping":58},{"user_id":415,"name":"Artic_Ryuu","steam_id":76561198182194918,"connected_time":1076000000000,"state":"active","ping":43},{"user_id":347,"name":"Noire","steam_id":76561198149370109,"connected_time":5796000000000,"state":"active","ping":74},{"user_id":376,"name":"Under an Unquiet Skull","steam_id":76561198164782653,"connected_time":4069000000000,"state":"active","ping":114},{"user_id":388,"name":"eBay","steam_id":76561198061214569,"connected_time":3652000000000,"state":"active","ping":98},{"user_id":416,"name":"Hopdon The Magic Bunny","steam_id":76561198051616613,"connected_time":1045000000000,"state":"active","ping":120},{"user_id":407,"name":"T√ºCold","steam_id":76561198111278197,"connected_time":1846000000000,"state":"active","ping":63},{"user_id":412,"name":"Western_dragon","steam_id":76561198130456105,"connected_time":1330000000000,"state":"active","ping":54},{"user_id":413,"name":"klobb kobold","steam_id":76561198069606362,"connected_time":1217000000000,"state":"active","ping":69},{"user_id":420,"name":"M4 Sherman","steam_id":76561198011096132,"connected_time":568000000000,"state":"active","ping":58},{"user_id":377,"name":"gerg","steam_id":76561197997127387,"connected_time":4067000000000,"state":"active","ping":62},{"user_id":359,"name":"roach :3","steam_id":76561198354811369,"connected_time":5425000000000,"state":"active","ping":52},{"user_id":417,"name":"Hernandez$","steam_id":76561198019324588,"connected_time":978000000000,"state":"active","ping":78},{"user_id":414,"name":"giddy","steam_id":76561198271951969,"connected_time":1151000000000,"state":"active","ping":62},{"user_id":361,"name":"Ian","steam_id":76561198159334435,"connected_time":5365000000000,"state":"active","ping":165}]},{"server_id":25,"name":"Uncletopia | Los Angeles | 4 | Stopwatch","name_short":"lax-4","host":"lax-1.us.uncletopia.com","port":27045,"enabled":true,"region":"us-west","cc":"us","latitude":33.94279,"longitude":-118.41004,"reserved":0,"last_update":"0001-01-01T00:00:00Z","name_a2s":"Uncletopia | Los Angeles | 4 | Stopwatch","protocol":17,"map":"pl_barnblitz","folder":"tf","game":"Team Fortress","app_id":440,"player_count":0,"max_players":24,"Bots":0,"server_type":"Dedicated","server_os":"Linux","password":true,"vac":true,"version":"7961495","steam_id":85568392924510199,"keywords":["nocrits","nodmgspread","payload","uncletopia"],"game_id":440,"stv_port":27046,"stv_name":"Uncletopia | Los Angeles | 4 | Stopwatch | STV","players":null},{"server_id":11,"name":"Uncletopia | London | 1 | All Maps","name_short":"lon-1","host":"lon-1.uk.uncletopia.com","port":27015,"enabled":true,"region":"eu","cc":"gb","latitude":51.509865,"longitude":-0.118092,"reserved":0,"last_update":"0001-01-01T00:00:00Z","name_a2s":"Uncletopia | London | 1 | All Maps","protocol":17,"map":"koth_highpass","folder":"tf","game":"Team Fortress","app_id":440,"player_count":0,"max_players":24,"Bots":0,"server_type":"Dedicated","server_os":"Linux","password":true,"vac":true,"version":"7961495","steam_id":85568392924367362,"keywords":["cp","nocrits","nodmgspread","uncletopia"],"game_id":440,"stv_port":27016,"stv_name":"Uncletopia | London | 1 | All Maps | STV","players":null},{"server_id":114,"name":"Uncletopia | London | 2 | All Maps","name_short":"lon-2","host":"lon-1.uk.uncletopia.com","port":27025,"enabled":true,"region":"eu","cc":"gb","latitude":51.509865,"longitude":-0.118092,"reserved":0,"last_update":"0001-01-01T00:00:00Z","name_a2s":"Uncletopia | London | 2 | All Maps","protocol":17,"map":"koth_lakeside_final","folder":"tf","game":"Team Fortress","app_id":440,"player_count":0,"max_players":24,"Bots":0,"server_type":"Dedicated","server_os":"Linux","password":true,"vac":true,"version":"7961495","steam_id":85568392924470941,"keywords":["cp","nocrits","nodmgspread","uncletopia"],"game_id":440,"stv_port":27026,"stv_name":"Uncletopia | London | 2 | All Maps | STV","players":null},{"server_id":320,"name":"Uncletopia | London | 3 | All Maps","name_short":"lon-3","host":"lon-1.uk.uncletopia.com","port":27035,"enabled":true,"region":"eu","cc":"gb","latitude":51.509865,"longitude":-0.118092,"reserved":0,"last_update":"0001-01-01T00:00:00Z","name_a2s":"Uncletopia | London | 3 | All Maps","protocol":17,"map":"koth_lakeside_final","folder":"tf","game":"Team Fortress","app_id":440,"player_count":0,"max_players":24,"Bots":0,"server_type":"Dedicated","server_os":"Linux","password":true,"vac":true,"version":"7961495","steam_id":85568392924510192,"keywords":["cp","nocrits","nodmgspread","uncletopia"],"game_id":440,"stv_port":27036,"stv_name":"Uncletopia | London | 3 | All Maps | STV","players":null},{"server_id":321,"name":"Uncletopia | London | 4 | All Maps","name_short":"lon-4","host":"lon-1.uk.uncletopia.com","port":27045,"enabled":true,"region":"eu","cc":"gb","latitude":51.509865,"longitude":-0.118092,"reserved":0,"last_update":"0001-01-01T00:00:00Z","name_a2s":"Uncletopia | London | 4 | All Maps","protocol":17,"map":"koth_cascade","folder":"tf","game":"Team Fortress","app_id":440,"player_count":0,"max_players":24,"Bots":0,"server_type":"Dedicated","server_os":"Linux","password":true,"vac":true,"version":"7961495","steam_id":85568392924510193,"keywords":["cp","nocrits","nodmgspread","uncletopia"],"game_id":440,"stv_port":27046,"stv_name":"Uncletopia | London | 4 | All Maps | STV","players":null},{"server_id":21,"name":"Uncletopia | London | 5 | All Maps","name_short":"lon-5","host":"lon-1.uk.uncletopia.com","port":27055,"enabled":true,"region":"eu","cc":"gb","latitude":51.509865,"longitude":-0.118092,"reserved":0,"last_update":"0001-01-01T00:00:00Z","name_a2s":"Uncletopia | London | 5 | All Maps","protocol":17,"map":"koth_lakeside_final","folder":"tf","game":"Team Fortress","app_id":440,"player_count":0,"max_players":24,"Bots":0,"server_type":"Dedicated","server_os":"Linux","password":true,"vac":true,"version":"7961495","steam_id":85568392924742829,"keywords":["cp","nocrits","nodmgspread","uncletopia"],"game_id":440,"stv_port":27056,"stv_name":"Uncletopia | London | 5 | All Maps | STV","players":null},{"server_id":22,"name":"Uncletopia | London | 6 | All Maps","name_short":"lon-6","host":"lon-1.uk.uncletopia.com","port":27065,"enabled":true,"region":"eu","cc":"gb","latitude":51.509865,"longitude":-0.118092,"reserved":0,"last_update":"0001-01-01T00:00:00Z","name_a2s":"Uncletopia | London | 6 | All Maps","protocol":17,"map":"cp_dustbowl","folder":"tf","game":"Team Fortress","app_id":440,"player_count":0,"max_players":24,"Bots":0,"server_type":"Dedicated","server_os":"Linux","password":true,"vac":true,"version":"7961495","steam_id":85568392924742830,"keywords":["cp","nocrits","nodmgspread","uncletopia"],"game_id":440,"stv_port":27066,"stv_name":"Uncletopia | London | 6 | All Maps | STV","players":null},{"server_id":40,"name":"Uncletopia | London | 7 | Stopwatch","name_short":"lon-7","host":"lon-1.uk.uncletopia.com","port":27075,"enabled":true,"region":"eu","cc":"gb","latitude":51.509865,"longitude":-0.118092,"reserved":0,"last_update":"0001-01-01T00:00:00Z","name_a2s":"Uncletopia | London | 7 | Stopwatch","protocol":17,"map":"koth_lakeside_final","folder":"tf","game":"Team Fortress","app_id":440,"player_count":0,"max_players":24,"Bots":0,"server_type":"Dedicated","server_os":"Linux","password":true,"vac":true,"version":"7961495","steam_id":85568392924964314,"keywords":["cp","nocrits","nodmgspread","uncletopia"],"game_id":440,"stv_port":27076,"stv_name":"Uncletopia | London | 7 | Stopwatch | STV","players":null},{"server_id":41,"name":"Uncletopia | London | 8 | Community","name_short":"lon-8","host":"lon-1.uk.uncletopia.com","port":27085,"enabled":true,"region":"eu","cc":"gb","latitude":51.509865,"longitude":-0.118092,"reserved":0,"last_update":"0001-01-01T00:00:00Z","name_a2s":"Uncletopia | London | 8 | Community","protocol":17,"map":"cp_snakewater_final1","folder":"tf","game":"Team Fortress","app_id":440,"player_count":0,"max_players":24,"Bots":0,"server_type":"Dedicated","server_os":"Linux","password":true,"vac":true,"version":"7961495","steam_id":85568392924964315,"keywords":["cp","nocrits","nodmgspread","uncletopia"],"game_id":440,"stv_port":27086,"stv_name":"Uncletopia | London | 8 | Community | STV","players":null},{"server_id":300,"name":"Uncletopia | Montr√©al | 1 | One Thousand Uncles","name_short":"mtl-1","host":"mtl-1.ca.uncletopia.com","port":27015,"enabled":true,"region":"us-east","cc":"ca","latitude":45.50889,"longitude":-73.56167,"reserved":0,"last_update":"0001-01-01T00:00:00Z","name_a2s":"","protocol":0,"map":"","folder":"","game":"","app_id":0,"player_count":0,"max_players":0,"Bots":0,"server_type":"","server_os":"","password":false,"vac":false,"version":"","steam_id":0,"keywords":null,"game_id":0,"stv_port":0,"stv_name":"","players":null},{"server_id":301,"name":"Uncletopia | Montr√©al | 2 | One Thousand Uncles","name_short":"mtl-2","host":"mtl-1.ca.uncletopia.com","port":27025,"enabled":true,"region":"us-east","cc":"ca","latitude":45.50889,"longitude":-73.56167,"reserved":0,"last_update":"0001-01-01T00:00:00Z","name_a2s":"","protocol":0,"map":"","folder":"","game":"","app_id":0,"player_count":0,"max_players":0,"Bots":0,"server_type":"","server_os":"","password":false,"vac":false,"version":"","steam_id":0,"keywords":null,"game_id":0,"stv_port":0,"stv_name":"","players":null},{"server_id":302,"name":"Uncletopia | Montr√©al | 3 | One Thousand Uncles","name_short":"mtl-3","host":"mtl-1.ca.uncletopia.com","port":27035,"enabled":true,"region":"us-east","cc":"ca","latitude":45.50889,"longitude":-73.56167,"reserved":0,"last_update":"0001-01-01T00:00:00Z","name_a2s":"","protocol":0,"map":"","folder":"","game":"","app_id":0,"player_count":0,"max_players":0,"Bots":0,"server_type":"","server_os":"","password":false,"vac":false,"version":"","steam_id":0,"keywords":null,"game_id":0,"stv_port":0,"stv_name":"","players":null},{"server_id":13,"name":"Uncletopia | New York City | 1 | All Maps","name_short":"nyc-1","host":"nyc-1.us.uncletopia.com","port":27015,"enabled":true,"region":"us-east","cc":"us","latitude":40.73061,"longitude":-73.93524,"reserved":0,"last_update":"0001-01-01T00:00:00Z","name_a2s":"Uncletopia | New York City | 1 | All Maps","protocol":17,"map":"cp_process_final","folder":"tf","game":"Team Fortress","app_id":440,"player_count":0,"max_players":24,"Bots":0,"server_type":"Dedicated","server_os":"Linux","password":true,"vac":true,"version":"7961495","steam_id":85568392924469993,"keywords":["cp","nocrits","nodmgspread","uncletopia"],"game_id":440,"stv_port":27016,"stv_name":"Uncletopia | New York City | 1 | All Maps | STV","players":null},{"server_id":14,"name":"Uncletopia | New York City | 2 | All Maps","name_short":"nyc-2","host":"nyc-1.us.uncletopia.com","port":27025,"enabled":true,"region":"us-east","cc":"us","latitude":40.73061,"longitude":-73.93524,"reserved":0,"last_update":"0001-01-01T00:00:00Z","name_a2s":"Uncletopia | New York City | 2 | All Maps","protocol":17,"map":"pl_rumford_event","folder":"tf","game":"Team Fortress","app_id":440,"player_count":7,"max_players":24,"Bots":0,"server_type":"Dedicated","server_os":"Linux","password":true,"vac":true,"version":"7961495","steam_id":85568392924469994,"keywords":["nocrits","nodmgspread","payload","uncletopia"],"game_id":440,"stv_port":27026,"stv_name":"Uncletopia | New York City | 2 | All Maps | STV","players":[{"user_id":766,"name":"Zesty Zucchini Ziti","steam_id":76561198092494136,"connected_time":3130000000000,"state":"active","ping":73},{"user_id":806,"name":"ScoutBox","steam_id":76561198111539895,"connected_time":572000000000,"state":"active","ping":109},{"user_id":736,"name":"Evan","steam_id":76561198081165364,"connected_time":5602000000000,"state":"active","ping":52},{"user_id":805,"name":"C Papi","steam_id":76561198027779564,"connected_time":719000000000,"state":"active","ping":60},{"user_id":726,"name":"sloth (i have gay)","steam_id":76561198047098172,"connected_time":6430000000000,"state":"active","ping":60},{"user_id":802,"name":"Strange Festive Femboy","steam_id":76561198050385093,"connected_time":889000000000,"state":"active","ping":54},{"user_id":785,"name":"Sly cooper","steam_id":76561198242108868,"connected_time":2240000000000,"state":"active","ping":58}]},{"server_id":15,"name":"Uncletopia | New York City | 3 | Stopwatch","name_short":"nyc-3","host":"nyc-1.us.uncletopia.com","port":27035,"enabled":true,"region":"us-east","cc":"us","latitude":40.73061,"longitude":-73.93524,"reserved":0,"last_update":"0001-01-01T00:00:00Z","name_a2s":"Uncletopia | New York City | 3 | Stopwatch","protocol":17,"map":"workshop/koth_ashville_final.ugc2130459942","folder":"tf","game":"Team Fortress","app_id":440,"player_count":0,"max_players":24,"Bots":0,"server_type":"Dedicated","server_os":"Linux","password":true,"vac":true,"version":"7961495","steam_id":85568392924742820,"keywords":["cp","nocrits","nodmgspread","uncletopia"],"game_id":440,"stv_port":27036,"stv_name":"Uncletopia | New York City | 3 | Stopwatch | STV","players":null},{"server_id":16,"name":"Uncletopia | New York City | 4 | Community","name_short":"nyc-4","host":"nyc-1.us.uncletopia.com","port":27045,"enabled":true,"region":"us-east","cc":"us","latitude":40.73061,"longitude":-73.93524,"reserved":0,"last_update":"0001-01-01T00:00:00Z","name_a2s":"Uncletopia | New York City | 4 | Community","protocol":17,"map":"workshop/pl_shoreleave_rc2.ugc1238849347","folder":"tf","game":"Team Fortress","app_id":440,"player_count":0,"max_players":24,"Bots":0,"server_type":"Dedicated","server_os":"Linux","password":true,"vac":true,"version":"7961495","steam_id":85568392924742821,"keywords":["nocrits","nodmgspread","payload","uncletopia"],"game_id":440,"stv_port":27046,"stv_name":"Uncletopia | New York City | 4 | Community | STV","players":null},{"server_id":142,"name":"Uncletopia | S√£o Paulo | 1 | All Maps","name_short":"sao-1","host":"sao-1.br.uncletopia.com","port":27015,"enabled":true,"region":"sa","cc":"br","latitude":-23.533773,"longitude":-46.62529,"reserved":0,"last_update":"0001-01-01T00:00:00Z","name_a2s":"Uncletopia | S√£o Paulo | 1 | All Maps","protocol":17,"map":"koth_cascade","folder":"tf","game":"Team Fortress","app_id":440,"player_count":0,"max_players":24,"Bots":0,"server_type":"Dedicated","server_os":"Linux","password":true,"vac":true,"version":"7961495","steam_id":85568392924469996,"keywords":["cp","nocrits","nodmgspread","uncletopia"],"game_id":440,"stv_port":27016,"stv_name":"Uncletopia | S√£o Paulo | 1 | All Maps | STV","players":null},{"server_id":143,"name":"Uncletopia | S√£o Paulo | 2 | Community","name_short":"sao-2","host":"sao-2.br.uncletopia.com","port":27015,"enabled":true,"region":"sa","cc":"br","latitude":-23.533773,"longitude":-46.62529,"reserved":0,"last_update":"0001-01-01T00:00:00Z","name_a2s":"Uncletopia | S√£o Paulo | 2 | Community","protocol":17,"map":"workshop/koth_synthetic_rc6a.ugc1549817316","folder":"tf","game":"Team Fortress","app_id":440,"player_count":0,"max_players":24,"Bots":0,"server_type":"Dedicated","server_os":"Linux","password":true,"vac":true,"version":"7961495","steam_id":85568392924485349,"keywords":["cp","nocrits","nodmgspread","uncletopia"],"game_id":440,"stv_port":27016,"stv_name":"Uncletopia | S√£o Paulo | 2 | Community | STV","players":null},{"server_id":7,"name":"Uncletopia | Seattle | 1 | All Maps","name_short":"sea-1","host":"sea-1.us.uncletopia.com","port":27015,"enabled":true,"region":"us-west","cc":"us","latitude":47.608013,"longitude":-122.33517,"reserved":0,"last_update":"0001-01-01T00:00:00Z","name_a2s":"Uncletopia | Seattle | 1 | All Maps","protocol":17,"map":"pl_frontier_final","folder":"tf","game":"Team Fortress","app_id":440,"player_count":24,"max_players":24,"Bots":0,"server_type":"Dedicated","server_os":"Linux","password":true,"vac":true,"version":"7961495","steam_id":85568392924469997,"keywords":["nocrits","nodmgspread","payload","uncletopia"],"game_id":440,"stv_port":27016,"stv_name":"Uncletopia | Seattle | 1 | All Maps | STV","players":[{"user_id":681,"name":"goopgrabber","steam_id":76561199029951083,"connected_time":1797000000000,"state":"active","ping":60},{"user_id":645,"name":"Bcuz","steam_id":76561197981318027,"connected_time":4525000000000,"state":"active","ping":79},{"user_id":684,"name":"Underscorn","steam_id":76561198374209415,"connected_time":1422000000000,"state":"active","ping":106},{"user_id":650,"name":"Mr8bittripper","steam_id":76561198133894229,"connected_time":3988000000000,"state":"active","ping":45},{"user_id":673,"name":"[TrC] Nosy","steam_id":76561197978859310,"connected_time":2799000000000,"state":"active","ping":58},{"user_id":682,"name":"Mana \u003c3","steam_id":76561198804360021,"connected_time":1741000000000,"state":"active","ping":56},{"user_id":653,"name":"RainboomCrash","steam_id":76561198065612273,"connected_time":3895000000000,"state":"active","ping":51},{"user_id":677,"name":"toes","steam_id":76561198221151676,"connected_time":1839000000000,"state":"active","ping":57},{"user_id":674,"name":"hazel","steam_id":76561198037292232,"connected_time":2750000000000,"state":"active","ping":119},{"user_id":665,"name":"Stev the Hypergamous Pebble","steam_id":76561197999442625,"connected_time":3407000000000,"state":"active","ping":54},{"user_id":658,"name":"rat gets the cheese","steam_id":76561198031234032,"connected_time":3688000000000,"state":"active","ping":93},{"user_id":663,"name":"zee","steam_id":76561198148876424,"connected_time":3526000000000,"state":"active","ping":54},{"user_id":638,"name":"trackpad gaming | f2p","steam_id":76561198840414371,"connected_time":5250000000000,"state":"active","ping":54},{"user_id":640,"name":"A F2P With Hats","steam_id":76561198171497882,"connected_time":5168000000000,"state":"active","ping":73},{"user_id":688,"name":"Henchie!","steam_id":76561198047567464,"connected_time":464000000000,"state":"active","ping":151},{"user_id":685,"name":"rat who can kickflip","steam_id":76561198073620027,"connected_time":1276000000000,"state":"active","ping":44},{"user_id":661,"name":"Bolbi","steam_id":76561198051811597,"connected_time":3584000000000,"state":"active","ping":79},{"user_id":647,"name":"Peppy","steam_id":76561198866629645,"connected_time":4520000000000,"state":"active","ping":59},{"user_id":689,"name":"Omegashart","steam_id":76561198209393060,"connected_time":92000000000,"state":"active","ping":46},{"user_id":675,"name":"[TrC] Dackstrus","steam_id":76561197973518509,"connected_time":2544000000000,"state":"active","ping":59},{"user_id":649,"name":"Hawksgamer","steam_id":76561198152405941,"connected_time":4089000000000,"state":"active","ping":50},{"user_id":632,"name":"PopcornBucketGames","steam_id":76561199089562026,"connected_time":6117000000000,"state":"active","ping":42},{"user_id":667,"name":"Keamy","steam_id":76561199471434875,"connected_time":3212000000000,"state":"active","ping":44},{"user_id":672,"name":"2 Point Tom","steam_id":76561198087617008,"connected_time":2928000000000,"state":"active","ping":56}]},{"server_id":119,"name":"Uncletopia | Seattle | 2 | All Maps","name_short":"sea-2","host":"sea-1.us.uncletopia.com","port":27025,"enabled":true,"region":"us-west","cc":"us","latitude":47.608013,"longitude":-122.33517,"reserved":0,"last_update":"0001-01-01T00:00:00Z","name_a2s":"Uncletopia | Seattle | 2 | All Maps","protocol":17,"map":"pl_pier","folder":"tf","game":"Team Fortress","app_id":440,"player_count":24,"max_players":24,"Bots":0,"server_type":"Dedicated","server_os":"Linux","password":true,"vac":true,"version":"7961495","steam_id":85568392924469998,"keywords":["nocrits","nodmgspread","payload","uncletopia"],"game_id":440,"stv_port":27026,"stv_name":"Uncletopia | Seattle | 2 | All Maps | STV","players":[{"user_id":296,"name":"CheeseCake488","steam_id":76561199407617942,"connected_time":572000000000,"state":"active","ping":97},{"user_id":295,"name":"WillowWisp","steam_id":76561198049104842,"connected_time":747000000000,"state":"active","ping":45},{"user_id":264,"name":"YOUNG ROUGH","steam_id":76561198077268502,"connected_time":3443000000000,"state":"active","ping":83},{"user_id":294,"name":"jorts","steam_id":76561199041179985,"connected_time":886000000000,"state":"active","ping":52},{"user_id":226,"name":"top 10 sidewalks","steam_id":76561198844273999,"connected_time":5288000000000,"state":"active","ping":44},{"user_id":247,"name":"Lane","steam_id":76561197965828506,"connected_time":3950000000000,"state":"active","ping":100},{"user_id":288,"name":"Jest","steam_id":76561198170173062,"connected_time":1054000000000,"state":"active","ping":72},{"user_id":231,"name":"Petrivus","steam_id":76561198202152453,"connected_time":5049000000000,"state":"active","ping":45},{"user_id":265,"name":"Nina","steam_id":76561198875007138,"connected_time":3438000000000,"state":"active","ping":45},{"user_id":283,"name":"Sir Stanger","steam_id":76561198109281673,"connected_time":1708000000000,"state":"active","ping":73},{"user_id":287,"name":"Blackbeard","steam_id":76561198046952265,"connected_time":1063000000000,"state":"active","ping":48},{"user_id":223,"name":"chocky","steam_id":76561198057491296,"connected_time":5342000000000,"state":"active","ping":46},{"user_id":272,"name":"Copy","steam_id":76561198025031590,"connected_time":2828000000000,"state":"active","ping":40},{"user_id":289,"name":"Pants","steam_id":76561198328158923,"connected_time":1022000000000,"state":"active","ping":79},{"user_id":290,"name":"(TPT) Ghost","steam_id":76561198123262873,"connected_time":999000000000,"state":"active","ping":81},{"user_id":269,"name":"delight","steam_id":76561197980280272,"connected_time":3037000000000,"state":"active","ping":46},{"user_id":298,"name":"Andrew's Taint","steam_id":76561198131400543,"connected_time":276000000000,"state":"active","ping":82},{"user_id":275,"name":"rorywashere /·ê† - Àï -„Éû ‚≥ä","steam_id":76561198065825165,"connected_time":2366000000000,"state":"active","ping":112},{"user_id":278,"name":"slab denim","steam_id":76561198066071527,"connected_time":2187000000000,"state":"active","ping":110},{"user_id":277,"name":"Cigarette Fish","steam_id":76561199086973797,"connected_time":2192000000000,"state":"active","ping":108},{"user_id":256,"name":"chow yun-slim","steam_id":76561198065752486,"connected_time":3790000000000,"state":"active","ping":84},{"user_id":292,"name":"dP | I'm in a Wookie Suit","steam_id":76561198083307644,"connected_time":976000000000,"state":"active","ping":52},{"user_id":293,"name":"Puskinti","steam_id":76561198032120688,"connected_time":961000000000,"state":"active","ping":57},{"user_id":270,"name":"Facepalm","steam_id":76561198001935226,"connected_time":3032000000000,"state":"active","ping":65}]},{"server_id":406,"name":"Uncletopia | Seattle | 3 | Stopwatch","name_short":"sea-3","host":"sea-1.us.uncletopia.com","port":27035,"enabled":true,"region":"us-west","cc":"us","latitude":47.608013,"longitude":-122.33517,"reserved":0,"last_update":"0001-01-01T00:00:00Z","name_a2s":"Uncletopia | Seattle | 3 | Stopwatch","protocol":17,"map":"workshop/koth_bagel_rc6.ugc2514036946","folder":"tf","game":"Team Fortress","app_id":440,"player_count":0,"max_players":24,"Bots":0,"server_type":"Dedicated","server_os":"Linux","password":true,"vac":true,"version":"7961495","steam_id":85568392924515217,"keywords":["cp","nocrits","nodmgspread","uncletopia"],"game_id":440,"stv_port":27036,"stv_name":"Uncletopia | Seattle | 3 | Stopwatch | STV","players":null},{"server_id":17,"name":"Uncletopia | San Francisco | 1 | All Maps","name_short":"sfo-1","host":"sfo-1.us.uncletopia.com","port":27015,"enabled":true,"region":"us-west","cc":"us","latitude":37.77397,"longitude":-122.4313,"reserved":0,"last_update":"0001-01-01T00:00:00Z","name_a2s":"Uncletopia | San Francisco | 1 | All Maps","protocol":17,"map":"plr_bananabay","folder":"tf","game":"Team Fortress","app_id":440,"player_count":24,"max_players":24,"Bots":0,"server_type":"Dedicated","server_os":"Linux","password":true,"vac":true,"version":"7961495","steam_id":85568392924469999,"keywords":["nocrits","nodmgspread","payload","uncletopia"],"game_id":440,"stv_port":27016,"stv_name":"Uncletopia | San Francisco | 1 | All Maps | STV","players":[{"user_id":146,"name":"johnny","steam_id":76561198050225055,"connected_time":3619000000000,"state":"active","ping":60},{"user_id":179,"name":"Mmp","steam_id":76561198280596275,"connected_time":868000000000,"state":"active","ping":79},{"user_id":181,"name":"Orange Mann Bad","steam_id":76561198021126964,"connected_time":652000000000,"state":"active","ping":65},{"user_id":123,"name":"Lunarthrope","steam_id":76561198292132147,"connected_time":5625000000000,"state":"active","ping":70},{"user_id":182,"name":"moe","steam_id":76561198929586245,"connected_time":641000000000,"state":"active","ping":53},{"user_id":191,"name":"captain planet","steam_id":76561198050799055,"connected_time":129000000000,"state":"active","ping":78},{"user_id":157,"name":"Gojira19","steam_id":76561198206384351,"connected_time":2682000000000,"state":"active","ping":107},{"user_id":158,"name":"the pizza","steam_id":76561198221331476,"connected_time":2671000000000,"state":"active","ping":34},{"user_id":183,"name":"Cael","steam_id":76561198136789464,"connected_time":581000000000,"state":"active","ping":61},{"user_id":132,"name":"Kiril","steam_id":76561198051433762,"connected_time":4904000000000,"state":"active","ping":112},{"user_id":180,"name":"Neon God","steam_id":76561198341616745,"connected_time":837000000000,"state":"active","ping":100},{"user_id":159,"name":"God Wizard Gonzo","steam_id":76561198102651324,"connected_time":2622000000000,"state":"active","ping":50},{"user_id":184,"name":"Nyx","steam_id":76561198100929724,"connected_time":575000000000,"state":"active","ping":60},{"user_id":190,"name":"Pound","steam_id":76561198046727292,"connected_time":184000000000,"state":"active","ping":115},{"user_id":185,"name":"Slimey","steam_id":76561199200969139,"connected_time":543000000000,"state":"active","ping":127},{"user_id":172,"name":"sim0n","steam_id":76561198198137847,"connected_time":1489000000000,"state":"active","ping":78},{"user_id":189,"name":"Kaival","steam_id":76561198082993220,"connected_time":314000000000,"state":"active","ping":120},{"user_id":188,"name":"Lola the Spider","steam_id":76561198131567365,"connected_time":497000000000,"state":"active","ping":72},{"user_id":178,"name":"shmarky","steam_id":76561198052104281,"connected_time":1160000000000,"state":"active","ping":50},{"user_id":187,"name":"Bitmap","steam_id":76561198285964424,"connected_time":521000000000,"state":"active","ping":61},{"user_id":150,"name":"Antzen","steam_id":76561198041343470,"connected_time":3127000000000,"state":"active","ping":59},{"user_id":174,"name":"bebo","steam_id":76561198385085005,"connected_time":1470000000000,"state":"active","ping":71},{"user_id":127,"name":"dandan","steam_id":76561198076487085,"connected_time":5497000000000,"state":"active","ping":63}]},{"server_id":18,"name":"Uncletopia | San Francisco | 2 | All Maps","name_short":"sfo-2","host":"sfo-1.us.uncletopia.com","port":27025,"enabled":true,"region":"us-west","cc":"us","latitude":37.77397,"longitude":-122.4313,"reserved":0,"last_update":"0001-01-01T00:00:00Z","name_a2s":"Uncletopia | San Francisco | 2 | All Maps","protocol":17,"map":"pl_upward","folder":"tf","game":"Team Fortress","app_id":440,"player_count":0,"max_players":24,"Bots":0,"server_type":"Dedicated","server_os":"Linux","password":true,"vac":true,"version":"7961495","steam_id":85568392924470000,"keywords":["nocrits","nodmgspread","payload","uncletopia"],"game_id":440,"stv_port":27026,"stv_name":"Uncletopia | San Francisco | 2 | All Maps | STV","players":null},{"server_id":19,"name":"Uncletopia | San Francisco | 3 | Stopwatch","name_short":"sfo-3","host":"sfo-1.us.uncletopia.com","port":27035,"enabled":true,"region":"us-west","cc":"us","latitude":37.77397,"longitude":-122.4313,"reserved":0,"last_update":"0001-01-01T00:00:00Z","name_a2s":"Uncletopia | San Francisco | 3 | Stopwatch","protocol":17,"map":"workshop/koth_product_final.ugc454272353","folder":"tf","game":"Team Fortress","app_id":440,"player_count":0,"max_players":24,"Bots":0,"server_type":"Dedicated","server_os":"Linux","password":true,"vac":true,"version":"7961495","steam_id":85568392924742824,"keywords":["cp","nocrits","nodmgspread","uncletopia"],"game_id":440,"stv_port":27036,"stv_name":"Uncletopia | San Francisco | 3 | Stopwatch | STV","players":null},{"server_id":20,"name":"Uncletopia | San Francisco | 4 | Community","name_short":"sfo-4","host":"sfo-1.us.uncletopia.com","port":27045,"enabled":true,"region":"us-west","cc":"us","latitude":37.77397,"longitude":-122.4313,"reserved":0,"last_update":"0001-01-01T00:00:00Z","name_a2s":"Uncletopia | San Francisco | 4 | Community","protocol":17,"map":"workshop/cp_logjam_rc12.ugc454812035","folder":"tf","game":"Team Fortress","app_id":440,"player_count":0,"max_players":24,"Bots":0,"server_type":"Dedicated","server_os":"Linux","password":true,"vac":true,"version":"7961495","steam_id":85568392924742826,"keywords":["cp","nocrits","nodmgspread","uncletopia"],"game_id":440,"stv_port":27046,"stv_name":"Uncletopia | San Francisco | 4 | Community | STV","players":null},{"server_id":141,"name":"Uncletopia | Sydney | 1 | All Maps","name_short":"syd-1","host":"syd-1.au.uncletopia.com","port":27015,"enabled":true,"region":"au","cc":"au","latitude":-33.865143,"longitude":151.2099,"reserved":0,"last_update":"0001-01-01T00:00:00Z","name_a2s":"Uncletopia | Sydney | 1 | All Maps","protocol":17,"map":"koth_nucleus","folder":"tf","game":"Team Fortress","app_id":440,"player_count":20,"max_players":24,"Bots":0,"server_type":"Dedicated","server_os":"Linux","password":true,"vac":true,"version":"7961495","steam_id":85568392924470001,"keywords":["cp","nocrits","nodmgspread","uncletopia"],"game_id":440,"stv_port":27016,"stv_name":"Uncletopia | Sydney | 1 | All Maps | STV","players":[{"user_id":9,"name":"Soap Viper","steam_id":76561198073909715,"connected_time":2345000000000,"state":"active","ping":44},{"user_id":10,"name":"A Burnt Cheeseburger","steam_id":76561198044178223,"connected_time":1905000000000,"state":"active","ping":59},{"user_id":41,"name":"the za","steam_id":76561198146473289,"connected_time":169000000000,"state":"active","ping":66},{"user_id":12,"name":"cunning chris","steam_id":76561197972510204,"connected_time":1708000000000,"state":"active","ping":64},{"user_id":29,"name":"sweet","steam_id":76561198075311236,"connected_time":525000000000,"state":"active","ping":45},{"user_id":15,"name":"Fps","steam_id":76561198077651488,"connected_time":1393000000000,"state":"active","ping":45},{"user_id":22,"name":"big","steam_id":76561199060915517,"connected_time":748000000000,"state":"active","ping":70},{"user_id":19,"name":"pathway","steam_id":76561198346674092,"connected_time":967000000000,"state":"active","ping":73},{"user_id":20,"name":"Crazybean","steam_id":76561198042181980,"connected_time":939000000000,"state":"active","ping":56},{"user_id":31,"name":"monkey (with spoon)","steam_id":76561198301254663,"connected_time":462000000000,"state":"active","ping":118},{"user_id":42,"name":"zog","steam_id":76561198330464664,"connected_time":162000000000,"state":"active","ping":46},{"user_id":25,"name":"BobTheHuminoid","steam_id":76561199241312725,"connected_time":687000000000,"state":"active","ping":59},{"user_id":26,"name":"bangs","steam_id":76561198041334029,"connected_time":621000000000,"state":"active","ping":98},{"user_id":34,"name":"epi","steam_id":76561198057551248,"connected_time":402000000000,"state":"active","ping":41},{"user_id":28,"name":"dipshit","steam_id":76561198021198031,"connected_time":595000000000,"state":"active","ping":38},{"user_id":35,"name":"Nada","steam_id":76561198069118814,"connected_time":395000000000,"state":"active","ping":55},{"user_id":36,"name":"monnickev","steam_id":76561198252587162,"connected_time":337000000000,"state":"active","ping":44},{"user_id":33,"name":"snag","steam_id":76561199090043537,"connected_time":442000000000,"state":"active","ping":89},{"user_id":43,"name":"Otoh Gunga","steam_id":76561199130693703,"connected_time":135000000000,"state":"active","ping":63},{"user_id":45,"name":"Spiffing","steam_id":76561199020105540,"connected_time":18000000000,"state":"active","ping":85}]},{"server_id":123,"name":"Uncletopia | Sydney | 2 | All Maps","name_short":"syd-2","host":"syd-1.au.uncletopia.com","port":27025,"enabled":true,"region":"au","cc":"au","latitude":-33.865143,"longitude":151.2099,"reserved":0,"last_update":"0001-01-01T00:00:00Z","name_a2s":"Uncletopia | Sydney | 2 | All Maps","protocol":17,"map":"cp_altitude","folder":"tf","game":"Team Fortress","app_id":440,"player_count":0,"max_players":24,"Bots":0,"server_type":"Dedicated","server_os":"Linux","password":true,"vac":true,"version":"7961495","steam_id":85568392924470002,"keywords":["cp","nocrits","nodmgspread","uncletopia"],"game_id":440,"stv_port":27026,"stv_name":"Uncletopia | Sydney | 2 | All Maps | STV","players":null},{"server_id":395,"name":"Uncletopia | Sydney | 3 | All Maps","name_short":"syd-3","host":"syd-1.au.uncletopia.com","port":27035,"enabled":true,"region":"au","cc":"au","latitude":-33.865143,"longitude":151.2099,"reserved":0,"last_update":"0001-01-01T00:00:00Z","name_a2s":"Uncletopia | Sydney | 3 | All Maps","protocol":17,"map":"pl_frontier_final","folder":"tf","game":"Team Fortress","app_id":440,"player_count":0,"max_players":24,"Bots":0,"server_type":"Dedicated","server_os":"Linux","password":true,"vac":true,"version":"7961495","steam_id":85568392925194467,"keywords":["nocrits","nodmgspread","payload","uncletopia"],"game_id":440,"stv_port":27036,"stv_name":"Uncletopia | Sydney | 3 | All Maps | STV","players":null},{"server_id":396,"name":"Uncletopia | Sydney | 4 | All Maps","name_short":"syd-4","host":"syd-1.au.uncletopia.com","port":27045,"enabled":true,"region":"au","cc":"au","latitude":-33.865143,"longitude":151.2099,"reserved":0,"last_update":"0001-01-01T00:00:00Z","name_a2s":"Uncletopia | Sydney | 4 | All Maps","protocol":17,"map":"cp_process_final","folder":"tf","game":"Team Fortress","app_id":440,"player_count":0,"max_players":24,"Bots":0,"server_type":"Dedicated","server_os":"Linux","password":true,"vac":true,"version":"7961495","steam_id":85568392925397958,"keywords":["cp","nocrits","nodmgspread","uncletopia"],"game_id":440,"stv_port":27046,"stv_name":"Uncletopia | Sydney | 4 | All Maps | STV","players":null},{"server_id":58,"name":"Uncletopia | Sydney | 5 | Stopwatch","name_short":"syd-5","host":"syd-1.au.uncletopia.com","port":27055,"enabled":true,"region":"au","cc":"au","latitude":-33.865143,"longitude":151.2099,"reserved":0,"last_update":"0001-01-01T00:00:00Z","name_a2s":"Uncletopia | Sydney | 5 | Stopwatch","protocol":17,"map":"pl_frontier_final","folder":"tf","game":"Team Fortress","app_id":440,"player_count":0,"max_players":24,"Bots":0,"server_type":"Dedicated","server_os":"Linux","password":true,"vac":true,"version":"7961495","steam_id":85568392925397959,"keywords":["nocrits","nodmgspread","payload","uncletopia"],"game_id":440,"stv_port":27056,"stv_name":"Uncletopia | Sydney | 5 | Stopwatch | STV","players":null},{"server_id":59,"name":"Uncletopia | Sydney | 6 | Community","name_short":"syd-6","host":"syd-1.au.uncletopia.com","port":27065,"enabled":true,"region":"au","cc":"au","latitude":-33.865143,"longitude":151.2099,"reserved":0,"last_update":"0001-01-01T00:00:00Z","name_a2s":"Uncletopia | Sydney | 6 | Community","protocol":17,"map":"cp_sunshine","folder":"tf","game":"Team Fortress","app_id":440,"player_count":0,"max_players":24,"Bots":0,"server_type":"Dedicated","server_os":"Linux","password":true,"vac":true,"version":"7961495","steam_id":85568392925397960,"keywords":["cp","nocrits","nodmgspread","uncletopia"],"game_id":440,"stv_port":27066,"stv_name":"Uncletopia | Sydney | 6 | Community | STV","players":null},{"server_id":49,"name":"Uncletopia | Warsaw | 1 | One Thousand Uncles","name_short":"waw-1","host":"waw-1.pl.uncletopia.com","port":27015,"enabled":true,"region":"eu","cc":"pl","latitude":52.2297,"longitude":21.017532,"reserved":0,"last_update":"0001-01-01T00:00:00Z","name_a2s":"Uncletopia | Warsaw | 1 | One Thousand Uncles","protocol":17,"map":"cp_egypt_final","folder":"tf","game":"Team Fortress","app_id":440,"player_count":0,"max_players":32,"Bots":0,"server_type":"Dedicated","server_os":"Linux","password":true,"vac":true,"version":"7961495","steam_id":85568392925397850,"keywords":["alltalk","cp","danepve","increased_maxplayers","nocrits","norespawntime","uncletopia"],"game_id":440,"stv_port":0,"stv_name":"","players":null},{"server_id":50,"name":"Uncletopia | Warsaw | 2 | One Thousand Uncles","name_short":"waw-2","host":"waw-1.pl.uncletopia.com","port":27025,"enabled":true,"region":"eu","cc":"pl","latitude":52.2297,"longitude":21.017532,"reserved":0,"last_update":"0001-01-01T00:00:00Z","name_a2s":"Uncletopia | Warsaw | 2 | One Thousand Uncles","protocol":17,"map":"pl_goldrush","folder":"tf","game":"Team Fortress","app_id":440,"player_count":23,"max_players":32,"Bots":16,"server_type":"Dedicated","server_os":"Linux","password":true,"vac":true,"version":"7961495","steam_id":85568392925397851,"keywords":["alltalk","bots","danepve","increased_maxplayers","nocrits","norespawntime","payload","uncletopia"],"game_id":440,"stv_port":0,"stv_name":"","players":[{"user_id":19,"name":"TheBoringEdward","steam_id":76561199061482992,"connected_time":2100000000000,"state":"active","ping":60},{"user_id":40,"name":"\u003cGNGWD\u003e the scringly dingly","steam_id":76561198192179174,"connected_time":689000000000,"state":"active","ping":134},{"user_id":39,"name":"s∆°n t√πng mtp","steam_id":76561199084680369,"connected_time":1436000000000,"state":"active","ping":39},{"user_id":38,"name":"Caserbero","steam_id":76561199234963535,"connected_time":1691000000000,"state":"active","ping":90},{"user_id":41,"name":"sandvich gaming","steam_id":76561199388110063,"connected_time":598000000000,"state":"active","ping":118},{"user_id":42,"name":"‚ô• œü Frosty œü ‚ô•","steam_id":76561198048035879,"connected_time":574000000000,"state":"active","ping":76},{"user_id":43,"name":"Nari","steam_id":76561199220038535,"connected_time":139000000000,"state":"active","ping":171}]},{"server_id":51,"name":"Uncletopia | Warsaw | 3 | All Maps","name_short":"waw-3","host":"waw-1.pl.uncletopia.com","port":27035,"enabled":true,"region":"eu","cc":"pl","latitude":52.2297,"longitude":21.017532,"reserved":0,"last_update":"0001-01-01T00:00:00Z","name_a2s":"Uncletopia | Warsaw | 3 | All Maps","protocol":17,"map":"plr_pipeline","folder":"tf","game":"Team Fortress","app_id":440,"player_count":0,"max_players":24,"Bots":0,"server_type":"Dedicated","server_os":"Linux","password":true,"vac":true,"version":"7961495","steam_id":85568392925397852,"keywords":["nocrits","nodmgspread","payload","uncletopia"],"game_id":440,"stv_port":27036,"stv_name":"Uncletopia | Warsaw | 3 | All Maps | STV","players":null},{"server_id":52,"name":"Uncletopia | Warsaw | 4 | All Maps","name_short":"waw-4","host":"waw-1.pl.uncletopia.com","port":27045,"enabled":true,"region":"eu","cc":"pl","latitude":52.2297,"longitude":21.017532,"reserved":0,"last_update":"0001-01-01T00:00:00Z","name_a2s":"Uncletopia | Warsaw | 4 | All Maps","protocol":17,"map":"cp_coldfront","folder":"tf","game":"Team Fortress","app_id":440,"player_count":0,"max_players":24,"Bots":0,"server_type":"Dedicated","server_os":"Linux","password":true,"vac":true,"version":"7961495","steam_id":85568392925397853,"keywords":["cp","nocrits","nodmgspread","uncletopia"],"game_id":440,"stv_port":27046,"stv_name":"Uncletopia | Warsaw | 4 | All Maps | STV","players":null},{"server_id":53,"name":"Uncletopia | Warsaw | 5 | Stopwatch","name_short":"waw-5","host":"waw-1.pl.uncletopia.com","port":27055,"enabled":true,"region":"eu","cc":"pl","latitude":52.2297,"longitude":21.017532,"reserved":0,"last_update":"0001-01-01T00:00:00Z","name_a2s":"Uncletopia | Warsaw | 5 | Stopwatch","protocol":17,"map":"workshop/koth_bagel_rc6.ugc2514036946","folder":"tf","game":"Team Fortress","app_id":440,"player_count":0,"max_players":24,"Bots":0,"server_type":"Dedicated","server_os":"Linux","password":true,"vac":true,"version":"7961495","steam_id":85568392925397854,"keywords":["cp","nocrits","nodmgspread","uncletopia"],"game_id":440,"stv_port":27056,"stv_name":"Uncletopia | Warsaw | 5 | Stopwatch | STV","players":null},{"server_id":54,"name":"Uncletopia | Warsaw | 6 | Community","name_short":"waw-6","host":"waw-1.pl.uncletopia.com","port":27065,"enabled":true,"region":"eu","cc":"pl","latitude":52.2297,"longitude":21.017532,"reserved":0,"last_update":"0001-01-01T00:00:00Z","name_a2s":"Uncletopia | Warsaw | 6 | Community","protocol":17,"map":"workshop/pl_badwater_pro_v12.ugc2142942074","folder":"tf","game":"Team Fortress","app_id":440,"player_count":0,"max_players":24,"Bots":0,"server_type":"Dedicated","server_os":"Linux","password":true,"vac":true,"version":"7961495","steam_id":85568392925397856,"keywords":["nocrits","nodmgspread","payload","uncletopia"],"game_id":440,"stv_port":27066,"stv_name":"Uncletopia | Warsaw | 6 | Community | STV","players":null}]}