{"status":true,"message":"","result":[{"server_id":9,"name":"Uncletopia | Atlanta | 1 | All Maps","name_short":"atl-1","host":"atl-1.us.uncletopia.com","port":27015,"enabled":true,"region":"us-east","cc":"us","latitude":33.753746,"longitude":-84.38633,"reserved":0,"last_update":"0001-01-01T00:00:00Z","name_a2s":"Uncletopia | Atlanta | 1 | All Maps","protocol":17,"map":"pl_borneo","folder":"tf","game":"Team Fortress","app_id":440,"player_count":24,"max_players":24,"Bots":0,"server_type":"Dedicated","server_os":"Linux","password":true,"vac":true,"version":"7961495","steam_id":85568392924469982,"keywords":["nocrits","nodmgspread","payload","uncletopia"],"game_id":440,"stv_port":27016,"stv_name":"Uncletopia | Atlanta | 1 | All Maps | STV","players":null},{"server_id":104,"name":"Uncletopia | Atlanta | 2 | All Maps","name_short":"atl-2","host":"atl-1.us.uncletopia.com","port":27025,"enabled":true,"region":"us-east","cc":"us","latitude":33.753746,"longitude":-84.38633,"reserved":0,"last_update":"0001-01-01T00:00:00Z","name_a2s":"Uncletopia | Atlanta | 2 | All Maps","protocol":17,"map":"koth_lakeside_final","folder":"tf","game":"Team Fortress","app_id":440,"player_count":24,"max_players":24,"Bots":0,"server_type":"Dedicated","server_os":"Linux","password":true,"vac":true,"version":"7961495","steam_id":85568392924469983,"keywords":["cp","nocrits","nodmgspread","uncletopia"],"game_id":440,"stv_port":27026,"stv_name":"Uncletopia | Atlanta | 2 | All Maps | STV","players":null},{"server_id":400,"name":"Uncletopia | Atlanta | 3 | Stopwatch","name_short":"atl-3","host":"atl-1.us.uncletopia.com","port":27035,"enabled":true,"region":"us-east","cc":"us","latitude":33.753746,"longitude":-84.38633,"reserved":0,"last_update":"0001-01-01T00:00:00Z","name_a2s":"Uncletopia | Atlanta | 3 | Stopwatch","protocol":17,"map":"pl_badwater_pro_v12","folder":"tf","game":"Team Fortress","app_id":440,"player_count":11,"max_players":24,"Bots":0,"server_type":"Dedicated","server_os":"Linux","password":true,"vac":true,"version":"7961495","steam_id":85568392924515187,"keywords":["nocrits","nodmgspread","payload","uncletopia"],"game_id":440,"stv_port":27036,"stv_name":"Uncletopia | Atlanta | 3 | Stopwatch | STV","players":null},{"server_id":401,"name":"Uncletopia | Atlanta | 4 | Community","name_short":"atl-4","host":"atl-1.us.uncletopia.com","port":27045,"enabled":true,"region":"us-east","cc":"us","latitude":33.753746,"longitude":-84.38633,"reserved":0,"last_update":"0001-01-01T00:00:00Z","name_a2s":"Uncletopia | Atlanta | 4 | Community","protocol":17,"map":"koth_ramjam_rc1","folder":"tf","game":"Team Fortress","app_id":440,"player_count":0,"max_players":24,"Bots":0,"server_type":"Dedicated","server_os":"Linux","password":true,"vac":true,"version":"7961495","steam_id":85568392924515188,"keywords":["cp","nocrits","nodmgspread","uncletopia"],"game_id":440,"stv_port":27046,"stv_name":"Uncletopia | Atlanta | 4 | Community | STV","players":null},{"server_id":2,"name":"Uncletopia | Chicago | 1 | All Maps","name_short":"chi-1","host":"chi-1.us.uncletopia.com","port":27015,"enabled":true,"region":"us-central","cc":"us","latitude":41.881832,"longitude":-87.62318,"reserved":0,"last_update":"0001-01-01T00:00:00Z","name_a2s":"Uncletopia | Chicago | 1 | All Maps","protocol":17,"map":"pl_barnblitz","folder":"tf","game":"Team Fortress","app_id":440,"player_count":24,"max_players":24,"Bots":0,"server_type":"Dedicated","server_os":"Linux","password":true,"vac":true,"version":"7961495","steam_id":85568392924469984,"keywords":["nocrits","nodmgspread","payload","uncletopia"],"game_id":440,"stv_port":27016,"stv_name":"Uncletopia | Chicago | 1 | All Maps | STV","players":[{"user_id":320,"name":"roman","steam_id":76561198170066797,"connected_time":376000000000,"state":"active","ping":74},{"user_id":324,"name":"Carson","steam_id":76561198076771071,"connected_time":209000000000,"state":"active","ping":45},{"user_id":319,"name":"wunkem","steam_id":76561198055948497,"connected_time":445000000000,"state":"active","ping":70},{"user_id":292,"name":"Dr. BloatedRatMann","steam_id":76561198328829278,"connected_time":2097000000000,"state":"active","ping":59},{"user_id":322,"name":"Lyathan","steam_id":76561198062773218,"connected_time":274000000000,"state":"active","ping":68},{"user_id":244,"name":"Park","steam_id":76561198057222814,"connected_time":5542000000000,"state":"active","ping":69},{"user_id":318,"name":"Mellow Yellow","steam_id":76561198406276981,"connected_time":484000000000,"state":"active","ping":46},{"user_id":301,"name":"Digit","steam_id":76561198156589157,"connected_time":1402000000000,"state":"active","ping":76},{"user_id":287,"name":"Rex","steam_id":76561198138365053,"connected_time":2410000000000,"state":"active","ping":146},{"user_id":267,"name":"fish ●","steam_id":76561198999217575,"connected_time":4207000000000,"state":"active","ping":67},{"user_id":312,"name":"Pablo.Gonzalez.2007","steam_id":76561199083115222,"connected_time":1077000000000,"state":"active","ping":100},{"user_id":240,"name":"ol' musty","steam_id":76561198081075865,"connected_time":6286000000000,"state":"active","ping":72},{"user_id":304,"name":"gulch","steam_id":76561199227946025,"connected_time":1356000000000,"state":"active","ping":71},{"user_id":323,"name":"Arjen PSN 23","steam_id":76561198963682232,"connected_time":270000000000,"state":"active","ping":67},{"user_id":280,"name":"loser","steam_id":76561198259380127,"connected_time":2844000000000,"state":"active","ping":56},{"user_id":248,"name":"tender","steam_id":76561197993724724,"connected_time":5325000000000,"state":"active","ping":79},{"user_id":313,"name":"Wolbey","steam_id":76561198042148095,"connected_time":1062000000000,"state":"active","ping":46},{"user_id":314,"name":"❤Womp❤","steam_id":76561198167488304,"connected_time":918000000000,"state":"active","ping":56},{"user_id":315,"name":"giveit5","steam_id":76561198030815437,"connected_time":878000000000,"state":"active","ping":90},{"user_id":214,"name":"HOMIE","steam_id":76561198057325155,"connected_time":8834000000000,"state":"active","ping":67},{"user_id":277,"name":"ralph","steam_id":76561198984121915,"connected_time":3255000000000,"state":"active","ping":72},{"user_id":224,"name":"Happ","steam_id":76561198043741679,"connected_time":7725000000000,"state":"active","ping":54},{"user_id":310,"name":"yourlocalforecast","steam_id":76561198042243083,"connected_time":1312000000000,"state":"active","ping":61},{"user_id":321,"name":"Olitude","steam_id":76561199238964574,"connected_time":280000000000,"state":"active","ping":71}]},{"server_id":106,"name":"Uncletopia | Chicago | 2 | All Maps","name_short":"chi-2","host":"chi-1.us.uncletopia.com","port":27025,"enabled":true,"region":"us-central","cc":"us","latitude":41.881832,"longitude":-87.62318,"reserved":0,"last_update":"0001-01-01T00:00:00Z","name_a2s":"Uncletopia | Chicago | 2 | All Maps","protocol":17,"map":"koth_nucleus","folder":"tf","game":"Team Fortress","app_id":440,"player_count":24,"max_players":24,"Bots":0,"server_type":"Dedicated","server_os":"Linux","password":true,"vac":true,"version":"7961495","steam_id":85568392924469985,"keywords":["cp","nocrits","nodmgspread","uncletopia"],"game_id":440,"stv_port":27026,"stv_name":"Uncletopia | Chicago | 2 | All Maps | STV","players":[{"user_id":86,"name":"rat 2","steam_id":76561198197297414,"connected_time":834000000000,"state":"active","ping":35},{"user_id":89,"name":"fifteen22","steam_id":76561198138781868,"connected_time":719000000000,"state":"active","ping":86},{"user_id":58,"name":"roythecyclops","steam_id":76561198055295759,"connected_time":2820000000000,"state":"active","ping":73},{"user_id":90,"name":"wish you were here","steam_id":76561198282764599,"connected_time":666000000000,"state":"active","ping":45},{"user_id":48,"name":"SchmitySchmit","steam_id":76561198127024448,"connected_time":3656000000000,"state":"active","ping":46},{"user_id":76,"name":"małię","steam_id":76561198337705174,"connected_time":1155000000000,"state":"active","ping":58},{"user_id":74,"name":"Migute","steam_id":76561198332012726,"connected_time":1168000000000,"state":"active","ping":84},{"user_id":22,"name":"Sunvaar","steam_id":76561198852679851,"connected_time":4265000000000,"state":"active","ping":68},{"user_id":23,"name":"American Gamer","steam_id":76561198142292188,"connected_time":4225000000000,"state":"active","ping":75},{"user_id":24,"name":"Meat Cannon","steam_id":76561198082761157,"connected_time":4220000000000,"state":"active","ping":71},{"user_id":87,"name":"♥Gothie♥","steam_id":76561198166814648,"connected_time":823000000000,"state":"active","ping":118},{"user_id":93,"name":"moosein","steam_id":76561198354272434,"connected_time":332000000000,"state":"active","ping":99},{"user_id":67,"name":"goggyrina","steam_id":76561198428033086,"connected_time":2018000000000,"state":"active","ping":37},{"user_id":47,"name":"Otis","steam_id":76561198170925422,"connected_time":3672000000000,"state":"active","ping":68},{"user_id":53,"name":"Six Piece Chicken McNobody","steam_id":76561198129848222,"connected_time":3186000000000,"state":"active","ping":72},{"user_id":55,"name":"Vin","steam_id":76561198043601929,"connected_time":3078000000000,"state":"active","ping":133},{"user_id":84,"name":"uzi murder drones (evil)","steam_id":76561198156799627,"connected_time":1018000000000,"state":"active","ping":76},{"user_id":32,"name":"Horizon","steam_id":76561198088957930,"connected_time":4102000000000,"state":"active","ping":62},{"user_id":71,"name":"Grandma Sicko Mode","steam_id":76561198202589758,"connected_time":1314000000000,"state":"active","ping":74},{"user_id":44,"name":"thecal","steam_id":76561198307893384,"connected_time":3880000000000,"state":"active","ping":56},{"user_id":77,"name":"uneducated guess","steam_id":76561198140846580,"connected_time":1138000000000,"state":"active","ping":65},{"user_id":92,"name":"Fredrick","steam_id":76561197981419964,"connected_time":372000000000,"state":"active","ping":66},{"user_id":83,"name":"I ate all the cheese","steam_id":76561198993205822,"connected_time":1060000000000,"state":"active","ping":60},{"user_id":88,"name":"josh","steam_id":76561198110063909,"connected_time":812000000000,"state":"active","ping":74}]},{"server_id":402,"name":"Uncletopia | Chicago | 3 | All Maps","name_short":"chi-3","host":"chi-1.us.uncletopia.com","port":27035,"enabled":true,"region":"us-central","cc":"us","latitude":41.881832,"longitude":-87.62318,"reserved":0,"last_update":"0001-01-01T00:00:00Z","name_a2s":"Uncletopia | Chicago | 3 | All Maps","protocol":17,"map":"pl_badwater","folder":"tf","game":"Team Fortress","app_id":440,"player_count":24,"max_players":24,"Bots":0,"server_type":"Dedicated","server_os":"Linux","password":true,"vac":true,"version":"7961495","steam_id":85568392924515191,"keywords":["nocrits","nodmgspread","payload","uncletopia"],"game_id":440,"stv_port":27036,"stv_name":"Uncletopia | Chicago | 3 | All Maps | STV","players":[{"user_id":85,"name":"flwrgrl","steam_id":76561198815644949,"connected_time":1582000000000,"state":"active","ping":59},{"user_id":76,"name":"AstronautPug","steam_id":76561198162372709,"connected_time":1946000000000,"state":"active","ping":57},{"user_id":57,"name":"JuanPonchoGringo™","steam_id":76561198038046899,"connected_time":2985000000000,"state":"active","ping":78},{"user_id":100,"name":"princess fern \u003c3333","steam_id":76561198881792140,"connected_time":836000000000,"state":"active","ping":78},{"user_id":109,"name":"Zetta","steam_id":76561198045710113,"connected_time":685000000000,"state":"active","ping":99},{"user_id":96,"name":"Shooter of Walls","steam_id":76561197988105207,"connected_time":1038000000000,"state":"active","ping":71},{"user_id":112,"name":"HarryjusttHarry","steam_id":76561198982810452,"connected_time":274000000000,"state":"active","ping":80},{"user_id":101,"name":"Imagine being trash at Medic","steam_id":76561197986530028,"connected_time":831000000000,"state":"active","ping":98},{"user_id":102,"name":"Doctor_Redstone","steam_id":76561198061947161,"connected_time":828000000000,"state":"active","ping":68},{"user_id":97,"name":"Dragus","steam_id":76561198032967285,"connected_time":1024000000000,"state":"active","ping":58},{"user_id":117,"name":"Kyoya","steam_id":76561199214167494,"connected_time":3000000000,"state":"spawning","ping":82},{"user_id":113,"name":"shaquille oatmeal","steam_id":76561198044999104,"connected_time":233000000000,"state":"active","ping":51},{"user_id":104,"name":"doubleit\u0026giveit.tothenextperson","steam_id":76561198115458307,"connected_time":793000000000,"state":"active","ping":105},{"user_id":116,"name":"duneblaster0","steam_id":76561198040364680,"connected_time":11000000000,"state":"spawning","ping":44},{"user_id":82,"name":"Fluffeline","steam_id":76561198352909489,"connected_time":1714000000000,"state":"active","ping":142},{"user_id":115,"name":"SlawBunny","steam_id":76561198094913841,"connected_time":127000000000,"state":"active","ping":78},{"user_id":106,"name":"BunkerSauce5","steam_id":76561198380688967,"connected_time":783000000000,"state":"active","ping":52},{"user_id":107,"name":"Thequirka","steam_id":76561198968058652,"connected_time":752000000000,"state":"active","ping":89},{"user_id":92,"name":"Ceige LFT","steam_id":76561198068538473,"connected_time":1352000000000,"state":"active","ping":75},{"user_id":91,"name":"ZYNTERLINKED","steam_id":76561198241948526,"connected_time":1427000000000,"state":"active","ping":62},{"user_id":89,"name":"Nic0","steam_id":76561198305690218,"connected_time":1526000000000,"state":"active","ping":67},{"user_id":87,"name":"AMU","steam_id":76561198092346231,"connected_time":1560000000000,"state":"active","ping":64},{"user_id":86,"name":"Jatt","steam_id":76561198822011219,"connected_time":1580000000000,"state":"active","ping":70},{"user_id":108,"name":"oppenheimer style","steam_id":76561198026664629,"connected_time":744000000000,"state":"active","ping":59}]},{"server_id":403,"name":"Uncletopia | Chicago | 4 | All Maps","name_short":"chi-4","host":"chi-1.us.uncletopia.com","port":27045,"enabled":true,"region":"us-central","cc":"us","latitude":41.881832,"longitude":-87.62318,"reserved":0,"last_update":"0001-01-01T00:00:00Z","name_a2s":"Uncletopia | Chicago | 4 | All Maps","protocol":17,"map":"pl_swiftwater_final1","folder":"tf","game":"Team Fortress","app_id":440,"player_count":23,"max_players":24,"Bots":0,"server_type":"Dedicated","server_os":"Linux","password":true,"vac":true,"version":"7961495","steam_id":85568392924515193,"keywords":["nocrits","nodmgspread","payload","uncletopia"],"game_id":440,"stv_port":27046,"stv_name":"Uncletopia | Chicago | 4 | All Maps | STV","players":[{"user_id":464,"name":"*The* Wardoug41","steam_id":76561198255780869,"connected_time":473000000000,"state":"active","ping":121},{"user_id":467,"name":"vadertot","steam_id":76561198280611473,"connected_time":437000000000,"state":"active","ping":82},{"user_id":432,"name":"adankmix","steam_id":76561198106945614,"connected_time":2166000000000,"state":"active","ping":65},{"user_id":441,"name":"Portizz","steam_id":76561198095732366,"connected_time":1218000000000,"state":"active","ping":83},{"user_id":454,"name":"ネコ Harpako","steam_id":76561198163587660,"connected_time":647000000000,"state":"active","ping":106},{"user_id":451,"name":"Psycyho","steam_id":76561198415801487,"connected_time":779000000000,"state":"active","ping":80},{"user_id":418,"name":"CDBeans","steam_id":76561198046990367,"connected_time":3610000000000,"state":"active","ping":99},{"user_id":452,"name":"Ebro","steam_id":76561198282515057,"connected_time":733000000000,"state":"active","ping":75},{"user_id":465,"name":"Space","steam_id":76561198350489754,"connected_time":463000000000,"state":"active","ping":55},{"user_id":363,"name":"og biden pack cart","steam_id":76561198253731826,"connected_time":7710000000000,"state":"active","ping":63},{"user_id":468,"name":"my name jeff","steam_id":76561198179816898,"connected_time":417000000000,"state":"active","ping":74},{"user_id":450,"name":"Xlander","steam_id":76561199345823430,"connected_time":796000000000,"state":"active","ping":60},{"user_id":443,"name":"twix","steam_id":76561198040912048,"connected_time":1140000000000,"state":"active","ping":52},{"user_id":457,"name":"MeatShield 2000","steam_id":76561199375192850,"connected_time":623000000000,"state":"active","ping":102},{"user_id":462,"name":"dat boii","steam_id":76561198034860608,"connected_time":500000000000,"state":"active","ping":60},{"user_id":466,"name":"Baguette","steam_id":76561198047888426,"connected_time":459000000000,"state":"active","ping":59},{"user_id":396,"name":"the keebler","steam_id":76561199486326945,"connected_time":6100000000000,"state":"active","ping":77},{"user_id":472,"name":"YourLocalArsonist","steam_id":76561199111922751,"connected_time":329000000000,"state":"active","ping":71},{"user_id":440,"name":"PISS MAN","steam_id":76561199121903803,"connected_time":1304000000000,"state":"active","ping":103},{"user_id":460,"name":"Turtlin'","steam_id":76561198885096042,"connected_time":580000000000,"state":"active","ping":65},{"user_id":459,"name":"Crunchy","steam_id":76561198060342804,"connected_time":606000000000,"state":"active","ping":91},{"user_id":474,"name":"gaming elliptical","steam_id":76561198013456569,"connected_time":125000000000,"state":"active","ping":45},{"user_id":473,"name":"Quantum level failure","steam_id":76561199037497493,"connected_time":280000000000,"state":"active","ping":56}]},{"server_id":36,"name":"Uncletopia | Chicago | 5 | All Maps","name_short":"chi-5","host":"chi-2.us.uncletopia.com","port":27015,"enabled":true,"region":"us-central","cc":"us","latitude":41.881832,"longitude":-87.62318,"reserved":0,"last_update":"0001-01-01T00:00:00Z","name_a2s":"Uncletopia | Chicago | 5 | All Maps","protocol":17,"map":"pl_frontier_final","folder":"tf","game":"Team Fortress","app_id":440,"player_count":1,"max_players":24,"Bots":0,"server_type":"Dedicated","server_os":"Linux","password":true,"vac":true,"version":"7961495","steam_id":85568392924866362,"keywords":["nocrits","nodmgspread","payload","uncletopia"],"game_id":440,"stv_port":27016,"stv_name":"Uncletopia | Chicago | 5 | All Maps | STV","players":[{"user_id":28,"name":"zero two","steam_id":76561199058650117,"connected_time":150000000000,"state":"active","ping":74}]},{"server_id":37,"name":"Uncletopia | Chicago | 6 | All Maps","name_short":"chi-6","host":"chi-2.us.uncletopia.com","port":27025,"enabled":true,"region":"us-central","cc":"us","latitude":41.881832,"longitude":-87.62318,"reserved":0,"last_update":"0001-01-01T00:00:00Z","name_a2s":"Uncletopia | Chicago | 6 | All Maps","protocol":17,"map":"pl_badwater","folder":"tf","game":"Team Fortress","app_id":440,"player_count":23,"max_players":24,"Bots":0,"server_type":"Dedicated","server_os":"Linux","password":true,"vac":true,"version":"7961495","steam_id":85568392924866363,"keywords":["nocrits","nodmgspread","payload","uncletopia"],"game_id":440,"stv_port":27026,"stv_name":"Uncletopia | Chicago | 6 | All Maps | STV","players":[{"user_id":126,"name":"soltuno","steam_id":76561198074430565,"connected_time":718000000000,"state":"active","ping":120},{"user_id":142,"name":"Candy Sparkles","steam_id":76561198126871264,"connected_time":108000000000,"state":"active","ping":84},{"user_id":82,"name":"Luca!","steam_id":76561198137880777,"connected_time":2829000000000,"state":"active","ping":77},{"user_id":130,"name":"Brontosaurus","steam_id":76561199135927968,"connected_time":544000000000,"state":"active","ping":59},{"user_id":131,"name":"Piss Sniper","steam_id":76561198317602350,"connected_time":540000000000,"state":"active","ping":80},{"user_id":146,"name":"Official Ton a'Pup","steam_id":76561198023110308,"connected_time":28000000000,"state":"active","ping":82},{"user_id":147,"name":"Paulie Walnuts","steam_id":76561198148078451,"connected_time":27000000000,"state":"active","ping":76},{"user_id":133,"name":"I'm Only 4 Inches","steam_id":76561198055542546,"connected_time":521000000000,"state":"active","ping":52},{"user_id":108,"name":"Discourse","steam_id":76561198984286678,"connected_time":1652000000000,"state":"active","ping":57},{"user_id":118,"name":"Wagemage","steam_id":76561198013625580,"connected_time":975000000000,"state":"active","ping":69},{"user_id":139,"name":"_4ce","steam_id":76561198109077451,"connected_time":135000000000,"state":"active","ping":53},{"user_id":141,"name":"Owl Pacino","steam_id":76561197979970666,"connected_time":121000000000,"state":"active","ping":59},{"user_id":119,"name":"Jasper™","steam_id":76561198260018463,"connected_time":975000000000,"state":"active","ping":77},{"user_id":143,"name":"esoobac","steam_id":76561198010370396,"connected_time":95000000000,"state":"active","ping":45},{"user_id":144,"name":"TransPuppygirlUp4Adoption","steam_id":76561198085813708,"connected_time":95000000000,"state":"active","ping":70},{"user_id":81,"name":"gale","steam_id":76561198250068972,"connected_time":2864000000000,"state":"active","ping":96},{"user_id":137,"name":"flare","steam_id":76561198048623485,"connected_time":315000000000,"state":"active","ping":62},{"user_id":135,"name":"-","steam_id":76561198057717934,"connected_time":506000000000,"state":"active","ping":60},{"user_id":138,"name":"Drapph","steam_id":76561199384213314,"connected_time":144000000000,"state":"active","ping":57},{"user_id":122,"name":"Skudge Sister","steam_id":76561198041766766,"connected_time":959000000000,"state":"active","ping":76},{"user_id":128,"name":"anonpain","steam_id":76561198081317092,"connected_time":685000000000,"state":"active","ping":57},{"user_id":125,"name":"adrymarker","steam_id":76561198316948699,"connected_time":896000000000,"state":"active","ping":69},{"user_id":109,"name":"TheChoclateDogThatCould","steam_id":76561198142126470,"connected_time":1652000000000,"state":"active","ping":41}]},{"server_id":38,"name":"Uncletopia | Chicago | 7 | Stopwatch","name_short":"chi-7","host":"chi-2.us.uncletopia.com","port":27035,"enabled":true,"region":"us-central","cc":"us","latitude":41.881832,"longitude":-87.62318,"reserved":0,"last_update":"0001-01-01T00:00:00Z","name_a2s":"Uncletopia | Chicago | 7 | Stopwatch","protocol":17,"map":"koth_highpass","folder":"tf","game":"Team Fortress","app_id":440,"player_count":0,"max_players":24,"Bots":0,"server_type":"Dedicated","server_os":"Linux","password":true,"vac":true,"version":"7961495","steam_id":85568392924866364,"keywords":["cp","nocrits","nodmgspread","uncletopia"],"game_id":440,"stv_port":27036,"stv_name":"Uncletopia | Chicago | 7 | Stopwatch | STV","players":null},{"server_id":39,"name":"Uncletopia | Chicago | 8 | Community","name_short":"chi-8","host":"chi-2.us.uncletopia.com","port":27045,"enabled":true,"region":"us-central","cc":"us","latitude":41.881832,"longitude":-87.62318,"reserved":0,"last_update":"0001-01-01T00:00:00Z","name_a2s":"Uncletopia | Chicago | 8 | Community","protocol":17,"map":"workshop/pl_emerge_rc2.ugc888027758","folder":"tf","game":"Team Fortress","app_id":440,"player_count":0,"max_players":24,"Bots":0,"server_type":"Dedicated","server_os":"Linux","password":true,"vac":true,"version":"7961495","steam_id":85568392924866365,"keywords":["nocrits","nodmgspread","payload","uncletopia"],"game_id":440,"stv_port":27046,"stv_name":"Uncletopia | Chicago | 8 | Community | STV","players":null},{"server_id":8,"name":"Uncletopia | Dallas | 1 | All Maps","name_short":"dal-1","host":"dal-1.us.uncletopia.com","port":27015,"enabled":true,"region":"us-central","cc":"us","latitude":32.779167,"longitude":-96.80889,"reserved":0,"last_update":"0001-01-01T00:00:00Z","name_a2s":"Uncletopia | Dallas | 1 | All Maps","protocol":17,"map":"pl_badwater","folder":"tf","game":"Team Fortress","app_id":440,"player_count":24,"max_players":24,"Bots":0,"server_type":"Dedicated","server_os":"Linux","password":true,"vac":true,"version":"7961495","steam_id":85568392924469986,"keywords":["nocrits","nodmgspread","payload","uncletopia"],"game_id":440,"stv_port":27016,"stv_name":"Uncletopia | Dallas | 1 | All Maps | STV","players":[{"user_id":229,"name":"corned beef","steam_id":76561199366782761,"connected_time":2387000000000,"state":"active","ping":145},{"user_id":258,"name":"Morderock","steam_id":76561198271137325,"connected_time":266000000000,"state":"active","ping":90},{"user_id":251,"name":"CowardicePrevails","steam_id":76561198145199545,"connected_time":477000000000,"state":"active","ping":95},{"user_id":236,"name":"ඞ","steam_id":76561199365672047,"connected_time":1764000000000,"state":"active","ping":101},{"user_id":254,"name":"Satan-2","steam_id":76561199231742764,"connected_time":353000000000,"state":"active","ping":88},{"user_id":228,"name":"Trolley","steam_id":76561198106695948,"connected_time":2406000000000,"state":"active","ping":66},{"user_id":255,"name":"brains","steam_id":76561198197388678,"connected_time":349000000000,"state":"active","ping":60},{"user_id":253,"name":"purple diesel","steam_id":76561197976548449,"connected_time":371000000000,"state":"active","ping":94},{"user_id":235,"name":"LewdestLoli","steam_id":76561197967842240,"connected_time":1881000000000,"state":"active","ping":56},{"user_id":249,"name":"kinetic","steam_id":76561198061346578,"connected_time":757000000000,"state":"active","ping":63},{"user_id":241,"name":"FalconDestroyer1","steam_id":76561198412019922,"connected_time":1424000000000,"state":"active","ping":117},{"user_id":250,"name":"cuddles","steam_id":76561199471390987,"connected_time":544000000000,"state":"active","ping":85},{"user_id":252,"name":"2609.loop","steam_id":76561199218379536,"connected_time":472000000000,"state":"active","ping":81},{"user_id":174,"name":"Stillkill","steam_id":76561198065069057,"connected_time":6619000000000,"state":"active","ping":34},{"user_id":197,"name":"Locomotive","steam_id":76561199152926930,"connected_time":4939000000000,"state":"active","ping":70},{"user_id":191,"name":"FI LO","steam_id":76561198976530881,"connected_time":5418000000000,"state":"active","ping":72},{"user_id":233,"name":"Jaydyn","steam_id":76561198140326797,"connected_time":2241000000000,"state":"active","ping":104},{"user_id":257,"name":"qool guy","steam_id":76561198064758306,"connected_time":291000000000,"state":"active","ping":98},{"user_id":238,"name":"Bean Marrow","steam_id":76561198116650223,"connected_time":1479000000000,"state":"active","ping":75},{"user_id":243,"name":"Garfelf","steam_id":76561198419850129,"connected_time":1412000000000,"state":"active","ping":109},{"user_id":248,"name":"Da Policia","steam_id":76561198012762789,"connected_time":894000000000,"state":"active","ping":45},{"user_id":259,"name":"Ewan303","steam_id":76561198246769118,"connected_time":75000000000,"state":"active","ping":45},{"user_id":245,"name":"tsz","steam_id":76561199246231090,"connected_time":1381000000000,"state":"active","ping":79},{"user_id":156,"name":"Shalom","steam_id":76561198410005222,"connected_time":7728000000000,"state":"active","ping":62}]},{"server_id":108,"name":"Uncletopia | Dallas | 2 | All Maps","name_short":"dal-2","host":"dal-1.us.uncletopia.com","port":27025,"enabled":true,"region":"us-central","cc":"us","latitude":32.779167,"longitude":-96.80889,"reserved":0,"last_update":"0001-01-01T00:00:00Z","name_a2s":"Uncletopia | Dallas | 2 | All Maps","protocol":17,"map":"pl_upward","folder":"tf","game":"Team Fortress","app_id":440,"player_count":24,"max_players":24,"Bots":0,"server_type":"Dedicated","server_os":"Linux","password":true,"vac":true,"version":"7961495","steam_id":85568392924469988,"keywords":["nocrits","nodmgspread","payload","uncletopia"],"game_id":440,"stv_port":27026,"stv_name":"Uncletopia | Dallas | 2 | All Maps | STV","players":[{"user_id":643,"name":"zuma deluxe","steam_id":76561198059041027,"connected_time":544000000000,"state":"active","ping":113},{"user_id":644,"name":"C^a^L","steam_id":76561198241124222,"connected_time":517000000000,"state":"active","ping":89},{"user_id":630,"name":"Arc","steam_id":76561198057246982,"connected_time":1318000000000,"state":"active","ping":56},{"user_id":609,"name":"Rob","steam_id":76561199187786660,"connected_time":2451000000000,"state":"active","ping":54},{"user_id":634,"name":"Cheesecake","steam_id":76561197978508626,"connected_time":1028000000000,"state":"active","ping":69},{"user_id":580,"name":"ADRIEN BRODY","steam_id":76561198009299473,"connected_time":4084000000000,"state":"active","ping":85},{"user_id":640,"name":"Lex","steam_id":76561198069948353,"connected_time":726000000000,"state":"active","ping":67},{"user_id":612,"name":"12345","steam_id":76561198046948758,"connected_time":2339000000000,"state":"active","ping":73},{"user_id":631,"name":"Your Dad™","steam_id":76561198254739340,"connected_time":1307000000000,"state":"active","ping":88},{"user_id":610,"name":"Phosu","steam_id":76561198180162801,"connected_time":2376000000000,"state":"active","ping":67},{"user_id":628,"name":"Drained","steam_id":76561198081974528,"connected_time":1511000000000,"state":"active","ping":73},{"user_id":636,"name":"GoForce","steam_id":76561198046677344,"connected_time":908000000000,"state":"active","ping":101},{"user_id":638,"name":"ZombieMan101","steam_id":76561198846999186,"connected_time":859000000000,"state":"active","ping":82},{"user_id":639,"name":"derb","steam_id":76561198110369487,"connected_time":825000000000,"state":"active","ping":75},{"user_id":649,"name":"deimos","steam_id":76561198148357768,"connected_time":376000000000,"state":"active","ping":89},{"user_id":646,"name":"5yt LFB","steam_id":76561198041643833,"connected_time":494000000000,"state":"active","ping":64},{"user_id":650,"name":"SneekiCheekiQbone","steam_id":76561198045077980,"connected_time":274000000000,"state":"active","ping":74},{"user_id":625,"name":"HollyBlocky","steam_id":76561198030156100,"connected_time":1799000000000,"state":"active","ping":91},{"user_id":632,"name":"dailydiamond","steam_id":76561199123582502,"connected_time":1182000000000,"state":"active","ping":98},{"user_id":641,"name":"Specter the Unchained","steam_id":76561198348354629,"connected_time":634000000000,"state":"active","ping":80},{"user_id":605,"name":"Hindmost","steam_id":76561199081837220,"connected_time":2708000000000,"state":"active","ping":76},{"user_id":642,"name":"Cold shoulder","steam_id":76561198453824178,"connected_time":612000000000,"state":"active","ping":164},{"user_id":587,"name":"corviraptor (bison sweep)","steam_id":76561198058284392,"connected_time":3823000000000,"state":"active","ping":51},{"user_id":622,"name":"Rearranging furniture","steam_id":76561199054971009,"connected_time":2048000000000,"state":"active","ping":42}]},{"server_id":404,"name":"Uncletopia | Dallas | 3 | All Maps","name_short":"dal-3","host":"dal-1.us.uncletopia.com","port":27035,"enabled":true,"region":"us-central","cc":"us","latitude":32.779167,"longitude":-96.80889,"reserved":0,"last_update":"0001-01-01T00:00:00Z","name_a2s":"Uncletopia | Dallas | 3 | All Maps","protocol":17,"map":"pl_pier","folder":"tf","game":"Team Fortress","app_id":440,"player_count":0,"max_players":24,"Bots":0,"server_type":"Dedicated","server_os":"Linux","password":true,"vac":true,"version":"7961495","steam_id":85568392924515219,"keywords":["nocrits","nodmgspread","payload","uncletopia"],"game_id":440,"stv_port":27036,"stv_name":"Uncletopia | Dallas | 3 | All Maps | STV","players":null},{"server_id":405,"name":"Uncletopia | Dallas | 4 | Community","name_short":"dal-4","host":"dal-1.us.uncletopia.com","port":27045,"enabled":true,"region":"us-central","cc":"us","latitude":32.779167,"longitude":-96.80889,"reserved":0,"last_update":"0001-01-01T00:00:00Z","name_a2s":"Uncletopia | Dallas | 4 | Community","protocol":17,"map":"workshop/pl_cashworks_final1.ugc2904065412","folder":"tf","game":"Team Fortress","app_id":440,"player_count":0,"max_players":24,"Bots":0,"server_type":"Dedicated","server_os":"Linux","password":true,"vac":true,"version":"7961495","steam_id":85568392924515220,"keywords":["nocrits","nodmgspread","payload","uncletopia"],"game_id":440,"stv_port":27046,"stv_name":"Uncletopia | Dallas | 4 | Community | STV","players":null},{"server_id":5,"name":"Uncletopia | Frankfurt | 1 | All Maps","name_short":"frk-1","host":"frk-1.de.uncletopia.com","port":27015,"enabled":true,"region":"eu","cc":"de","latitude":50.110924,"longitude":8.682127,"reserved":0,"last_update":"0001-01-01T00:00:00Z","name_a2s":"Uncletopia | Frankfurt | 1 | All Maps","protocol":17,"map":"pl_frontier_final","folder":"tf","game":"Team Fortress","app_id":440,"player_count":24,"max_players":24,"Bots":0,"server_type":"Dedicated","server_os":"Linux","password":true,"vac":true,"version":"7961495","steam_id":85568392924469989,"keywords":["nocrits","nodmgspread","payload","uncletopia"],"game_id":440,"stv_port":27016,"stv_name":"Uncletopia | Frankfurt | 1 | All Maps | STV","players":[{"user_id":479,"name":"anderGL7","steam_id":76561198042529664,"connected_time":1391000000000,"state":"active","ping":82},{"user_id":466,"name":"Minimi","steam_id":76561198873850443,"connected_time":3124000000000,"state":"active","ping":53},{"user_id":496,"name":"Vince","steam_id":76561199103000131,"connected_time":509000000000,"state":"active","ping":57},{"user_id":477,"name":"corralled","steam_id":76561198028648627,"connected_time":1758000000000,"state":"active","ping":67},{"user_id":481,"name":"varven","steam_id":76561197965907387,"connected_time":1288000000000,"state":"active","ping":67},{"user_id":494,"name":"Onbeheerde_Jongeheer","steam_id":76561198051685232,"connected_time":593000000000,"state":"active","ping":45},{"user_id":480,"name":"Hitotsume","steam_id":76561198129157178,"connected_time":1342000000000,"state":"active","ping":89},{"user_id":469,"name":"Georman Forge","steam_id":76561198256504605,"connected_time":2604000000000,"state":"active","ping":69},{"user_id":459,"name":"Pinkchup","steam_id":76561198106802803,"connected_time":3340000000000,"state":"active","ping":75},{"user_id":482,"name":"bucket of souls","steam_id":76561198872688899,"connected_time":1168000000000,"state":"active","ping":174},{"user_id":485,"name":"avatarvic","steam_id":76561198305931255,"connected_time":1006000000000,"state":"active","ping":71},{"user_id":497,"name":"randem_","steam_id":76561198338793755,"connected_time":497000000000,"state":"active","ping":54},{"user_id":499,"name":"Gety0","steam_id":76561198044387185,"connected_time":90000000000,"state":"active","ping":86},{"user_id":478,"name":"Curlew","steam_id":76561198075884540,"connected_time":1560000000000,"state":"active","ping":84},{"user_id":424,"name":"Finem Belli","steam_id":76561198227177976,"connected_time":5131000000000,"state":"active","ping":46},{"user_id":427,"name":"Scout","steam_id":76561198992898803,"connected_time":4883000000000,"state":"active","ping":70},{"user_id":487,"name":"Alyx","steam_id":76561198255411360,"connected_time":936000000000,"state":"active","ping":107},{"user_id":473,"name":"obi","steam_id":76561198040154461,"connected_time":2497000000000,"state":"active","ping":52},{"user_id":489,"name":"syms","steam_id":76561198066679812,"connected_time":863000000000,"state":"active","ping":62},{"user_id":495,"name":"lobzade","steam_id":76561198195685370,"connected_time":566000000000,"state":"active","ping":53},{"user_id":491,"name":"sad monkey hands on his head","steam_id":76561198116530769,"connected_time":851000000000,"state":"active","ping":88},{"user_id":492,"name":"tone","steam_id":76561197975301462,"connected_time":815000000000,"state":"active","ping":75},{"user_id":498,"name":"TheDeath","steam_id":76561198265038954,"connected_time":171000000000,"state":"active","ping":70},{"user_id":472,"name":"Dozer","steam_id":76561197998742338,"connected_time":2532000000000,"state":"active","ping":83}]},{"server_id":110,"name":"Uncletopia | Frankfurt | 2 | All Maps","name_short":"frk-2","host":"frk-1.de.uncletopia.com","port":27025,"enabled":true,"region":"eu","cc":"de","latitude":50.110924,"longitude":8.682127,"reserved":0,"last_update":"0001-01-01T00:00:00Z","name_a2s":"Uncletopia | Frankfurt | 2 | All Maps","protocol":17,"map":"cp_mountainlab","folder":"tf","game":"Team Fortress","app_id":440,"player_count":4,"max_players":24,"Bots":0,"server_type":"Dedicated","server_os":"Linux","password":true,"vac":true,"version":"7961495","steam_id":85568392924469990,"keywords":["cp","nocrits","nodmgspread","uncletopia"],"game_id":440,"stv_port":27026,"stv_name":"Uncletopia | Frankfurt | 2 | All Maps | STV","players":[{"user_id":496,"name":"Timsey","steam_id":76561198119494314,"connected_time":1657000000000,"state":"active","ping":59},{"user_id":510,"name":"Limescale","steam_id":76561198839259306,"connected_time":1193000000000,"state":"active","ping":83},{"user_id":480,"name":"AAAAAAAAAAAAAA","steam_id":76561198852938533,"connected_time":1961000000000,"state":"active","ping":122},{"user_id":520,"name":"Fatmagic Mukbang ASMR","steam_id":76561198063492110,"connected_time":608000000000,"state":"active","ping":72}]},{"server_id":308,"name":"Uncletopia | Frankfurt | 3 | All Maps","name_short":"frk-3","host":"frk-1.de.uncletopia.com","port":27035,"enabled":true,"region":"eu","cc":"de","latitude":50.110924,"longitude":8.682127,"reserved":0,"last_update":"0001-01-01T00:00:00Z","name_a2s":"Uncletopia | Frankfurt | 3 | All Maps","protocol":17,"map":"pl_borneo","folder":"tf","game":"Team Fortress","app_id":440,"player_count":13,"max_players":24,"Bots":0,"server_type":"Dedicated","server_os":"Linux","password":true,"vac":true,"version":"7961495","steam_id":85568392924504274,"keywords":["nocrits","nodmgspread","payload","uncletopia"],"game_id":440,"stv_port":27036,"stv_name":"Uncletopia | Frankfurt | 3 | All Maps | STV","players":[{"user_id":592,"name":"Imperial City Guard","steam_id":76561198083355845,"connected_time":7310000000000,"state":"active","ping":52},{"user_id":674,"name":"Cataleptic","steam_id":76561197997966949,"connected_time":2403000000000,"state":"active","ping":62},{"user_id":661,"name":"niszczyciel dziewic","steam_id":76561198136544357,"connected_time":2777000000000,"state":"active","ping":73},{"user_id":702,"name":"Poggito","steam_id":76561198838001276,"connected_time":827000000000,"state":"active","ping":59},{"user_id":707,"name":"Fidacha","steam_id":76561198003060881,"connected_time":373000000000,"state":"active","ping":60},{"user_id":708,"name":"my mom","steam_id":76561199225201569,"connected_time":301000000000,"state":"active","ping":132},{"user_id":710,"name":"luckyluca22","steam_id":76561198024579460,"connected_time":233000000000,"state":"active","ping":57},{"user_id":679,"name":"Lanz","steam_id":76561198126356394,"connected_time":1947000000000,"state":"active","ping":54},{"user_id":664,"name":"Malandir","steam_id":76561198057036772,"connected_time":2755000000000,"state":"active","ping":57},{"user_id":623,"name":"snowycoast","steam_id":76561198346638308,"connected_time":5788000000000,"state":"active","ping":60},{"user_id":668,"name":"CRITICAL_HIT!","steam_id":76561198349330393,"connected_time":2672000000000,"state":"active","ping":74},{"user_id":699,"name":"no blocking no dodging","steam_id":76561198138208569,"connected_time":926000000000,"state":"active","ping":150},{"user_id":688,"name":"Blake","steam_id":76561198034050682,"connected_time":1681000000000,"state":"active","ping":60}]},{"server_id":309,"name":"Uncletopia | Frankfurt | 4 | All Maps","name_short":"frk-4","host":"frk-1.de.uncletopia.com","port":27045,"enabled":true,"region":"eu","cc":"de","latitude":50.110924,"longitude":8.682127,"reserved":0,"last_update":"0001-01-01T00:00:00Z","name_a2s":"Uncletopia | Frankfurt | 4 | All Maps","protocol":17,"map":"pl_snowycoast","folder":"tf","game":"Team Fortress","app_id":440,"player_count":24,"max_players":24,"Bots":0,"server_type":"Dedicated","server_os":"Linux","password":true,"vac":true,"version":"7961495","steam_id":85568392924504275,"keywords":["nocrits","nodmgspread","payload","uncletopia"],"game_id":440,"stv_port":27046,"stv_name":"Uncletopia | Frankfurt | 4 | All Maps | STV","players":[{"user_id":315,"name":"harrison.avenue","steam_id":76561198037288988,"connected_time":656000000000,"state":"active","ping":175},{"user_id":314,"name":"tired","steam_id":76561198046838168,"connected_time":756000000000,"state":"active","ping":45},{"user_id":289,"name":"pepega","steam_id":76561198210509251,"connected_time":2955000000000,"state":"active","ping":105},{"user_id":293,"name":"grassesmode.exe","steam_id":76561198090167960,"connected_time":2745000000000,"state":"active","ping":85},{"user_id":284,"name":"King_Nothing","steam_id":76561198313701436,"connected_time":3224000000000,"state":"active","ping":73},{"user_id":299,"name":"www.ESYACARSISI.COM","steam_id":76561198378280844,"connected_time":2479000000000,"state":"active","ping":95},{"user_id":288,"name":"Majestic","steam_id":76561198039384692,"connected_time":3083000000000,"state":"active","ping":62},{"user_id":313,"name":"Arty","steam_id":76561198160100181,"connected_time":825000000000,"state":"active","ping":80},{"user_id":257,"name":"VATNIK | RAMA","steam_id":76561198040423618,"connected_time":4606000000000,"state":"active","ping":74},{"user_id":256,"name":"The Lady","steam_id":76561198029895809,"connected_time":4643000000000,"state":"active","ping":74},{"user_id":305,"name":"bilgobaggings","steam_id":76561198041520751,"connected_time":1001000000000,"state":"active","ping":58},{"user_id":307,"name":"Çodar","steam_id":76561198235518444,"connected_time":963000000000,"state":"active","ping":53},{"user_id":308,"name":"Finn","steam_id":76561198179960193,"connected_time":941000000000,"state":"active","ping":52},{"user_id":311,"name":"Kestrel","steam_id":76561198144033005,"connected_time":894000000000,"state":"active","ping":65},{"user_id":302,"name":"cupcakedealer69402","steam_id":76561199122061900,"connected_time":1803000000000,"state":"active","ping":152},{"user_id":295,"name":"CiVillain","steam_id":76561198059617732,"connected_time":2700000000000,"state":"active","ping":59},{"user_id":304,"name":"Stalin","steam_id":76561199221478774,"connected_time":1003000000000,"state":"active","ping":61},{"user_id":309,"name":"[ Louinskii ]","steam_id":76561198060509154,"connected_time":914000000000,"state":"active","ping":79},{"user_id":310,"name":"TunaaFsh","steam_id":76561198127194010,"connected_time":906000000000,"state":"active","ping":74},{"user_id":316,"name":"Alice in Rubberland","steam_id":76561198087328346,"connected_time":549000000000,"state":"active","ping":149},{"user_id":312,"name":"sarii ☆","steam_id":76561199155102111,"connected_time":878000000000,"state":"active","ping":80},{"user_id":301,"name":"Xiqui","steam_id":76561198818386611,"connected_time":2079000000000,"state":"active","ping":77},{"user_id":202,"name":"LordTrap.exe","steam_id":76561198318089716,"connected_time":7766000000000,"state":"active","ping":57},{"user_id":298,"name":"♂ Dungeon Master ♂","steam_id":76561198106441033,"connected_time":2634000000000,"state":"active","ping":89}]},{"server_id":310,"name":"Uncletopia | Frankfurt | 5 | All Maps","name_short":"frk-5","host":"frk-1.de.uncletopia.com","port":27055,"enabled":true,"region":"eu","cc":"de","latitude":50.110924,"longitude":8.682127,"reserved":0,"last_update":"0001-01-01T00:00:00Z","name_a2s":"Uncletopia | Frankfurt | 5 | All Maps","protocol":17,"map":"pl_borneo","folder":"tf","game":"Team Fortress","app_id":440,"player_count":24,"max_players":24,"Bots":0,"server_type":"Dedicated","server_os":"Linux","password":true,"vac":true,"version":"7961495","steam_id":85568392924504277,"keywords":["nocrits","nodmgspread","payload","uncletopia"],"game_id":440,"stv_port":27056,"stv_name":"Uncletopia | Frankfurt | 5 | All Maps | STV","players":[{"user_id":531,"name":"Borger Dog (real)","steam_id":76561199232839385,"connected_time":418000000000,"state":"active","ping":90},{"user_id":520,"name":"BenteBent","steam_id":76561198297920637,"connected_time":1473000000000,"state":"active","ping":45},{"user_id":537,"name":"Yeonwoo","steam_id":76561199082985721,"connected_time":241000000000,"state":"active","ping":132},{"user_id":532,"name":"weaj","steam_id":76561198053628243,"connected_time":393000000000,"state":"active","ping":54},{"user_id":522,"name":"xTheDarkLight","steam_id":76561198239128298,"connected_time":1103000000000,"state":"active","ping":56},{"user_id":528,"name":"britiliximab","steam_id":76561198141173061,"connected_time":747000000000,"state":"active","ping":90},{"user_id":519,"name":"GoatLord1","steam_id":76561198157964544,"connected_time":1505000000000,"state":"active","ping":62},{"user_id":524,"name":"jovi_","steam_id":76561198449280552,"connected_time":915000000000,"state":"active","ping":60},{"user_id":495,"name":"Ted","steam_id":76561198143229880,"connected_time":3973000000000,"state":"active","ping":41},{"user_id":536,"name":"CL! Hallowasniet","steam_id":76561198168485956,"connected_time":296000000000,"state":"active","ping":78},{"user_id":526,"name":"Jonno","steam_id":76561198023443744,"connected_time":869000000000,"state":"active","ping":69},{"user_id":450,"name":"steve","steam_id":76561198335143890,"connected_time":8111000000000,"state":"active","ping":70},{"user_id":541,"name":"Wessle T","steam_id":76561198295353875,"connected_time":59000000000,"state":"active","ping":173},{"user_id":539,"name":"\u003e\u003c\u003e","steam_id":76561198152392309,"connected_time":113000000000,"state":"active","ping":45},{"user_id":527,"name":"hbivnm#freeforsen","steam_id":76561197996468677,"connected_time":851000000000,"state":"active","ping":60},{"user_id":529,"name":"race car driver jerry","steam_id":76561198054047446,"connected_time":532000000000,"state":"active","ping":64},{"user_id":540,"name":"Calamant","steam_id":76561198054650483,"connected_time":82000000000,"state":"active","ping":145},{"user_id":533,"name":"Lavir","steam_id":76561198008619442,"connected_time":349000000000,"state":"active","ping":118},{"user_id":492,"name":"Schmack","steam_id":76561198026535437,"connected_time":4679000000000,"state":"active","ping":60},{"user_id":534,"name":"chestnutflea","steam_id":76561198144268690,"connected_time":344000000000,"state":"active","ping":75},{"user_id":52,"name":"else1","steam_id":76561197996558319,"connected_time":36514000000000,"state":"active","ping":75},{"user_id":535,"name":"NekoRosaria","steam_id":76561198799032108,"connected_time":343000000000,"state":"active","ping":78},{"user_id":514,"name":"minimurx","steam_id":76561198858102095,"connected_time":2634000000000,"state":"active","ping":59},{"user_id":518,"name":"Senator Palpaprotein","steam_id":76561198081980254,"connected_time":1809000000000,"state":"active","ping":60}]},{"server_id":311,"name":"Uncletopia | Frankfurt | 6 | All Maps","name_short":"frk-6","host":"frk-1.de.uncletopia.com","port":27065,"enabled":true,"region":"eu","cc":"de","latitude":50.110924,"longitude":8.682127,"reserved":0,"last_update":"0001-01-01T00:00:00Z","name_a2s":"Uncletopia | Frankfurt | 6 | All Maps","protocol":17,"map":"pl_badwater","folder":"tf","game":"Team Fortress","app_id":440,"player_count":10,"max_players":24,"Bots":0,"server_type":"Dedicated","server_os":"Linux","password":true,"vac":true,"version":"7961495","steam_id":85568392924504278,"keywords":["nocrits","nodmgspread","payload","uncletopia"],"game_id":440,"stv_port":27066,"stv_name":"Uncletopia | Frankfurt | 6 | All Maps | STV","players":[{"user_id":542,"name":"DALIX","steam_id":76561198137361645,"connected_time":773000000000,"state":"active","ping":62},{"user_id":535,"name":"theally105","steam_id":76561199171663406,"connected_time":1316000000000,"state":"active","ping":168},{"user_id":536,"name":"Zzziiighghmuund","steam_id":76561198798167787,"connected_time":1271000000000,"state":"active","ping":71},{"user_id":547,"name":"Jon","steam_id":76561199380849468,"connected_time":511000000000,"state":"active","ping":60},{"user_id":548,"name":"SAS41","steam_id":76561197998649851,"connected_time":490000000000,"state":"active","ping":60},{"user_id":550,"name":"how use bazooka tf2","steam_id":76561198436817109,"connected_time":297000000000,"state":"active","ping":63},{"user_id":551,"name":"CarbonPan","steam_id":76561198072169983,"connected_time":262000000000,"state":"active","ping":77},{"user_id":552,"name":". . .","steam_id":76561198184360615,"connected_time":234000000000,"state":"active","ping":90},{"user_id":435,"name":"Ozzie","steam_id":76561197992915315,"connected_time":9758000000000,"state":"active","ping":70},{"user_id":436,"name":"Farao Ramses II","steam_id":76561198078722712,"connected_time":9739000000000,"state":"active","ping":45}]},{"server_id":23,"name":"Uncletopia | Frankfurt | 7 | Stopwatch","name_short":"frk-7","host":"frk-1.de.uncletopia.com","port":27075,"enabled":true,"region":"eu","cc":"de","latitude":50.110924,"longitude":8.682127,"reserved":0,"last_update":"0001-01-01T00:00:00Z","name_a2s":"Uncletopia | Frankfurt | 7 | Stopwatch","protocol":17,"map":"workshop/koth_product_final.ugc454272353","folder":"tf","game":"Team Fortress","app_id":440,"player_count":0,"max_players":24,"Bots":0,"server_type":"Dedicated","server_os":"Linux","password":true,"vac":true,"version":"7961495","steam_id":85568392924742827,"keywords":["cp","nocrits","nodmgspread","uncletopia"],"game_id":440,"stv_port":27076,"stv_name":"Uncletopia | Frankfurt | 7 | Stopwatch | STV","players":null},{"server_id":24,"name":"Uncletopia | Frankfurt | 8 | Community","name_short":"frk-8","host":"frk-1.de.uncletopia.com","port":27085,"enabled":true,"region":"eu","cc":"de","latitude":50.110924,"longitude":8.682127,"reserved":0,"last_update":"0001-01-01T00:00:00Z","name_a2s":"Uncletopia | Frankfurt | 8 | Community","protocol":17,"map":"workshop/pl_corrode_rc2.ugc546577989","folder":"tf","game":"Team Fortress","app_id":440,"player_count":0,"max_players":24,"Bots":0,"server_type":"Dedicated","server_os":"Linux","password":true,"vac":true,"version":"7961495","steam_id":85568392924742828,"keywords":["nocrits","nodmgspread","payload","uncletopia"],"game_id":440,"stv_port":27086,"stv_name":"Uncletopia | Frankfurt | 8 | Community | STV","players":null},{"server_id":202,"name":"Uncletopia | Hong Kong | 1 | All Maps","name_short":"hgk-1","host":"hgk-1.hk.uncletopia.com","port":27015,"enabled":true,"region":"asia","cc":"hk","latitude":22.302711,"longitude":114.177216,"reserved":0,"last_update":"0001-01-01T00:00:00Z","name_a2s":"Uncletopia | Hong Kong | 1 | All Maps","protocol":17,"map":"pl_frontier_final","folder":"tf","game":"Team Fortress","app_id":440,"player_count":0,"max_players":24,"Bots":0,"server_type":"Dedicated","server_os":"Linux","password":true,"vac":true,"version":"7961495","steam_id":85568392924494504,"keywords":["nocrits","nodmgspread","payload","uncletopia"],"game_id":440,"stv_port":27016,"stv_name":"Uncletopia | Hong Kong | 1 | All Maps | STV","players":null},{"server_id":1,"name":"Uncletopia | Los Angeles | 1 | All Maps","name_short":"lax-1","host":"lax-1.us.uncletopia.com","port":27015,"enabled":true,"region":"us-west","cc":"us","latitude":33.94279,"longitude":-118.41004,"reserved":0,"last_update":"0001-01-01T00:00:00Z","name_a2s":"Uncletopia | Los Angeles | 1 | All Maps","protocol":17,"map":"koth_highpass","folder":"tf","game":"Team Fortress","app_id":440,"player_count":1,"max_players":24,"Bots":0,"server_type":"Dedicated","server_os":"Linux","password":true,"vac":true,"version":"7961495","steam_id":85568392924469991,"keywords":["cp","nocrits","nodmgspread","uncletopia"],"game_id":440,"stv_port":27016,"stv_name":"Uncletopia | Los Angeles | 1 | All Maps | STV","players":[{"user_id":9,"name":"TheDoctorIsIn","steam_id":76561198322058639,"connected_time":441000000000,"state":"active","ping":90}]},{"server_id":112,"name":"Uncletopia | Los Angeles | 2 | All Maps","name_short":"lax-2","host":"lax-1.us.uncletopia.com","port":27025,"enabled":true,"region":"us-west","cc":"us","latitude":33.94279,"longitude":-118.41004,"reserved":0,"last_update":"0001-01-01T00:00:00Z","name_a2s":"Uncletopia | Los Angeles | 2 | All Maps","protocol":17,"map":"pl_upward","folder":"tf","game":"Team Fortress","app_id":440,"player_count":24,"max_players":24,"Bots":0,"server_type":"Dedicated","server_os":"Linux","password":true,"vac":true,"version":"7961495","steam_id":85568392924469992,"keywords":["nocrits","nodmgspread","payload","uncletopia"],"game_id":440,"stv_port":27026,"stv_name":"Uncletopia | Los Angeles | 2 | All Maps | STV","players":[{"user_id":115,"name":"usedhalfcart","steam_id":76561198072621852,"connected_time":2844000000000,"state":"active","ping":85},{"user_id":95,"name":"Seskova","steam_id":76561198090207032,"connected_time":4057000000000,"state":"active","ping":72},{"user_id":118,"name":"weed lesbian","steam_id":76561198042263805,"connected_time":2120000000000,"state":"active","ping":79},{"user_id":119,"name":"YWCHLAN.IO","steam_id":76561198041438503,"connected_time":2119000000000,"state":"active","ping":122},{"user_id":116,"name":"Zwee","steam_id":76561198078671498,"connected_time":2171000000000,"state":"active","ping":62},{"user_id":131,"name":"moe","steam_id":76561198929586245,"connected_time":741000000000,"state":"active","ping":38},{"user_id":85,"name":"reko","steam_id":76561198278020887,"connected_time":5206000000000,"state":"active","ping":70},{"user_id":132,"name":"leumas","steam_id":76561198240408540,"connected_time":741000000000,"state":"active","ping":91},{"user_id":130,"name":"vvitch","steam_id":76561198279661941,"connected_time":790000000000,"state":"active","ping":45},{"user_id":133,"name":"Redo64","steam_id":76561198330923332,"connected_time":722000000000,"state":"active","ping":118},{"user_id":98,"name":"Pure","steam_id":76561198074468889,"connected_time":3885000000000,"state":"active","ping":70},{"user_id":135,"name":"jairo","steam_id":76561199006124613,"connected_time":685000000000,"state":"active","ping":140},{"user_id":136,"name":"Serene Salamander","steam_id":76561198001094770,"connected_time":670000000000,"state":"active","ping":63},{"user_id":102,"name":"rice","steam_id":76561198119326733,"connected_time":3786000000000,"state":"active","ping":106},{"user_id":126,"name":"waffle","steam_id":76561198077799844,"connected_time":1131000000000,"state":"active","ping":59},{"user_id":83,"name":"SanitysEdge","steam_id":76561198130732813,"connected_time":5446000000000,"state":"active","ping":50},{"user_id":114,"name":"mega","steam_id":76561198089520959,"connected_time":3019000000000,"state":"active","ping":114},{"user_id":109,"name":"matt_","steam_id":76561199121285443,"connected_time":3473000000000,"state":"active","ping":105},{"user_id":71,"name":"Mud Goblin","steam_id":76561198839118505,"connected_time":6883000000000,"state":"active","ping":71},{"user_id":137,"name":"mentos14","steam_id":76561198097993629,"connected_time":264000000000,"state":"active","ping":55},{"user_id":105,"name":"hatsune miku","steam_id":76561199445009981,"connected_time":3670000000000,"state":"active","ping":79},{"user_id":128,"name":"Pocket Fucking TryHard Dickwad","steam_id":76561198041329791,"connected_time":1087000000000,"state":"active","ping":46},{"user_id":121,"name":"riSygneD","steam_id":76561198331618687,"connected_time":2071000000000,"state":"active","ping":38},{"user_id":80,"name":"celestia ludenberg","steam_id":76561199196437823,"connected_time":5896000000000,"state":"active","ping":69}]},{"server_id":324,"name":"Uncletopia | Los Angeles | 3 | All Maps","name_short":"lax-3","host":"lax-1.us.uncletopia.com","port":27035,"enabled":true,"region":"us-west","cc":"us","latitude":33.94279,"longitude":-118.41004,"reserved":0,"last_update":"0001-01-01T00:00:00Z","name_a2s":"Uncletopia | Los Angeles | 3 | All Maps","protocol":17,"map":"pl_frontier_final","folder":"tf","game":"Team Fortress","app_id":440,"player_count":0,"max_players":24,"Bots":0,"server_type":"Dedicated","server_os":"Linux","password":true,"vac":true,"version":"7961495","steam_id":85568392924510198,"keywords":["nocrits","nodmgspread","payload","uncletopia"],"game_id":440,"stv_port":27036,"stv_name":"Uncletopia | Los Angeles | 3 | All Maps | STV","players":null},{"server_id":25,"name":"Uncletopia | Los Angeles | 4 | Stopwatch","name_short":"lax-4","host":"lax-1.us.uncletopia.com","port":27045,"enabled":true,"region":"us-west","cc":"us","latitude":33.94279,"longitude":-118.41004,"reserved":0,"last_update":"0001-01-01T00:00:00Z","name_a2s":"Uncletopia | Los Angeles | 4 | Stopwatch","protocol":17,"map":"pl_barnblitz","folder":"tf","game":"Team Fortress","app_id":440,"player_count":0,"max_players":24,"Bots":0,"server_type":"Dedicated","server_os":"Linux","password":true,"vac":true,"version":"7961495","steam_id":85568392924510199,"keywords":["nocrits","nodmgspread","payload","uncletopia"],"game_id":440,"stv_port":27046,"stv_name":"Uncletopia | Los Angeles | 4 | Stopwatch | STV","players":null},{"server_id":11,"name":"Uncletopia | London | 1 | All Maps","name_short":"lon-1","host":"lon-1.uk.uncletopia.com","port":27015,"enabled":true,"region":"eu","cc":"gb","latitude":51.509865,"longitude":-0.118092,"reserved":0,"last_update":"0001-01-01T00:00:00Z","name_a2s":"Uncletopia | London | 1 | All Maps","protocol":17,"map":"cp_5gorge","folder":"tf","game":"Team Fortress","app_id":440,"player_count":25,"max_players":24,"Bots":0,"server_type":"Dedicated","server_os":"Linux","password":true,"vac":true,"version":"7961495","steam_id":85568392924367362,"keywords":["cp","nocrits","nodmgspread","uncletopia"],"game_id":440,"stv_port":27016,"stv_name":"Uncletopia | London | 1 | All Maps | STV","players":[{"user_id":503,"name":"SOPHIIAA","steam_id":76561198443798981,"connected_time":2850000000000,"state":"active","ping":71},{"user_id":505,"name":"BreadBubbles","steam_id":76561198174332826,"connected_time":2117000000000,"state":"active","ping":79},{"user_id":514,"name":"Borat","steam_id":76561198122226417,"connected_time":494000000000,"state":"active","ping":37},{"user_id":482,"name":"hmscole09","steam_id":76561198811362788,"connected_time":4464000000000,"state":"active","ping":57},{"user_id":428,"name":"{UA} tom shelbey","steam_id":76561198080912087,"connected_time":10735000000000,"state":"active","ping":75},{"user_id":517,"name":"Noodle","steam_id":76561198156055894,"connected_time":102000000000,"state":"active","ping":46},{"user_id":430,"name":"Sandshee, Mother of Glue Eaters","steam_id":76561198088574666,"connected_time":10732000000000,"state":"active","ping":45},{"user_id":512,"name":"Bobirulez","steam_id":76561198009125458,"connected_time":810000000000,"state":"active","ping":74},{"user_id":501,"name":"jermany","steam_id":76561198126599355,"connected_time":2963000000000,"state":"active","ping":55},{"user_id":443,"name":"the coom slayer (2016)","steam_id":76561198890193313,"connected_time":9303000000000,"state":"active","ping":56},{"user_id":509,"name":"shooer!","steam_id":76561198110531281,"connected_time":906000000000,"state":"active","ping":74},{"user_id":363,"name":"GoblinGaming","steam_id":76561198360395476,"connected_time":16382000000000,"state":"active","ping":47},{"user_id":456,"name":"Lyra","steam_id":76561198043601838,"connected_time":7590000000000,"state":"active","ping":75},{"user_id":478,"name":"gamerkiddo","steam_id":76561198047380360,"connected_time":4957000000000,"state":"active","ping":45},{"user_id":504,"name":"KnugenIV","steam_id":76561198127091993,"connected_time":2132000000000,"state":"active","ping":59},{"user_id":437,"name":"GLUEEATER alice","steam_id":76561198180361759,"connected_time":9697000000000,"state":"active","ping":35},{"user_id":516,"name":"gibb (official)","steam_id":76561198074097655,"connected_time":240000000000,"state":"active","ping":60},{"user_id":506,"name":"rez777ka","steam_id":76561198107605938,"connected_time":2012000000000,"state":"active","ping":93},{"user_id":515,"name":"SuntanPikachu","steam_id":76561198121242476,"connected_time":414000000000,"state":"active","ping":55},{"user_id":511,"name":"SKY_","steam_id":76561198080980508,"connected_time":855000000000,"state":"active","ping":58},{"user_id":489,"name":"♥ඞlilyඞ♥","steam_id":76561198049840460,"connected_time":3904000000000,"state":"active","ping":59},{"user_id":494,"name":"Pantroglodytestherapy","steam_id":76561198236015392,"connected_time":3592000000000,"state":"active","ping":118},{"user_id":434,"name":"reddit fortress","steam_id":76561198074917015,"connected_time":10650000000000,"state":"active","ping":75},{"user_id":495,"name":"Son Goku","steam_id":76561199383437138,"connected_time":3591000000000,"state":"active","ping":120},{"user_id":518,"name":"Ox","steam_id":76561198995730614,"connected_time":58000000000,"state":"active","ping":146}]},{"server_id":114,"name":"Uncletopia | London | 2 | All Maps","name_short":"lon-2","host":"lon-1.uk.uncletopia.com","port":27025,"enabled":true,"region":"eu","cc":"gb","latitude":51.509865,"longitude":-0.118092,"reserved":0,"last_update":"0001-01-01T00:00:00Z","name_a2s":"Uncletopia | London | 2 | All Maps","protocol":17,"map":"pl_swiftwater_final1","folder":"tf","game":"Team Fortress","app_id":440,"player_count":0,"max_players":24,"Bots":0,"server_type":"Dedicated","server_os":"Linux","password":true,"vac":true,"version":"7961495","steam_id":85568392924470941,"keywords":["nocrits","nodmgspread","payload","uncletopia"],"game_id":440,"stv_port":27026,"stv_name":"Uncletopia | London | 2 | All Maps | STV","players":null},{"server_id":320,"name":"Uncletopia | London | 3 | All Maps","name_short":"lon-3","host":"lon-1.uk.uncletopia.com","port":27035,"enabled":true,"region":"eu","cc":"gb","latitude":51.509865,"longitude":-0.118092,"reserved":0,"last_update":"0001-01-01T00:00:00Z","name_a2s":"Uncletopia | London | 3 | All Maps","protocol":17,"map":"cp_sunshine","folder":"tf","game":"Team Fortress","app_id":440,"player_count":23,"max_players":24,"Bots":0,"server_type":"Dedicated","server_os":"Linux","password":true,"vac":true,"version":"7961495","steam_id":85568392924510192,"keywords":["cp","nocrits","nodmgspread","uncletopia"],"game_id":440,"stv_port":27036,"stv_name":"Uncletopia | London | 3 | All Maps | STV","players":[{"user_id":125,"name":"Bob Vance, Vance Refrigeration","steam_id":76561198004799788,"connected_time":817000000000,"state":"active","ping":141},{"user_id":104,"name":"Captain Samo","steam_id":76561198047224482,"connected_time":2331000000000,"state":"active","ping":55},{"user_id":90,"name":"whatsapp man","steam_id":76561198802028634,"connected_time":4356000000000,"state":"active","ping":54},{"user_id":102,"name":"Gnarville","steam_id":76561198006373329,"connected_time":2581000000000,"state":"active","ping":88},{"user_id":105,"name":"lolimsogreat21","steam_id":76561199052033788,"connected_time":2316000000000,"state":"active","ping":82},{"user_id":141,"name":"blank scrabble tile","steam_id":76561198844612042,"connected_time":44000000000,"state":"active","ping":70},{"user_id":127,"name":"Logern","steam_id":76561198085243794,"connected_time":633000000000,"state":"active","ping":60},{"user_id":119,"name":"MuchoBroke","steam_id":76561199389474207,"connected_time":1513000000000,"state":"active","ping":45},{"user_id":128,"name":"Lennox","steam_id":76561198069063554,"connected_time":508000000000,"state":"active","ping":47},{"user_id":101,"name":"lillunya ♡","steam_id":76561198330418866,"connected_time":3463000000000,"state":"active","ping":71},{"user_id":135,"name":"Hans","steam_id":76561198030061999,"connected_time":378000000000,"state":"active","ping":71},{"user_id":138,"name":"git bash -er","steam_id":76561198072586494,"connected_time":166000000000,"state":"active","ping":44},{"user_id":80,"name":"that fat croc from donkey kong","steam_id":76561198159172495,"connected_time":5107000000000,"state":"active","ping":121},{"user_id":94,"name":"icymelon","steam_id":76561198072239175,"connected_time":4088000000000,"state":"active","ping":40},{"user_id":87,"name":"MiLLje9ia☭","steam_id":76561198353537034,"connected_time":4506000000000,"state":"active","ping":41},{"user_id":136,"name":"dumb","steam_id":76561198181134706,"connected_time":371000000000,"state":"active","ping":63},{"user_id":61,"name":"that shit got me middle handed","steam_id":76561198010239925,"connected_time":6167000000000,"state":"active","ping":45},{"user_id":131,"name":"tuatramxo5","steam_id":76561198324441191,"connected_time":436000000000,"state":"active","ping":134},{"user_id":115,"name":"big","steam_id":76561198073870893,"connected_time":1785000000000,"state":"active","ping":45},{"user_id":140,"name":"elijah","steam_id":76561198093936708,"connected_time":96000000000,"state":"active","ping":53},{"user_id":111,"name":"elephantofdoom","steam_id":76561198062436835,"connected_time":2009000000000,"state":"active","ping":106},{"user_id":118,"name":"silly goober","steam_id":76561198880042335,"connected_time":1649000000000,"state":"active","ping":86},{"user_id":60,"name":"Travorski","steam_id":76561198072493142,"connected_time":6235000000000,"state":"active","ping":177}]},{"server_id":321,"name":"Uncletopia | London | 4 | All Maps","name_short":"lon-4","host":"lon-1.uk.uncletopia.com","port":27045,"enabled":true,"region":"eu","cc":"gb","latitude":51.509865,"longitude":-0.118092,"reserved":0,"last_update":"0001-01-01T00:00:00Z","name_a2s":"Uncletopia | London | 4 | All Maps","protocol":17,"map":"koth_viaduct","folder":"tf","game":"Team Fortress","app_id":440,"player_count":3,"max_players":24,"Bots":0,"server_type":"Dedicated","server_os":"Linux","password":true,"vac":true,"version":"7961495","steam_id":85568392924510193,"keywords":["cp","nocrits","nodmgspread","uncletopia"],"game_id":440,"stv_port":27046,"stv_name":"Uncletopia | London | 4 | All Maps | STV","players":[{"user_id":372,"name":"AllMightQuandalelol","steam_id":76561199137127757,"connected_time":1655000000000,"state":"active","ping":45},{"user_id":336,"name":"Kinas","steam_id":76561198084438097,"connected_time":3913000000000,"state":"active","ping":107},{"user_id":344,"name":"ran is running","steam_id":76561199443185667,"connected_time":3635000000000,"state":"active","ping":123}]},{"server_id":21,"name":"Uncletopia | London | 5 | All Maps","name_short":"lon-5","host":"lon-1.uk.uncletopia.com","port":27055,"enabled":true,"region":"eu","cc":"gb","latitude":51.509865,"longitude":-0.118092,"reserved":0,"last_update":"0001-01-01T00:00:00Z","name_a2s":"Uncletopia | London | 5 | All Maps","protocol":17,"map":"pl_pier","folder":"tf","game":"Team Fortress","app_id":440,"player_count":22,"max_players":24,"Bots":0,"server_type":"Dedicated","server_os":"Linux","password":true,"vac":true,"version":"7961495","steam_id":85568392924742829,"keywords":["nocrits","nodmgspread","payload","uncletopia"],"game_id":440,"stv_port":27056,"stv_name":"Uncletopia | London | 5 | All Maps | STV","players":[{"user_id":909,"name":"haraldＨＡＲＡＬＤ","steam_id":76561198116998970,"connected_time":857000000000,"state":"active","ping":73},{"user_id":923,"name":"casual","steam_id":76561198196031775,"connected_time":76000000000,"state":"active","ping":43},{"user_id":865,"name":"jones","steam_id":76561198044434971,"connected_time":3420000000000,"state":"active","ping":66},{"user_id":770,"name":"Kiogeki","steam_id":76561197996707843,"connected_time":9333000000000,"state":"active","ping":60},{"user_id":873,"name":"harper","steam_id":76561198188642265,"connected_time":2689000000000,"state":"active","ping":53},{"user_id":853,"name":"emerge","steam_id":76561198186882891,"connected_time":4245000000000,"state":"active","ping":136},{"user_id":899,"name":"Jude!","steam_id":76561197983597798,"connected_time":1353000000000,"state":"active","ping":38},{"user_id":908,"name":"Vic Rattlehead","steam_id":76561199036837091,"connected_time":871000000000,"state":"active","ping":88},{"user_id":910,"name":"Moon","steam_id":76561198808108594,"connected_time":849000000000,"state":"active","ping":93},{"user_id":903,"name":"Conan","steam_id":76561198158321202,"connected_time":1075000000000,"state":"active","ping":66},{"user_id":911,"name":"WonderOfU","steam_id":76561199172036471,"connected_time":825000000000,"state":"active","ping":60},{"user_id":915,"name":"Spaguetti","steam_id":76561198002913092,"connected_time":672000000000,"state":"active","ping":85},{"user_id":841,"name":"azzy","steam_id":76561198061293740,"connected_time":5029000000000,"state":"active","ping":75},{"user_id":913,"name":"Feelsbadman","steam_id":76561198002461001,"connected_time":734000000000,"state":"active","ping":84},{"user_id":914,"name":"Hohz RustStake #rustmoment","steam_id":76561198257850715,"connected_time":688000000000,"state":"active","ping":147},{"user_id":917,"name":"nokia #rustmoment banditcamp.co","steam_id":76561198976411995,"connected_time":619000000000,"state":"active","ping":100},{"user_id":894,"name":"BepisR47","steam_id":76561198084515716,"connected_time":1733000000000,"state":"active","ping":35},{"user_id":918,"name":"Maximilian1359","steam_id":76561198152439608,"connected_time":604000000000,"state":"active","ping":68},{"user_id":922,"name":"ɘɿɘʜT o||ɘH","steam_id":76561198106275890,"connected_time":220000000000,"state":"active","ping":58},{"user_id":921,"name":"『the_STINK』","steam_id":76561198145140572,"connected_time":282000000000,"state":"active","ping":141},{"user_id":881,"name":"Tomboy Mold","steam_id":76561198106455841,"connected_time":2271000000000,"state":"active","ping":68},{"user_id":723,"name":"Ullr","steam_id":76561198140547483,"connected_time":12314000000000,"state":"active","ping":42}]},{"server_id":22,"name":"Uncletopia | London | 6 | All Maps","name_short":"lon-6","host":"lon-1.uk.uncletopia.com","port":27065,"enabled":true,"region":"eu","cc":"gb","latitude":51.509865,"longitude":-0.118092,"reserved":0,"last_update":"0001-01-01T00:00:00Z","name_a2s":"Uncletopia | London | 6 | All Maps","protocol":17,"map":"pl_upward","folder":"tf","game":"Team Fortress","app_id":440,"player_count":23,"max_players":24,"Bots":0,"server_type":"Dedicated","server_os":"Linux","password":true,"vac":true,"version":"7961495","steam_id":85568392924742830,"keywords":["nocrits","nodmgspread","payload","uncletopia"],"game_id":440,"stv_port":27066,"stv_name":"Uncletopia | London | 6 | All Maps | STV","players":[{"user_id":482,"name":"froge","steam_id":76561198304959766,"connected_time":649000000000,"state":"active","ping":80},{"user_id":492,"name":"(1)Cosmo","steam_id":76561198042147273,"connected_time":282000000000,"state":"active","ping":147},{"user_id":466,"name":"Ketz","steam_id":76561198285441006,"connected_time":2102000000000,"state":"active","ping":55},{"user_id":431,"name":"Sippie","steam_id":76561198130393388,"connected_time":4317000000000,"state":"active","ping":67},{"user_id":444,"name":"Zm4j","steam_id":76561198259465946,"connected_time":3357000000000,"state":"active","ping":77},{"user_id":484,"name":"its look who it is","steam_id":76561198116981188,"connected_time":461000000000,"state":"active","ping":63},{"user_id":467,"name":"Cimbasso","steam_id":76561198968050004,"connected_time":1951000000000,"state":"active","ping":151},{"user_id":481,"name":"HealthHazard","steam_id":76561198212549753,"connected_time":962000000000,"state":"active","ping":51},{"user_id":406,"name":"Cosmo","steam_id":76561198078378048,"connected_time":6981000000000,"state":"active","ping":49},{"user_id":485,"name":"STARRI","steam_id":76561198245784188,"connected_time":420000000000,"state":"active","ping":51},{"user_id":486,"name":"EnragementGame","steam_id":76561198280376215,"connected_time":392000000000,"state":"active","ping":130},{"user_id":464,"name":"Scroobles","steam_id":76561199197646696,"connected_time":2466000000000,"state":"active","ping":178},{"user_id":487,"name":"Noruas","steam_id":76561198284165014,"connected_time":378000000000,"state":"active","ping":68},{"user_id":472,"name":"BP oil spill","steam_id":76561198274631806,"connected_time":1695000000000,"state":"active","ping":53},{"user_id":450,"name":"Sabour","steam_id":76561197963965445,"connected_time":3111000000000,"state":"active","ping":72},{"user_id":473,"name":"Glendyr ♥","steam_id":76561198037676279,"connected_time":1689000000000,"state":"active","ping":68},{"user_id":452,"name":"remote access","steam_id":76561198063590426,"connected_time":3017000000000,"state":"active","ping":57},{"user_id":493,"name":"nyx","steam_id":76561198096016781,"connected_time":118000000000,"state":"active","ping":72},{"user_id":489,"name":"Donni Donno","steam_id":76561198095400254,"connected_time":365000000000,"state":"active","ping":48},{"user_id":490,"name":"Little Pissboy","steam_id":76561198104248887,"connected_time":357000000000,"state":"active","ping":51},{"user_id":476,"name":"dirty rascal","steam_id":76561198000871038,"connected_time":1599000000000,"state":"active","ping":45},{"user_id":460,"name":"emag live","steam_id":76561198047164140,"connected_time":2763000000000,"state":"active","ping":57},{"user_id":491,"name":"ThatFezGuy","steam_id":76561198205537964,"connected_time":353000000000,"state":"active","ping":45}]},{"server_id":40,"name":"Uncletopia | London | 7 | Stopwatch","name_short":"lon-7","host":"lon-1.uk.uncletopia.com","port":27075,"enabled":true,"region":"eu","cc":"gb","latitude":51.509865,"longitude":-0.118092,"reserved":0,"last_update":"0001-01-01T00:00:00Z","name_a2s":"Uncletopia | London | 7 | Stopwatch","protocol":17,"map":"workshop/koth_clearcut_b15.ugc2107050255","folder":"tf","game":"Team Fortress","app_id":440,"player_count":0,"max_players":24,"Bots":0,"server_type":"Dedicated","server_os":"Linux","password":true,"vac":true,"version":"7961495","steam_id":85568392924964314,"keywords":["cp","nocrits","nodmgspread","uncletopia"],"game_id":440,"stv_port":27076,"stv_name":"Uncletopia | London | 7 | Stopwatch | STV","players":null},{"server_id":41,"name":"Uncletopia | London | 8 | Community","name_short":"lon-8","host":"lon-1.uk.uncletopia.com","port":27085,"enabled":true,"region":"eu","cc":"gb","latitude":51.509865,"longitude":-0.118092,"reserved":0,"last_update":"0001-01-01T00:00:00Z","name_a2s":"Uncletopia | London | 8 | Community","protocol":17,"map":"workshop/koth_slaughter_rc1.ugc1712845210","folder":"tf","game":"Team Fortress","app_id":440,"player_count":0,"max_players":24,"Bots":0,"server_type":"Dedicated","server_os":"Linux","password":true,"vac":true,"version":"7961495","steam_id":85568392924964315,"keywords":["cp","nocrits","nodmgspread","uncletopia"],"game_id":440,"stv_port":27086,"stv_name":"Uncletopia | London | 8 | Community | STV","players":null},{"server_id":300,"name":"Uncletopia | Montréal | 1 | One Thousand Uncles","name_short":"mtl-1","host":"mtl-1.ca.uncletopia.com","port":27015,"enabled":true,"region":"us-east","cc":"ca","latitude":45.50889,"longitude":-73.56167,"reserved":0,"last_update":"0001-01-01T00:00:00Z","name_a2s":"","protocol":0,"map":"","folder":"","game":"","app_id":0,"player_count":0,"max_players":0,"Bots":0,"server_type":"","server_os":"","password":false,"vac":false,"version":"","steam_id":0,"keywords":null,"game_id":0,"stv_port":0,"stv_name":"","players":null},{"server_id":301,"name":"Uncletopia | Montréal | 2 | One Thousand Uncles","name_short":"mtl-2","host":"mtl-1.ca.uncletopia.com","port":27025,"enabled":true,"region":"us-east","cc":"ca","latitude":45.50889,"longitude":-73.56167,"reserved":0,"last_update":"0001-01-01T00:00:00Z","name_a2s":"","protocol":0,"map":"","folder":"","game":"","app_id":0,"player_count":0,"max_players":0,"Bots":0,"server_type":"","server_os":"","password":false,"vac":false,"version":"","steam_id":0,"keywords":null,"game_id":0,"stv_port":0,"stv_name":"","players":null},{"server_id":302,"name":"Uncletopia | Montréal | 3 | One Thousand Uncles","name_short":"mtl-3","host":"mtl-1.ca.uncletopia.com","port":27035,"enabled":true,"region":"us-east","cc":"ca","latitude":45.50889,"longitude":-73.56167,"reserved":0,"last_update":"0001-01-01T00:00:00Z","name_a2s":"","protocol":0,"map":"","folder":"","game":"","app_id":0,"player_count":13,"max_players":0,"Bots":0,"server_type":"","server_os":"","password":false,"vac":false,"version":"","steam_id":0,"keywords":null,"game_id":0,"stv_port":0,"stv_name":"","players":[{"user_id":55,"name":"The Fragrance of Dark Coffee","steam_id":76561198013111370,"connected_time":6236000000000,"state":"active","ping":56},{"user_id":158,"name":"drone","steam_id":76561199202039197,"connected_time":576000000000,"state":"active","ping":62},{"user_id":56,"name":"Yorozuya with Odd Jobs","steam_id":76561198219473128,"connected_time":6223000000000,"state":"active","ping":55},{"user_id":159,"name":"Chaos","steam_id":76561197967401532,"connected_time":559000000000,"state":"active","ping":139},{"user_id":78,"name":"PhoenixVirus™","steam_id":76561198028064823,"connected_time":3912000000000,"state":"active","ping":60},{"user_id":79,"name":"Zilla ✿","steam_id":76561198014549040,"connected_time":3894000000000,"state":"active","ping":61},{"user_id":135,"name":"Jimmy Pubetron","steam_id":76561198077634776,"connected_time":1168000000000,"state":"active","ping":44},{"user_id":160,"name":"Lumokup","steam_id":76561199188237143,"connected_time":226000000000,"state":"active","ping":47},{"user_id":87,"name":"BinaryBitGamer[They/Them]","steam_id":76561198140761006,"connected_time":2858000000000,"state":"active","ping":64},{"user_id":161,"name":"Enemy Waffle","steam_id":76561197970811207,"connected_time":45000000000,"state":"active","ping":50},{"user_id":162,"name":"Stardust Icarus★彡","steam_id":76561198145533630,"connected_time":41000000000,"state":"active","ping":63},{"user_id":139,"name":"concrete_car","steam_id":76561198388207363,"connected_time":654000000000,"state":"active","ping":63},{"user_id":117,"name":"JustNeo","steam_id":76561199086288085,"connected_time":1715000000000,"state":"active","ping":75}]},{"server_id":13,"name":"Uncletopia | New York City | 1 | All Maps","name_short":"nyc-1","host":"nyc-1.us.uncletopia.com","port":27015,"enabled":true,"region":"us-east","cc":"us","latitude":40.73061,"longitude":-73.93524,"reserved":0,"last_update":"0001-01-01T00:00:00Z","name_a2s":"Uncletopia | New York City | 1 | All Maps","protocol":17,"map":"plr_bananabay","folder":"tf","game":"Team Fortress","app_id":440,"player_count":24,"max_players":24,"Bots":0,"server_type":"Dedicated","server_os":"Linux","password":true,"vac":true,"version":"7961495","steam_id":85568392924469993,"keywords":["nocrits","nodmgspread","payload","uncletopia"],"game_id":440,"stv_port":27016,"stv_name":"Uncletopia | New York City | 1 | All Maps | STV","players":[{"user_id":221,"name":"Grug","steam_id":76561197977982261,"connected_time":628000000000,"state":"active","ping":58},{"user_id":197,"name":"epsilene","steam_id":76561198027468624,"connected_time":2498000000000,"state":"active","ping":43},{"user_id":227,"name":"theghazinator","steam_id":76561198188027695,"connected_time":61000000000,"state":"active","ping":65},{"user_id":204,"name":"GummybearKillr","steam_id":76561198031235750,"connected_time":1566000000000,"state":"active","ping":54},{"user_id":222,"name":"Sea Raider","steam_id":76561198055654064,"connected_time":564000000000,"state":"active","ping":80},{"user_id":225,"name":"Jonah Hill from 21 Jump Street","steam_id":76561198811130843,"connected_time":492000000000,"state":"active","ping":78},{"user_id":213,"name":"majorbobfunction","steam_id":76561198042464632,"connected_time":1064000000000,"state":"active","ping":64},{"user_id":185,"name":"Canadian","steam_id":76561199104281653,"connected_time":3261000000000,"state":"active","ping":64},{"user_id":220,"name":"Griffin","steam_id":76561198159339442,"connected_time":642000000000,"state":"active","ping":87},{"user_id":76,"name":"A Puppy","steam_id":76561198828184456,"connected_time":11527000000000,"state":"active","ping":45},{"user_id":216,"name":"Bot Kenny","steam_id":76561198264075077,"connected_time":924000000000,"state":"active","ping":82},{"user_id":158,"name":"Baron von Whoopsie","steam_id":76561197996691013,"connected_time":5481000000000,"state":"active","ping":56},{"user_id":202,"name":"Bucket of Chestnuts","steam_id":76561198115079427,"connected_time":1967000000000,"state":"active","ping":58},{"user_id":164,"name":"Keymaster","steam_id":76561198881514228,"connected_time":5414000000000,"state":"active","ping":54},{"user_id":224,"name":"Skele","steam_id":76561198154574280,"connected_time":555000000000,"state":"active","ping":99},{"user_id":217,"name":"Xavi","steam_id":76561198337783795,"connected_time":855000000000,"state":"active","ping":49},{"user_id":208,"name":"Hobomunculus","steam_id":76561198210739144,"connected_time":1239000000000,"state":"active","ping":99},{"user_id":226,"name":"ottergauze","steam_id":76561198050523315,"connected_time":379000000000,"state":"active","ping":125},{"user_id":203,"name":"NYC APPA YIP YIP","steam_id":76561198112929942,"connected_time":1578000000000,"state":"active","ping":54},{"user_id":200,"name":"Victor Skull","steam_id":76561198352212864,"connected_time":2105000000000,"state":"active","ping":42},{"user_id":187,"name":"rudy","steam_id":76561198088712799,"connected_time":3146000000000,"state":"active","ping":91},{"user_id":192,"name":"Kzgamer","steam_id":76561198809770239,"connected_time":3033000000000,"state":"active","ping":51},{"user_id":181,"name":"TheAilingSword","steam_id":76561198250350844,"connected_time":3533000000000,"state":"active","ping":82},{"user_id":171,"name":"Gentoo Linux Gaming","steam_id":76561197999657118,"connected_time":4434000000000,"state":"active","ping":63}]},{"server_id":14,"name":"Uncletopia | New York City | 2 | All Maps","name_short":"nyc-2","host":"nyc-1.us.uncletopia.com","port":27025,"enabled":true,"region":"us-east","cc":"us","latitude":40.73061,"longitude":-73.93524,"reserved":0,"last_update":"0001-01-01T00:00:00Z","name_a2s":"Uncletopia | New York City | 2 | All Maps","protocol":17,"map":"ctf_turbine","folder":"tf","game":"Team Fortress","app_id":440,"player_count":0,"max_players":24,"Bots":0,"server_type":"Dedicated","server_os":"Linux","password":true,"vac":true,"version":"7961495","steam_id":85568392924469994,"keywords":["ctf","nocrits","nodmgspread","uncletopia"],"game_id":440,"stv_port":27026,"stv_name":"Uncletopia | New York City | 2 | All Maps | STV","players":null},{"server_id":15,"name":"Uncletopia | New York City | 3 | Stopwatch","name_short":"nyc-3","host":"nyc-1.us.uncletopia.com","port":27035,"enabled":true,"region":"us-east","cc":"us","latitude":40.73061,"longitude":-73.93524,"reserved":0,"last_update":"0001-01-01T00:00:00Z","name_a2s":"Uncletopia | New York City | 3 | Stopwatch","protocol":17,"map":"koth_lakeside_final","folder":"tf","game":"Team Fortress","app_id":440,"player_count":0,"max_players":24,"Bots":0,"server_type":"Dedicated","server_os":"Linux","password":true,"vac":true,"version":"7961495","steam_id":85568392924742820,"keywords":["cp","nocrits","nodmgspread","uncletopia"],"game_id":440,"stv_port":27036,"stv_name":"Uncletopia | New York City | 3 | Stopwatch | STV","players":null},{"server_id":16,"name":"Uncletopia | New York City | 4 | Community","name_short":"nyc-4","host":"nyc-1.us.uncletopia.com","port":27045,"enabled":true,"region":"us-east","cc":"us","latitude":40.73061,"longitude":-73.93524,"reserved":0,"last_update":"0001-01-01T00:00:00Z","name_a2s":"Uncletopia | New York City | 4 | Community","protocol":17,"map":"cp_altitude","folder":"tf","game":"Team Fortress","app_id":440,"player_count":0,"max_players":24,"Bots":0,"server_type":"Dedicated","server_os":"Linux","password":true,"vac":true,"version":"7961495","steam_id":85568392924742821,"keywords":["cp","nocrits","nodmgspread","uncletopia"],"game_id":440,"stv_port":27046,"stv_name":"Uncletopia | New York City | 4 | Community | STV","players":null},{"server_id":142,"name":"Uncletopia | São Paulo | 1 | All Maps","name_short":"sao-1","host":"sao-1.br.uncletopia.com","port":27015,"enabled":true,"region":"sa","cc":"br","latitude":-23.533773,"longitude":-46.62529,"reserved":0,"last_update":"0001-01-01T00:00:00Z","name_a2s":"Uncletopia | São Paulo | 1 | All Maps","protocol":17,"map":"koth_highpass","folder":"tf","game":"Team Fortress","app_id":440,"player_count":0,"max_players":24,"Bots":0,"server_type":"Dedicated","server_os":"Linux","password":true,"vac":true,"version":"7961495","steam_id":85568392924469996,"keywords":["cp","nocrits","nodmgspread","uncletopia"],"game_id":440,"stv_port":27016,"stv_name":"Uncletopia | São Paulo | 1 | All Maps | STV","players":null},{"server_id":143,"name":"Uncletopia | São Paulo | 2 | Community","name_short":"sao-2","host":"sao-2.br.uncletopia.com","port":27015,"enabled":true,"region":"sa","cc":"br","latitude":-23.533773,"longitude":-46.62529,"reserved":0,"last_update":"0001-01-01T00:00:00Z","name_a2s":"Uncletopia | São Paulo | 2 | Community","protocol":17,"map":"workshop/cp_hazyfort_rc6.ugc1365963729","folder":"tf","game":"Team Fortress","app_id":440,"player_count":0,"max_players":24,"Bots":0,"server_type":"Dedicated","server_os":"Linux","password":true,"vac":true,"version":"7961495","steam_id":85568392924485349,"keywords":["cp","nocrits","nodmgspread","uncletopia"],"game_id":440,"stv_port":27016,"stv_name":"Uncletopia | São Paulo | 2 | Community | STV","players":null},{"server_id":7,"name":"Uncletopia | Seattle | 1 | All Maps","name_short":"sea-1","host":"sea-1.us.uncletopia.com","port":27015,"enabled":true,"region":"us-west","cc":"us","latitude":47.608013,"longitude":-122.33517,"reserved":0,"last_update":"0001-01-01T00:00:00Z","name_a2s":"Uncletopia | Seattle | 1 | All Maps","protocol":17,"map":"pl_swiftwater_final1","folder":"tf","game":"Team Fortress","app_id":440,"player_count":24,"max_players":24,"Bots":0,"server_type":"Dedicated","server_os":"Linux","password":true,"vac":true,"version":"7961495","steam_id":85568392924469997,"keywords":["nocrits","nodmgspread","payload","uncletopia"],"game_id":440,"stv_port":27016,"stv_name":"Uncletopia | Seattle | 1 | All Maps | STV","players":[{"user_id":310,"name":"CubDub","steam_id":76561198304548526,"connected_time":674000000000,"state":"active","ping":52},{"user_id":259,"name":"Retroliar","steam_id":76561199004899484,"connected_time":5239000000000,"state":"active","ping":65},{"user_id":313,"name":"Karg","steam_id":76561198091387866,"connected_time":597000000000,"state":"active","ping":63},{"user_id":315,"name":"The Assistant Regional Manager","steam_id":76561199221484936,"connected_time":560000000000,"state":"active","ping":82},{"user_id":314,"name":"dust | it/she","steam_id":76561198045218909,"connected_time":593000000000,"state":"active","ping":33},{"user_id":265,"name":"Grasshopper506","steam_id":76561198111633418,"connected_time":5070000000000,"state":"active","ping":79},{"user_id":270,"name":"HotHead","steam_id":76561198138468982,"connected_time":4593000000000,"state":"active","ping":32},{"user_id":282,"name":"Conseq","steam_id":76561198335652179,"connected_time":3015000000000,"state":"active","ping":45},{"user_id":309,"name":"BlancaLamb","steam_id":76561198025646073,"connected_time":756000000000,"state":"active","ping":91},{"user_id":290,"name":"w a o w","steam_id":76561198060769385,"connected_time":2138000000000,"state":"active","ping":79},{"user_id":260,"name":"Level 3 hotdog enjoyer","steam_id":76561198870649125,"connected_time":5228000000000,"state":"active","ping":86},{"user_id":292,"name":"vash the stampy","steam_id":76561198083024293,"connected_time":2126000000000,"state":"active","ping":99},{"user_id":287,"name":"Havi","steam_id":76561198197832829,"connected_time":2229000000000,"state":"active","ping":45},{"user_id":308,"name":"Greskrendtregk","steam_id":76561197969553142,"connected_time":943000000000,"state":"active","ping":53},{"user_id":311,"name":"nolove","steam_id":76561198274550638,"connected_time":641000000000,"state":"active","ping":105},{"user_id":279,"name":"ChebJeb","steam_id":76561198981377081,"connected_time":3171000000000,"state":"active","ping":121},{"user_id":233,"name":"Lili","steam_id":76561199488457138,"connected_time":8949000000000,"state":"active","ping":44},{"user_id":302,"name":"ed","steam_id":76561198080475712,"connected_time":1596000000000,"state":"active","ping":67},{"user_id":257,"name":"Spicy Chicken","steam_id":76561198074209737,"connected_time":5532000000000,"state":"active","ping":97},{"user_id":268,"name":"Bus!","steam_id":76561199082304859,"connected_time":4956000000000,"state":"active","ping":46},{"user_id":278,"name":"Roflcawptur","steam_id":76561198042913763,"connected_time":3306000000000,"state":"active","ping":82},{"user_id":317,"name":"Fh","steam_id":76561198000903511,"connected_time":171000000000,"state":"active","ping":74},{"user_id":304,"name":"Pneumo.","steam_id":76561197987911883,"connected_time":1391000000000,"state":"active","ping":58},{"user_id":306,"name":"Bocchi the Rock Johnson","steam_id":76561198216017952,"connected_time":975000000000,"state":"active","ping":64}]},{"server_id":119,"name":"Uncletopia | Seattle | 2 | All Maps","name_short":"sea-2","host":"sea-1.us.uncletopia.com","port":27025,"enabled":true,"region":"us-west","cc":"us","latitude":47.608013,"longitude":-122.33517,"reserved":0,"last_update":"0001-01-01T00:00:00Z","name_a2s":"Uncletopia | Seattle | 2 | All Maps","protocol":17,"map":"pl_pier","folder":"tf","game":"Team Fortress","app_id":440,"player_count":17,"max_players":24,"Bots":0,"server_type":"Dedicated","server_os":"Linux","password":true,"vac":true,"version":"7961495","steam_id":85568392924469998,"keywords":["nocrits","nodmgspread","payload","uncletopia"],"game_id":440,"stv_port":27026,"stv_name":"Uncletopia | Seattle | 2 | All Maps | STV","players":[{"user_id":26,"name":"killer fish","steam_id":76561198858474714,"connected_time":3558000000000,"state":"active","ping":52},{"user_id":45,"name":"RockMuncher","steam_id":76561198269218386,"connected_time":509000000000,"state":"active","ping":48},{"user_id":56,"name":"vfa","steam_id":76561198055729118,"connected_time":135000000000,"state":"active","ping":60},{"user_id":47,"name":"rcroofing2017","steam_id":76561199042647380,"connected_time":451000000000,"state":"active","ping":130},{"user_id":48,"name":"Eleen","steam_id":76561198063800293,"connected_time":380000000000,"state":"active","ping":95},{"user_id":49,"name":"dgamefather™","steam_id":76561197993881955,"connected_time":304000000000,"state":"active","ping":78},{"user_id":42,"name":"Chara C. Name","steam_id":76561198003087205,"connected_time":1081000000000,"state":"active","ping":58},{"user_id":43,"name":"Mak","steam_id":76561198089197922,"connected_time":847000000000,"state":"active","ping":66},{"user_id":50,"name":"you just got dyked on","steam_id":76561198018977723,"connected_time":300000000000,"state":"active","ping":47},{"user_id":51,"name":"VoldyTheMoldy","steam_id":76561198845502915,"connected_time":256000000000,"state":"active","ping":112},{"user_id":52,"name":"Fermenting Kiwi","steam_id":76561198253303497,"connected_time":214000000000,"state":"active","ping":79},{"user_id":53,"name":"Aqzwdrc","steam_id":76561198318727043,"connected_time":196000000000,"state":"active","ping":114},{"user_id":54,"name":"really hot pocket","steam_id":76561198239297686,"connected_time":193000000000,"state":"active","ping":148},{"user_id":55,"name":"asm_ghost","steam_id":76561199205363547,"connected_time":180000000000,"state":"active","ping":88},{"user_id":58,"name":"FliturbiousRex","steam_id":76561199217583334,"connected_time":105000000000,"state":"active","ping":100},{"user_id":60,"name":"AsexyCommie","steam_id":76561198096330354,"connected_time":56000000000,"state":"active","ping":59},{"user_id":61,"name":"Disc0","steam_id":76561198067337267,"connected_time":50000000000,"state":"active","ping":49}]},{"server_id":406,"name":"Uncletopia | Seattle | 3 | Stopwatch","name_short":"sea-3","host":"sea-1.us.uncletopia.com","port":27035,"enabled":true,"region":"us-west","cc":"us","latitude":47.608013,"longitude":-122.33517,"reserved":0,"last_update":"0001-01-01T00:00:00Z","name_a2s":"Uncletopia | Seattle | 3 | Stopwatch","protocol":17,"map":"workshop/koth_product_final.ugc454272353","folder":"tf","game":"Team Fortress","app_id":440,"player_count":0,"max_players":24,"Bots":0,"server_type":"Dedicated","server_os":"Linux","password":true,"vac":true,"version":"7961495","steam_id":85568392924515217,"keywords":["cp","nocrits","nodmgspread","uncletopia"],"game_id":440,"stv_port":27036,"stv_name":"Uncletopia | Seattle | 3 | Stopwatch | STV","players":null},{"server_id":17,"name":"Uncletopia | San Francisco | 1 | All Maps","name_short":"sfo-1","host":"sfo-1.us.uncletopia.com","port":27015,"enabled":true,"region":"us-west","cc":"us","latitude":37.77397,"longitude":-122.4313,"reserved":0,"last_update":"0001-01-01T00:00:00Z","name_a2s":"Uncletopia | San Francisco | 1 | All Maps","protocol":17,"map":"koth_highpass","folder":"tf","game":"Team Fortress","app_id":440,"player_count":0,"max_players":24,"Bots":0,"server_type":"Dedicated","server_os":"Linux","password":true,"vac":true,"version":"7961495","steam_id":85568392924469999,"keywords":["cp","nocrits","nodmgspread","uncletopia"],"game_id":440,"stv_port":27016,"stv_name":"Uncletopia | San Francisco | 1 | All Maps | STV","players":null},{"server_id":18,"name":"Uncletopia | San Francisco | 2 | All Maps","name_short":"sfo-2","host":"sfo-1.us.uncletopia.com","port":27025,"enabled":true,"region":"us-west","cc":"us","latitude":37.77397,"longitude":-122.4313,"reserved":0,"last_update":"0001-01-01T00:00:00Z","name_a2s":"Uncletopia | San Francisco | 2 | All Maps","protocol":17,"map":"pl_frontier_final","folder":"tf","game":"Team Fortress","app_id":440,"player_count":0,"max_players":24,"Bots":0,"server_type":"Dedicated","server_os":"Linux","password":true,"vac":true,"version":"7961495","steam_id":85568392924470000,"keywords":["nocrits","nodmgspread","payload","uncletopia"],"game_id":440,"stv_port":27026,"stv_name":"Uncletopia | San Francisco | 2 | All Maps | STV","players":null},{"server_id":19,"name":"Uncletopia | San Francisco | 3 | Stopwatch","name_short":"sfo-3","host":"sfo-1.us.uncletopia.com","port":27035,"enabled":true,"region":"us-west","cc":"us","latitude":37.77397,"longitude":-122.4313,"reserved":0,"last_update":"0001-01-01T00:00:00Z","name_a2s":"Uncletopia | San Francisco | 3 | Stopwatch","protocol":17,"map":"workshop/pl_vigil_rc10.ugc1266210012","folder":"tf","game":"Team Fortress","app_id":440,"player_count":0,"max_players":24,"Bots":0,"server_type":"Dedicated","server_os":"Linux","password":true,"vac":true,"version":"7961495","steam_id":85568392924742824,"keywords":["nocrits","nodmgspread","payload","uncletopia"],"game_id":440,"stv_port":27036,"stv_name":"Uncletopia | San Francisco | 3 | Stopwatch | STV","players":null},{"server_id":20,"name":"Uncletopia | San Francisco | 4 | Community","name_short":"sfo-4","host":"sfo-1.us.uncletopia.com","port":27045,"enabled":true,"region":"us-west","cc":"us","latitude":37.77397,"longitude":-122.4313,"reserved":0,"last_update":"0001-01-01T00:00:00Z","name_a2s":"Uncletopia | San Francisco | 4 | Community","protocol":17,"map":"pl_pier","folder":"tf","game":"Team Fortress","app_id":440,"player_count":0,"max_players":24,"Bots":0,"server_type":"Dedicated","server_os":"Linux","password":true,"vac":true,"version":"7961495","steam_id":85568392924742826,"keywords":["nocrits","nodmgspread","payload","uncletopia"],"game_id":440,"stv_port":27046,"stv_name":"Uncletopia | San Francisco | 4 | Community | STV","players":null},{"server_id":141,"name":"Uncletopia | Sydney | 1 | All Maps","name_short":"syd-1","host":"syd-1.au.uncletopia.com","port":27015,"enabled":true,"region":"au","cc":"au","latitude":-33.865143,"longitude":151.2099,"reserved":0,"last_update":"0001-01-01T00:00:00Z","name_a2s":"Uncletopia | Sydney | 1 | All Maps","protocol":17,"map":"koth_viaduct","folder":"tf","game":"Team Fortress","app_id":440,"player_count":0,"max_players":24,"Bots":0,"server_type":"Dedicated","server_os":"Linux","password":true,"vac":true,"version":"7961495","steam_id":85568392924470001,"keywords":["cp","nocrits","nodmgspread","uncletopia"],"game_id":440,"stv_port":27016,"stv_name":"Uncletopia | Sydney | 1 | All Maps | STV","players":null},{"server_id":123,"name":"Uncletopia | Sydney | 2 | All Maps","name_short":"syd-2","host":"syd-1.au.uncletopia.com","port":27025,"enabled":true,"region":"au","cc":"au","latitude":-33.865143,"longitude":151.2099,"reserved":0,"last_update":"0001-01-01T00:00:00Z","name_a2s":"Uncletopia | Sydney | 2 | All Maps","protocol":17,"map":"koth_lakeside_final","folder":"tf","game":"Team Fortress","app_id":440,"player_count":0,"max_players":24,"Bots":0,"server_type":"Dedicated","server_os":"Linux","password":true,"vac":true,"version":"7961495","steam_id":85568392924470002,"keywords":["cp","nocrits","nodmgspread","uncletopia"],"game_id":440,"stv_port":27026,"stv_name":"Uncletopia | Sydney | 2 | All Maps | STV","players":null},{"server_id":395,"name":"Uncletopia | Sydney | 3 | All Maps","name_short":"syd-3","host":"syd-1.au.uncletopia.com","port":27035,"enabled":true,"region":"au","cc":"au","latitude":-33.865143,"longitude":151.2099,"reserved":0,"last_update":"0001-01-01T00:00:00Z","name_a2s":"Uncletopia | Sydney | 3 | All Maps","protocol":17,"map":"pl_frontier_final","folder":"tf","game":"Team Fortress","app_id":440,"player_count":0,"max_players":24,"Bots":0,"server_type":"Dedicated","server_os":"Linux","password":true,"vac":true,"version":"7961495","steam_id":85568392925194467,"keywords":["nocrits","nodmgspread","payload","uncletopia"],"game_id":440,"stv_port":27036,"stv_name":"Uncletopia | Sydney | 3 | All Maps | STV","players":null},{"server_id":396,"name":"Uncletopia | Sydney | 4 | All Maps","name_short":"syd-4","host":"syd-1.au.uncletopia.com","port":27045,"enabled":true,"region":"au","cc":"au","latitude":-33.865143,"longitude":151.2099,"reserved":0,"last_update":"0001-01-01T00:00:00Z","name_a2s":"Uncletopia | Sydney | 4 | All Maps","protocol":17,"map":"cp_process_final","folder":"tf","game":"Team Fortress","app_id":440,"player_count":0,"max_players":24,"Bots":0,"server_type":"Dedicated","server_os":"Linux","password":true,"vac":true,"version":"7961495","steam_id":85568392925397958,"keywords":["cp","nocrits","nodmgspread","uncletopia"],"game_id":440,"stv_port":27046,"stv_name":"Uncletopia | Sydney | 4 | All Maps | STV","players":null},{"server_id":58,"name":"Uncletopia | Sydney | 5 | Stopwatch","name_short":"syd-5","host":"syd-1.au.uncletopia.com","port":27055,"enabled":true,"region":"au","cc":"au","latitude":-33.865143,"longitude":151.2099,"reserved":0,"last_update":"0001-01-01T00:00:00Z","name_a2s":"Uncletopia | Sydney | 5 | Stopwatch","protocol":17,"map":"pl_frontier_final","folder":"tf","game":"Team Fortress","app_id":440,"player_count":0,"max_players":24,"Bots":0,"server_type":"Dedicated","server_os":"Linux","password":true,"vac":true,"version":"7961495","steam_id":85568392925397959,"keywords":["nocrits","nodmgspread","payload","uncletopia"],"game_id":440,"stv_port":27056,"stv_name":"Uncletopia | Sydney | 5 | Stopwatch | STV","players":null},{"server_id":59,"name":"Uncletopia | Sydney | 6 | Community","name_short":"syd-6","host":"syd-1.au.uncletopia.com","port":27065,"enabled":true,"region":"au","cc":"au","latitude":-33.865143,"longitude":151.2099,"reserved":0,"last_update":"0001-01-01T00:00:00Z","name_a2s":"Uncletopia | Sydney | 6 | Community","protocol":17,"map":"cp_sunshine","folder":"tf","game":"Team Fortress","app_id":440,"player_count":0,"max_players":24,"Bots":0,"server_type":"Dedicated","server_os":"Linux","password":true,"vac":true,"version":"7961495","steam_id":85568392925397960,"keywords":["cp","nocrits","nodmgspread","uncletopia"],"game_id":440,"stv_port":27066,"stv_name":"Uncletopia | Sydney | 6 | Community | STV","players":null},{"server_id":49,"name":"Uncletopia | Warsaw | 1 | One Thousand Uncles","name_short":"waw-1","host":"waw-1.pl.uncletopia.com","port":27015,"enabled":true,"region":"eu","cc":"pl","latitude":52.2297,"longitude":21.017532,"reserved":0,"last_update":"0001-01-01T00:00:00Z","name_a2s":"Uncletopia | Warsaw | 1 | One Thousand Uncles","protocol":17,"map":"cp_egypt_final","folder":"tf","game":"Team Fortress","app_id":440,"player_count":0,"max_players":32,"Bots":0,"server_type":"Dedicated","server_os":"Linux","password":true,"vac":true,"version":"7961495","steam_id":85568392925397850,"keywords":["alltalk","cp","danepve","increased_maxplayers","nocrits","norespawntime","uncletopia"],"game_id":440,"stv_port":0,"stv_name":"","players":null},{"server_id":50,"name":"Uncletopia | Warsaw | 2 | One Thousand Uncles","name_short":"waw-2","host":"waw-1.pl.uncletopia.com","port":27025,"enabled":true,"region":"eu","cc":"pl","latitude":52.2297,"longitude":21.017532,"reserved":0,"last_update":"0001-01-01T00:00:00Z","name_a2s":"Uncletopia | Warsaw | 2 | One Thousand Uncles","protocol":17,"map":"cp_dustbowl","folder":"tf","game":"Team Fortress","app_id":440,"player_count":18,"max_players":32,"Bots":16,"server_type":"Dedicated","server_os":"Linux","password":true,"vac":true,"version":"7961495","steam_id":85568392925397851,"keywords":["alltalk","bots","cp","danepve","increased_maxplayers","nocrits","norespawntime","uncletopia"],"game_id":440,"stv_port":0,"stv_name":"","players":[{"user_id":673,"name":"Samuel L. Jackson","steam_id":76561198130427881,"connected_time":2646000000000,"state":"active","ping":178},{"user_id":690,"name":"Voks_","steam_id":76561198159687785,"connected_time":2333000000000,"state":"active","ping":76}]},{"server_id":51,"name":"Uncletopia | Warsaw | 3 | All Maps","name_short":"waw-3","host":"waw-1.pl.uncletopia.com","port":27035,"enabled":true,"region":"eu","cc":"pl","latitude":52.2297,"longitude":21.017532,"reserved":0,"last_update":"0001-01-01T00:00:00Z","name_a2s":"Uncletopia | Warsaw | 3 | All Maps","protocol":17,"map":"cp_altitude","folder":"tf","game":"Team Fortress","app_id":440,"player_count":0,"max_players":24,"Bots":0,"server_type":"Dedicated","server_os":"Linux","password":true,"vac":true,"version":"7961495","steam_id":85568392925397852,"keywords":["cp","nocrits","nodmgspread","uncletopia"],"game_id":440,"stv_port":27036,"stv_name":"Uncletopia | Warsaw | 3 | All Maps | STV","players":null},{"server_id":52,"name":"Uncletopia | Warsaw | 4 | All Maps","name_short":"waw-4","host":"waw-1.pl.uncletopia.com","port":27045,"enabled":true,"region":"eu","cc":"pl","latitude":52.2297,"longitude":21.017532,"reserved":0,"last_update":"0001-01-01T00:00:00Z","name_a2s":"Uncletopia | Warsaw | 4 | All Maps","protocol":17,"map":"pl_badwater","folder":"tf","game":"Team Fortress","app_id":440,"player_count":0,"max_players":24,"Bots":0,"server_type":"Dedicated","server_os":"Linux","password":true,"vac":true,"version":"7961495","steam_id":85568392925397853,"keywords":["nocrits","nodmgspread","payload","uncletopia"],"game_id":440,"stv_port":27046,"stv_name":"Uncletopia | Warsaw | 4 | All Maps | STV","players":null},{"server_id":53,"name":"Uncletopia | Warsaw | 5 | Stopwatch","name_short":"waw-5","host":"waw-1.pl.uncletopia.com","port":27055,"enabled":true,"region":"eu","cc":"pl","latitude":52.2297,"longitude":21.017532,"reserved":0,"last_update":"0001-01-01T00:00:00Z","name_a2s":"Uncletopia | Warsaw | 5 | Stopwatch","protocol":17,"map":"workshop/koth_product_final.ugc454272353","folder":"tf","game":"Team Fortress","app_id":440,"player_count":0,"max_players":24,"Bots":0,"server_type":"Dedicated","server_os":"Linux","password":true,"vac":true,"version":"7961495","steam_id":85568392925397854,"keywords":["cp","nocrits","nodmgspread","uncletopia"],"game_id":440,"stv_port":27056,"stv_name":"Uncletopia | Warsaw | 5 | Stopwatch | STV","players":null},{"server_id":54,"name":"Uncletopia | Warsaw | 6 | Community","name_short":"waw-6","host":"waw-1.pl.uncletopia.com","port":27065,"enabled":true,"region":"eu","cc":"pl","latitude":52.2297,"longitude":21.017532,"reserved":0,"last_update":"0001-01-01T00:00:00Z","name_a2s":"Uncletopia | Warsaw | 6 | Community","protocol":17,"map":"workshop/koth_ramjam_rc1.ugc459778887","folder":"tf","game":"Team Fortress","app_id":440,"player_count":0,"max_players":24,"Bots":0,"server_type":"Dedicated","server_os":"Linux","password":true,"vac":true,"version":"7961495","steam_id":85568392925397856,"keywords":["cp","nocrits","nodmgspread","uncletopia"],"game_id":440,"stv_port":27066,"stv_name":"Uncletopia | Warsaw | 6 | Community | STV","players":null}]}