{"status":true,"message":"","result":[{"server_id":9,"name":"Uncletopia | Atlanta | 1 | All Maps","name_short":"atl-1","host":"atl-1.us.uncletopia.com","port":27015,"enabled":true,"region":"us-east","cc":"us","latitude":33.753746,"longitude":-84.38633,"reserved":0,"last_update":"0001-01-01T00:00:00Z","name_a2s":"Uncletopia | Atlanta | 1 | All Maps","protocol":17,"map":"cp_snakewater_final1","folder":"tf","game":"Team Fortress","app_id":440,"player_count":24,"max_players":24,"Bots":0,"server_type":"Dedicated","server_os":"Linux","password":true,"vac":true,"version":"7961495","steam_id":85568392924469982,"keywords":["cp","nocrits","nodmgspread","uncletopia"],"game_id":440,"stv_port":27016,"stv_name":"Uncletopia | Atlanta | 1 | All Maps | STV","players":null},{"server_id":104,"name":"Uncletopia | Atlanta | 2 | All Maps","name_short":"atl-2","host":"atl-1.us.uncletopia.com","port":27025,"enabled":true,"region":"us-east","cc":"us","latitude":33.753746,"longitude":-84.38633,"reserved":0,"last_update":"0001-01-01T00:00:00Z","name_a2s":"Uncletopia | Atlanta | 2 | All Maps","protocol":17,"map":"koth_cascade","folder":"tf","game":"Team Fortress","app_id":440,"player_count":0,"max_players":24,"Bots":0,"server_type":"Dedicated","server_os":"Linux","password":true,"vac":true,"version":"7961495","steam_id":85568392924469983,"keywords":["cp","nocrits","nodmgspread","uncletopia"],"game_id":440,"stv_port":27026,"stv_name":"Uncletopia | Atlanta | 2 | All Maps | STV","players":null},{"server_id":400,"name":"Uncletopia | Atlanta | 3 | Stopwatch","name_short":"atl-3","host":"atl-1.us.uncletopia.com","port":27035,"enabled":true,"region":"us-east","cc":"us","latitude":33.753746,"longitude":-84.38633,"reserved":0,"last_update":"0001-01-01T00:00:00Z","name_a2s":"Uncletopia | Atlanta | 3 | Stopwatch","protocol":17,"map":"koth_clearcut_b15","folder":"tf","game":"Team Fortress","app_id":440,"player_count":0,"max_players":24,"Bots":0,"server_type":"Dedicated","server_os":"Linux","password":true,"vac":true,"version":"7961495","steam_id":85568392924515187,"keywords":["cp","nocrits","nodmgspread","uncletopia"],"game_id":440,"stv_port":27036,"stv_name":"Uncletopia | Atlanta | 3 | Stopwatch | STV","players":null},{"server_id":401,"name":"Uncletopia | Atlanta | 4 | Community","name_short":"atl-4","host":"atl-1.us.uncletopia.com","port":27045,"enabled":true,"region":"us-east","cc":"us","latitude":33.753746,"longitude":-84.38633,"reserved":0,"last_update":"0001-01-01T00:00:00Z","name_a2s":"Uncletopia | Atlanta | 4 | Community","protocol":17,"map":"koth_kemptown_rc1","folder":"tf","game":"Team Fortress","app_id":440,"player_count":1,"max_players":24,"Bots":0,"server_type":"Dedicated","server_os":"Linux","password":true,"vac":true,"version":"7961495","steam_id":85568392924515188,"keywords":["cp","nocrits","nodmgspread","uncletopia"],"game_id":440,"stv_port":27046,"stv_name":"Uncletopia | Atlanta | 4 | Community | STV","players":null},{"server_id":2,"name":"Uncletopia | Chicago | 1 | All Maps","name_short":"chi-1","host":"chi-1.us.uncletopia.com","port":27015,"enabled":true,"region":"us-central","cc":"us","latitude":41.881832,"longitude":-87.62318,"reserved":0,"last_update":"0001-01-01T00:00:00Z","name_a2s":"Uncletopia | Chicago | 1 | All Maps","protocol":17,"map":"pl_borneo","folder":"tf","game":"Team Fortress","app_id":440,"player_count":24,"max_players":24,"Bots":0,"server_type":"Dedicated","server_os":"Linux","password":true,"vac":true,"version":"7961495","steam_id":85568392924469984,"keywords":["nocrits","nodmgspread","payload","uncletopia"],"game_id":440,"stv_port":27016,"stv_name":"Uncletopia | Chicago | 1 | All Maps | STV","players":[{"user_id":304,"name":"Ejaculation Zach","steam_id":76561198203765200,"connected_time":2293000000000,"state":"active","ping":57},{"user_id":316,"name":"HOTA","steam_id":76561199002778841,"connected_time":929000000000,"state":"active","ping":72},{"user_id":272,"name":"PyroEagle","steam_id":76561198296434231,"connected_time":5119000000000,"state":"active","ping":70},{"user_id":297,"name":"Bottom Trans Cowgirl","steam_id":76561198304239680,"connected_time":2349000000000,"state":"active","ping":77},{"user_id":241,"name":"Milkmur","steam_id":76561198210043821,"connected_time":6556000000000,"state":"active","ping":68},{"user_id":323,"name":"Herdez Hot Salsa","steam_id":76561197991740906,"connected_time":510000000000,"state":"active","ping":65},{"user_id":322,"name":"Pomson Gaming","steam_id":76561199200442395,"connected_time":719000000000,"state":"active","ping":172},{"user_id":307,"name":"Letters","steam_id":76561198035508148,"connected_time":2222000000000,"state":"active","ping":65},{"user_id":313,"name":"‚ù§Womp‚ù§","steam_id":76561198167488304,"connected_time":1642000000000,"state":"active","ping":45},{"user_id":301,"name":"sal","steam_id":76561198814096380,"connected_time":2330000000000,"state":"active","ping":76},{"user_id":288,"name":"blob","steam_id":76561198122375328,"connected_time":3428000000000,"state":"active","ping":59},{"user_id":315,"name":"uhooter","steam_id":76561198007829078,"connected_time":1439000000000,"state":"active","ping":51},{"user_id":311,"name":"vv","steam_id":76561198134813102,"connected_time":1978000000000,"state":"active","ping":52},{"user_id":290,"name":"Cooler Ye","steam_id":76561198068830312,"connected_time":3253000000000,"state":"active","ping":45},{"user_id":284,"name":"Save your wifi","steam_id":76561198286147372,"connected_time":3578000000000,"state":"active","ping":74},{"user_id":294,"name":"debin","steam_id":76561198070711217,"connected_time":2957000000000,"state":"active","ping":53},{"user_id":274,"name":"Ras","steam_id":76561198123546775,"connected_time":4832000000000,"state":"active","ping":76},{"user_id":314,"name":"Shaunt","steam_id":76561198171551057,"connected_time":1633000000000,"state":"active","ping":53},{"user_id":325,"name":"Maxwell","steam_id":76561199276126691,"connected_time":203000000000,"state":"active","ping":100},{"user_id":246,"name":"loscemo","steam_id":76561197994884609,"connected_time":6076000000000,"state":"active","ping":72},{"user_id":308,"name":"Hylic","steam_id":76561199051314589,"connected_time":2211000000000,"state":"active","ping":63},{"user_id":319,"name":"Gwando","steam_id":76561198294629124,"connected_time":795000000000,"state":"active","ping":71},{"user_id":283,"name":"cola","steam_id":76561198374390458,"connected_time":3683000000000,"state":"active","ping":62},{"user_id":320,"name":"bee","steam_id":76561198267267081,"connected_time":756000000000,"state":"active","ping":59}]},{"server_id":106,"name":"Uncletopia | Chicago | 2 | All Maps","name_short":"chi-2","host":"chi-1.us.uncletopia.com","port":27025,"enabled":true,"region":"us-central","cc":"us","latitude":41.881832,"longitude":-87.62318,"reserved":0,"last_update":"0001-01-01T00:00:00Z","name_a2s":"Uncletopia | Chicago | 2 | All Maps","protocol":17,"map":"cp_process_final","folder":"tf","game":"Team Fortress","app_id":440,"player_count":24,"max_players":24,"Bots":0,"server_type":"Dedicated","server_os":"Linux","password":true,"vac":true,"version":"7961495","steam_id":85568392924469985,"keywords":["cp","nocrits","nodmgspread","uncletopia"],"game_id":440,"stv_port":27026,"stv_name":"Uncletopia | Chicago | 2 | All Maps | STV","players":[{"user_id":223,"name":"Icaras","steam_id":76561198416724843,"connected_time":2763000000000,"state":"active","ping":133},{"user_id":261,"name":"Joneatshorts","steam_id":76561199233449550,"connected_time":1097000000000,"state":"active","ping":57},{"user_id":229,"name":"FOX News goblin","steam_id":76561198167648580,"connected_time":2546000000000,"state":"active","ping":66},{"user_id":246,"name":"JokingJayquanda","steam_id":76561198055867599,"connected_time":1794000000000,"state":"active","ping":78},{"user_id":269,"name":"leaving lunar orbit","steam_id":76561199085974120,"connected_time":365000000000,"state":"active","ping":87},{"user_id":231,"name":"The Helpful Mute","steam_id":76561198078359985,"connected_time":2497000000000,"state":"active","ping":58},{"user_id":240,"name":"TÃµÃíÃ≤HÃ∂ÃêÃ™EÃ¥ÕÇÃäÕâMÃ∂ÃæÕÜ\ufffd","steam_id":76561198091875604,"connected_time":1995000000000,"state":"active","ping":78},{"user_id":267,"name":"PTR","steam_id":76561198237253772,"connected_time":826000000000,"state":"active","ping":63},{"user_id":180,"name":"Ceige (redemption arc)","steam_id":76561198068538473,"connected_time":6078000000000,"state":"active","ping":75},{"user_id":247,"name":"Torensz64(But weezer)","steam_id":76561198239036482,"connected_time":1790000000000,"state":"active","ping":74},{"user_id":237,"name":"SandHanitizer","steam_id":76561198234676500,"connected_time":2346000000000,"state":"active","ping":70},{"user_id":216,"name":"Nathan","steam_id":76561199132214008,"connected_time":3498000000000,"state":"active","ping":88},{"user_id":250,"name":"mechiimi","steam_id":76561198321627268,"connected_time":1567000000000,"state":"active","ping":117},{"user_id":219,"name":"is it really canid","steam_id":76561198103496593,"connected_time":2949000000000,"state":"active","ping":62},{"user_id":253,"name":"swan","steam_id":76561198012569200,"connected_time":1521000000000,"state":"active","ping":75},{"user_id":262,"name":"Keyboardbreaker","steam_id":76561198372836132,"connected_time":1018000000000,"state":"active","ping":113},{"user_id":251,"name":"Xrath","steam_id":76561198220741860,"connected_time":1560000000000,"state":"active","ping":70},{"user_id":263,"name":"Cheese4Everyone","steam_id":76561198022333985,"connected_time":1013000000000,"state":"active","ping":73},{"user_id":254,"name":"cree","steam_id":76561198392539722,"connected_time":1518000000000,"state":"active","ping":86},{"user_id":233,"name":"Red Physical","steam_id":76561198151864382,"connected_time":2437000000000,"state":"active","ping":98},{"user_id":225,"name":"my roast is ruined!","steam_id":76561198085815757,"connected_time":2754000000000,"state":"active","ping":69},{"user_id":265,"name":"Sage","steam_id":76561198143101697,"connected_time":940000000000,"state":"active","ping":100},{"user_id":268,"name":"Storebrand Vegeta","steam_id":76561197999105221,"connected_time":726000000000,"state":"active","ping":102},{"user_id":270,"name":"INFINITE","steam_id":76561197971285557,"connected_time":131000000000,"state":"active","ping":63}]},{"server_id":402,"name":"Uncletopia | Chicago | 3 | All Maps","name_short":"chi-3","host":"chi-1.us.uncletopia.com","port":27035,"enabled":true,"region":"us-central","cc":"us","latitude":41.881832,"longitude":-87.62318,"reserved":0,"last_update":"0001-01-01T00:00:00Z","name_a2s":"Uncletopia | Chicago | 3 | All Maps","protocol":17,"map":"pl_borneo","folder":"tf","game":"Team Fortress","app_id":440,"player_count":7,"max_players":24,"Bots":0,"server_type":"Dedicated","server_os":"Linux","password":true,"vac":true,"version":"7961495","steam_id":85568392924515191,"keywords":["nocrits","nodmgspread","payload","uncletopia"],"game_id":440,"stv_port":27036,"stv_name":"Uncletopia | Chicago | 3 | All Maps | STV","players":[{"user_id":9,"name":"Thaxul","steam_id":76561199063863688,"connected_time":569000000000,"state":"active","ping":60},{"user_id":11,"name":"TheRealL0AD1NG_PLSWAIT","steam_id":76561199401484850,"connected_time":324000000000,"state":"active","ping":69},{"user_id":12,"name":"KreepyBeepy","steam_id":76561199310318274,"connected_time":310000000000,"state":"active","ping":75},{"user_id":13,"name":"Alkzu","steam_id":76561198821833376,"connected_time":217000000000,"state":"active","ping":91},{"user_id":14,"name":"Fridaywaffles","steam_id":76561199148052869,"connected_time":201000000000,"state":"active","ping":134},{"user_id":15,"name":"Wlater white","steam_id":76561198171273287,"connected_time":170000000000,"state":"active","ping":72},{"user_id":16,"name":"Wafflehead","steam_id":76561198053539741,"connected_time":110000000000,"state":"active","ping":74}]},{"server_id":403,"name":"Uncletopia | Chicago | 4 | All Maps","name_short":"chi-4","host":"chi-1.us.uncletopia.com","port":27045,"enabled":true,"region":"us-central","cc":"us","latitude":41.881832,"longitude":-87.62318,"reserved":0,"last_update":"0001-01-01T00:00:00Z","name_a2s":"Uncletopia | Chicago | 4 | All Maps","protocol":17,"map":"pl_badwater","folder":"tf","game":"Team Fortress","app_id":440,"player_count":24,"max_players":24,"Bots":0,"server_type":"Dedicated","server_os":"Linux","password":true,"vac":true,"version":"7961495","steam_id":85568392924515193,"keywords":["nocrits","nodmgspread","payload","uncletopia"],"game_id":440,"stv_port":27046,"stv_name":"Uncletopia | Chicago | 4 | All Maps | STV","players":[{"user_id":93,"name":"Queen Frau the Round","steam_id":76561197999942134,"connected_time":4120000000000,"state":"active","ping":45},{"user_id":129,"name":"Sergeant Snowflake","steam_id":76561198041474489,"connected_time":354000000000,"state":"active","ping":58},{"user_id":99,"name":"Rowdy Riot","steam_id":76561198037734418,"connected_time":2938000000000,"state":"active","ping":81},{"user_id":112,"name":"Rustyorion","steam_id":76561198439186347,"connected_time":1902000000000,"state":"active","ping":109},{"user_id":66,"name":"NukaTheRabbit {Fur}","steam_id":76561198058692928,"connected_time":7160000000000,"state":"active","ping":44},{"user_id":114,"name":"Tommy Pickles (Very Cool)","steam_id":76561198391261463,"connected_time":1389000000000,"state":"active","ping":70},{"user_id":117,"name":"Slip","steam_id":76561199057232579,"connected_time":1119000000000,"state":"active","ping":53},{"user_id":122,"name":"ZBaldTop","steam_id":76561199396318132,"connected_time":477000000000,"state":"active","ping":48},{"user_id":130,"name":"Ranch","steam_id":76561198035557013,"connected_time":295000000000,"state":"active","ping":51},{"user_id":102,"name":"NAEM CHEGG","steam_id":76561199074984482,"connected_time":2881000000000,"state":"active","ping":58},{"user_id":121,"name":"HOOPLA","steam_id":76561198993451858,"connected_time":506000000000,"state":"active","ping":71},{"user_id":133,"name":"Satan-2","steam_id":76561199231742764,"connected_time":162000000000,"state":"active","ping":71},{"user_id":116,"name":"Cat in Your Backyard","steam_id":76561197979078330,"connected_time":1157000000000,"state":"active","ping":62},{"user_id":43,"name":"Nightman","steam_id":76561198089513762,"connected_time":8086000000000,"state":"active","ping":85},{"user_id":86,"name":"JtsRes","steam_id":76561197994809241,"connected_time":4620000000000,"state":"active","ping":64},{"user_id":110,"name":"Truck-kun2107","steam_id":76561199161417910,"connected_time":2113000000000,"state":"active","ping":93},{"user_id":45,"name":"StudioMania (#SAVETF2)","steam_id":76561198211315795,"connected_time":8053000000000,"state":"active","ping":68},{"user_id":131,"name":"big ol' buford","steam_id":76561198290675957,"connected_time":241000000000,"state":"active","ping":59},{"user_id":124,"name":"YOU WHAT?!","steam_id":76561198418679471,"connected_time":445000000000,"state":"active","ping":65},{"user_id":125,"name":"Portaldude626","steam_id":76561198954610452,"connected_time":432000000000,"state":"active","ping":80},{"user_id":134,"name":"zacmattsmith","steam_id":76561199027704149,"connected_time":108000000000,"state":"active","ping":84},{"user_id":132,"name":"œÜCliff RacerœÜ","steam_id":76561198095908193,"connected_time":207000000000,"state":"active","ping":60},{"user_id":118,"name":"a","steam_id":76561198040561757,"connected_time":1114000000000,"state":"active","ping":51}]},{"server_id":36,"name":"Uncletopia | Chicago | 5 | All Maps","name_short":"chi-5","host":"chi-2.us.uncletopia.com","port":27015,"enabled":true,"region":"us-central","cc":"us","latitude":41.881832,"longitude":-87.62318,"reserved":0,"last_update":"0001-01-01T00:00:00Z","name_a2s":"Uncletopia | Chicago | 5 | All Maps","protocol":17,"map":"pl_thundermountain","folder":"tf","game":"Team Fortress","app_id":440,"player_count":24,"max_players":24,"Bots":0,"server_type":"Dedicated","server_os":"Linux","password":true,"vac":true,"version":"7961495","steam_id":85568392924866362,"keywords":["nocrits","nodmgspread","payload","uncletopia"],"game_id":440,"stv_port":27016,"stv_name":"Uncletopia | Chicago | 5 | All Maps | STV","players":[{"user_id":45,"name":"Tri-Dot","steam_id":76561199075186597,"connected_time":2082000000000,"state":"active","ping":71},{"user_id":82,"name":"backflipping trans woman","steam_id":76561198100189571,"connected_time":197000000000,"state":"active","ping":62},{"user_id":85,"name":"Engineer","steam_id":76561199138738952,"connected_time":124000000000,"state":"active","ping":78},{"user_id":64,"name":"Shadoe","steam_id":76561198218577281,"connected_time":1022000000000,"state":"active","ping":48},{"user_id":54,"name":"linklol262","steam_id":76561198305620134,"connected_time":1341000000000,"state":"active","ping":66},{"user_id":55,"name":"Snikerdoodle","steam_id":76561198049832811,"connected_time":1307000000000,"state":"active","ping":95},{"user_id":86,"name":"doog","steam_id":76561198136444198,"connected_time":85000000000,"state":"active","ping":60},{"user_id":83,"name":"Loogey03","steam_id":76561198155483586,"connected_time":196000000000,"state":"active","ping":59},{"user_id":58,"name":"Acorn","steam_id":76561198353480153,"connected_time":1169000000000,"state":"active","ping":65},{"user_id":59,"name":"Edgy Haunter","steam_id":76561199029162264,"connected_time":1115000000000,"state":"active","ping":74},{"user_id":60,"name":"menonamed","steam_id":76561198199564382,"connected_time":1111000000000,"state":"active","ping":76},{"user_id":78,"name":"Cute Little Femboy :3","steam_id":76561199280564132,"connected_time":548000000000,"state":"active","ping":49},{"user_id":67,"name":"sneaky snitch - kevin macleod","steam_id":76561198003593070,"connected_time":968000000000,"state":"active","ping":58},{"user_id":65,"name":"TheGerg","steam_id":76561198257099217,"connected_time":1010000000000,"state":"active","ping":87},{"user_id":80,"name":"Kritzburgh","steam_id":76561198149466938,"connected_time":308000000000,"state":"active","ping":69},{"user_id":68,"name":"NerdyEnforcement","steam_id":76561198437710820,"connected_time":945000000000,"state":"active","ping":71},{"user_id":77,"name":"DaveAtDublin","steam_id":76561198162386715,"connected_time":665000000000,"state":"active","ping":79},{"user_id":84,"name":"Lovedaddy","steam_id":76561198006569710,"connected_time":189000000000,"state":"active","ping":88},{"user_id":71,"name":"NERV","steam_id":76561198111023744,"connected_time":879000000000,"state":"active","ping":76},{"user_id":72,"name":"elisps09","steam_id":76561198985149569,"connected_time":877000000000,"state":"active","ping":81},{"user_id":81,"name":"poiuytrewqwqwqwqwqwqwqwqwqwqwqw","steam_id":76561199105253001,"connected_time":229000000000,"state":"active","ping":75},{"user_id":74,"name":"Maron Tickles","steam_id":76561199125982967,"connected_time":872000000000,"state":"active","ping":68},{"user_id":75,"name":"nhbiker","steam_id":76561198081277675,"connected_time":871000000000,"state":"active","ping":58},{"user_id":79,"name":"Moonshined","steam_id":76561199065699667,"connected_time":496000000000,"state":"active","ping":77}]},{"server_id":37,"name":"Uncletopia | Chicago | 6 | All Maps","name_short":"chi-6","host":"chi-2.us.uncletopia.com","port":27025,"enabled":true,"region":"us-central","cc":"us","latitude":41.881832,"longitude":-87.62318,"reserved":0,"last_update":"0001-01-01T00:00:00Z","name_a2s":"Uncletopia | Chicago | 6 | All Maps","protocol":17,"map":"cp_freight_final1","folder":"tf","game":"Team Fortress","app_id":440,"player_count":2,"max_players":24,"Bots":0,"server_type":"Dedicated","server_os":"Linux","password":true,"vac":true,"version":"7961495","steam_id":85568392924866363,"keywords":["cp","nocrits","nodmgspread","uncletopia"],"game_id":440,"stv_port":27026,"stv_name":"Uncletopia | Chicago | 6 | All Maps | STV","players":[{"user_id":5,"name":"Aerobro","steam_id":76561198033530996,"connected_time":286000000000,"state":"active","ping":82},{"user_id":6,"name":"Swerv3","steam_id":76561198068487365,"connected_time":136000000000,"state":"active","ping":69}]},{"server_id":38,"name":"Uncletopia | Chicago | 7 | Stopwatch","name_short":"chi-7","host":"chi-2.us.uncletopia.com","port":27035,"enabled":true,"region":"us-central","cc":"us","latitude":41.881832,"longitude":-87.62318,"reserved":0,"last_update":"0001-01-01T00:00:00Z","name_a2s":"Uncletopia | Chicago | 7 | Stopwatch","protocol":17,"map":"workshop/koth_product_final.ugc454272353","folder":"tf","game":"Team Fortress","app_id":440,"player_count":21,"max_players":24,"Bots":0,"server_type":"Dedicated","server_os":"Linux","password":true,"vac":true,"version":"7961495","steam_id":85568392924866364,"keywords":["cp","nocrits","nodmgspread","uncletopia"],"game_id":440,"stv_port":27036,"stv_name":"Uncletopia | Chicago | 7 | Stopwatch | STV","players":[{"user_id":239,"name":"Brian Family","steam_id":76561199129969202,"connected_time":867000000000,"state":"active","ping":84},{"user_id":219,"name":"Blitzy","steam_id":76561198149472890,"connected_time":2198000000000,"state":"active","ping":74},{"user_id":190,"name":"WhatTheDuck","steam_id":76561198407579086,"connected_time":3288000000000,"state":"active","ping":59},{"user_id":263,"name":"Nungel","steam_id":76561198272961376,"connected_time":292000000000,"state":"active","ping":67},{"user_id":262,"name":"Vermont cheddar","steam_id":76561198125947844,"connected_time":311000000000,"state":"active","ping":98},{"user_id":243,"name":"RAWRWAIFU","steam_id":76561198032118386,"connected_time":786000000000,"state":"active","ping":88},{"user_id":250,"name":"hboflexin","steam_id":76561198323411839,"connected_time":563000000000,"state":"active","ping":120},{"user_id":221,"name":"üÖúüÖîüÖîüÖöüÖ¢üÖ£üÖî\ufffd\ufffd\ufffd","steam_id":76561197999748343,"connected_time":2195000000000,"state":"active","ping":55},{"user_id":257,"name":"jimmyfnaf172198yay","steam_id":76561198311446636,"connected_time":419000000000,"state":"active","ping":62},{"user_id":222,"name":"Berb","steam_id":76561198193911899,"connected_time":2187000000000,"state":"active","ping":102},{"user_id":235,"name":"ADRIEN BRODY","steam_id":76561198009299473,"connected_time":1061000000000,"state":"active","ping":54},{"user_id":228,"name":"Chris Hansen, Kell of Kells","steam_id":76561198986775156,"connected_time":1714000000000,"state":"active","ping":77},{"user_id":233,"name":"Joculatrix","steam_id":76561198012795457,"connected_time":1233000000000,"state":"active","ping":64},{"user_id":225,"name":"barney","steam_id":76561198166433332,"connected_time":1831000000000,"state":"active","ping":107},{"user_id":182,"name":"sc67","steam_id":76561199302471485,"connected_time":3675000000000,"state":"active","ping":44},{"user_id":237,"name":"SmokeyOne73","steam_id":76561198254981028,"connected_time":962000000000,"state":"active","ping":80},{"user_id":211,"name":"GoldtoothFour","steam_id":76561198055529332,"connected_time":2406000000000,"state":"active","ping":42},{"user_id":212,"name":"RocketRabbit","steam_id":76561198803062131,"connected_time":2400000000000,"state":"active","ping":68},{"user_id":245,"name":"What day is it?","steam_id":76561199056736682,"connected_time":687000000000,"state":"active","ping":46},{"user_id":238,"name":"Wilma","steam_id":76561198138420251,"connected_time":912000000000,"state":"active","ping":61},{"user_id":249,"name":"mario.hernandez.2006","steam_id":76561198811827433,"connected_time":581000000000,"state":"active","ping":39}]},{"server_id":39,"name":"Uncletopia | Chicago | 8 | Community","name_short":"chi-8","host":"chi-2.us.uncletopia.com","port":27045,"enabled":true,"region":"us-central","cc":"us","latitude":41.881832,"longitude":-87.62318,"reserved":0,"last_update":"0001-01-01T00:00:00Z","name_a2s":"Uncletopia | Chicago | 8 | Community","protocol":17,"map":"workshop/cp_hazyfort_rc6.ugc1365963729","folder":"tf","game":"Team Fortress","app_id":440,"player_count":0,"max_players":24,"Bots":0,"server_type":"Dedicated","server_os":"Linux","password":true,"vac":true,"version":"7961495","steam_id":85568392924866365,"keywords":["cp","nocrits","nodmgspread","uncletopia"],"game_id":440,"stv_port":27046,"stv_name":"Uncletopia | Chicago | 8 | Community | STV","players":null},{"server_id":8,"name":"Uncletopia | Dallas | 1 | All Maps","name_short":"dal-1","host":"dal-1.us.uncletopia.com","port":27015,"enabled":true,"region":"us-central","cc":"us","latitude":32.779167,"longitude":-96.80889,"reserved":0,"last_update":"0001-01-01T00:00:00Z","name_a2s":"Uncletopia | Dallas | 1 | All Maps","protocol":17,"map":"pl_upward","folder":"tf","game":"Team Fortress","app_id":440,"player_count":24,"max_players":24,"Bots":0,"server_type":"Dedicated","server_os":"Linux","password":true,"vac":true,"version":"7961495","steam_id":85568392924469986,"keywords":["nocrits","nodmgspread","payload","uncletopia"],"game_id":440,"stv_port":27016,"stv_name":"Uncletopia | Dallas | 1 | All Maps | STV","players":[{"user_id":499,"name":"i remember you was cumflated","steam_id":76561198097330521,"connected_time":542000000000,"state":"active","ping":129},{"user_id":440,"name":"small child gaming","steam_id":76561198128938939,"connected_time":4212000000000,"state":"active","ping":61},{"user_id":500,"name":"qawzse543","steam_id":76561198049425694,"connected_time":541000000000,"state":"active","ping":100},{"user_id":501,"name":"momo","steam_id":76561198099061153,"connected_time":537000000000,"state":"active","ping":64},{"user_id":483,"name":"Trapilicious","steam_id":76561198061430457,"connected_time":1729000000000,"state":"active","ping":54},{"user_id":482,"name":"Truck-kun","steam_id":76561198113083770,"connected_time":1774000000000,"state":"active","ping":82},{"user_id":486,"name":"cyren caster","steam_id":76561198204509499,"connected_time":1696000000000,"state":"active","ping":97},{"user_id":502,"name":"Nukeboy","steam_id":76561198147058560,"connected_time":535000000000,"state":"active","ping":75},{"user_id":458,"name":"sloppy blowjob devil","steam_id":76561198089852954,"connected_time":3238000000000,"state":"active","ping":75},{"user_id":503,"name":"MancalaMadMan","steam_id":76561198347324053,"connected_time":532000000000,"state":"active","ping":111},{"user_id":504,"name":"Wan Shi Tong","steam_id":76561198076441225,"connected_time":516000000000,"state":"active","ping":86},{"user_id":493,"name":"Valenhart","steam_id":76561198354036240,"connected_time":1037000000000,"state":"active","ping":81},{"user_id":424,"name":"Heathcliff","steam_id":76561198044288534,"connected_time":4470000000000,"state":"active","ping":99},{"user_id":497,"name":"Chunk Stuffer","steam_id":76561198856508573,"connected_time":754000000000,"state":"active","ping":41},{"user_id":508,"name":"Pixelated Pussy","steam_id":76561198002511088,"connected_time":305000000000,"state":"active","ping":94},{"user_id":498,"name":"1998 Volvo S70 T5","steam_id":76561198258615044,"connected_time":564000000000,"state":"active","ping":96},{"user_id":487,"name":"JohnnyGitGud","steam_id":76561198401455467,"connected_time":1687000000000,"state":"active","ping":95},{"user_id":505,"name":"xLeoparrd","steam_id":76561198940657194,"connected_time":498000000000,"state":"active","ping":56},{"user_id":491,"name":"Cleverless Biped","steam_id":76561198045984856,"connected_time":1211000000000,"state":"active","ping":91},{"user_id":506,"name":"uufyfuu","steam_id":76561198142787212,"connected_time":493000000000,"state":"active","ping":114},{"user_id":459,"name":"dunker","steam_id":76561198066114874,"connected_time":3231000000000,"state":"active","ping":105},{"user_id":489,"name":"Rockhead","steam_id":76561197995196535,"connected_time":1645000000000,"state":"active","ping":112},{"user_id":409,"name":"DudeBergs","steam_id":76561198399777833,"connected_time":6345000000000,"state":"active","ping":69},{"user_id":496,"name":"Harufloofer","steam_id":76561199084506827,"connected_time":880000000000,"state":"active","ping":54}]},{"server_id":108,"name":"Uncletopia | Dallas | 2 | All Maps","name_short":"dal-2","host":"dal-1.us.uncletopia.com","port":27025,"enabled":true,"region":"us-central","cc":"us","latitude":32.779167,"longitude":-96.80889,"reserved":0,"last_update":"0001-01-01T00:00:00Z","name_a2s":"Uncletopia | Dallas | 2 | All Maps","protocol":17,"map":"pl_upward","folder":"tf","game":"Team Fortress","app_id":440,"player_count":10,"max_players":24,"Bots":0,"server_type":"Dedicated","server_os":"Linux","password":true,"vac":true,"version":"7961495","steam_id":85568392924469988,"keywords":["nocrits","nodmgspread","payload","uncletopia"],"game_id":440,"stv_port":27026,"stv_name":"Uncletopia | Dallas | 2 | All Maps | STV","players":[{"user_id":22,"name":"K2f","steam_id":76561198049600563,"connected_time":312000000000,"state":"active","ping":74},{"user_id":24,"name":"gummygeek","steam_id":76561198244543486,"connected_time":204000000000,"state":"active","ping":115},{"user_id":12,"name":"thisisSteve","steam_id":76561198420882318,"connected_time":989000000000,"state":"active","ping":88},{"user_id":14,"name":"Quail Man","steam_id":76561198184509251,"connected_time":763000000000,"state":"active","ping":101},{"user_id":20,"name":"BoX_hEaD101","steam_id":76561198200875467,"connected_time":498000000000,"state":"active","ping":84},{"user_id":21,"name":"aintnowaiyboi","steam_id":76561198301372369,"connected_time":342000000000,"state":"active","ping":35},{"user_id":17,"name":"Wild Wadew","steam_id":76561198869838615,"connected_time":556000000000,"state":"active","ping":79},{"user_id":23,"name":"SmugCoffeeMan","steam_id":76561198040765030,"connected_time":264000000000,"state":"active","ping":59},{"user_id":25,"name":"Kamin","steam_id":76561198255299559,"connected_time":153000000000,"state":"active","ping":59},{"user_id":26,"name":"GlizzLord","steam_id":76561198321010427,"connected_time":15000000000,"state":"active","ping":91}]},{"server_id":404,"name":"Uncletopia | Dallas | 3 | All Maps","name_short":"dal-3","host":"dal-1.us.uncletopia.com","port":27035,"enabled":true,"region":"us-central","cc":"us","latitude":32.779167,"longitude":-96.80889,"reserved":0,"last_update":"0001-01-01T00:00:00Z","name_a2s":"Uncletopia | Dallas | 3 | All Maps","protocol":17,"map":"pl_snowycoast","folder":"tf","game":"Team Fortress","app_id":440,"player_count":23,"max_players":24,"Bots":0,"server_type":"Dedicated","server_os":"Linux","password":true,"vac":true,"version":"7961495","steam_id":85568392924515219,"keywords":["nocrits","nodmgspread","payload","uncletopia"],"game_id":440,"stv_port":27036,"stv_name":"Uncletopia | Dallas | 3 | All Maps | STV","players":[{"user_id":97,"name":"Zesty Zucchini Ziti","steam_id":76561198092494136,"connected_time":4044000000000,"state":"active","ping":48},{"user_id":151,"name":"FenderBender","steam_id":76561198106379456,"connected_time":2152000000000,"state":"active","ping":123},{"user_id":181,"name":"kopatta","steam_id":76561198064773037,"connected_time":474000000000,"state":"active","ping":48},{"user_id":187,"name":"Ôº≤Ôº•Ôº§","steam_id":76561198030282308,"connected_time":172000000000,"state":"active","ping":99},{"user_id":139,"name":"dailydiamond","steam_id":76561199123582502,"connected_time":3101000000000,"state":"active","ping":112},{"user_id":165,"name":"Gobl1n","steam_id":76561198808610991,"connected_time":748000000000,"state":"active","ping":85},{"user_id":182,"name":"TechnoBear2099","steam_id":76561198238863596,"connected_time":473000000000,"state":"active","ping":48},{"user_id":161,"name":"firefly","steam_id":76561198151308698,"connected_time":1246000000000,"state":"active","ping":45},{"user_id":170,"name":"MeMyBongusAndTheGreatOutdoors","steam_id":76561198097708978,"connected_time":730000000000,"state":"active","ping":54},{"user_id":175,"name":"Rafl","steam_id":76561198055222756,"connected_time":703000000000,"state":"active","ping":47},{"user_id":73,"name":"Megatron G","steam_id":76561198168864083,"connected_time":4978000000000,"state":"active","ping":104},{"user_id":160,"name":"yeyoi","steam_id":76561198069821885,"connected_time":1318000000000,"state":"active","ping":82},{"user_id":186,"name":"BrightOrangeMango","steam_id":76561198023144607,"connected_time":280000000000,"state":"active","ping":80},{"user_id":152,"name":"UÃÅntermensch","steam_id":76561198149634242,"connected_time":2047000000000,"state":"active","ping":86},{"user_id":184,"name":"Cam","steam_id":76561198139174433,"connected_time":359000000000,"state":"active","ping":64},{"user_id":171,"name":"That one idiot","steam_id":76561198880506019,"connected_time":729000000000,"state":"active","ping":57},{"user_id":129,"name":"FrostNova","steam_id":76561198348354629,"connected_time":3568000000000,"state":"active","ping":83},{"user_id":179,"name":"The Horselords and Animal Gods","steam_id":76561197975094050,"connected_time":630000000000,"state":"active","ping":97},{"user_id":189,"name":"FI LO","steam_id":76561198976530881,"connected_time":76000000000,"state":"active","ping":74},{"user_id":174,"name":"Bruce Applesburg","steam_id":76561198869159718,"connected_time":713000000000,"state":"active","ping":65},{"user_id":157,"name":"mummy napkin","steam_id":76561198195997314,"connected_time":1633000000000,"state":"active","ping":94},{"user_id":163,"name":"Landshark Obliterator","steam_id":76561198070236848,"connected_time":1040000000000,"state":"active","ping":49},{"user_id":188,"name":"rude boi","steam_id":76561198006783260,"connected_time":172000000000,"state":"active","ping":60}]},{"server_id":405,"name":"Uncletopia | Dallas | 4 | Community","name_short":"dal-4","host":"dal-1.us.uncletopia.com","port":27045,"enabled":true,"region":"us-central","cc":"us","latitude":32.779167,"longitude":-96.80889,"reserved":0,"last_update":"0001-01-01T00:00:00Z","name_a2s":"Uncletopia | Dallas | 4 | Community","protocol":17,"map":"pl_pier","folder":"tf","game":"Team Fortress","app_id":440,"player_count":0,"max_players":24,"Bots":0,"server_type":"Dedicated","server_os":"Linux","password":true,"vac":true,"version":"7961495","steam_id":85568392924515220,"keywords":["nocrits","nodmgspread","payload","uncletopia"],"game_id":440,"stv_port":27046,"stv_name":"Uncletopia | Dallas | 4 | Community | STV","players":null},{"server_id":5,"name":"Uncletopia | Frankfurt | 1 | All Maps","name_short":"frk-1","host":"frk-1.de.uncletopia.com","port":27015,"enabled":true,"region":"eu","cc":"de","latitude":50.110924,"longitude":8.682127,"reserved":0,"last_update":"0001-01-01T00:00:00Z","name_a2s":"Uncletopia | Frankfurt | 1 | All Maps","protocol":17,"map":"pl_borneo","folder":"tf","game":"Team Fortress","app_id":440,"player_count":24,"max_players":24,"Bots":0,"server_type":"Dedicated","server_os":"Linux","password":true,"vac":true,"version":"7961495","steam_id":85568392924469989,"keywords":["nocrits","nodmgspread","payload","uncletopia"],"game_id":440,"stv_port":27016,"stv_name":"Uncletopia | Frankfurt | 1 | All Maps | STV","players":[{"user_id":321,"name":"JaTu12","steam_id":76561198060819811,"connected_time":3323000000000,"state":"active","ping":61},{"user_id":338,"name":"HelwiiHill","steam_id":76561198066730552,"connected_time":1943000000000,"state":"active","ping":78},{"user_id":363,"name":"Meff","steam_id":76561197970610839,"connected_time":1000000000000,"state":"active","ping":51},{"user_id":366,"name":"tiia","steam_id":76561198046196005,"connected_time":926000000000,"state":"active","ping":38},{"user_id":308,"name":"alcoholic 7blak","steam_id":76561198078928120,"connected_time":4314000000000,"state":"active","ping":74},{"user_id":349,"name":"Voks_","steam_id":76561198159687785,"connected_time":1811000000000,"state":"active","ping":67},{"user_id":340,"name":"ant753","steam_id":76561198103458889,"connected_time":1881000000000,"state":"active","ping":66},{"user_id":351,"name":"Fiurius","steam_id":76561198151910950,"connected_time":1759000000000,"state":"active","ping":62},{"user_id":341,"name":"_Shkoot","steam_id":76561198318170398,"connected_time":1881000000000,"state":"active","ping":48},{"user_id":342,"name":"MakeItRainbow","steam_id":76561198045098064,"connected_time":1879000000000,"state":"active","ping":59},{"user_id":368,"name":"|SGT| GenGuard","steam_id":76561198061393349,"connected_time":548000000000,"state":"active","ping":54},{"user_id":369,"name":"SGT Woozel","steam_id":76561198013628232,"connected_time":519000000000,"state":"active","ping":54},{"user_id":358,"name":"Skay","steam_id":76561198371527078,"connected_time":1453000000000,"state":"active","ping":80},{"user_id":352,"name":"Time to die","steam_id":76561198081642249,"connected_time":1725000000000,"state":"active","ping":45},{"user_id":310,"name":"Arsonist","steam_id":76561199087953833,"connected_time":4213000000000,"state":"active","ping":102},{"user_id":370,"name":"NeiroüëΩ·ó©YY ·í™·ó∞·ó©O","steam_id":76561198046743985,"connected_time":498000000000,"state":"active","ping":76},{"user_id":346,"name":"nobodyy","steam_id":76561198027735766,"connected_time":1836000000000,"state":"active","ping":75},{"user_id":375,"name":"Dikke man Larper","steam_id":76561198051685232,"connected_time":173000000000,"state":"active","ping":45},{"user_id":367,"name":"icy demons","steam_id":76561198131391052,"connected_time":744000000000,"state":"active","ping":52},{"user_id":354,"name":"KsawiDemon","steam_id":76561198855789287,"connected_time":1651000000000,"state":"active","ping":61},{"user_id":362,"name":"Pryncypa≈Ç","steam_id":76561198058057224,"connected_time":1036000000000,"state":"active","ping":60},{"user_id":348,"name":"L4gman","steam_id":76561198048227040,"connected_time":1831000000000,"state":"active","ping":84},{"user_id":365,"name":"jon","steam_id":76561198031544468,"connected_time":983000000000,"state":"active","ping":88},{"user_id":374,"name":"Collisto","steam_id":76561198023609460,"connected_time":238000000000,"state":"active","ping":135}]},{"server_id":110,"name":"Uncletopia | Frankfurt | 2 | All Maps","name_short":"frk-2","host":"frk-1.de.uncletopia.com","port":27025,"enabled":true,"region":"eu","cc":"de","latitude":50.110924,"longitude":8.682127,"reserved":0,"last_update":"0001-01-01T00:00:00Z","name_a2s":"Uncletopia | Frankfurt | 2 | All Maps","protocol":17,"map":"pl_upward","folder":"tf","game":"Team Fortress","app_id":440,"player_count":24,"max_players":24,"Bots":0,"server_type":"Dedicated","server_os":"Linux","password":true,"vac":true,"version":"7961495","steam_id":85568392924469990,"keywords":["nocrits","nodmgspread","payload","uncletopia"],"game_id":440,"stv_port":27026,"stv_name":"Uncletopia | Frankfurt | 2 | All Maps | STV","players":[{"user_id":189,"name":"cuddle","steam_id":76561198805181599,"connected_time":7614000000000,"state":"active","ping":59},{"user_id":274,"name":"The Italian Blob","steam_id":76561198001218349,"connected_time":3195000000000,"state":"active","ping":80},{"user_id":294,"name":"Portal2Player","steam_id":76561198062870114,"connected_time":1525000000000,"state":"active","ping":143},{"user_id":299,"name":"Stefman","steam_id":76561199025104038,"connected_time":1347000000000,"state":"active","ping":46},{"user_id":280,"name":"midlpsyzl47","steam_id":76561199475972637,"connected_time":2720000000000,"state":"active","ping":70},{"user_id":309,"name":"vipRLH","steam_id":76561198103030238,"connected_time":237000000000,"state":"active","ping":50},{"user_id":307,"name":"Maddox","steam_id":76561198026419869,"connected_time":672000000000,"state":"active","ping":65},{"user_id":290,"name":"Klaus","steam_id":76561198150394201,"connected_time":1856000000000,"state":"active","ping":82},{"user_id":258,"name":"Sven","steam_id":76561198190417287,"connected_time":3994000000000,"state":"active","ping":69},{"user_id":194,"name":"Flamy?","steam_id":76561198024332838,"connected_time":7542000000000,"state":"active","ping":79},{"user_id":270,"name":"F4.exe","steam_id":76561198278822807,"connected_time":3659000000000,"state":"active","ping":61},{"user_id":256,"name":"Sulejman______________________\ufffd","steam_id":76561198276847676,"connected_time":4055000000000,"state":"active","ping":145},{"user_id":276,"name":"Rimx","steam_id":76561198053034840,"connected_time":3103000000000,"state":"active","ping":86},{"user_id":298,"name":"Kabajsa","steam_id":76561198111264439,"connected_time":1398000000000,"state":"active","ping":71},{"user_id":263,"name":"il","steam_id":76561198122662610,"connected_time":3862000000000,"state":"active","ping":78},{"user_id":288,"name":"Cataleptic","steam_id":76561197997966949,"connected_time":2041000000000,"state":"active","ping":61},{"user_id":311,"name":"cart","steam_id":76561197987025017,"connected_time":29000000000,"state":"active","ping":39},{"user_id":271,"name":"Lyncurion","steam_id":76561199260022725,"connected_time":3499000000000,"state":"active","ping":69},{"user_id":282,"name":"say gex","steam_id":76561198265479349,"connected_time":2576000000000,"state":"active","ping":56},{"user_id":265,"name":"Richard_HUN","steam_id":76561198299050967,"connected_time":3827000000000,"state":"active","ping":84},{"user_id":312,"name":"The Lady","steam_id":76561198029895809,"connected_time":2000000000,"state":"spawning","ping":67},{"user_id":267,"name":"elmstJP ‚Ç™ F4.exe","steam_id":76561197997909480,"connected_time":3765000000000,"state":"active","ping":75},{"user_id":279,"name":"Toasty5050","steam_id":76561198073540881,"connected_time":2804000000000,"state":"active","ping":40},{"user_id":296,"name":"emko√ß","steam_id":76561198846782346,"connected_time":1477000000000,"state":"active","ping":103}]},{"server_id":308,"name":"Uncletopia | Frankfurt | 3 | All Maps","name_short":"frk-3","host":"frk-1.de.uncletopia.com","port":27035,"enabled":true,"region":"eu","cc":"de","latitude":50.110924,"longitude":8.682127,"reserved":0,"last_update":"0001-01-01T00:00:00Z","name_a2s":"Uncletopia | Frankfurt | 3 | All Maps","protocol":17,"map":"pl_snowycoast","folder":"tf","game":"Team Fortress","app_id":440,"player_count":24,"max_players":24,"Bots":0,"server_type":"Dedicated","server_os":"Linux","password":true,"vac":true,"version":"7961495","steam_id":85568392924504274,"keywords":["nocrits","nodmgspread","payload","uncletopia"],"game_id":440,"stv_port":27036,"stv_name":"Uncletopia | Frankfurt | 3 | All Maps | STV","players":[{"user_id":661,"name":"aww yeah","steam_id":76561197992978878,"connected_time":2664000000000,"state":"active","ping":60},{"user_id":695,"name":"mewash","steam_id":76561198049529718,"connected_time":1000000000000,"state":"active","ping":89},{"user_id":638,"name":"sticks","steam_id":76561198127099299,"connected_time":4051000000000,"state":"active","ping":51},{"user_id":631,"name":"corralled","steam_id":76561198028648627,"connected_time":5601000000000,"state":"active","ping":73},{"user_id":657,"name":"Lucyfer","steam_id":76561199041940389,"connected_time":2968000000000,"state":"active","ping":77},{"user_id":701,"name":"Max Power","steam_id":76561198019269089,"connected_time":128000000000,"state":"active","ping":52},{"user_id":699,"name":"walrus","steam_id":76561198167898969,"connected_time":201000000000,"state":"active","ping":75},{"user_id":700,"name":"Finnish sniper","steam_id":76561199226847880,"connected_time":189000000000,"state":"active","ping":103},{"user_id":655,"name":"glorpis","steam_id":76561199225333422,"connected_time":3466000000000,"state":"active","ping":69},{"user_id":692,"name":"laser","steam_id":76561198036030697,"connected_time":1049000000000,"state":"active","ping":58},{"user_id":665,"name":"Worm","steam_id":76561198296497176,"connected_time":2548000000000,"state":"active","ping":60},{"user_id":662,"name":"REN","steam_id":76561198000596385,"connected_time":2633000000000,"state":"active","ping":68},{"user_id":634,"name":"Desuangle","steam_id":76561198110800599,"connected_time":4578000000000,"state":"active","ping":69},{"user_id":688,"name":"Kurata","steam_id":76561197967336300,"connected_time":1700000000000,"state":"active","ping":45},{"user_id":673,"name":"jedna djacka sa pavlakom","steam_id":76561199135803236,"connected_time":2352000000000,"state":"active","ping":71},{"user_id":635,"name":"Spotty Len","steam_id":76561198031277737,"connected_time":4388000000000,"state":"active","ping":54},{"user_id":704,"name":"Hamedius","steam_id":76561199152512027,"connected_time":114000000000,"state":"active","ping":66},{"user_id":685,"name":"ultim8","steam_id":76561198201501691,"connected_time":1969000000000,"state":"active","ping":49},{"user_id":703,"name":"Karl Marxman","steam_id":76561197988226117,"connected_time":125000000000,"state":"active","ping":82},{"user_id":697,"name":"spookjie","steam_id":76561198154860906,"connected_time":333000000000,"state":"active","ping":67},{"user_id":693,"name":"Krocon","steam_id":76561198084906316,"connected_time":1045000000000,"state":"active","ping":85},{"user_id":678,"name":"REDZED","steam_id":76561199434154377,"connected_time":2314000000000,"state":"active","ping":71},{"user_id":667,"name":"xe_op","steam_id":76561199465718377,"connected_time":2541000000000,"state":"active","ping":69},{"user_id":696,"name":"Nag","steam_id":76561197970488206,"connected_time":944000000000,"state":"active","ping":83}]},{"server_id":309,"name":"Uncletopia | Frankfurt | 4 | All Maps","name_short":"frk-4","host":"frk-1.de.uncletopia.com","port":27045,"enabled":true,"region":"eu","cc":"de","latitude":50.110924,"longitude":8.682127,"reserved":0,"last_update":"0001-01-01T00:00:00Z","name_a2s":"Uncletopia | Frankfurt | 4 | All Maps","protocol":17,"map":"pl_badwater","folder":"tf","game":"Team Fortress","app_id":440,"player_count":24,"max_players":24,"Bots":0,"server_type":"Dedicated","server_os":"Linux","password":true,"vac":true,"version":"7961495","steam_id":85568392924504275,"keywords":["nocrits","nodmgspread","payload","uncletopia"],"game_id":440,"stv_port":27046,"stv_name":"Uncletopia | Frankfurt | 4 | All Maps | STV","players":[{"user_id":495,"name":"StejlBiskutt","steam_id":76561198136661610,"connected_time":1971000000000,"state":"active","ping":96},{"user_id":505,"name":"GoatLord1","steam_id":76561198157964544,"connected_time":1064000000000,"state":"active","ping":64},{"user_id":482,"name":"iirvas","steam_id":76561198095979063,"connected_time":2147000000000,"state":"active","ping":79},{"user_id":508,"name":"SheepMan","steam_id":76561198297813325,"connected_time":554000000000,"state":"active","ping":110},{"user_id":496,"name":"MargoulGetron","steam_id":76561198020551698,"connected_time":1967000000000,"state":"active","ping":53},{"user_id":503,"name":"JamesPepega","steam_id":76561198019156154,"connected_time":1264000000000,"state":"active","ping":68},{"user_id":470,"name":"Nico \"god of putza mica\"","steam_id":76561198136154806,"connected_time":2946000000000,"state":"active","ping":61},{"user_id":483,"name":"Verggy","steam_id":76561198068565268,"connected_time":2139000000000,"state":"active","ping":86},{"user_id":484,"name":"RICO","steam_id":76561198055617714,"connected_time":2135000000000,"state":"active","ping":71},{"user_id":477,"name":"Not A Fake Uncletopia Server","steam_id":76561198152871288,"connected_time":2580000000000,"state":"active","ping":60},{"user_id":448,"name":"D0kai","steam_id":76561198389271720,"connected_time":3937000000000,"state":"active","ping":54},{"user_id":493,"name":"Lewylow","steam_id":76561198005425686,"connected_time":2053000000000,"state":"active","ping":67},{"user_id":489,"name":"zssz","steam_id":76561198148400154,"connected_time":2105000000000,"state":"active","ping":57},{"user_id":510,"name":"please do not the cat","steam_id":76561198089003514,"connected_time":52000000000,"state":"active","ping":40},{"user_id":486,"name":"Diablo","steam_id":76561198054024627,"connected_time":2127000000000,"state":"active","ping":61},{"user_id":368,"name":"Seb, Comrade","steam_id":76561198040279587,"connected_time":9917000000000,"state":"active","ping":92},{"user_id":480,"name":"speedy-heavy","steam_id":76561198124991468,"connected_time":2238000000000,"state":"active","ping":58},{"user_id":509,"name":"*-*","steam_id":76561198119230058,"connected_time":273000000000,"state":"active","ping":62},{"user_id":502,"name":"PLUTO","steam_id":76561198312436128,"connected_time":1559000000000,"state":"active","ping":118},{"user_id":490,"name":"MaTke","steam_id":76561198378170301,"connected_time":2105000000000,"state":"active","ping":72},{"user_id":507,"name":"ZENISHIRA","steam_id":76561198148357250,"connected_time":940000000000,"state":"active","ping":58},{"user_id":497,"name":"sex havin'","steam_id":76561198169857427,"connected_time":1935000000000,"state":"active","ping":77},{"user_id":498,"name":"ratot","steam_id":76561198063132645,"connected_time":1934000000000,"state":"active","ping":60},{"user_id":492,"name":"GuyWithoutAPie","steam_id":76561198054512149,"connected_time":2085000000000,"state":"active","ping":56}]},{"server_id":310,"name":"Uncletopia | Frankfurt | 5 | All Maps","name_short":"frk-5","host":"frk-1.de.uncletopia.com","port":27055,"enabled":true,"region":"eu","cc":"de","latitude":50.110924,"longitude":8.682127,"reserved":0,"last_update":"0001-01-01T00:00:00Z","name_a2s":"Uncletopia | Frankfurt | 5 | All Maps","protocol":17,"map":"cp_process_final","folder":"tf","game":"Team Fortress","app_id":440,"player_count":24,"max_players":24,"Bots":0,"server_type":"Dedicated","server_os":"Linux","password":true,"vac":true,"version":"7961495","steam_id":85568392924504277,"keywords":["cp","nocrits","nodmgspread","uncletopia"],"game_id":440,"stv_port":27056,"stv_name":"Uncletopia | Frankfurt | 5 | All Maps | STV","players":[{"user_id":226,"name":"hieronimus","steam_id":76561198085900150,"connected_time":3752000000000,"state":"active","ping":58},{"user_id":238,"name":"Fat Pigeon","steam_id":76561198817940142,"connected_time":3147000000000,"state":"active","ping":50},{"user_id":249,"name":"‚òûLaZe‚òú","steam_id":76561198202191400,"connected_time":2520000000000,"state":"active","ping":70},{"user_id":264,"name":"Medic TF2","steam_id":76561198415406052,"connected_time":630000000000,"state":"active","ping":69},{"user_id":255,"name":"mt","steam_id":76561197961319303,"connected_time":2157000000000,"state":"active","ping":46},{"user_id":259,"name":"etc","steam_id":76561197998394797,"connected_time":1690000000000,"state":"active","ping":58},{"user_id":272,"name":"Corvax","steam_id":76561198127439185,"connected_time":399000000000,"state":"active","ping":58},{"user_id":263,"name":"Firevell","steam_id":76561198154813359,"connected_time":702000000000,"state":"active","ping":69},{"user_id":189,"name":"Archive","steam_id":76561198071255385,"connected_time":6974000000000,"state":"active","ping":83},{"user_id":244,"name":"ba-loo-loo","steam_id":76561198965894854,"connected_time":2797000000000,"state":"active","ping":68},{"user_id":270,"name":"dredomilicete","steam_id":76561199135216928,"connected_time":534000000000,"state":"active","ping":93},{"user_id":227,"name":"tuna","steam_id":76561198121590248,"connected_time":3731000000000,"state":"active","ping":75},{"user_id":267,"name":"diogob_coelho","steam_id":76561199076279677,"connected_time":578000000000,"state":"active","ping":81},{"user_id":241,"name":"x","steam_id":76561198043837480,"connected_time":2904000000000,"state":"active","ping":65},{"user_id":268,"name":"Borloxos","steam_id":76561198123110073,"connected_time":565000000000,"state":"active","ping":61},{"user_id":246,"name":"Mikkel Sorensen","steam_id":76561198173219891,"connected_time":2728000000000,"state":"active","ping":70},{"user_id":260,"name":"Udinese Dion","steam_id":76561198067931573,"connected_time":1656000000000,"state":"active","ping":50},{"user_id":256,"name":"idenburg","steam_id":76561198063574956,"connected_time":2086000000000,"state":"active","ping":67},{"user_id":262,"name":"Charles Darwin","steam_id":76561197973496139,"connected_time":867000000000,"state":"active","ping":69},{"user_id":274,"name":"\u003e\u003c\u003e","steam_id":76561198152392309,"connected_time":142000000000,"state":"active","ping":45},{"user_id":271,"name":"tU croud","steam_id":76561198196853835,"connected_time":471000000000,"state":"active","ping":46},{"user_id":273,"name":"heavy sings (real)","steam_id":76561199023804405,"connected_time":392000000000,"state":"active","ping":86},{"user_id":253,"name":"Nittugai","steam_id":76561198067366462,"connected_time":2337000000000,"state":"active","ping":60},{"user_id":240,"name":"PWizard","steam_id":76561198026458489,"connected_time":3065000000000,"state":"active","ping":77}]},{"server_id":311,"name":"Uncletopia | Frankfurt | 6 | All Maps","name_short":"frk-6","host":"frk-1.de.uncletopia.com","port":27065,"enabled":true,"region":"eu","cc":"de","latitude":50.110924,"longitude":8.682127,"reserved":0,"last_update":"0001-01-01T00:00:00Z","name_a2s":"Uncletopia | Frankfurt | 6 | All Maps","protocol":17,"map":"koth_viaduct","folder":"tf","game":"Team Fortress","app_id":440,"player_count":0,"max_players":24,"Bots":0,"server_type":"Dedicated","server_os":"Linux","password":true,"vac":true,"version":"7961495","steam_id":85568392924504278,"keywords":["cp","nocrits","nodmgspread","uncletopia"],"game_id":440,"stv_port":27066,"stv_name":"Uncletopia | Frankfurt | 6 | All Maps | STV","players":null},{"server_id":23,"name":"Uncletopia | Frankfurt | 7 | Stopwatch","name_short":"frk-7","host":"frk-1.de.uncletopia.com","port":27075,"enabled":true,"region":"eu","cc":"de","latitude":50.110924,"longitude":8.682127,"reserved":0,"last_update":"0001-01-01T00:00:00Z","name_a2s":"Uncletopia | Frankfurt | 7 | Stopwatch","protocol":17,"map":"pl_frontier_final","folder":"tf","game":"Team Fortress","app_id":440,"player_count":0,"max_players":24,"Bots":0,"server_type":"Dedicated","server_os":"Linux","password":true,"vac":true,"version":"7961495","steam_id":85568392924742827,"keywords":["nocrits","nodmgspread","payload","uncletopia"],"game_id":440,"stv_port":27076,"stv_name":"Uncletopia | Frankfurt | 7 | Stopwatch | STV","players":null},{"server_id":24,"name":"Uncletopia | Frankfurt | 8 | Community","name_short":"frk-8","host":"frk-1.de.uncletopia.com","port":27085,"enabled":true,"region":"eu","cc":"de","latitude":50.110924,"longitude":8.682127,"reserved":0,"last_update":"0001-01-01T00:00:00Z","name_a2s":"Uncletopia | Frankfurt | 8 | Community","protocol":17,"map":"workshop/koth_bagel_rc6.ugc2514036946","folder":"tf","game":"Team Fortress","app_id":440,"player_count":0,"max_players":24,"Bots":0,"server_type":"Dedicated","server_os":"Linux","password":true,"vac":true,"version":"7961495","steam_id":85568392924742828,"keywords":["cp","nocrits","nodmgspread","uncletopia"],"game_id":440,"stv_port":27086,"stv_name":"Uncletopia | Frankfurt | 8 | Community | STV","players":null},{"server_id":202,"name":"Uncletopia | Hong Kong | 1 | All Maps","name_short":"hgk-1","host":"hgk-1.hk.uncletopia.com","port":27015,"enabled":true,"region":"asia","cc":"hk","latitude":22.302711,"longitude":114.177216,"reserved":0,"last_update":"0001-01-01T00:00:00Z","name_a2s":"Uncletopia | Hong Kong | 1 | All Maps","protocol":17,"map":"cp_mountainlab","folder":"tf","game":"Team Fortress","app_id":440,"player_count":0,"max_players":24,"Bots":0,"server_type":"Dedicated","server_os":"Linux","password":true,"vac":true,"version":"7961495","steam_id":85568392924494504,"keywords":["cp","nocrits","nodmgspread","uncletopia"],"game_id":440,"stv_port":27016,"stv_name":"Uncletopia | Hong Kong | 1 | All Maps | STV","players":null},{"server_id":1,"name":"Uncletopia | Los Angeles | 1 | All Maps","name_short":"lax-1","host":"lax-1.us.uncletopia.com","port":27015,"enabled":true,"region":"us-west","cc":"us","latitude":33.94279,"longitude":-118.41004,"reserved":0,"last_update":"0001-01-01T00:00:00Z","name_a2s":"Uncletopia | Los Angeles | 1 | All Maps","protocol":17,"map":"pl_frontier_final","folder":"tf","game":"Team Fortress","app_id":440,"player_count":0,"max_players":24,"Bots":0,"server_type":"Dedicated","server_os":"Linux","password":true,"vac":true,"version":"7961495","steam_id":85568392924469991,"keywords":["nocrits","nodmgspread","payload","uncletopia"],"game_id":440,"stv_port":27016,"stv_name":"Uncletopia | Los Angeles | 1 | All Maps | STV","players":null},{"server_id":112,"name":"Uncletopia | Los Angeles | 2 | All Maps","name_short":"lax-2","host":"lax-1.us.uncletopia.com","port":27025,"enabled":true,"region":"us-west","cc":"us","latitude":33.94279,"longitude":-118.41004,"reserved":0,"last_update":"0001-01-01T00:00:00Z","name_a2s":"Uncletopia | Los Angeles | 2 | All Maps","protocol":17,"map":"cp_dustbowl","folder":"tf","game":"Team Fortress","app_id":440,"player_count":3,"max_players":24,"Bots":0,"server_type":"Dedicated","server_os":"Linux","password":true,"vac":true,"version":"7961495","steam_id":85568392924469992,"keywords":["cp","nocrits","nodmgspread","uncletopia"],"game_id":440,"stv_port":27026,"stv_name":"Uncletopia | Los Angeles | 2 | All Maps | STV","players":[{"user_id":7,"name":"Schweddy Balls","steam_id":76561198062500523,"connected_time":319000000000,"state":"active","ping":55},{"user_id":8,"name":"fightfirewithfire","steam_id":76561198372701833,"connected_time":291000000000,"state":"active","ping":68},{"user_id":10,"name":"Insomniac","steam_id":76561199180653046,"connected_time":113000000000,"state":"active","ping":160}]},{"server_id":324,"name":"Uncletopia | Los Angeles | 3 | All Maps","name_short":"lax-3","host":"lax-1.us.uncletopia.com","port":27035,"enabled":true,"region":"us-west","cc":"us","latitude":33.94279,"longitude":-118.41004,"reserved":0,"last_update":"0001-01-01T00:00:00Z","name_a2s":"Uncletopia | Los Angeles | 3 | All Maps","protocol":17,"map":"pl_frontier_final","folder":"tf","game":"Team Fortress","app_id":440,"player_count":0,"max_players":24,"Bots":0,"server_type":"Dedicated","server_os":"Linux","password":true,"vac":true,"version":"7961495","steam_id":85568392924510198,"keywords":["nocrits","nodmgspread","payload","uncletopia"],"game_id":440,"stv_port":27036,"stv_name":"Uncletopia | Los Angeles | 3 | All Maps | STV","players":null},{"server_id":25,"name":"Uncletopia | Los Angeles | 4 | Stopwatch","name_short":"lax-4","host":"lax-1.us.uncletopia.com","port":27045,"enabled":true,"region":"us-west","cc":"us","latitude":33.94279,"longitude":-118.41004,"reserved":0,"last_update":"0001-01-01T00:00:00Z","name_a2s":"Uncletopia | Los Angeles | 4 | Stopwatch","protocol":17,"map":"pl_barnblitz","folder":"tf","game":"Team Fortress","app_id":440,"player_count":0,"max_players":24,"Bots":0,"server_type":"Dedicated","server_os":"Linux","password":true,"vac":true,"version":"7961495","steam_id":85568392924510199,"keywords":["nocrits","nodmgspread","payload","uncletopia"],"game_id":440,"stv_port":27046,"stv_name":"Uncletopia | Los Angeles | 4 | Stopwatch | STV","players":null},{"server_id":11,"name":"Uncletopia | London | 1 | All Maps","name_short":"lon-1","host":"lon-1.uk.uncletopia.com","port":27015,"enabled":true,"region":"eu","cc":"gb","latitude":51.509865,"longitude":-0.118092,"reserved":0,"last_update":"0001-01-01T00:00:00Z","name_a2s":"Uncletopia | London | 1 | All Maps","protocol":17,"map":"cp_steel","folder":"tf","game":"Team Fortress","app_id":440,"player_count":24,"max_players":24,"Bots":0,"server_type":"Dedicated","server_os":"Linux","password":true,"vac":true,"version":"7961495","steam_id":85568392924367362,"keywords":["cp","nocrits","nodmgspread","uncletopia"],"game_id":440,"stv_port":27016,"stv_name":"Uncletopia | London | 1 | All Maps | STV","players":[{"user_id":708,"name":"trans werewolf","steam_id":76561198107235989,"connected_time":259000000000,"state":"active","ping":69},{"user_id":695,"name":"Kai","steam_id":76561198800004578,"connected_time":1415000000000,"state":"active","ping":47},{"user_id":635,"name":"lyra","steam_id":76561198043601838,"connected_time":5162000000000,"state":"active","ping":62},{"user_id":689,"name":"Finem Belli","steam_id":76561198227177976,"connected_time":1711000000000,"state":"active","ping":48},{"user_id":691,"name":"Floza","steam_id":76561198176052645,"connected_time":1603000000000,"state":"active","ping":48},{"user_id":688,"name":"doctor sex","steam_id":76561198029044617,"connected_time":1730000000000,"state":"active","ping":45},{"user_id":701,"name":"sCOOB","steam_id":76561198164142917,"connected_time":428000000000,"state":"active","ping":74},{"user_id":669,"name":"yup that extream78711","steam_id":76561198106049954,"connected_time":3030000000000,"state":"active","ping":148},{"user_id":702,"name":"SpacePig","steam_id":76561198044662873,"connected_time":365000000000,"state":"active","ping":101},{"user_id":703,"name":"LeonIsMooi","steam_id":76561198041524085,"connected_time":357000000000,"state":"active","ping":78},{"user_id":711,"name":"Hann√º","steam_id":76561197969886128,"connected_time":47000000000,"state":"active","ping":57},{"user_id":705,"name":"BELADIT","steam_id":76561198011911501,"connected_time":328000000000,"state":"active","ping":75},{"user_id":673,"name":"AftiksPL","steam_id":76561198875182686,"connected_time":2943000000000,"state":"active","ping":100},{"user_id":706,"name":"Klorophyte","steam_id":76561198885112655,"connected_time":328000000000,"state":"active","ping":104},{"user_id":698,"name":"TwinProfanity","steam_id":76561198159512387,"connected_time":690000000000,"state":"active","ping":54},{"user_id":654,"name":"here widdle wabbit‚Ä¶ come here","steam_id":76561198190583242,"connected_time":3928000000000,"state":"active","ping":97},{"user_id":668,"name":"gr3821","steam_id":76561198091531010,"connected_time":3131000000000,"state":"active","ping":43},{"user_id":707,"name":"Jiipeeze","steam_id":76561198316154333,"connected_time":306000000000,"state":"active","ping":90},{"user_id":679,"name":"impossible whopper eater","steam_id":76561198058641805,"connected_time":1897000000000,"state":"active","ping":53},{"user_id":692,"name":"‚Ä†j1ll3s‚Ä†","steam_id":76561198444424053,"connected_time":1594000000000,"state":"active","ping":112},{"user_id":710,"name":"D.D.D","steam_id":76561198066936554,"connected_time":132000000000,"state":"active","ping":173},{"user_id":684,"name":"Scutchy","steam_id":76561198104431220,"connected_time":1873000000000,"state":"active","ping":60},{"user_id":687,"name":"YLYL GOD","steam_id":76561198079277466,"connected_time":1813000000000,"state":"active","ping":69},{"user_id":699,"name":"Soloman","steam_id":76561199212054667,"connected_time":573000000000,"state":"active","ping":45}]},{"server_id":114,"name":"Uncletopia | London | 2 | All Maps","name_short":"lon-2","host":"lon-1.uk.uncletopia.com","port":27025,"enabled":true,"region":"eu","cc":"gb","latitude":51.509865,"longitude":-0.118092,"reserved":0,"last_update":"0001-01-01T00:00:00Z","name_a2s":"Uncletopia | London | 2 | All Maps","protocol":17,"map":"cp_snakewater_final1","folder":"tf","game":"Team Fortress","app_id":440,"player_count":24,"max_players":24,"Bots":0,"server_type":"Dedicated","server_os":"Linux","password":true,"vac":true,"version":"7961495","steam_id":85568392924470941,"keywords":["cp","nocrits","nodmgspread","uncletopia"],"game_id":440,"stv_port":27026,"stv_name":"Uncletopia | London | 2 | All Maps | STV","players":[{"user_id":144,"name":"Just Navlis","steam_id":76561198090479609,"connected_time":3297000000000,"state":"active","ping":56},{"user_id":159,"name":"Five Finger Discount","steam_id":76561197994556857,"connected_time":2004000000000,"state":"active","ping":69},{"user_id":169,"name":"Jack","steam_id":76561198209102833,"connected_time":1201000000000,"state":"active","ping":64},{"user_id":148,"name":"Max Andrew","steam_id":76561198158955194,"connected_time":3015000000000,"state":"active","ping":55},{"user_id":112,"name":"Bajas","steam_id":76561198179339326,"connected_time":5107000000000,"state":"active","ping":76},{"user_id":125,"name":"Yrj√∂ Koskinen Yrj√∂-Koskinen","steam_id":76561198368181145,"connected_time":4055000000000,"state":"active","ping":89},{"user_id":183,"name":"Crasher0711","steam_id":76561198272180359,"connected_time":482000000000,"state":"active","ping":59},{"user_id":165,"name":"Milosz52","steam_id":76561199060940204,"connected_time":1430000000000,"state":"active","ping":88},{"user_id":181,"name":"Emerald","steam_id":76561198385136236,"connected_time":761000000000,"state":"active","ping":64},{"user_id":160,"name":"hananamanna","steam_id":76561198006570285,"connected_time":1895000000000,"state":"active","ping":113},{"user_id":171,"name":"Snowmotion","steam_id":76561198075022454,"connected_time":1156000000000,"state":"active","ping":75},{"user_id":185,"name":"UNDORA","steam_id":76561198852456692,"connected_time":120000000000,"state":"active","ping":87},{"user_id":146,"name":"Houlles","steam_id":76561198095277383,"connected_time":3211000000000,"state":"active","ping":50},{"user_id":180,"name":"Fenrir","steam_id":76561198004910829,"connected_time":891000000000,"state":"active","ping":52},{"user_id":173,"name":"silly penguin guy","steam_id":76561198123592400,"connected_time":1143000000000,"state":"active","ping":83},{"user_id":174,"name":"Hammy Potluck","steam_id":76561198035502895,"connected_time":1140000000000,"state":"active","ping":75},{"user_id":175,"name":"Riky95","steam_id":76561198095289436,"connected_time":1139000000000,"state":"active","ping":59},{"user_id":176,"name":"Ross from F.R.I.E.N.D.S.","steam_id":76561198008511665,"connected_time":1137000000000,"state":"active","ping":53},{"user_id":141,"name":"H2O ronokopl Hatake","steam_id":76561198039143369,"connected_time":3576000000000,"state":"active","ping":75},{"user_id":113,"name":"xavier","steam_id":76561198076494034,"connected_time":5103000000000,"state":"active","ping":49},{"user_id":164,"name":"beeper","steam_id":76561198130416479,"connected_time":1626000000000,"state":"active","ping":44},{"user_id":186,"name":"calum92","steam_id":76561197992188760,"connected_time":52000000000,"state":"active","ping":66},{"user_id":177,"name":"DigyB","steam_id":76561198014442345,"connected_time":1137000000000,"state":"active","ping":51},{"user_id":168,"name":"Jouppi","steam_id":76561198063725468,"connected_time":1366000000000,"state":"active","ping":96}]},{"server_id":320,"name":"Uncletopia | London | 3 | All Maps","name_short":"lon-3","host":"lon-1.uk.uncletopia.com","port":27035,"enabled":true,"region":"eu","cc":"gb","latitude":51.509865,"longitude":-0.118092,"reserved":0,"last_update":"0001-01-01T00:00:00Z","name_a2s":"Uncletopia | London | 3 | All Maps","protocol":17,"map":"pl_goldrush","folder":"tf","game":"Team Fortress","app_id":440,"player_count":13,"max_players":24,"Bots":0,"server_type":"Dedicated","server_os":"Linux","password":true,"vac":true,"version":"7961495","steam_id":85568392924510192,"keywords":["nocrits","nodmgspread","payload","uncletopia"],"game_id":440,"stv_port":27036,"stv_name":"Uncletopia | London | 3 | All Maps | STV","players":[{"user_id":317,"name":"Biggest birrrd","steam_id":76561198069066522,"connected_time":2856000000000,"state":"active","ping":72},{"user_id":318,"name":"The_Jaystone","steam_id":76561198126280691,"connected_time":2856000000000,"state":"active","ping":30},{"user_id":319,"name":"√áodar","steam_id":76561198235518444,"connected_time":2844000000000,"state":"active","ping":32},{"user_id":348,"name":"jones","steam_id":76561198044434971,"connected_time":82000000000,"state":"active","ping":76},{"user_id":322,"name":"Broa28","steam_id":76561199072979817,"connected_time":2330000000000,"state":"active","ping":71},{"user_id":320,"name":"D_Ink","steam_id":76561198267716662,"connected_time":2822000000000,"state":"active","ping":42},{"user_id":344,"name":"SLiPpeRyJoe.nosound","steam_id":76561197977206359,"connected_time":781000000000,"state":"active","ping":154},{"user_id":346,"name":"LT.Steeamer","steam_id":76561198271938142,"connected_time":302000000000,"state":"active","ping":59},{"user_id":347,"name":"[R_A] pcxt21","steam_id":76561197995227532,"connected_time":175000000000,"state":"active","ping":157},{"user_id":337,"name":"yoko","steam_id":76561198440837262,"connected_time":1440000000000,"state":"active","ping":50},{"user_id":306,"name":"solveig","steam_id":76561198271713106,"connected_time":3638000000000,"state":"active","ping":127},{"user_id":285,"name":"John Noob","steam_id":76561197999170026,"connected_time":4555000000000,"state":"active","ping":91},{"user_id":343,"name":"Psychicpie","steam_id":76561198126065206,"connected_time":855000000000,"state":"active","ping":53}]},{"server_id":321,"name":"Uncletopia | London | 4 | All Maps","name_short":"lon-4","host":"lon-1.uk.uncletopia.com","port":27045,"enabled":true,"region":"eu","cc":"gb","latitude":51.509865,"longitude":-0.118092,"reserved":0,"last_update":"0001-01-01T00:00:00Z","name_a2s":"Uncletopia | London | 4 | All Maps","protocol":17,"map":"cp_snakewater_final1","folder":"tf","game":"Team Fortress","app_id":440,"player_count":24,"max_players":24,"Bots":0,"server_type":"Dedicated","server_os":"Linux","password":true,"vac":true,"version":"7961495","steam_id":85568392924510193,"keywords":["cp","nocrits","nodmgspread","uncletopia"],"game_id":440,"stv_port":27046,"stv_name":"Uncletopia | London | 4 | All Maps | STV","players":[{"user_id":270,"name":"Toxic_Cicity","steam_id":76561198165753440,"connected_time":699000000000,"state":"active","ping":103},{"user_id":249,"name":"boy i'm on yo ass","steam_id":76561198032801875,"connected_time":1688000000000,"state":"active","ping":77},{"user_id":268,"name":"lorislk989","steam_id":76561199224251630,"connected_time":929000000000,"state":"active","ping":68},{"user_id":276,"name":"thor","steam_id":76561197966264111,"connected_time":486000000000,"state":"active","ping":170},{"user_id":269,"name":"Aspartus","steam_id":76561198101385763,"connected_time":710000000000,"state":"active","ping":38},{"user_id":281,"name":"BenteBent","steam_id":76561198297920637,"connected_time":80000000000,"state":"active","ping":41},{"user_id":271,"name":"szmen","steam_id":76561198072569764,"connected_time":697000000000,"state":"active","ping":87},{"user_id":244,"name":"alpha","steam_id":76561198250491640,"connected_time":2097000000000,"state":"active","ping":47},{"user_id":277,"name":"Roscheng","steam_id":76561198862257894,"connected_time":473000000000,"state":"active","ping":163},{"user_id":253,"name":"hasky","steam_id":76561197986052798,"connected_time":1576000000000,"state":"active","ping":72},{"user_id":272,"name":"John0309","steam_id":76561198447428162,"connected_time":694000000000,"state":"active","ping":88},{"user_id":273,"name":"Frio _","steam_id":76561198050438696,"connected_time":677000000000,"state":"active","ping":30},{"user_id":278,"name":"Ze CandyMan (CashMoney)","steam_id":76561198108389190,"connected_time":445000000000,"state":"active","ping":61},{"user_id":227,"name":"Clemonster","steam_id":76561198341727831,"connected_time":3239000000000,"state":"active","ping":67},{"user_id":267,"name":"That Bussy Can Squirt","steam_id":76561199185615752,"connected_time":1042000000000,"state":"active","ping":53},{"user_id":274,"name":"[RED] Norfix ¬Æ","steam_id":76561198061105013,"connected_time":648000000000,"state":"active","ping":98},{"user_id":284,"name":"pardner","steam_id":76561198451471161,"connected_time":31000000000,"state":"active","ping":56},{"user_id":285,"name":"hoos","steam_id":76561198045985910,"connected_time":14000000000,"state":"spawning","ping":326},{"user_id":184,"name":"Dex","steam_id":76561197981134247,"connected_time":7146000000000,"state":"active","ping":90},{"user_id":256,"name":"CiVillain","steam_id":76561198059617732,"connected_time":1542000000000,"state":"active","ping":73},{"user_id":283,"name":"jovi_","steam_id":76561198449280552,"connected_time":62000000000,"state":"active","ping":45},{"user_id":155,"name":"HaylingZar","steam_id":76561198053559897,"connected_time":10709000000000,"state":"active","ping":61},{"user_id":280,"name":"Pomxotic","steam_id":76561198321038595,"connected_time":323000000000,"state":"active","ping":76},{"user_id":239,"name":"maybe blw.tf","steam_id":76561199028670732,"connected_time":2492000000000,"state":"active","ping":62}]},{"server_id":21,"name":"Uncletopia | London | 5 | All Maps","name_short":"lon-5","host":"lon-1.uk.uncletopia.com","port":27055,"enabled":true,"region":"eu","cc":"gb","latitude":51.509865,"longitude":-0.118092,"reserved":0,"last_update":"0001-01-01T00:00:00Z","name_a2s":"Uncletopia | London | 5 | All Maps","protocol":17,"map":"pl_badwater","folder":"tf","game":"Team Fortress","app_id":440,"player_count":24,"max_players":24,"Bots":0,"server_type":"Dedicated","server_os":"Linux","password":true,"vac":true,"version":"7961495","steam_id":85568392924742829,"keywords":["nocrits","nodmgspread","payload","uncletopia"],"game_id":440,"stv_port":27056,"stv_name":"Uncletopia | London | 5 | All Maps | STV","players":[{"user_id":209,"name":"FoOzTV","steam_id":76561197998636728,"connected_time":3950000000000,"state":"active","ping":64},{"user_id":256,"name":"‚òÅ Lou1smeister ‚òÅ","steam_id":76561198004032968,"connected_time":1339000000000,"state":"active","ping":74},{"user_id":261,"name":"Sebothy","steam_id":76561197980626627,"connected_time":1128000000000,"state":"active","ping":71},{"user_id":245,"name":"Fran√ßois Vi√®te","steam_id":76561198072975518,"connected_time":1806000000000,"state":"active","ping":143},{"user_id":248,"name":"Lola bunny","steam_id":76561198214149431,"connected_time":1742000000000,"state":"active","ping":46},{"user_id":269,"name":"Borat","steam_id":76561198122226417,"connected_time":245000000000,"state":"active","ping":28},{"user_id":239,"name":"H-say","steam_id":76561198177400362,"connected_time":1882000000000,"state":"active","ping":100},{"user_id":244,"name":"imng","steam_id":76561198014988031,"connected_time":1810000000000,"state":"active","ping":136},{"user_id":243,"name":"syms","steam_id":76561198066679812,"connected_time":1822000000000,"state":"active","ping":77},{"user_id":237,"name":"sad monkey hands on his head","steam_id":76561198116530769,"connected_time":1913000000000,"state":"active","ping":92},{"user_id":246,"name":"Nonok","steam_id":76561199480685498,"connected_time":1777000000000,"state":"active","ping":68},{"user_id":267,"name":"Tort","steam_id":76561198329646769,"connected_time":647000000000,"state":"active","ping":55},{"user_id":253,"name":"LainBizkit","steam_id":76561199200708626,"connected_time":1708000000000,"state":"active","ping":101},{"user_id":149,"name":"sAmasam","steam_id":76561198114953928,"connected_time":9043000000000,"state":"active","ping":74},{"user_id":263,"name":"Cosmetic brain","steam_id":76561198055936410,"connected_time":1065000000000,"state":"active","ping":83},{"user_id":265,"name":"Kahvi","steam_id":76561198723244199,"connected_time":682000000000,"state":"active","ping":77},{"user_id":236,"name":"chillrend_morphs_high_lod6","steam_id":76561198452963141,"connected_time":2009000000000,"state":"active","ping":87},{"user_id":234,"name":"EwyPig","steam_id":76561198104051370,"connected_time":2251000000000,"state":"active","ping":65},{"user_id":251,"name":"SoyPilled Princess","steam_id":76561198208093880,"connected_time":1737000000000,"state":"active","ping":49},{"user_id":271,"name":"justwill","steam_id":76561198399770211,"connected_time":91000000000,"state":"spawning","ping":130},{"user_id":270,"name":"Cheffy","steam_id":76561198046166592,"connected_time":195000000000,"state":"active","ping":43},{"user_id":252,"name":"Fabric","steam_id":76561198118742661,"connected_time":1732000000000,"state":"active","ping":87},{"user_id":254,"name":"rooliman","steam_id":76561198107767058,"connected_time":1669000000000,"state":"active","ping":76},{"user_id":262,"name":"highest noon","steam_id":76561199103959197,"connected_time":1128000000000,"state":"active","ping":100}]},{"server_id":22,"name":"Uncletopia | London | 6 | All Maps","name_short":"lon-6","host":"lon-1.uk.uncletopia.com","port":27065,"enabled":true,"region":"eu","cc":"gb","latitude":51.509865,"longitude":-0.118092,"reserved":0,"last_update":"0001-01-01T00:00:00Z","name_a2s":"Uncletopia | London | 6 | All Maps","protocol":17,"map":"pl_borneo","folder":"tf","game":"Team Fortress","app_id":440,"player_count":24,"max_players":24,"Bots":0,"server_type":"Dedicated","server_os":"Linux","password":true,"vac":true,"version":"7961495","steam_id":85568392924742830,"keywords":["nocrits","nodmgspread","payload","uncletopia"],"game_id":440,"stv_port":27066,"stv_name":"Uncletopia | London | 6 | All Maps | STV","players":[{"user_id":489,"name":"The Pizza Man Janos1k","steam_id":76561199104684805,"connected_time":3456000000000,"state":"active","ping":92},{"user_id":511,"name":"hud_saytext_time 0","steam_id":76561198010327228,"connected_time":1724000000000,"state":"active","ping":65},{"user_id":523,"name":"lord-carlos","steam_id":76561198025150761,"connected_time":644000000000,"state":"active","ping":61},{"user_id":516,"name":"HIGH CULTIST VARNU","steam_id":76561198104896547,"connected_time":1352000000000,"state":"active","ping":83},{"user_id":515,"name":"Lanz","steam_id":76561198126356394,"connected_time":1577000000000,"state":"active","ping":70},{"user_id":524,"name":"pls watch puss in boots","steam_id":76561198046210501,"connected_time":591000000000,"state":"active","ping":77},{"user_id":525,"name":"padillacampos","steam_id":76561198161923970,"connected_time":586000000000,"state":"active","ping":72},{"user_id":464,"name":"Lord Philip","steam_id":76561198277097779,"connected_time":4378000000000,"state":"active","ping":71},{"user_id":526,"name":"xiiski","steam_id":76561198152387747,"connected_time":551000000000,"state":"active","ping":105},{"user_id":522,"name":"Charlie Kelly","steam_id":76561198211599767,"connected_time":674000000000,"state":"active","ping":55},{"user_id":502,"name":"dmEngineer_tf2 #SaveTF2","steam_id":76561199388956338,"connected_time":2072000000000,"state":"active","ping":90},{"user_id":517,"name":"gang weed studios","steam_id":76561199025084891,"connected_time":1011000000000,"state":"active","ping":67},{"user_id":499,"name":"El Wiwi","steam_id":76561198134378108,"connected_time":2318000000000,"state":"active","ping":81},{"user_id":518,"name":"W","steam_id":76561198273623211,"connected_time":1003000000000,"state":"active","ping":91},{"user_id":521,"name":"‚ò≠King‚ò≠","steam_id":76561199214677088,"connected_time":790000000000,"state":"active","ping":110},{"user_id":534,"name":"Carrotcracker","steam_id":76561198034862396,"connected_time":273000000000,"state":"active","ping":82},{"user_id":508,"name":"Alexei","steam_id":76561197987169026,"connected_time":1899000000000,"state":"active","ping":55},{"user_id":513,"name":"Ragnar","steam_id":76561198046229979,"connected_time":1684000000000,"state":"active","ping":59},{"user_id":527,"name":"I jazzed myself","steam_id":76561198203016603,"connected_time":539000000000,"state":"active","ping":73},{"user_id":533,"name":"Big Iron","steam_id":76561198798937656,"connected_time":364000000000,"state":"active","ping":150},{"user_id":329,"name":"Katealyst","steam_id":76561198331215039,"connected_time":13381000000000,"state":"active","ping":64},{"user_id":531,"name":"Bonca","steam_id":76561198137503531,"connected_time":415000000000,"state":"active","ping":71},{"user_id":514,"name":"Kaups√Ωsluma√∞urinn","steam_id":76561198070358944,"connected_time":1608000000000,"state":"active","ping":52},{"user_id":532,"name":"Aaronbill3","steam_id":76561198014056212,"connected_time":408000000000,"state":"active","ping":70}]},{"server_id":40,"name":"Uncletopia | London | 7 | Stopwatch","name_short":"lon-7","host":"lon-1.uk.uncletopia.com","port":27075,"enabled":true,"region":"eu","cc":"gb","latitude":51.509865,"longitude":-0.118092,"reserved":0,"last_update":"0001-01-01T00:00:00Z","name_a2s":"Uncletopia | London | 7 | Stopwatch","protocol":17,"map":"pl_upward","folder":"tf","game":"Team Fortress","app_id":440,"player_count":6,"max_players":24,"Bots":0,"server_type":"Dedicated","server_os":"Linux","password":true,"vac":true,"version":"7961495","steam_id":85568392924964314,"keywords":["nocrits","nodmgspread","payload","uncletopia"],"game_id":440,"stv_port":27076,"stv_name":"Uncletopia | London | 7 | Stopwatch | STV","players":[{"user_id":10,"name":"lipaul777","steam_id":76561199090751367,"connected_time":2713000000000,"state":"active","ping":71},{"user_id":14,"name":"tralalaOuiOui","steam_id":76561197963471507,"connected_time":789000000000,"state":"active","ping":45},{"user_id":12,"name":"''No running commentary scout''","steam_id":76561198798516824,"connected_time":1466000000000,"state":"active","ping":61},{"user_id":13,"name":"_Context_","steam_id":76561199163359312,"connected_time":899000000000,"state":"active","ping":58},{"user_id":15,"name":"89384HDHSJDHU\u0026/","steam_id":76561198057833760,"connected_time":635000000000,"state":"active","ping":81},{"user_id":16,"name":"Ôº¥rendyÔº¨emon","steam_id":76561198158957324,"connected_time":623000000000,"state":"active","ping":51}]},{"server_id":41,"name":"Uncletopia | London | 8 | Community","name_short":"lon-8","host":"lon-1.uk.uncletopia.com","port":27085,"enabled":true,"region":"eu","cc":"gb","latitude":51.509865,"longitude":-0.118092,"reserved":0,"last_update":"0001-01-01T00:00:00Z","name_a2s":"Uncletopia | London | 8 | Community","protocol":17,"map":"workshop/koth_bagel_rc6.ugc2514036946","folder":"tf","game":"Team Fortress","app_id":440,"player_count":0,"max_players":24,"Bots":0,"server_type":"Dedicated","server_os":"Linux","password":true,"vac":true,"version":"7961495","steam_id":85568392924964315,"keywords":["cp","nocrits","nodmgspread","uncletopia"],"game_id":440,"stv_port":27086,"stv_name":"Uncletopia | London | 8 | Community | STV","players":null},{"server_id":300,"name":"Uncletopia | Montr√©al | 1 | All Maps","name_short":"mtl-1","host":"mtl-1.ca.uncletopia.com","port":27015,"enabled":true,"region":"us-east","cc":"ca","latitude":45.50889,"longitude":-73.56167,"reserved":0,"last_update":"0001-01-01T00:00:00Z","name_a2s":"","protocol":0,"map":"","folder":"","game":"","app_id":0,"player_count":0,"max_players":0,"Bots":0,"server_type":"","server_os":"","password":false,"vac":false,"version":"","steam_id":0,"keywords":null,"game_id":0,"stv_port":0,"stv_name":"","players":null},{"server_id":301,"name":"Uncletopia | Montr√©al | 2 | ???","name_short":"mtl-2","host":"mtl-1.ca.uncletopia.com","port":27025,"enabled":true,"region":"us-east","cc":"ca","latitude":45.50889,"longitude":-73.56167,"reserved":0,"last_update":"0001-01-01T00:00:00Z","name_a2s":"","protocol":0,"map":"","folder":"","game":"","app_id":0,"player_count":0,"max_players":0,"Bots":0,"server_type":"","server_os":"","password":false,"vac":false,"version":"","steam_id":0,"keywords":null,"game_id":0,"stv_port":0,"stv_name":"","players":null},{"server_id":13,"name":"Uncletopia | New York City | 1 | All Maps","name_short":"nyc-1","host":"nyc-1.us.uncletopia.com","port":27015,"enabled":true,"region":"us-east","cc":"us","latitude":40.73061,"longitude":-73.93524,"reserved":0,"last_update":"0001-01-01T00:00:00Z","name_a2s":"Uncletopia | New York City | 1 | All Maps","protocol":17,"map":"pl_badwater","folder":"tf","game":"Team Fortress","app_id":440,"player_count":24,"max_players":24,"Bots":0,"server_type":"Dedicated","server_os":"Linux","password":true,"vac":true,"version":"7961495","steam_id":85568392924469993,"keywords":["nocrits","nodmgspread","payload","uncletopia"],"game_id":440,"stv_port":27016,"stv_name":"Uncletopia | New York City | 1 | All Maps | STV","players":[{"user_id":394,"name":"Ry58","steam_id":76561199083841480,"connected_time":255000000000,"state":"active","ping":86},{"user_id":377,"name":"Rodgedan","steam_id":76561198226236524,"connected_time":1435000000000,"state":"active","ping":82},{"user_id":390,"name":"MeatShield 2000","steam_id":76561199375192850,"connected_time":290000000000,"state":"active","ping":124},{"user_id":373,"name":"Skeleop","steam_id":76561198981106464,"connected_time":1698000000000,"state":"active","ping":115},{"user_id":391,"name":"Dwarfo","steam_id":76561198119220289,"connected_time":284000000000,"state":"active","ping":76},{"user_id":315,"name":"bleach65","steam_id":76561198115270571,"connected_time":3131000000000,"state":"active","ping":77},{"user_id":371,"name":"Evolution","steam_id":76561198144767370,"connected_time":1745000000000,"state":"active","ping":65},{"user_id":370,"name":"Shapeshiftertrue","steam_id":76561198440835095,"connected_time":1780000000000,"state":"active","ping":86},{"user_id":376,"name":"Chezaus","steam_id":76561198317397837,"connected_time":1568000000000,"state":"active","ping":75},{"user_id":392,"name":"Fat Kid In a Dragonball T-Shirt","steam_id":76561198182589975,"connected_time":282000000000,"state":"active","ping":67},{"user_id":347,"name":"Soap_","steam_id":76561198153289795,"connected_time":2302000000000,"state":"active","ping":45},{"user_id":393,"name":"incredirocks","steam_id":76561198061079993,"connected_time":275000000000,"state":"active","ping":61},{"user_id":388,"name":"The Power","steam_id":76561198060566884,"connected_time":362000000000,"state":"active","ping":115},{"user_id":396,"name":"Tony hawks pro skater 2 dlc","steam_id":76561198243387974,"connected_time":13000000000,"state":"active","ping":38},{"user_id":378,"name":"Ulapin","steam_id":76561198034512409,"connected_time":1420000000000,"state":"active","ping":120},{"user_id":319,"name":"NiceGravy6","steam_id":76561198296901073,"connected_time":2982000000000,"state":"active","ping":146},{"user_id":265,"name":"ndvr","steam_id":76561199379200102,"connected_time":7715000000000,"state":"active","ping":53},{"user_id":237,"name":"milk","steam_id":76561198813251405,"connected_time":10280000000000,"state":"active","ping":56},{"user_id":372,"name":"7thelden","steam_id":76561198297428761,"connected_time":1741000000000,"state":"active","ping":79},{"user_id":310,"name":"Bee_Pirate","steam_id":76561199000599111,"connected_time":3786000000000,"state":"active","ping":59},{"user_id":380,"name":"Brown_Dream","steam_id":76561198975766145,"connected_time":1246000000000,"state":"active","ping":72},{"user_id":324,"name":"Villain_7","steam_id":76561198985858094,"connected_time":2585000000000,"state":"active","ping":84},{"user_id":326,"name":"Ksu","steam_id":76561198217495147,"connected_time":2569000000000,"state":"active","ping":48},{"user_id":327,"name":"playguy carter","steam_id":76561198080679337,"connected_time":2554000000000,"state":"active","ping":66}]},{"server_id":14,"name":"Uncletopia | New York City | 2 | All Maps","name_short":"nyc-2","host":"nyc-1.us.uncletopia.com","port":27025,"enabled":true,"region":"us-east","cc":"us","latitude":40.73061,"longitude":-73.93524,"reserved":0,"last_update":"0001-01-01T00:00:00Z","name_a2s":"Uncletopia | New York City | 2 | All Maps","protocol":17,"map":"koth_cascade","folder":"tf","game":"Team Fortress","app_id":440,"player_count":24,"max_players":24,"Bots":0,"server_type":"Dedicated","server_os":"Linux","password":true,"vac":true,"version":"7961495","steam_id":85568392924469994,"keywords":["cp","nocrits","nodmgspread","uncletopia"],"game_id":440,"stv_port":27026,"stv_name":"Uncletopia | New York City | 2 | All Maps | STV","players":[{"user_id":78,"name":"Hoopla","steam_id":76561198327775508,"connected_time":502000000000,"state":"active","ping":41},{"user_id":91,"name":"momazos diegos","steam_id":76561199220257695,"connected_time":81000000000,"state":"active","ping":149},{"user_id":80,"name":"MacAndCheese69","steam_id":76561199013464592,"connected_time":487000000000,"state":"active","ping":58},{"user_id":66,"name":"Bruna Marquezine","steam_id":76561199497627611,"connected_time":2240000000000,"state":"active","ping":45},{"user_id":68,"name":"HEHRAHA KRITTY KRAT :3","steam_id":76561198210951041,"connected_time":2193000000000,"state":"active","ping":123},{"user_id":49,"name":"atlas","steam_id":76561198116768948,"connected_time":3789000000000,"state":"active","ping":82},{"user_id":77,"name":"BukkBuggy","steam_id":76561198046107506,"connected_time":607000000000,"state":"active","ping":131},{"user_id":92,"name":"JustLooking","steam_id":76561198207877387,"connected_time":69000000000,"state":"active","ping":45},{"user_id":65,"name":"Bluemaniac963","steam_id":76561199232474869,"connected_time":2271000000000,"state":"active","ping":84},{"user_id":21,"name":"Primordial pouch","steam_id":76561198077993687,"connected_time":4263000000000,"state":"active","ping":59},{"user_id":22,"name":"Noahthecrazy1","steam_id":76561199152995909,"connected_time":4249000000000,"state":"active","ping":71},{"user_id":73,"name":"Broadway Rose","steam_id":76561198046083342,"connected_time":1464000000000,"state":"active","ping":43},{"user_id":85,"name":"ash","steam_id":76561198127890645,"connected_time":354000000000,"state":"active","ping":85},{"user_id":81,"name":"QWERTY","steam_id":76561198211430420,"connected_time":472000000000,"state":"active","ping":81},{"user_id":83,"name":"Oni","steam_id":76561198112066584,"connected_time":397000000000,"state":"active","ping":74},{"user_id":70,"name":"Stultus","steam_id":76561198115116367,"connected_time":1891000000000,"state":"active","ping":55},{"user_id":72,"name":"Ian","steam_id":76561199078852180,"connected_time":1820000000000,"state":"active","ping":59},{"user_id":40,"name":"Drake the Pixel","steam_id":76561198131824401,"connected_time":3847000000000,"state":"active","ping":44},{"user_id":43,"name":"Bleat","steam_id":76561198138678917,"connected_time":3831000000000,"state":"active","ping":143},{"user_id":89,"name":"Chuck McGill","steam_id":76561199028225278,"connected_time":290000000000,"state":"active","ping":58},{"user_id":86,"name":"OrangeSodaMachine","steam_id":76561198079230156,"connected_time":344000000000,"state":"active","ping":111},{"user_id":59,"name":"Potayo","steam_id":76561198861979792,"connected_time":2561000000000,"state":"active","ping":63},{"user_id":76,"name":"DaybreakerYa","steam_id":76561199013632613,"connected_time":1190000000000,"state":"active","ping":67},{"user_id":93,"name":"VerrucktMedic","steam_id":76561198093144226,"connected_time":63000000000,"state":"active","ping":68}]},{"server_id":15,"name":"Uncletopia | New York City | 3 | Stopwatch","name_short":"nyc-3","host":"nyc-1.us.uncletopia.com","port":27035,"enabled":true,"region":"us-east","cc":"us","latitude":40.73061,"longitude":-73.93524,"reserved":0,"last_update":"0001-01-01T00:00:00Z","name_a2s":"Uncletopia | New York City | 3 | Stopwatch","protocol":17,"map":"workshop/koth_clearcut_b15.ugc2107050255","folder":"tf","game":"Team Fortress","app_id":440,"player_count":0,"max_players":24,"Bots":0,"server_type":"Dedicated","server_os":"Linux","password":true,"vac":true,"version":"7961495","steam_id":85568392924742820,"keywords":["cp","nocrits","nodmgspread","uncletopia"],"game_id":440,"stv_port":27036,"stv_name":"Uncletopia | New York City | 3 | Stopwatch | STV","players":null},{"server_id":16,"name":"Uncletopia | New York City | 4 | Community","name_short":"nyc-4","host":"nyc-1.us.uncletopia.com","port":27045,"enabled":true,"region":"us-east","cc":"us","latitude":40.73061,"longitude":-73.93524,"reserved":0,"last_update":"0001-01-01T00:00:00Z","name_a2s":"Uncletopia | New York City | 4 | Community","protocol":17,"map":"cp_altitude","folder":"tf","game":"Team Fortress","app_id":440,"player_count":0,"max_players":24,"Bots":0,"server_type":"Dedicated","server_os":"Linux","password":true,"vac":true,"version":"7961495","steam_id":85568392924742821,"keywords":["cp","nocrits","nodmgspread","uncletopia"],"game_id":440,"stv_port":27046,"stv_name":"Uncletopia | New York City | 4 | Community | STV","players":null},{"server_id":142,"name":"Uncletopia | S√£o Paulo | 1 | All Maps","name_short":"sao-1","host":"sao-1.br.uncletopia.com","port":27015,"enabled":true,"region":"sa","cc":"br","latitude":-23.533773,"longitude":-46.62529,"reserved":0,"last_update":"0001-01-01T00:00:00Z","name_a2s":"Uncletopia | S√£o Paulo | 1 | All Maps","protocol":17,"map":"koth_viaduct","folder":"tf","game":"Team Fortress","app_id":440,"player_count":0,"max_players":24,"Bots":0,"server_type":"Dedicated","server_os":"Linux","password":true,"vac":true,"version":"7961495","steam_id":85568392924469996,"keywords":["cp","nocrits","nodmgspread","uncletopia"],"game_id":440,"stv_port":27016,"stv_name":"Uncletopia | S√£o Paulo | 1 | All Maps | STV","players":null},{"server_id":143,"name":"Uncletopia | S√£o Paulo | 2 | Community","name_short":"sao-2","host":"sao-2.br.uncletopia.com","port":27015,"enabled":true,"region":"sa","cc":"br","latitude":-23.533773,"longitude":-46.62529,"reserved":0,"last_update":"0001-01-01T00:00:00Z","name_a2s":"Uncletopia | S√£o Paulo | 2 | Community","protocol":17,"map":"workshop/pl_fifthcurve_rc1.ugc648227046","folder":"tf","game":"Team Fortress","app_id":440,"player_count":0,"max_players":24,"Bots":0,"server_type":"Dedicated","server_os":"Linux","password":true,"vac":true,"version":"7961495","steam_id":85568392924485349,"keywords":["nocrits","nodmgspread","payload","uncletopia"],"game_id":440,"stv_port":27016,"stv_name":"Uncletopia | S√£o Paulo | 2 | Community | STV","players":null},{"server_id":7,"name":"Uncletopia | Seattle | 1 | All Maps","name_short":"sea-1","host":"sea-1.us.uncletopia.com","port":27015,"enabled":true,"region":"us-west","cc":"us","latitude":47.608013,"longitude":-122.33517,"reserved":0,"last_update":"0001-01-01T00:00:00Z","name_a2s":"Uncletopia | Seattle | 1 | All Maps","protocol":17,"map":"cp_dustbowl","folder":"tf","game":"Team Fortress","app_id":440,"player_count":24,"max_players":24,"Bots":0,"server_type":"Dedicated","server_os":"Linux","password":true,"vac":true,"version":"7961495","steam_id":85568392924469997,"keywords":["cp","nocrits","nodmgspread","uncletopia"],"game_id":440,"stv_port":27016,"stv_name":"Uncletopia | Seattle | 1 | All Maps | STV","players":[{"user_id":378,"name":"Akira (they/them)","steam_id":76561198294601519,"connected_time":479000000000,"state":"active","ping":37},{"user_id":344,"name":"Morse","steam_id":76561198039944542,"connected_time":2589000000000,"state":"active","ping":54},{"user_id":340,"name":"Sly Marbo","steam_id":76561198135271741,"connected_time":2615000000000,"state":"active","ping":47},{"user_id":382,"name":"woodpigeon","steam_id":76561199391478575,"connected_time":354000000000,"state":"active","ping":56},{"user_id":384,"name":"yomommasabitch","steam_id":76561198323217150,"connected_time":75000000000,"state":"active","ping":94},{"user_id":375,"name":"BrockSpread","steam_id":76561198145924402,"connected_time":781000000000,"state":"active","ping":72},{"user_id":380,"name":"Joseph Stalin","steam_id":76561198382398935,"connected_time":457000000000,"state":"active","ping":52},{"user_id":377,"name":"i have an rsi","steam_id":76561198020322241,"connected_time":583000000000,"state":"active","ping":63},{"user_id":132,"name":"Xynnan","steam_id":76561198122232186,"connected_time":19023000000000,"state":"active","ping":102},{"user_id":327,"name":"maddog","steam_id":76561199111048329,"connected_time":3527000000000,"state":"active","ping":75},{"user_id":320,"name":"Corbezy","steam_id":76561197993398349,"connected_time":4577000000000,"state":"active","ping":128},{"user_id":362,"name":"dust | it/she","steam_id":76561198045218909,"connected_time":1430000000000,"state":"active","ping":44},{"user_id":359,"name":"Embie","steam_id":76561198358221011,"connected_time":1469000000000,"state":"active","ping":48},{"user_id":366,"name":"011sra","steam_id":76561199489542125,"connected_time":1288000000000,"state":"active","ping":47},{"user_id":318,"name":"smogun","steam_id":76561198361158518,"connected_time":4592000000000,"state":"active","ping":84},{"user_id":325,"name":"tr","steam_id":76561198046944222,"connected_time":4061000000000,"state":"active","ping":44},{"user_id":339,"name":"tempestbloke","steam_id":76561198067393832,"connected_time":2689000000000,"state":"active","ping":77},{"user_id":363,"name":"Lily Thorn","steam_id":76561198305488625,"connected_time":1412000000000,"state":"active","ping":52},{"user_id":383,"name":"Bocchi The Rock Johnson","steam_id":76561198216017952,"connected_time":127000000000,"state":"active","ping":64},{"user_id":355,"name":"BlazedBunny","steam_id":76561198243610560,"connected_time":1658000000000,"state":"active","ping":65},{"user_id":379,"name":"yaoi boy princess","steam_id":76561197997343746,"connected_time":468000000000,"state":"active","ping":54},{"user_id":336,"name":"McSpazatron","steam_id":76561198955942148,"connected_time":2808000000000,"state":"active","ping":46},{"user_id":354,"name":"COOL master_9","steam_id":76561198073041151,"connected_time":1775000000000,"state":"active","ping":84},{"user_id":365,"name":"_Ati","steam_id":76561198339777801,"connected_time":1404000000000,"state":"active","ping":93}]},{"server_id":119,"name":"Uncletopia | Seattle | 2 | All Maps","name_short":"sea-2","host":"sea-1.us.uncletopia.com","port":27025,"enabled":true,"region":"us-west","cc":"us","latitude":47.608013,"longitude":-122.33517,"reserved":0,"last_update":"0001-01-01T00:00:00Z","name_a2s":"Uncletopia | Seattle | 2 | All Maps","protocol":17,"map":"koth_highpass","folder":"tf","game":"Team Fortress","app_id":440,"player_count":0,"max_players":24,"Bots":0,"server_type":"Dedicated","server_os":"Linux","password":true,"vac":true,"version":"7961495","steam_id":85568392924469998,"keywords":["cp","nocrits","nodmgspread","uncletopia"],"game_id":440,"stv_port":27026,"stv_name":"Uncletopia | Seattle | 2 | All Maps | STV","players":null},{"server_id":406,"name":"Uncletopia | Seattle | 3 | Stopwatch","name_short":"sea-3","host":"sea-1.us.uncletopia.com","port":27035,"enabled":true,"region":"us-west","cc":"us","latitude":47.608013,"longitude":-122.33517,"reserved":0,"last_update":"0001-01-01T00:00:00Z","name_a2s":"Uncletopia | Seattle | 3 | Stopwatch","protocol":17,"map":"cp_gullywash_final1","folder":"tf","game":"Team Fortress","app_id":440,"player_count":0,"max_players":24,"Bots":0,"server_type":"Dedicated","server_os":"Linux","password":true,"vac":true,"version":"7961495","steam_id":85568392924515217,"keywords":["cp","nocrits","nodmgspread","uncletopia"],"game_id":440,"stv_port":27036,"stv_name":"Uncletopia | Seattle | 3 | Stopwatch | STV","players":null},{"server_id":17,"name":"Uncletopia | San Francisco | 1 | All Maps","name_short":"sfo-1","host":"sfo-1.us.uncletopia.com","port":27015,"enabled":true,"region":"us-west","cc":"us","latitude":37.77397,"longitude":-122.4313,"reserved":0,"last_update":"0001-01-01T00:00:00Z","name_a2s":"Uncletopia | San Francisco | 1 | All Maps","protocol":17,"map":"koth_cascade","folder":"tf","game":"Team Fortress","app_id":440,"player_count":0,"max_players":24,"Bots":0,"server_type":"Dedicated","server_os":"Linux","password":true,"vac":true,"version":"7961495","steam_id":85568392924469999,"keywords":["cp","nocrits","nodmgspread","uncletopia"],"game_id":440,"stv_port":27016,"stv_name":"Uncletopia | San Francisco | 1 | All Maps | STV","players":null},{"server_id":18,"name":"Uncletopia | San Francisco | 2 | All Maps","name_short":"sfo-2","host":"sfo-1.us.uncletopia.com","port":27025,"enabled":true,"region":"us-west","cc":"us","latitude":37.77397,"longitude":-122.4313,"reserved":0,"last_update":"0001-01-01T00:00:00Z","name_a2s":"Uncletopia | San Francisco | 2 | All Maps","protocol":17,"map":"pl_frontier_final","folder":"tf","game":"Team Fortress","app_id":440,"player_count":0,"max_players":24,"Bots":0,"server_type":"Dedicated","server_os":"Linux","password":true,"vac":true,"version":"7961495","steam_id":85568392924470000,"keywords":["nocrits","nodmgspread","payload","uncletopia"],"game_id":440,"stv_port":27026,"stv_name":"Uncletopia | San Francisco | 2 | All Maps | STV","players":null},{"server_id":19,"name":"Uncletopia | San Francisco | 3 | Stopwatch","name_short":"sfo-3","host":"sfo-1.us.uncletopia.com","port":27035,"enabled":true,"region":"us-west","cc":"us","latitude":37.77397,"longitude":-122.4313,"reserved":0,"last_update":"0001-01-01T00:00:00Z","name_a2s":"Uncletopia | San Francisco | 3 | Stopwatch","protocol":17,"map":"pl_pier","folder":"tf","game":"Team Fortress","app_id":440,"player_count":0,"max_players":24,"Bots":0,"server_type":"Dedicated","server_os":"Linux","password":true,"vac":true,"version":"7961495","steam_id":85568392924742824,"keywords":["nocrits","nodmgspread","payload","uncletopia"],"game_id":440,"stv_port":27036,"stv_name":"Uncletopia | San Francisco | 3 | Stopwatch | STV","players":null},{"server_id":20,"name":"Uncletopia | San Francisco | 4 | Community","name_short":"sfo-4","host":"sfo-1.us.uncletopia.com","port":27045,"enabled":true,"region":"us-west","cc":"us","latitude":37.77397,"longitude":-122.4313,"reserved":0,"last_update":"0001-01-01T00:00:00Z","name_a2s":"Uncletopia | San Francisco | 4 | Community","protocol":17,"map":"pl_pier","folder":"tf","game":"Team Fortress","app_id":440,"player_count":0,"max_players":24,"Bots":0,"server_type":"Dedicated","server_os":"Linux","password":true,"vac":true,"version":"7961495","steam_id":85568392924742826,"keywords":["nocrits","nodmgspread","payload","uncletopia"],"game_id":440,"stv_port":27046,"stv_name":"Uncletopia | San Francisco | 4 | Community | STV","players":null},{"server_id":141,"name":"Uncletopia | Sydney | 1 | All Maps","name_short":"syd-1","host":"syd-1.au.uncletopia.com","port":27015,"enabled":true,"region":"au","cc":"au","latitude":-33.865143,"longitude":151.2099,"reserved":0,"last_update":"0001-01-01T00:00:00Z","name_a2s":"Uncletopia | Sydney | 1 | All Maps","protocol":17,"map":"koth_viaduct","folder":"tf","game":"Team Fortress","app_id":440,"player_count":0,"max_players":24,"Bots":0,"server_type":"Dedicated","server_os":"Linux","password":true,"vac":true,"version":"7961495","steam_id":85568392924470001,"keywords":["cp","nocrits","nodmgspread","uncletopia"],"game_id":440,"stv_port":27016,"stv_name":"Uncletopia | Sydney | 1 | All Maps | STV","players":null},{"server_id":123,"name":"Uncletopia | Sydney | 2 | All Maps","name_short":"syd-2","host":"syd-1.au.uncletopia.com","port":27025,"enabled":true,"region":"au","cc":"au","latitude":-33.865143,"longitude":151.2099,"reserved":0,"last_update":"0001-01-01T00:00:00Z","name_a2s":"Uncletopia | Sydney | 2 | All Maps","protocol":17,"map":"koth_lakeside_final","folder":"tf","game":"Team Fortress","app_id":440,"player_count":0,"max_players":24,"Bots":0,"server_type":"Dedicated","server_os":"Linux","password":true,"vac":true,"version":"7961495","steam_id":85568392924470002,"keywords":["cp","nocrits","nodmgspread","uncletopia"],"game_id":440,"stv_port":27026,"stv_name":"Uncletopia | Sydney | 2 | All Maps | STV","players":null},{"server_id":395,"name":"Uncletopia | Sydney | 3 | All Maps","name_short":"syd-3","host":"syd-1.au.uncletopia.com","port":27035,"enabled":true,"region":"au","cc":"au","latitude":-33.865143,"longitude":151.2099,"reserved":0,"last_update":"0001-01-01T00:00:00Z","name_a2s":"Uncletopia | Sydney | 3 | All Maps","protocol":17,"map":"pl_frontier_final","folder":"tf","game":"Team Fortress","app_id":440,"player_count":0,"max_players":24,"Bots":0,"server_type":"Dedicated","server_os":"Linux","password":true,"vac":true,"version":"7961495","steam_id":85568392925194467,"keywords":["nocrits","nodmgspread","payload","uncletopia"],"game_id":440,"stv_port":27036,"stv_name":"Uncletopia | Sydney | 3 | All Maps | STV","players":null},{"server_id":396,"name":"Uncletopia | Sydney | 4 | All Maps","name_short":"syd-4","host":"syd-1.au.uncletopia.com","port":27045,"enabled":true,"region":"au","cc":"au","latitude":-33.865143,"longitude":151.2099,"reserved":0,"last_update":"0001-01-01T00:00:00Z","name_a2s":"Uncletopia | Sydney | 4 | All Maps","protocol":17,"map":"cp_process_final","folder":"tf","game":"Team Fortress","app_id":440,"player_count":0,"max_players":24,"Bots":0,"server_type":"Dedicated","server_os":"Linux","password":true,"vac":true,"version":"7961495","steam_id":85568392925397958,"keywords":["cp","nocrits","nodmgspread","uncletopia"],"game_id":440,"stv_port":27046,"stv_name":"Uncletopia | Sydney | 4 | All Maps | STV","players":null},{"server_id":58,"name":"Uncletopia | Sydney | 5 | Stopwatch","name_short":"syd-5","host":"syd-1.au.uncletopia.com","port":27055,"enabled":true,"region":"au","cc":"au","latitude":-33.865143,"longitude":151.2099,"reserved":0,"last_update":"0001-01-01T00:00:00Z","name_a2s":"Uncletopia | Sydney | 5 | Stopwatch","protocol":17,"map":"pl_frontier_final","folder":"tf","game":"Team Fortress","app_id":440,"player_count":0,"max_players":24,"Bots":0,"server_type":"Dedicated","server_os":"Linux","password":true,"vac":true,"version":"7961495","steam_id":85568392925397959,"keywords":["nocrits","nodmgspread","payload","uncletopia"],"game_id":440,"stv_port":27056,"stv_name":"Uncletopia | Sydney | 5 | Stopwatch | STV","players":null},{"server_id":59,"name":"Uncletopia | Sydney | 6 | Community","name_short":"syd-6","host":"syd-1.au.uncletopia.com","port":27065,"enabled":true,"region":"au","cc":"au","latitude":-33.865143,"longitude":151.2099,"reserved":0,"last_update":"0001-01-01T00:00:00Z","name_a2s":"Uncletopia | Sydney | 6 | Community","protocol":17,"map":"cp_sunshine","folder":"tf","game":"Team Fortress","app_id":440,"player_count":0,"max_players":24,"Bots":0,"server_type":"Dedicated","server_os":"Linux","password":true,"vac":true,"version":"7961495","steam_id":85568392925397960,"keywords":["cp","nocrits","nodmgspread","uncletopia"],"game_id":440,"stv_port":27066,"stv_name":"Uncletopia | Sydney | 6 | Community | STV","players":null},{"server_id":49,"name":"Uncletopia | Warsaw | 1 | All Maps","name_short":"waw-1","host":"waw-1.pl.uncletopia.com","port":27015,"enabled":true,"region":"eu","cc":"pl","latitude":52.2297,"longitude":21.017532,"reserved":0,"last_update":"0001-01-01T00:00:00Z","name_a2s":"Uncletopia | Warsaw | 1 | All Maps","protocol":17,"map":"pl_swiftwater_final1","folder":"tf","game":"Team Fortress","app_id":440,"player_count":0,"max_players":24,"Bots":0,"server_type":"Dedicated","server_os":"Linux","password":true,"vac":true,"version":"7961495","steam_id":85568392925397850,"keywords":["nocrits","nodmgspread","payload","uncletopia"],"game_id":440,"stv_port":27016,"stv_name":"Uncletopia | Warsaw | 1 | All Maps | STV","players":null},{"server_id":50,"name":"Uncletopia | Warsaw | 2 | All Maps","name_short":"waw-2","host":"waw-1.pl.uncletopia.com","port":27025,"enabled":true,"region":"eu","cc":"pl","latitude":52.2297,"longitude":21.017532,"reserved":0,"last_update":"0001-01-01T00:00:00Z","name_a2s":"Uncletopia | Warsaw | 2 | All Maps","protocol":17,"map":"koth_cascade","folder":"tf","game":"Team Fortress","app_id":440,"player_count":0,"max_players":24,"Bots":0,"server_type":"Dedicated","server_os":"Linux","password":true,"vac":true,"version":"7961495","steam_id":85568392925397851,"keywords":["cp","nocrits","nodmgspread","uncletopia"],"game_id":440,"stv_port":27026,"stv_name":"Uncletopia | Warsaw | 2 | All Maps | STV","players":null},{"server_id":51,"name":"Uncletopia | Warsaw | 3 | All Maps","name_short":"waw-3","host":"waw-1.pl.uncletopia.com","port":27035,"enabled":true,"region":"eu","cc":"pl","latitude":52.2297,"longitude":21.017532,"reserved":0,"last_update":"0001-01-01T00:00:00Z","name_a2s":"Uncletopia | Warsaw | 3 | All Maps","protocol":17,"map":"koth_cascade","folder":"tf","game":"Team Fortress","app_id":440,"player_count":19,"max_players":24,"Bots":0,"server_type":"Dedicated","server_os":"Linux","password":true,"vac":true,"version":"7961495","steam_id":85568392925397852,"keywords":["cp","nocrits","nodmgspread","uncletopia"],"game_id":440,"stv_port":27036,"stv_name":"Uncletopia | Warsaw | 3 | All Maps | STV","players":[{"user_id":350,"name":"thetenthcrusade","steam_id":76561198376996765,"connected_time":1501000000000,"state":"active","ping":160},{"user_id":378,"name":"Yogii","steam_id":76561198042215138,"connected_time":192000000000,"state":"active","ping":90},{"user_id":244,"name":"meatsoupcube","steam_id":76561198276802249,"connected_time":8345000000000,"state":"active","ping":116},{"user_id":349,"name":"Beanos","steam_id":76561199005765138,"connected_time":1524000000000,"state":"active","ping":176},{"user_id":374,"name":"froglids","steam_id":76561198045466919,"connected_time":603000000000,"state":"active","ping":37},{"user_id":339,"name":"Spetse","steam_id":76561197990649972,"connected_time":2140000000000,"state":"active","ping":99},{"user_id":358,"name":"shelter.","steam_id":76561198025447065,"connected_time":1253000000000,"state":"active","ping":79},{"user_id":376,"name":"Marci[HUN]","steam_id":76561198161389670,"connected_time":367000000000,"state":"active","ping":103},{"user_id":346,"name":"Virgil","steam_id":76561198248786778,"connected_time":1843000000000,"state":"active","ping":130},{"user_id":375,"name":"Smelly_feet","steam_id":76561198320411611,"connected_time":518000000000,"state":"active","ping":201},{"user_id":353,"name":"Cummies for daddy","steam_id":76561198994110070,"connected_time":1451000000000,"state":"active","ping":88},{"user_id":356,"name":"MUWEQ","steam_id":76561198107615727,"connected_time":1413000000000,"state":"active","ping":53},{"user_id":360,"name":"Cheese","steam_id":76561198146419076,"connected_time":1233000000000,"state":"active","ping":38},{"user_id":362,"name":"Henry Hoover","steam_id":76561198010692622,"connected_time":1214000000000,"state":"active","ping":84},{"user_id":363,"name":"StupidFace ·µî·¥•·µî","steam_id":76561198126984671,"connected_time":1192000000000,"state":"active","ping":113},{"user_id":364,"name":"OceanMan","steam_id":76561198391833371,"connected_time":1185000000000,"state":"active","ping":71},{"user_id":365,"name":"erikfeige237","steam_id":76561199243008929,"connected_time":1183000000000,"state":"active","ping":101},{"user_id":258,"name":"niandits","steam_id":76561198419798900,"connected_time":8017000000000,"state":"active","ping":140},{"user_id":366,"name":"ghenios","steam_id":76561198030011207,"connected_time":1182000000000,"state":"active","ping":100}]},{"server_id":52,"name":"Uncletopia | Warsaw | 4 | All Maps","name_short":"waw-4","host":"waw-1.pl.uncletopia.com","port":27045,"enabled":true,"region":"eu","cc":"pl","latitude":52.2297,"longitude":21.017532,"reserved":0,"last_update":"0001-01-01T00:00:00Z","name_a2s":"Uncletopia | Warsaw | 4 | All Maps","protocol":17,"map":"koth_lakeside_final","folder":"tf","game":"Team Fortress","app_id":440,"player_count":0,"max_players":24,"Bots":0,"server_type":"Dedicated","server_os":"Linux","password":true,"vac":true,"version":"7961495","steam_id":85568392925397853,"keywords":["cp","nocrits","nodmgspread","uncletopia"],"game_id":440,"stv_port":27046,"stv_name":"Uncletopia | Warsaw | 4 | All Maps | STV","players":null},{"server_id":53,"name":"Uncletopia | Warsaw | 5 | Stopwatch","name_short":"waw-5","host":"waw-1.pl.uncletopia.com","port":27055,"enabled":true,"region":"eu","cc":"pl","latitude":52.2297,"longitude":21.017532,"reserved":0,"last_update":"0001-01-01T00:00:00Z","name_a2s":"Uncletopia | Warsaw | 5 | Stopwatch","protocol":17,"map":"workshop/pl_vigil_rc10.ugc1266210012","folder":"tf","game":"Team Fortress","app_id":440,"player_count":0,"max_players":24,"Bots":0,"server_type":"Dedicated","server_os":"Linux","password":true,"vac":true,"version":"7961495","steam_id":85568392925397854,"keywords":["nocrits","nodmgspread","payload","uncletopia"],"game_id":440,"stv_port":27056,"stv_name":"Uncletopia | Warsaw | 5 | Stopwatch | STV","players":null},{"server_id":54,"name":"Uncletopia | Warsaw | 6 | Community","name_short":"waw-6","host":"waw-1.pl.uncletopia.com","port":27065,"enabled":true,"region":"eu","cc":"pl","latitude":52.2297,"longitude":21.017532,"reserved":0,"last_update":"0001-01-01T00:00:00Z","name_a2s":"Uncletopia | Warsaw | 6 | Community","protocol":17,"map":"workshop/cp_mannbase_rc2a.ugc1900737467","folder":"tf","game":"Team Fortress","app_id":440,"player_count":0,"max_players":24,"Bots":0,"server_type":"Dedicated","server_os":"Linux","password":true,"vac":true,"version":"7961495","steam_id":85568392925397856,"keywords":["cp","nocrits","nodmgspread","uncletopia"],"game_id":440,"stv_port":27066,"stv_name":"Uncletopia | Warsaw | 6 | Community | STV","players":null}]}