{"status":true,"message":"","result":[{"server_id":9,"name":"Uncletopia | Atlanta | 1 | All Maps","name_short":"atl-1","host":"atl-1.us.uncletopia.com","port":27015,"enabled":true,"region":"us-east","cc":"us","latitude":33.753746,"longitude":-84.38633,"reserved":0,"last_update":"0001-01-01T00:00:00Z","name_a2s":"Uncletopia | Atlanta | 1 | All Maps","protocol":17,"map":"pl_upward","folder":"tf","game":"Team Fortress","app_id":440,"player_count":24,"max_players":24,"Bots":0,"server_type":"Dedicated","server_os":"Linux","password":true,"vac":true,"version":"7961495","steam_id":85568392924469982,"keywords":["nocrits","nodmgspread","payload","uncletopia"],"game_id":440,"stv_port":27016,"stv_name":"Uncletopia | Atlanta | 1 | All Maps | STV","players":[{"user_id":195,"name":"Dallas","steam_id":76561198066542919,"connected_time":1481000000000,"state":"active","ping":119},{"user_id":198,"name":"ECCO","steam_id":76561198002821513,"connected_time":1421000000000,"state":"active","ping":84},{"user_id":184,"name":"shane938","steam_id":76561198117541261,"connected_time":2608000000000,"state":"active","ping":46},{"user_id":194,"name":"Button","steam_id":76561199209694624,"connected_time":1546000000000,"state":"active","ping":34},{"user_id":203,"name":"imng","steam_id":76561198014988031,"connected_time":102000000000,"state":"active","ping":45},{"user_id":199,"name":"Oldwest1234","steam_id":76561198079594993,"connected_time":1396000000000,"state":"active","ping":74},{"user_id":193,"name":"uthgarthegiant","steam_id":76561198348616230,"connected_time":1635000000000,"state":"active","ping":45},{"user_id":205,"name":"KittySlayer","steam_id":76561199230811439,"connected_time":43000000000,"state":"active","ping":95},{"user_id":138,"name":"Punchy","steam_id":76561198200000641,"connected_time":5069000000000,"state":"active","ping":60},{"user_id":168,"name":"zacmattsmith","steam_id":76561199027704149,"connected_time":3708000000000,"state":"active","ping":87},{"user_id":189,"name":"strategic dier","steam_id":76561197999257178,"connected_time":2171000000000,"state":"active","ping":74},{"user_id":200,"name":"Gregory","steam_id":76561198188140871,"connected_time":1359000000000,"state":"active","ping":61},{"user_id":201,"name":"BumpofNight","steam_id":76561198011581312,"connected_time":1292000000000,"state":"active","ping":60},{"user_id":206,"name":"jras","steam_id":76561198159797901,"connected_time":29000000000,"state":"spawning","ping":63},{"user_id":144,"name":"Killbasa","steam_id":76561198064868400,"connected_time":4386000000000,"state":"active","ping":65},{"user_id":180,"name":"guy","steam_id":76561198079925551,"connected_time":2637000000000,"state":"active","ping":75},{"user_id":183,"name":"Dr.Inkmix(femboy)","steam_id":76561198854070384,"connected_time":2634000000000,"state":"active","ping":101},{"user_id":145,"name":"Ashes!","steam_id":76561197998475441,"connected_time":4245000000000,"state":"active","ping":67},{"user_id":182,"name":"The_Stomach_Stone_Surgeon","steam_id":76561198044643725,"connected_time":2635000000000,"state":"active","ping":36},{"user_id":173,"name":"Twisty Fresh Pretzel","steam_id":76561198137027826,"connected_time":3414000000000,"state":"active","ping":45},{"user_id":167,"name":"10 hours looking at the ceiling","steam_id":76561198249206656,"connected_time":3765000000000,"state":"active","ping":75},{"user_id":52,"name":"Aku+","steam_id":76561198813782795,"connected_time":13557000000000,"state":"active","ping":164},{"user_id":208,"name":"ChocoMcFudgeCake","steam_id":76561197994591295,"connected_time":27000000000,"state":"active","ping":113},{"user_id":209,"name":"AMistake","steam_id":76561199379196708,"connected_time":22000000000,"state":"spawning","ping":34}]},{"server_id":104,"name":"Uncletopia | Atlanta | 2 | All Maps","name_short":"atl-2","host":"atl-1.us.uncletopia.com","port":27025,"enabled":true,"region":"us-east","cc":"us","latitude":33.753746,"longitude":-84.38633,"reserved":0,"last_update":"0001-01-01T00:00:00Z","name_a2s":"Uncletopia | Atlanta | 2 | All Maps","protocol":17,"map":"pl_badwater","folder":"tf","game":"Team Fortress","app_id":440,"player_count":23,"max_players":24,"Bots":0,"server_type":"Dedicated","server_os":"Linux","password":true,"vac":true,"version":"7961495","steam_id":85568392924469983,"keywords":["nocrits","nodmgspread","payload","uncletopia"],"game_id":440,"stv_port":27026,"stv_name":"Uncletopia | Atlanta | 2 | All Maps | STV","players":[{"user_id":7,"name":"Resident Goober","steam_id":76561199205471969,"connected_time":3955000000000,"state":"active","ping":69},{"user_id":6,"name":"AidenNimitz","steam_id":76561198117377908,"connected_time":4018000000000,"state":"active","ping":47},{"user_id":22,"name":"smile4","steam_id":76561199506818749,"connected_time":2579000000000,"state":"active","ping":79},{"user_id":14,"name":"ALonelyGhostE","steam_id":76561198184787290,"connected_time":3183000000000,"state":"active","ping":76},{"user_id":65,"name":"Sicko Mode (Chris Pratt Cover)","steam_id":76561198315786174,"connected_time":145000000000,"state":"active","ping":95},{"user_id":47,"name":"VelocityCubeR","steam_id":76561198044351011,"connected_time":1101000000000,"state":"active","ping":68},{"user_id":69,"name":"RPGnoob","steam_id":76561198384913758,"connected_time":1000000000,"state":"spawning","ping":40},{"user_id":62,"name":"Yam Jazzy Jim","steam_id":76561198000788950,"connected_time":642000000000,"state":"active","ping":87},{"user_id":35,"name":"GingerToePics","steam_id":76561199418178639,"connected_time":1798000000000,"state":"active","ping":51},{"user_id":68,"name":"kermitcreeper(ZAZA)","steam_id":76561199222829972,"connected_time":32000000000,"state":"active","ping":74},{"user_id":37,"name":"Electroid","steam_id":76561199092263960,"connected_time":1556000000000,"state":"active","ping":46},{"user_id":63,"name":"Try Gardening","steam_id":76561198120311340,"connected_time":271000000000,"state":"active","ping":63},{"user_id":43,"name":"Drygongames","steam_id":76561198250418424,"connected_time":1374000000000,"state":"active","ping":86},{"user_id":54,"name":"basilberry","steam_id":76561198145275937,"connected_time":958000000000,"state":"active","ping":87},{"user_id":66,"name":"Bim","steam_id":76561198155979811,"connected_time":144000000000,"state":"active","ping":58},{"user_id":46,"name":"Yummy Kabobz","steam_id":76561198067661705,"connected_time":1223000000000,"state":"active","ping":59},{"user_id":48,"name":"Lolxdloldx","steam_id":76561198136887125,"connected_time":1081000000000,"state":"active","ping":88},{"user_id":49,"name":"gib milk pls :3","steam_id":76561199063577181,"connected_time":1059000000000,"state":"active","ping":105},{"user_id":52,"name":"MrRedRandom","steam_id":76561199476645213,"connected_time":983000000000,"state":"active","ping":70},{"user_id":67,"name":"Boxxed","steam_id":76561198255787237,"connected_time":104000000000,"state":"active","ping":75},{"user_id":57,"name":"Anomet","steam_id":76561198060246255,"connected_time":947000000000,"state":"active","ping":60},{"user_id":58,"name":"Serenue","steam_id":76561199040361250,"connected_time":943000000000,"state":"active","ping":91},{"user_id":61,"name":"Monkey Mode","steam_id":76561197961267543,"connected_time":670000000000,"state":"active","ping":65}]},{"server_id":400,"name":"Uncletopia | Atlanta | 3 | Stopwatch","name_short":"atl-3","host":"atl-1.us.uncletopia.com","port":27035,"enabled":true,"region":"us-east","cc":"us","latitude":33.753746,"longitude":-84.38633,"reserved":0,"last_update":"0001-01-01T00:00:00Z","name_a2s":"Uncletopia | Atlanta | 3 | Stopwatch","protocol":17,"map":"workshop/koth_clearcut_b15.ugc2107050255","folder":"tf","game":"Team Fortress","app_id":440,"player_count":0,"max_players":24,"Bots":0,"server_type":"Dedicated","server_os":"Linux","password":true,"vac":true,"version":"7961495","steam_id":85568392924515187,"keywords":["cp","nocrits","nodmgspread","uncletopia"],"game_id":440,"stv_port":27036,"stv_name":"Uncletopia | Atlanta | 3 | Stopwatch | STV","players":null},{"server_id":401,"name":"Uncletopia | Atlanta | 4 | Community","name_short":"atl-4","host":"atl-1.us.uncletopia.com","port":27045,"enabled":true,"region":"us-east","cc":"us","latitude":33.753746,"longitude":-84.38633,"reserved":0,"last_update":"0001-01-01T00:00:00Z","name_a2s":"Uncletopia | Atlanta | 4 | Community","protocol":17,"map":"workshop/koth_slaughter_rc1.ugc1712845210","folder":"tf","game":"Team Fortress","app_id":440,"player_count":0,"max_players":24,"Bots":0,"server_type":"Dedicated","server_os":"Linux","password":true,"vac":true,"version":"7961495","steam_id":85568392924515188,"keywords":["cp","nocrits","nodmgspread","uncletopia"],"game_id":440,"stv_port":27046,"stv_name":"Uncletopia | Atlanta | 4 | Community | STV","players":null},{"server_id":2,"name":"Uncletopia | Chicago | 1 | All Maps","name_short":"chi-1","host":"chi-1.us.uncletopia.com","port":27015,"enabled":true,"region":"us-central","cc":"us","latitude":41.881832,"longitude":-87.62318,"reserved":0,"last_update":"0001-01-01T00:00:00Z","name_a2s":"Uncletopia | Chicago | 1 | All Maps","protocol":17,"map":"cp_sunshine","folder":"tf","game":"Team Fortress","app_id":440,"player_count":24,"max_players":24,"Bots":0,"server_type":"Dedicated","server_os":"Linux","password":true,"vac":true,"version":"7961495","steam_id":85568392924469984,"keywords":["cp","nocrits","nodmgspread","uncletopia"],"game_id":440,"stv_port":27016,"stv_name":"Uncletopia | Chicago | 1 | All Maps | STV","players":[{"user_id":367,"name":"Soda","steam_id":76561198219209367,"connected_time":3918000000000,"state":"active","ping":63},{"user_id":383,"name":"money getting 1 percenter","steam_id":76561198012796388,"connected_time":2384000000000,"state":"active","ping":49},{"user_id":404,"name":"Cy4nideCutie\u003c3","steam_id":76561198126686695,"connected_time":1590000000000,"state":"active","ping":63},{"user_id":395,"name":"mootier","steam_id":76561198030365192,"connected_time":1976000000000,"state":"active","ping":63},{"user_id":410,"name":"megaboi796","steam_id":76561198122995438,"connected_time":779000000000,"state":"active","ping":70},{"user_id":390,"name":"spire lft noobcomer","steam_id":76561198367664346,"connected_time":1998000000000,"state":"active","ping":54},{"user_id":417,"name":"Mr Bootylicious","steam_id":76561199075353403,"connected_time":646000000000,"state":"active","ping":59},{"user_id":418,"name":"OrangeShoes","steam_id":76561197971249940,"connected_time":644000000000,"state":"active","ping":63},{"user_id":424,"name":"costum","steam_id":76561198197086561,"connected_time":397000000000,"state":"active","ping":51},{"user_id":411,"name":"TheKyleB","steam_id":76561198202515104,"connected_time":776000000000,"state":"active","ping":44},{"user_id":427,"name":"floppy muppet","steam_id":76561198003076261,"connected_time":63000000000,"state":"active","ping":69},{"user_id":382,"name":"troll","steam_id":76561198082680563,"connected_time":2639000000000,"state":"active","ping":58},{"user_id":397,"name":"TƎC","steam_id":76561198237180318,"connected_time":1938000000000,"state":"active","ping":65},{"user_id":406,"name":"jb","steam_id":76561198038607085,"connected_time":1333000000000,"state":"active","ping":63},{"user_id":413,"name":"Mr. Noodle","steam_id":76561198037803087,"connected_time":728000000000,"state":"active","ping":71},{"user_id":425,"name":"women fish me","steam_id":76561198153245906,"connected_time":196000000000,"state":"active","ping":66},{"user_id":415,"name":"Snom","steam_id":76561198333827920,"connected_time":709000000000,"state":"active","ping":87},{"user_id":421,"name":"MTGbigdog","steam_id":76561198838760637,"connected_time":596000000000,"state":"active","ping":73},{"user_id":365,"name":"Ball Juggler","steam_id":76561198031675881,"connected_time":3967000000000,"state":"active","ping":42},{"user_id":416,"name":"leumas","steam_id":76561198240408540,"connected_time":698000000000,"state":"active","ping":54},{"user_id":407,"name":"THORNFIELDGAMER","steam_id":76561199087167473,"connected_time":810000000000,"state":"active","ping":76},{"user_id":423,"name":"Siz","steam_id":76561198072962154,"connected_time":433000000000,"state":"active","ping":61},{"user_id":426,"name":"Kalioc","steam_id":76561198042557843,"connected_time":171000000000,"state":"active","ping":87},{"user_id":391,"name":"elpful","steam_id":76561198189659530,"connected_time":1997000000000,"state":"active","ping":77}]},{"server_id":106,"name":"Uncletopia | Chicago | 2 | All Maps","name_short":"chi-2","host":"chi-1.us.uncletopia.com","port":27025,"enabled":true,"region":"us-central","cc":"us","latitude":41.881832,"longitude":-87.62318,"reserved":0,"last_update":"0001-01-01T00:00:00Z","name_a2s":"Uncletopia | Chicago | 2 | All Maps","protocol":17,"map":"cp_dustbowl","folder":"tf","game":"Team Fortress","app_id":440,"player_count":0,"max_players":24,"Bots":0,"server_type":"Dedicated","server_os":"Linux","password":true,"vac":true,"version":"7961495","steam_id":85568392924469985,"keywords":["cp","nocrits","nodmgspread","uncletopia"],"game_id":440,"stv_port":27026,"stv_name":"Uncletopia | Chicago | 2 | All Maps | STV","players":null},{"server_id":402,"name":"Uncletopia | Chicago | 3 | All Maps","name_short":"chi-3","host":"chi-1.us.uncletopia.com","port":27035,"enabled":true,"region":"us-central","cc":"us","latitude":41.881832,"longitude":-87.62318,"reserved":0,"last_update":"0001-01-01T00:00:00Z","name_a2s":"Uncletopia | Chicago | 3 | All Maps","protocol":17,"map":"plr_pipeline","folder":"tf","game":"Team Fortress","app_id":440,"player_count":0,"max_players":24,"Bots":0,"server_type":"Dedicated","server_os":"Linux","password":true,"vac":true,"version":"7961495","steam_id":85568392924515191,"keywords":["nocrits","nodmgspread","payload","uncletopia"],"game_id":440,"stv_port":27036,"stv_name":"Uncletopia | Chicago | 3 | All Maps | STV","players":null},{"server_id":403,"name":"Uncletopia | Chicago | 4 | All Maps","name_short":"chi-4","host":"chi-1.us.uncletopia.com","port":27045,"enabled":true,"region":"us-central","cc":"us","latitude":41.881832,"longitude":-87.62318,"reserved":0,"last_update":"0001-01-01T00:00:00Z","name_a2s":"Uncletopia | Chicago | 4 | All Maps","protocol":17,"map":"pl_rumford_event","folder":"tf","game":"Team Fortress","app_id":440,"player_count":0,"max_players":24,"Bots":0,"server_type":"Dedicated","server_os":"Linux","password":true,"vac":true,"version":"7961495","steam_id":85568392924515193,"keywords":["nocrits","nodmgspread","payload","uncletopia"],"game_id":440,"stv_port":27046,"stv_name":"Uncletopia | Chicago | 4 | All Maps | STV","players":null},{"server_id":36,"name":"Uncletopia | Chicago | 5 | All Maps","name_short":"chi-5","host":"chi-2.us.uncletopia.com","port":27015,"enabled":true,"region":"us-central","cc":"us","latitude":41.881832,"longitude":-87.62318,"reserved":0,"last_update":"0001-01-01T00:00:00Z","name_a2s":"Uncletopia | Chicago | 5 | All Maps","protocol":17,"map":"cp_sunshine","folder":"tf","game":"Team Fortress","app_id":440,"player_count":1,"max_players":24,"Bots":0,"server_type":"Dedicated","server_os":"Linux","password":true,"vac":true,"version":"7961495","steam_id":85568392924866362,"keywords":["cp","nocrits","nodmgspread","uncletopia"],"game_id":440,"stv_port":27016,"stv_name":"Uncletopia | Chicago | 5 | All Maps | STV","players":[{"user_id":17,"name":"Hulk Hogan Gaming","steam_id":76561199013166433,"connected_time":20000000000,"state":"spawning","ping":48}]},{"server_id":37,"name":"Uncletopia | Chicago | 6 | All Maps","name_short":"chi-6","host":"chi-2.us.uncletopia.com","port":27025,"enabled":true,"region":"us-central","cc":"us","latitude":41.881832,"longitude":-87.62318,"reserved":0,"last_update":"0001-01-01T00:00:00Z","name_a2s":"Uncletopia | Chicago | 6 | All Maps","protocol":17,"map":"pl_upward","folder":"tf","game":"Team Fortress","app_id":440,"player_count":24,"max_players":24,"Bots":0,"server_type":"Dedicated","server_os":"Linux","password":true,"vac":true,"version":"7961495","steam_id":85568392924866363,"keywords":["nocrits","nodmgspread","payload","uncletopia"],"game_id":440,"stv_port":27026,"stv_name":"Uncletopia | Chicago | 6 | All Maps | STV","players":[{"user_id":313,"name":"Piss God","steam_id":76561198090504334,"connected_time":459000000000,"state":"active","ping":61},{"user_id":305,"name":"Phoenix","steam_id":76561198068722818,"connected_time":980000000000,"state":"active","ping":59},{"user_id":311,"name":"ZombieSlayer77","steam_id":76561199023974356,"connected_time":523000000000,"state":"active","ping":75},{"user_id":271,"name":"SpongedSocks","steam_id":76561198374009086,"connected_time":3440000000000,"state":"active","ping":60},{"user_id":276,"name":"Orb","steam_id":76561198353963523,"connected_time":2970000000000,"state":"active","ping":92},{"user_id":301,"name":"Hovg9000","steam_id":76561199191556710,"connected_time":1150000000000,"state":"active","ping":71},{"user_id":253,"name":"Fresnel","steam_id":76561198266960876,"connected_time":4749000000000,"state":"active","ping":44},{"user_id":307,"name":"Java_Siege_","steam_id":76561199090000728,"connected_time":902000000000,"state":"active","ping":77},{"user_id":314,"name":"donnie | iysmitl.xyz","steam_id":76561198148956323,"connected_time":389000000000,"state":"active","ping":64},{"user_id":309,"name":"I'mWalkerHere","steam_id":76561199310055450,"connected_time":726000000000,"state":"active","ping":77},{"user_id":291,"name":"Mentally Ill Woman","steam_id":76561198072030567,"connected_time":1874000000000,"state":"active","ping":49},{"user_id":293,"name":"absurdly high number of gecs","steam_id":76561198022806102,"connected_time":1840000000000,"state":"active","ping":41},{"user_id":315,"name":"Tom","steam_id":76561198070630154,"connected_time":364000000000,"state":"active","ping":78},{"user_id":283,"name":"Charlie","steam_id":76561199098209171,"connected_time":2688000000000,"state":"active","ping":75},{"user_id":303,"name":"Scuba Steve","steam_id":76561198313018251,"connected_time":1074000000000,"state":"active","ping":75},{"user_id":266,"name":"magnos62564","steam_id":76561198356968225,"connected_time":3854000000000,"state":"active","ping":163},{"user_id":308,"name":"Ninjoth","steam_id":76561198038611753,"connected_time":901000000000,"state":"active","ping":70},{"user_id":228,"name":"SecurityCamera","steam_id":76561198117266792,"connected_time":7060000000000,"state":"active","ping":90},{"user_id":316,"name":"mynamajeff","steam_id":76561198202151516,"connected_time":327000000000,"state":"active","ping":54},{"user_id":289,"name":"Steeper","steam_id":76561198122650609,"connected_time":2229000000000,"state":"active","ping":83},{"user_id":230,"name":"xoms","steam_id":76561199068623664,"connected_time":7012000000000,"state":"active","ping":98},{"user_id":231,"name":"Kerpal45","steam_id":76561198153340350,"connected_time":7001000000000,"state":"active","ping":79},{"user_id":317,"name":"Mr. Sauce","steam_id":76561198055512324,"connected_time":318000000000,"state":"active","ping":74},{"user_id":297,"name":"Defender hunter","steam_id":76561198041458028,"connected_time":1599000000000,"state":"active","ping":177}]},{"server_id":38,"name":"Uncletopia | Chicago | 7 | Stopwatch","name_short":"chi-7","host":"chi-2.us.uncletopia.com","port":27035,"enabled":true,"region":"us-central","cc":"us","latitude":41.881832,"longitude":-87.62318,"reserved":0,"last_update":"0001-01-01T00:00:00Z","name_a2s":"Uncletopia | Chicago | 7 | Stopwatch","protocol":17,"map":"cp_snakewater_final1","folder":"tf","game":"Team Fortress","app_id":440,"player_count":0,"max_players":24,"Bots":0,"server_type":"Dedicated","server_os":"Linux","password":true,"vac":true,"version":"7961495","steam_id":85568392924866364,"keywords":["cp","nocrits","nodmgspread","uncletopia"],"game_id":440,"stv_port":27036,"stv_name":"Uncletopia | Chicago | 7 | Stopwatch | STV","players":null},{"server_id":39,"name":"Uncletopia | Chicago | 8 | Community","name_short":"chi-8","host":"chi-2.us.uncletopia.com","port":27045,"enabled":true,"region":"us-central","cc":"us","latitude":41.881832,"longitude":-87.62318,"reserved":0,"last_update":"0001-01-01T00:00:00Z","name_a2s":"Uncletopia | Chicago | 8 | Community","protocol":17,"map":"workshop/koth_slaughter_rc1.ugc1712845210","folder":"tf","game":"Team Fortress","app_id":440,"player_count":0,"max_players":24,"Bots":0,"server_type":"Dedicated","server_os":"Linux","password":true,"vac":true,"version":"7961495","steam_id":85568392924866365,"keywords":["cp","nocrits","nodmgspread","uncletopia"],"game_id":440,"stv_port":27046,"stv_name":"Uncletopia | Chicago | 8 | Community | STV","players":null},{"server_id":8,"name":"Uncletopia | Dallas | 1 | All Maps","name_short":"dal-1","host":"dal-1.us.uncletopia.com","port":27015,"enabled":true,"region":"us-central","cc":"us","latitude":32.779167,"longitude":-96.80889,"reserved":0,"last_update":"0001-01-01T00:00:00Z","name_a2s":"Uncletopia | Dallas | 1 | All Maps","protocol":17,"map":"pl_pier","folder":"tf","game":"Team Fortress","app_id":440,"player_count":24,"max_players":24,"Bots":0,"server_type":"Dedicated","server_os":"Linux","password":true,"vac":true,"version":"7961495","steam_id":85568392924469986,"keywords":["nocrits","nodmgspread","payload","uncletopia"],"game_id":440,"stv_port":27016,"stv_name":"Uncletopia | Dallas | 1 | All Maps | STV","players":[{"user_id":254,"name":"37 septillion tapeworms","steam_id":76561198186128723,"connected_time":1544000000000,"state":"active","ping":52},{"user_id":216,"name":"Pancho","steam_id":76561198155847264,"connected_time":4780000000000,"state":"active","ping":53},{"user_id":261,"name":"Goldensliv","steam_id":76561198161673891,"connected_time":846000000000,"state":"active","ping":68},{"user_id":252,"name":"Catscr","steam_id":76561198076589280,"connected_time":1691000000000,"state":"active","ping":74},{"user_id":255,"name":"get scrongled, idiot","steam_id":76561198115874625,"connected_time":1472000000000,"state":"active","ping":96},{"user_id":268,"name":"TheSmolPopato","steam_id":76561199076606348,"connected_time":217000000000,"state":"active","ping":73},{"user_id":271,"name":"Stoopnagle","steam_id":76561198011942560,"connected_time":4000000000,"state":"spawning","ping":97},{"user_id":265,"name":"Frog","steam_id":76561199165825711,"connected_time":315000000000,"state":"active","ping":101},{"user_id":245,"name":"The Black Ghost of Chip Skylark","steam_id":76561199486430601,"connected_time":2159000000000,"state":"active","ping":66},{"user_id":266,"name":"Hermit_","steam_id":76561198013807290,"connected_time":254000000000,"state":"active","ping":45},{"user_id":270,"name":"Brandino!","steam_id":76561198000446932,"connected_time":158000000000,"state":"active","ping":92},{"user_id":264,"name":"Crλf227","steam_id":76561198196211121,"connected_time":411000000000,"state":"active","ping":62},{"user_id":269,"name":"darrell","steam_id":76561199108915133,"connected_time":196000000000,"state":"active","ping":65},{"user_id":165,"name":"mrpineapple070","steam_id":76561199088278757,"connected_time":8286000000000,"state":"active","ping":63},{"user_id":272,"name":"T. Bombadil","steam_id":76561198364152168,"connected_time":3000000000,"state":"spawning","ping":130},{"user_id":218,"name":"Anonymoose","steam_id":76561198862312405,"connected_time":4567000000000,"state":"active","ping":62},{"user_id":246,"name":"HeroOfTime","steam_id":76561199096218001,"connected_time":2154000000000,"state":"active","ping":85},{"user_id":228,"name":"Glühbirne","steam_id":76561198189278869,"connected_time":3784000000000,"state":"active","ping":65},{"user_id":262,"name":"Sprit ♥","steam_id":76561198268780781,"connected_time":703000000000,"state":"active","ping":65},{"user_id":248,"name":"gretchling","steam_id":76561198046111695,"connected_time":2053000000000,"state":"active","ping":48},{"user_id":258,"name":"Trashgaming","steam_id":76561199184268442,"connected_time":1229000000000,"state":"active","ping":92},{"user_id":267,"name":"Shattered Glass","steam_id":76561198116835391,"connected_time":235000000000,"state":"active","ping":86},{"user_id":221,"name":"motherfucker 2.0","steam_id":76561198141189209,"connected_time":4531000000000,"state":"active","ping":49},{"user_id":239,"name":"DlTTO","steam_id":76561199427026752,"connected_time":2410000000000,"state":"active","ping":94}]},{"server_id":108,"name":"Uncletopia | Dallas | 2 | All Maps","name_short":"dal-2","host":"dal-1.us.uncletopia.com","port":27025,"enabled":true,"region":"us-central","cc":"us","latitude":32.779167,"longitude":-96.80889,"reserved":0,"last_update":"0001-01-01T00:00:00Z","name_a2s":"Uncletopia | Dallas | 2 | All Maps","protocol":17,"map":"pl_borneo","folder":"tf","game":"Team Fortress","app_id":440,"player_count":2,"max_players":24,"Bots":0,"server_type":"Dedicated","server_os":"Linux","password":true,"vac":true,"version":"7961495","steam_id":85568392924469988,"keywords":["nocrits","nodmgspread","payload","uncletopia"],"game_id":440,"stv_port":27026,"stv_name":"Uncletopia | Dallas | 2 | All Maps | STV","players":[{"user_id":11,"name":"Colonel Knacker","steam_id":76561198151578423,"connected_time":50000000000,"state":"active","ping":38},{"user_id":10,"name":"Shisho","steam_id":76561198800199201,"connected_time":85000000000,"state":"active","ping":42}]},{"server_id":404,"name":"Uncletopia | Dallas | 3 | All Maps","name_short":"dal-3","host":"dal-1.us.uncletopia.com","port":27035,"enabled":true,"region":"us-central","cc":"us","latitude":32.779167,"longitude":-96.80889,"reserved":0,"last_update":"0001-01-01T00:00:00Z","name_a2s":"Uncletopia | Dallas | 3 | All Maps","protocol":17,"map":"cp_coldfront","folder":"tf","game":"Team Fortress","app_id":440,"player_count":0,"max_players":24,"Bots":0,"server_type":"Dedicated","server_os":"Linux","password":true,"vac":true,"version":"7961495","steam_id":85568392924515219,"keywords":["cp","nocrits","nodmgspread","uncletopia"],"game_id":440,"stv_port":27036,"stv_name":"Uncletopia | Dallas | 3 | All Maps | STV","players":null},{"server_id":405,"name":"Uncletopia | Dallas | 4 | Community","name_short":"dal-4","host":"dal-1.us.uncletopia.com","port":27045,"enabled":true,"region":"us-central","cc":"us","latitude":32.779167,"longitude":-96.80889,"reserved":0,"last_update":"0001-01-01T00:00:00Z","name_a2s":"Uncletopia | Dallas | 4 | Community","protocol":17,"map":"workshop/pl_fifthcurve_rc1.ugc648227046","folder":"tf","game":"Team Fortress","app_id":440,"player_count":0,"max_players":24,"Bots":0,"server_type":"Dedicated","server_os":"Linux","password":true,"vac":true,"version":"7961495","steam_id":85568392924515220,"keywords":["nocrits","nodmgspread","payload","uncletopia"],"game_id":440,"stv_port":27046,"stv_name":"Uncletopia | Dallas | 4 | Community | STV","players":null},{"server_id":5,"name":"Uncletopia | Frankfurt | 1 | All Maps","name_short":"frk-1","host":"frk-1.de.uncletopia.com","port":27015,"enabled":true,"region":"eu","cc":"de","latitude":50.110924,"longitude":8.682127,"reserved":0,"last_update":"0001-01-01T00:00:00Z","name_a2s":"Uncletopia | Frankfurt | 1 | All Maps","protocol":17,"map":"pl_upward","folder":"tf","game":"Team Fortress","app_id":440,"player_count":23,"max_players":24,"Bots":0,"server_type":"Dedicated","server_os":"Linux","password":true,"vac":true,"version":"7961495","steam_id":85568392924469989,"keywords":["nocrits","nodmgspread","payload","uncletopia"],"game_id":440,"stv_port":27016,"stv_name":"Uncletopia | Frankfurt | 1 | All Maps | STV","players":[{"user_id":426,"name":"Maxin","steam_id":76561197999923364,"connected_time":4261000000000,"state":"active","ping":65},{"user_id":463,"name":"b0g","steam_id":76561198051124946,"connected_time":989000000000,"state":"active","ping":62},{"user_id":458,"name":"Master coitus","steam_id":76561198050416948,"connected_time":1297000000000,"state":"active","ping":44},{"user_id":461,"name":"Mr.Shpee","steam_id":76561198158701474,"connected_time":1143000000000,"state":"active","ping":80},{"user_id":430,"name":"tekszi","steam_id":76561198107220903,"connected_time":4089000000000,"state":"active","ping":45},{"user_id":464,"name":"GüçlüAYraNsAĞ","steam_id":76561199184988396,"connected_time":983000000000,"state":"active","ping":87},{"user_id":382,"name":"MR BUBBLES","steam_id":76561198019005259,"connected_time":6642000000000,"state":"active","ping":88},{"user_id":473,"name":"Carl","steam_id":76561198045638738,"connected_time":127000000000,"state":"active","ping":61},{"user_id":475,"name":"CONAH","steam_id":76561198227685876,"connected_time":74000000000,"state":"active","ping":60},{"user_id":465,"name":"IJN Amagi","steam_id":76561198090874324,"connected_time":981000000000,"state":"active","ping":97},{"user_id":460,"name":"Vito","steam_id":76561198103978102,"connected_time":1231000000000,"state":"active","ping":70},{"user_id":432,"name":"ramko_","steam_id":76561198379753516,"connected_time":3854000000000,"state":"active","ping":84},{"user_id":471,"name":"Finnish Farmer","steam_id":76561198205366043,"connected_time":383000000000,"state":"active","ping":71},{"user_id":474,"name":"cheriberry","steam_id":76561198093577036,"connected_time":125000000000,"state":"active","ping":58},{"user_id":467,"name":"deez","steam_id":76561198831476915,"connected_time":934000000000,"state":"active","ping":60},{"user_id":445,"name":"The SPy","steam_id":76561198392505656,"connected_time":2893000000000,"state":"active","ping":55},{"user_id":427,"name":"РеДаНоВеЦ ^_^","steam_id":76561199032612973,"connected_time":4174000000000,"state":"active","ping":72},{"user_id":470,"name":"Lemon","steam_id":76561198188535947,"connected_time":501000000000,"state":"active","ping":71},{"user_id":433,"name":"Sulfurage","steam_id":76561198192391854,"connected_time":3838000000000,"state":"active","ping":57},{"user_id":454,"name":"manure merchant","steam_id":76561198010109316,"connected_time":1616000000000,"state":"active","ping":55},{"user_id":431,"name":"joshi ˄˅","steam_id":76561198124857271,"connected_time":4084000000000,"state":"active","ping":75},{"user_id":449,"name":"Mayor Wank from Wanker Town","steam_id":76561197998253588,"connected_time":2626000000000,"state":"active","ping":45},{"user_id":472,"name":"Max, Mighty Pirate™","steam_id":76561198077677744,"connected_time":244000000000,"state":"active","ping":36}]},{"server_id":110,"name":"Uncletopia | Frankfurt | 2 | All Maps","name_short":"frk-2","host":"frk-1.de.uncletopia.com","port":27025,"enabled":true,"region":"eu","cc":"de","latitude":50.110924,"longitude":8.682127,"reserved":0,"last_update":"0001-01-01T00:00:00Z","name_a2s":"Uncletopia | Frankfurt | 2 | All Maps","protocol":17,"map":"pl_badwater","folder":"tf","game":"Team Fortress","app_id":440,"player_count":24,"max_players":24,"Bots":0,"server_type":"Dedicated","server_os":"Linux","password":true,"vac":true,"version":"7961495","steam_id":85568392924469990,"keywords":["nocrits","nodmgspread","payload","uncletopia"],"game_id":440,"stv_port":27026,"stv_name":"Uncletopia | Frankfurt | 2 | All Maps | STV","players":[{"user_id":451,"name":"Caliban","steam_id":76561197999696839,"connected_time":758000000000,"state":"active","ping":99},{"user_id":401,"name":"Ash","steam_id":76561198272001890,"connected_time":4429000000000,"state":"active","ping":52},{"user_id":380,"name":"fifionet","steam_id":76561198026618085,"connected_time":5792000000000,"state":"active","ping":57},{"user_id":447,"name":"Blake","steam_id":76561198034050682,"connected_time":1049000000000,"state":"active","ping":66},{"user_id":441,"name":"Random Crit","steam_id":76561198066978791,"connected_time":1188000000000,"state":"active","ping":64},{"user_id":288,"name":"Glada Snickaren","steam_id":76561198019037458,"connected_time":11001000000000,"state":"active","ping":51},{"user_id":402,"name":"TrippyPerson","steam_id":76561198805044643,"connected_time":4410000000000,"state":"active","ping":70},{"user_id":421,"name":"Keke","steam_id":76561198161351567,"connected_time":3046000000000,"state":"active","ping":59},{"user_id":453,"name":"inV AsuX TF2Cases.com","steam_id":76561197990333289,"connected_time":524000000000,"state":"active","ping":60},{"user_id":422,"name":"Pahvi-Make","steam_id":76561198126135559,"connected_time":3035000000000,"state":"active","ping":100},{"user_id":381,"name":"maslowski02","steam_id":76561199410835527,"connected_time":5790000000000,"state":"active","ping":55},{"user_id":448,"name":"Siegmeyer","steam_id":76561198328543549,"connected_time":1035000000000,"state":"active","ping":86},{"user_id":426,"name":"Leviticus Cornwall","steam_id":76561197993702685,"connected_time":2848000000000,"state":"active","ping":83},{"user_id":416,"name":"asd_","steam_id":76561198060417920,"connected_time":3153000000000,"state":"active","ping":77},{"user_id":454,"name":"bAdmon","steam_id":76561197961785793,"connected_time":235000000000,"state":"active","ping":59},{"user_id":436,"name":"Accident","steam_id":76561198115160396,"connected_time":1765000000000,"state":"active","ping":70},{"user_id":442,"name":"Joo ♦","steam_id":76561197987609203,"connected_time":1185000000000,"state":"active","ping":74},{"user_id":406,"name":"J'zargo Engineering","steam_id":76561198088898260,"connected_time":4329000000000,"state":"active","ping":62},{"user_id":452,"name":"HeadM0nst3rr","steam_id":76561198099296029,"connected_time":723000000000,"state":"active","ping":167},{"user_id":455,"name":"Interview A","steam_id":76561199012566222,"connected_time":128000000000,"state":"active","ping":50},{"user_id":444,"name":"Will","steam_id":76561198173329977,"connected_time":1154000000000,"state":"active","ping":66},{"user_id":445,"name":"N00BCSF","steam_id":76561198035530934,"connected_time":1141000000000,"state":"active","ping":75},{"user_id":446,"name":"Uncle Ben","steam_id":76561198032568298,"connected_time":1064000000000,"state":"active","ping":74},{"user_id":409,"name":"DiracDeltaFunction","steam_id":76561199201624841,"connected_time":4289000000000,"state":"active","ping":66}]},{"server_id":308,"name":"Uncletopia | Frankfurt | 3 | All Maps","name_short":"frk-3","host":"frk-1.de.uncletopia.com","port":27035,"enabled":true,"region":"eu","cc":"de","latitude":50.110924,"longitude":8.682127,"reserved":0,"last_update":"0001-01-01T00:00:00Z","name_a2s":"Uncletopia | Frankfurt | 3 | All Maps","protocol":17,"map":"pl_upward","folder":"tf","game":"Team Fortress","app_id":440,"player_count":24,"max_players":24,"Bots":0,"server_type":"Dedicated","server_os":"Linux","password":true,"vac":true,"version":"7961495","steam_id":85568392924504274,"keywords":["nocrits","nodmgspread","payload","uncletopia"],"game_id":440,"stv_port":27036,"stv_name":"Uncletopia | Frankfurt | 3 | All Maps | STV","players":[{"user_id":195,"name":"Onion Drugs","steam_id":76561198441194331,"connected_time":236000000000,"state":"active","ping":103},{"user_id":179,"name":"_420_StopItDudeCmon","steam_id":76561197997146481,"connected_time":1122000000000,"state":"active","ping":51},{"user_id":197,"name":"LEGEND FUMO.","steam_id":76561198061033903,"connected_time":118000000000,"state":"active","ping":45},{"user_id":188,"name":"Ondřej ✌","steam_id":76561198115905637,"connected_time":334000000000,"state":"active","ping":50},{"user_id":151,"name":"Armand","steam_id":76561198236126774,"connected_time":3151000000000,"state":"active","ping":44},{"user_id":199,"name":"Autumn","steam_id":76561198288382452,"connected_time":34000000000,"state":"active","ping":77},{"user_id":164,"name":"Djingis Khan","steam_id":76561197967864460,"connected_time":2346000000000,"state":"active","ping":46},{"user_id":162,"name":"Purrplehaze","steam_id":76561198297604298,"connected_time":2389000000000,"state":"active","ping":60},{"user_id":165,"name":"Reiyo the Interloper","steam_id":76561198155092485,"connected_time":2332000000000,"state":"active","ping":49},{"user_id":196,"name":"^1","steam_id":76561198880042335,"connected_time":156000000000,"state":"active","ping":83},{"user_id":140,"name":"Arturias","steam_id":76561198188720263,"connected_time":4055000000000,"state":"active","ping":56},{"user_id":112,"name":"cacsm","steam_id":76561199175492954,"connected_time":6079000000000,"state":"active","ping":81},{"user_id":198,"name":"Saint","steam_id":76561198003296382,"connected_time":100000000000,"state":"active","ping":63},{"user_id":192,"name":"hananamanna","steam_id":76561198006570285,"connected_time":288000000000,"state":"active","ping":104},{"user_id":172,"name":"DooWooD","steam_id":76561198335810106,"connected_time":2103000000000,"state":"active","ping":91},{"user_id":182,"name":"☣ cat fock ☣","steam_id":76561198264641620,"connected_time":801000000000,"state":"active","ping":127},{"user_id":167,"name":"Duff","steam_id":76561198144573381,"connected_time":2309000000000,"state":"active","ping":60},{"user_id":168,"name":"DEFENDOR62","steam_id":76561199386703896,"connected_time":2297000000000,"state":"active","ping":54},{"user_id":152,"name":"After8","steam_id":76561198090750865,"connected_time":3132000000000,"state":"active","ping":61},{"user_id":183,"name":"Gator","steam_id":76561198065624683,"connected_time":494000000000,"state":"active","ping":76},{"user_id":193,"name":"Arsonist","steam_id":76561199087953833,"connected_time":276000000000,"state":"active","ping":93},{"user_id":194,"name":"scarypeep","steam_id":76561198027738546,"connected_time":274000000000,"state":"active","ping":56},{"user_id":185,"name":"Towercat","steam_id":76561198013141793,"connected_time":430000000000,"state":"active","ping":47},{"user_id":176,"name":"frostfry","steam_id":76561198102198123,"connected_time":1810000000000,"state":"active","ping":59}]},{"server_id":309,"name":"Uncletopia | Frankfurt | 4 | All Maps","name_short":"frk-4","host":"frk-1.de.uncletopia.com","port":27045,"enabled":true,"region":"eu","cc":"de","latitude":50.110924,"longitude":8.682127,"reserved":0,"last_update":"0001-01-01T00:00:00Z","name_a2s":"Uncletopia | Frankfurt | 4 | All Maps","protocol":17,"map":"pl_barnblitz","folder":"tf","game":"Team Fortress","app_id":440,"player_count":23,"max_players":24,"Bots":0,"server_type":"Dedicated","server_os":"Linux","password":true,"vac":true,"version":"7961495","steam_id":85568392924504275,"keywords":["nocrits","nodmgspread","payload","uncletopia"],"game_id":440,"stv_port":27046,"stv_name":"Uncletopia | Frankfurt | 4 | All Maps | STV","players":[{"user_id":253,"name":"fischman","steam_id":76561199064142670,"connected_time":415000000000,"state":"active","ping":44},{"user_id":254,"name":"Vee","steam_id":76561198173065294,"connected_time":411000000000,"state":"active","ping":61},{"user_id":239,"name":"Kenny","steam_id":76561198994898206,"connected_time":791000000000,"state":"active","ping":69},{"user_id":252,"name":"Rumpiel","steam_id":76561198254303347,"connected_time":431000000000,"state":"active","ping":66},{"user_id":216,"name":"Hey, I´m Andy!","steam_id":76561198060337777,"connected_time":3120000000000,"state":"active","ping":60},{"user_id":255,"name":"mysteryperson","steam_id":76561199147919534,"connected_time":396000000000,"state":"active","ping":59},{"user_id":250,"name":"jamkel #savetf2","steam_id":76561199088464666,"connected_time":493000000000,"state":"active","ping":92},{"user_id":90,"name":"DocTwoEight","steam_id":76561198153488940,"connected_time":12364000000000,"state":"active","ping":60},{"user_id":212,"name":"Hercules","steam_id":76561198041164170,"connected_time":3388000000000,"state":"active","ping":57},{"user_id":206,"name":"MENTABETAI","steam_id":76561198049728799,"connected_time":4269000000000,"state":"active","ping":76},{"user_id":232,"name":"Huskai","steam_id":76561198141512362,"connected_time":1430000000000,"state":"active","ping":50},{"user_id":242,"name":"Ecton","steam_id":76561198025103720,"connected_time":721000000000,"state":"active","ping":59},{"user_id":219,"name":"powej","steam_id":76561198056381418,"connected_time":2594000000000,"state":"active","ping":45},{"user_id":243,"name":"Milk","steam_id":76561198125876588,"connected_time":720000000000,"state":"active","ping":53},{"user_id":231,"name":"Tre3","steam_id":76561198054795379,"connected_time":1432000000000,"state":"active","ping":50},{"user_id":249,"name":"Yodawg","steam_id":76561198261933946,"connected_time":527000000000,"state":"active","ping":44},{"user_id":230,"name":"BonnieDrag","steam_id":76561199149216429,"connected_time":1969000000000,"state":"active","ping":73},{"user_id":233,"name":"Asmodeus","steam_id":76561198283156425,"connected_time":1428000000000,"state":"active","ping":60},{"user_id":145,"name":"sticks","steam_id":76561198127099299,"connected_time":9107000000000,"state":"active","ping":51},{"user_id":245,"name":"bigeon","steam_id":76561198078601337,"connected_time":644000000000,"state":"active","ping":78},{"user_id":248,"name":"Mega","steam_id":76561197970389664,"connected_time":605000000000,"state":"active","ping":45},{"user_id":196,"name":"Lers","steam_id":76561198061619788,"connected_time":4748000000000,"state":"active","ping":59},{"user_id":235,"name":"gaming (official)","steam_id":76561198106012909,"connected_time":1417000000000,"state":"active","ping":60}]},{"server_id":310,"name":"Uncletopia | Frankfurt | 5 | All Maps","name_short":"frk-5","host":"frk-1.de.uncletopia.com","port":27055,"enabled":true,"region":"eu","cc":"de","latitude":50.110924,"longitude":8.682127,"reserved":0,"last_update":"0001-01-01T00:00:00Z","name_a2s":"Uncletopia | Frankfurt | 5 | All Maps","protocol":17,"map":"koth_highpass","folder":"tf","game":"Team Fortress","app_id":440,"player_count":0,"max_players":24,"Bots":0,"server_type":"Dedicated","server_os":"Linux","password":true,"vac":true,"version":"7961495","steam_id":85568392924504277,"keywords":["cp","nocrits","nodmgspread","uncletopia"],"game_id":440,"stv_port":27056,"stv_name":"Uncletopia | Frankfurt | 5 | All Maps | STV","players":null},{"server_id":311,"name":"Uncletopia | Frankfurt | 6 | All Maps","name_short":"frk-6","host":"frk-1.de.uncletopia.com","port":27065,"enabled":true,"region":"eu","cc":"de","latitude":50.110924,"longitude":8.682127,"reserved":0,"last_update":"0001-01-01T00:00:00Z","name_a2s":"Uncletopia | Frankfurt | 6 | All Maps","protocol":17,"map":"cp_standin_final","folder":"tf","game":"Team Fortress","app_id":440,"player_count":22,"max_players":24,"Bots":0,"server_type":"Dedicated","server_os":"Linux","password":true,"vac":true,"version":"7961495","steam_id":85568392924504278,"keywords":["cp","nocrits","nodmgspread","uncletopia"],"game_id":440,"stv_port":27066,"stv_name":"Uncletopia | Frankfurt | 6 | All Maps | STV","players":[{"user_id":471,"name":"Spectra","steam_id":76561198086718879,"connected_time":235000000000,"state":"active","ping":70},{"user_id":443,"name":"HaylingZar","steam_id":76561198053559897,"connected_time":1731000000000,"state":"active","ping":71},{"user_id":450,"name":"giacomellow","steam_id":76561197994027661,"connected_time":1135000000000,"state":"active","ping":141},{"user_id":414,"name":"sokige","steam_id":76561198167112371,"connected_time":3225000000000,"state":"active","ping":90},{"user_id":451,"name":"CallMeUnoriginal","steam_id":76561198977528294,"connected_time":1083000000000,"state":"active","ping":56},{"user_id":472,"name":"Isak","steam_id":76561198085959762,"connected_time":233000000000,"state":"active","ping":75},{"user_id":453,"name":"shaunrq","steam_id":76561199136585297,"connected_time":1039000000000,"state":"active","ping":59},{"user_id":454,"name":"Zim","steam_id":76561197962903996,"connected_time":908000000000,"state":"active","ping":61},{"user_id":477,"name":"G_raff","steam_id":76561199048512726,"connected_time":131000000000,"state":"active","ping":75},{"user_id":461,"name":"ay","steam_id":76561198033695429,"connected_time":695000000000,"state":"active","ping":59},{"user_id":457,"name":"Vyllckart","steam_id":76561198119172997,"connected_time":767000000000,"state":"active","ping":74},{"user_id":475,"name":"✚Чыж✚","steam_id":76561198273074492,"connected_time":157000000000,"state":"active","ping":94},{"user_id":480,"name":"PASTAMANIA!","steam_id":76561197967858558,"connected_time":35000000000,"state":"active","ping":42},{"user_id":478,"name":"Tony","steam_id":76561198128993838,"connected_time":125000000000,"state":"active","ping":66},{"user_id":439,"name":"ollyenolivers2","steam_id":76561198373705408,"connected_time":1777000000000,"state":"active","ping":53},{"user_id":479,"name":"Waltism","steam_id":76561199447676489,"connected_time":64000000000,"state":"active","ping":91},{"user_id":468,"name":"lightningtrooper","steam_id":76561199507018677,"connected_time":385000000000,"state":"active","ping":95},{"user_id":409,"name":"Lord Mendigo","steam_id":76561198207957111,"connected_time":3862000000000,"state":"active","ping":69},{"user_id":466,"name":"Cosmetic brain","steam_id":76561198055936410,"connected_time":519000000000,"state":"active","ping":80},{"user_id":464,"name":"Skatnaset","steam_id":76561198298457353,"connected_time":551000000000,"state":"active","ping":60},{"user_id":470,"name":"Why?","steam_id":76561199102201832,"connected_time":326000000000,"state":"active","ping":65},{"user_id":442,"name":"Nav1Player1","steam_id":76561199058150847,"connected_time":1767000000000,"state":"active","ping":89}]},{"server_id":23,"name":"Uncletopia | Frankfurt | 7 | Stopwatch","name_short":"frk-7","host":"frk-1.de.uncletopia.com","port":27075,"enabled":true,"region":"eu","cc":"de","latitude":50.110924,"longitude":8.682127,"reserved":0,"last_update":"0001-01-01T00:00:00Z","name_a2s":"Uncletopia | Frankfurt | 7 | Stopwatch","protocol":17,"map":"workshop/koth_bagel_rc6.ugc2514036946","folder":"tf","game":"Team Fortress","app_id":440,"player_count":0,"max_players":24,"Bots":0,"server_type":"Dedicated","server_os":"Linux","password":true,"vac":true,"version":"7961495","steam_id":85568392924742827,"keywords":["cp","nocrits","nodmgspread","uncletopia"],"game_id":440,"stv_port":27076,"stv_name":"Uncletopia | Frankfurt | 7 | Stopwatch | STV","players":null},{"server_id":24,"name":"Uncletopia | Frankfurt | 8 | Community","name_short":"frk-8","host":"frk-1.de.uncletopia.com","port":27085,"enabled":true,"region":"eu","cc":"de","latitude":50.110924,"longitude":8.682127,"reserved":0,"last_update":"0001-01-01T00:00:00Z","name_a2s":"Uncletopia | Frankfurt | 8 | Community","protocol":17,"map":"workshop/cp_snowbase_b21.ugc2081770490","folder":"tf","game":"Team Fortress","app_id":440,"player_count":0,"max_players":24,"Bots":0,"server_type":"Dedicated","server_os":"Linux","password":true,"vac":true,"version":"7961495","steam_id":85568392924742828,"keywords":["cp","nocrits","nodmgspread","uncletopia"],"game_id":440,"stv_port":27086,"stv_name":"Uncletopia | Frankfurt | 8 | Community | STV","players":null},{"server_id":202,"name":"Uncletopia | Hong Kong | 1 | All Maps","name_short":"hgk-1","host":"hgk-1.hk.uncletopia.com","port":27015,"enabled":true,"region":"asia","cc":"hk","latitude":22.302711,"longitude":114.177216,"reserved":0,"last_update":"0001-01-01T00:00:00Z","name_a2s":"Uncletopia | Hong Kong | 1 | All Maps","protocol":17,"map":"pl_borneo","folder":"tf","game":"Team Fortress","app_id":440,"player_count":0,"max_players":24,"Bots":0,"server_type":"Dedicated","server_os":"Linux","password":true,"vac":true,"version":"7961495","steam_id":85568392924494504,"keywords":["nocrits","nodmgspread","payload","uncletopia"],"game_id":440,"stv_port":27016,"stv_name":"Uncletopia | Hong Kong | 1 | All Maps | STV","players":null},{"server_id":1,"name":"Uncletopia | Los Angeles | 1 | All Maps","name_short":"lax-1","host":"lax-1.us.uncletopia.com","port":27015,"enabled":true,"region":"us-west","cc":"us","latitude":33.94279,"longitude":-118.41004,"reserved":0,"last_update":"0001-01-01T00:00:00Z","name_a2s":"Uncletopia | Los Angeles | 1 | All Maps","protocol":17,"map":"pl_upward","folder":"tf","game":"Team Fortress","app_id":440,"player_count":24,"max_players":24,"Bots":0,"server_type":"Dedicated","server_os":"Linux","password":true,"vac":true,"version":"7961495","steam_id":85568392924469991,"keywords":["nocrits","nodmgspread","payload","uncletopia"],"game_id":440,"stv_port":27016,"stv_name":"Uncletopia | Los Angeles | 1 | All Maps | STV","players":[{"user_id":49,"name":"Typh","steam_id":76561198315344079,"connected_time":7468000000000,"state":"active","ping":103},{"user_id":120,"name":"summerlis","steam_id":76561198165324438,"connected_time":445000000000,"state":"active","ping":38},{"user_id":117,"name":"newnuma.com | arkei","steam_id":76561198013113138,"connected_time":496000000000,"state":"active","ping":56},{"user_id":113,"name":"SunkenSole9132","steam_id":76561198359562446,"connected_time":1292000000000,"state":"active","ping":62},{"user_id":121,"name":"life","steam_id":76561198227112556,"connected_time":437000000000,"state":"active","ping":57},{"user_id":122,"name":"Evenaris","steam_id":76561198087544319,"connected_time":428000000000,"state":"active","ping":47},{"user_id":103,"name":"KaosInfinite","steam_id":76561198009126350,"connected_time":2601000000000,"state":"active","ping":38},{"user_id":61,"name":"you just got dyked on","steam_id":76561198018977723,"connected_time":6510000000000,"state":"active","ping":82},{"user_id":110,"name":"Clyde","steam_id":76561198158206236,"connected_time":1826000000000,"state":"active","ping":159},{"user_id":94,"name":"June","steam_id":76561198141803658,"connected_time":2925000000000,"state":"active","ping":46},{"user_id":18,"name":"aBigPoo","steam_id":76561198425027856,"connected_time":8925000000000,"state":"active","ping":48},{"user_id":127,"name":"Tlaloc","steam_id":76561198375215983,"connected_time":1000000000,"state":"spawning","ping":65},{"user_id":123,"name":"Lucky","steam_id":76561198124910662,"connected_time":413000000000,"state":"active","ping":55},{"user_id":124,"name":"American freedom bird","steam_id":76561198366142388,"connected_time":393000000000,"state":"active","ping":47},{"user_id":87,"name":"hammythegreat #SaveTF2","steam_id":76561198079526946,"connected_time":4366000000000,"state":"active","ping":105},{"user_id":125,"name":"K1ngBurrito","steam_id":76561198134344529,"connected_time":389000000000,"state":"active","ping":60},{"user_id":85,"name":"Eden","steam_id":76561198081284664,"connected_time":4600000000000,"state":"active","ping":49},{"user_id":55,"name":"HopeTheNeko","steam_id":76561199159285465,"connected_time":7196000000000,"state":"active","ping":49},{"user_id":111,"name":"Captain Buggy","steam_id":76561198024444448,"connected_time":1769000000000,"state":"active","ping":63},{"user_id":93,"name":"Sir BrainDamage the V of Serbia","steam_id":76561198846344452,"connected_time":3258000000000,"state":"active","ping":61},{"user_id":114,"name":"Happy Bucket","steam_id":76561198066053527,"connected_time":749000000000,"state":"active","ping":58},{"user_id":98,"name":"mrappledumb","steam_id":76561199133590774,"connected_time":2785000000000,"state":"active","ping":115},{"user_id":126,"name":"Lactose ๑ﭥ","steam_id":76561198208256987,"connected_time":372000000000,"state":"active","ping":57},{"user_id":116,"name":"BigBubble42","steam_id":76561198136286123,"connected_time":505000000000,"state":"active","ping":60}]},{"server_id":112,"name":"Uncletopia | Los Angeles | 2 | All Maps","name_short":"lax-2","host":"lax-1.us.uncletopia.com","port":27025,"enabled":true,"region":"us-west","cc":"us","latitude":33.94279,"longitude":-118.41004,"reserved":0,"last_update":"0001-01-01T00:00:00Z","name_a2s":"Uncletopia | Los Angeles | 2 | All Maps","protocol":17,"map":"koth_cascade","folder":"tf","game":"Team Fortress","app_id":440,"player_count":0,"max_players":24,"Bots":0,"server_type":"Dedicated","server_os":"Linux","password":true,"vac":true,"version":"7961495","steam_id":85568392924469992,"keywords":["cp","nocrits","nodmgspread","uncletopia"],"game_id":440,"stv_port":27026,"stv_name":"Uncletopia | Los Angeles | 2 | All Maps | STV","players":null},{"server_id":324,"name":"Uncletopia | Los Angeles | 3 | All Maps","name_short":"lax-3","host":"lax-1.us.uncletopia.com","port":27035,"enabled":true,"region":"us-west","cc":"us","latitude":33.94279,"longitude":-118.41004,"reserved":0,"last_update":"0001-01-01T00:00:00Z","name_a2s":"Uncletopia | Los Angeles | 3 | All Maps","protocol":17,"map":"pl_badwater","folder":"tf","game":"Team Fortress","app_id":440,"player_count":0,"max_players":24,"Bots":0,"server_type":"Dedicated","server_os":"Linux","password":true,"vac":true,"version":"7961495","steam_id":85568392924510198,"keywords":["nocrits","nodmgspread","payload","uncletopia"],"game_id":440,"stv_port":27036,"stv_name":"Uncletopia | Los Angeles | 3 | All Maps | STV","players":null},{"server_id":25,"name":"Uncletopia | Los Angeles | 4 | Stopwatch","name_short":"lax-4","host":"lax-1.us.uncletopia.com","port":27045,"enabled":true,"region":"us-west","cc":"us","latitude":33.94279,"longitude":-118.41004,"reserved":0,"last_update":"0001-01-01T00:00:00Z","name_a2s":"Uncletopia | Los Angeles | 4 | Stopwatch","protocol":17,"map":"pl_upward","folder":"tf","game":"Team Fortress","app_id":440,"player_count":0,"max_players":24,"Bots":0,"server_type":"Dedicated","server_os":"Linux","password":true,"vac":true,"version":"7961495","steam_id":85568392924510199,"keywords":["nocrits","nodmgspread","payload","uncletopia"],"game_id":440,"stv_port":27046,"stv_name":"Uncletopia | Los Angeles | 4 | Stopwatch | STV","players":null},{"server_id":11,"name":"Uncletopia | London | 1 | All Maps","name_short":"lon-1","host":"lon-1.uk.uncletopia.com","port":27015,"enabled":true,"region":"eu","cc":"gb","latitude":51.509865,"longitude":-0.118092,"reserved":0,"last_update":"0001-01-01T00:00:00Z","name_a2s":"Uncletopia | London | 1 | All Maps","protocol":17,"map":"koth_highpass","folder":"tf","game":"Team Fortress","app_id":440,"player_count":22,"max_players":24,"Bots":0,"server_type":"Dedicated","server_os":"Linux","password":true,"vac":true,"version":"7961495","steam_id":85568392924367362,"keywords":["cp","nocrits","nodmgspread","uncletopia"],"game_id":440,"stv_port":27016,"stv_name":"Uncletopia | London | 1 | All Maps | STV","players":[{"user_id":387,"name":"soil.dirt.earth","steam_id":76561198014377623,"connected_time":2529000000000,"state":"active","ping":30},{"user_id":366,"name":"Czechmated","steam_id":76561198075648001,"connected_time":4232000000000,"state":"active","ping":53},{"user_id":276,"name":"Son Goku","steam_id":76561199383437138,"connected_time":10881000000000,"state":"active","ping":120},{"user_id":389,"name":"Ratman","steam_id":76561198121888714,"connected_time":1973000000000,"state":"active","ping":46},{"user_id":410,"name":"getpost","steam_id":76561198260064876,"connected_time":665000000000,"state":"active","ping":73},{"user_id":394,"name":"ber","steam_id":76561197993892057,"connected_time":1726000000000,"state":"active","ping":90},{"user_id":413,"name":"Joe","steam_id":76561198145639903,"connected_time":644000000000,"state":"active","ping":77},{"user_id":420,"name":"dakkafex","steam_id":76561198020254869,"connected_time":55000000000,"state":"active","ping":44},{"user_id":367,"name":"impossible whopper eater","steam_id":76561198058641805,"connected_time":4225000000000,"state":"active","ping":52},{"user_id":416,"name":"Maybe","steam_id":76561198274455278,"connected_time":334000000000,"state":"active","ping":61},{"user_id":370,"name":"sab","steam_id":76561197992945483,"connected_time":4200000000000,"state":"active","ping":54},{"user_id":417,"name":"Gym teacher","steam_id":76561198382706733,"connected_time":297000000000,"state":"active","ping":62},{"user_id":409,"name":"AuwNina","steam_id":76561198128231464,"connected_time":670000000000,"state":"active","ping":46},{"user_id":421,"name":"Ville","steam_id":76561198137424821,"connected_time":39000000000,"state":"active","ping":65},{"user_id":418,"name":"KnugenIV","steam_id":76561198127091993,"connected_time":270000000000,"state":"active","ping":60},{"user_id":419,"name":"Swip3r","steam_id":76561198039789772,"connected_time":213000000000,"state":"active","ping":37},{"user_id":422,"name":"cipherrephic","steam_id":76561198453630258,"connected_time":15000000000,"state":"spawning","ping":65},{"user_id":392,"name":"child cruncher","steam_id":76561199376433147,"connected_time":1808000000000,"state":"active","ping":39},{"user_id":407,"name":"Kphi(i)","steam_id":76561198970587061,"connected_time":677000000000,"state":"active","ping":55},{"user_id":404,"name":"heal","steam_id":76561198046754534,"connected_time":838000000000,"state":"active","ping":89},{"user_id":377,"name":"Aaron","steam_id":76561197990046953,"connected_time":3366000000000,"state":"active","ping":57},{"user_id":408,"name":"lily.exe","steam_id":76561198049840460,"connected_time":676000000000,"state":"active","ping":45}]},{"server_id":114,"name":"Uncletopia | London | 2 | All Maps","name_short":"lon-2","host":"lon-1.uk.uncletopia.com","port":27025,"enabled":true,"region":"eu","cc":"gb","latitude":51.509865,"longitude":-0.118092,"reserved":0,"last_update":"0001-01-01T00:00:00Z","name_a2s":"Uncletopia | London | 2 | All Maps","protocol":17,"map":"pl_upward","folder":"tf","game":"Team Fortress","app_id":440,"player_count":23,"max_players":24,"Bots":0,"server_type":"Dedicated","server_os":"Linux","password":true,"vac":true,"version":"7961495","steam_id":85568392924470941,"keywords":["nocrits","nodmgspread","payload","uncletopia"],"game_id":440,"stv_port":27026,"stv_name":"Uncletopia | London | 2 | All Maps | STV","players":[{"user_id":452,"name":"-","steam_id":76561198382509396,"connected_time":1746000000000,"state":"active","ping":59},{"user_id":440,"name":"SynthBox3","steam_id":76561199094075745,"connected_time":2318000000000,"state":"active","ping":92},{"user_id":464,"name":"Urfangonultasadana","steam_id":76561199389286151,"connected_time":378000000000,"state":"active","ping":85},{"user_id":441,"name":"Archer","steam_id":76561198132860299,"connected_time":2297000000000,"state":"active","ping":49},{"user_id":446,"name":"❤ Sparx ❤","steam_id":76561198095009261,"connected_time":2085000000000,"state":"active","ping":62},{"user_id":422,"name":"Trapezoid","steam_id":76561198059369295,"connected_time":3829000000000,"state":"active","ping":73},{"user_id":457,"name":"DeBozMann_","steam_id":76561198266876790,"connected_time":1437000000000,"state":"active","ping":63},{"user_id":450,"name":"Egor Pomidor","steam_id":76561199175688390,"connected_time":1814000000000,"state":"active","ping":87},{"user_id":428,"name":"[FP] Shiken","steam_id":76561198257905663,"connected_time":3351000000000,"state":"active","ping":68},{"user_id":454,"name":"DaniLoRiver","steam_id":76561198048611123,"connected_time":1710000000000,"state":"active","ping":173},{"user_id":366,"name":"spake","steam_id":76561198109247682,"connected_time":6939000000000,"state":"active","ping":50},{"user_id":408,"name":"Swayer","steam_id":76561198056192460,"connected_time":4288000000000,"state":"active","ping":43},{"user_id":263,"name":"Marcel","steam_id":76561198348686648,"connected_time":13807000000000,"state":"active","ping":46},{"user_id":458,"name":"mirek CASEDROP eu *******","steam_id":76561198226673084,"connected_time":1408000000000,"state":"active","ping":77},{"user_id":466,"name":"Saucisse","steam_id":76561198119955969,"connected_time":189000000000,"state":"active","ping":47},{"user_id":418,"name":"Beep","steam_id":76561198120500488,"connected_time":3945000000000,"state":"active","ping":52},{"user_id":456,"name":"=flashpoint=","steam_id":76561197976774456,"connected_time":1610000000000,"state":"active","ping":47},{"user_id":405,"name":"Sploigy","steam_id":76561197985773614,"connected_time":4461000000000,"state":"active","ping":64},{"user_id":459,"name":"waj","steam_id":76561198053628243,"connected_time":1407000000000,"state":"active","ping":50},{"user_id":460,"name":"TOP G","steam_id":76561198138928548,"connected_time":1404000000000,"state":"active","ping":60},{"user_id":461,"name":"pezza","steam_id":76561197995173247,"connected_time":1309000000000,"state":"active","ping":52},{"user_id":368,"name":"Vermilion.","steam_id":76561198050555372,"connected_time":6928000000000,"state":"active","ping":59},{"user_id":419,"name":"[FP] Rune","steam_id":76561198030842879,"connected_time":3940000000000,"state":"active","ping":43}]},{"server_id":320,"name":"Uncletopia | London | 3 | All Maps","name_short":"lon-3","host":"lon-1.uk.uncletopia.com","port":27035,"enabled":true,"region":"eu","cc":"gb","latitude":51.509865,"longitude":-0.118092,"reserved":0,"last_update":"0001-01-01T00:00:00Z","name_a2s":"Uncletopia | London | 3 | All Maps","protocol":17,"map":"koth_highpass","folder":"tf","game":"Team Fortress","app_id":440,"player_count":23,"max_players":24,"Bots":0,"server_type":"Dedicated","server_os":"Linux","password":true,"vac":true,"version":"7961495","steam_id":85568392924510192,"keywords":["cp","nocrits","nodmgspread","uncletopia"],"game_id":440,"stv_port":27036,"stv_name":"Uncletopia | London | 3 | All Maps | STV","players":[{"user_id":206,"name":"compact disc","steam_id":76561198154677956,"connected_time":480000000000,"state":"active","ping":62},{"user_id":157,"name":"flamingosaurus","steam_id":76561198051455397,"connected_time":3620000000000,"state":"active","ping":45},{"user_id":197,"name":"Vi100 Dol7","steam_id":76561198118137461,"connected_time":1505000000000,"state":"active","ping":62},{"user_id":193,"name":"wheelie bin","steam_id":76561198040040328,"connected_time":1672000000000,"state":"active","ping":50},{"user_id":210,"name":"R8N - Obismal","steam_id":76561198007482714,"connected_time":187000000000,"state":"active","ping":77},{"user_id":200,"name":"Jin","steam_id":76561199282199236,"connected_time":1313000000000,"state":"active","ping":42},{"user_id":207,"name":"Bill_nye_epic","steam_id":76561199216249214,"connected_time":463000000000,"state":"active","ping":147},{"user_id":208,"name":"Aphrodite","steam_id":76561199085162623,"connected_time":462000000000,"state":"active","ping":70},{"user_id":137,"name":"kornetov.vitalya","steam_id":76561199286034833,"connected_time":5250000000000,"state":"active","ping":88},{"user_id":202,"name":"puncake4you","steam_id":76561198366512937,"connected_time":677000000000,"state":"active","ping":95},{"user_id":148,"name":"yuno appreciator","steam_id":76561198083286511,"connected_time":4726000000000,"state":"active","ping":44},{"user_id":169,"name":"Sugardaddy_pep","steam_id":76561198807512589,"connected_time":3291000000000,"state":"active","ping":75},{"user_id":201,"name":"Barack Obama","steam_id":76561198142290648,"connected_time":895000000000,"state":"active","ping":120},{"user_id":199,"name":"LizaЯdlЧ","steam_id":76561198176750238,"connected_time":1476000000000,"state":"active","ping":74},{"user_id":192,"name":"Pterodactyl P. Jones","steam_id":76561198017513012,"connected_time":1709000000000,"state":"active","ping":49},{"user_id":150,"name":"Scr0b ʕᵔᴥᵔʔ","steam_id":76561198100855323,"connected_time":4387000000000,"state":"active","ping":61},{"user_id":204,"name":"my mom","steam_id":76561199225201569,"connected_time":571000000000,"state":"active","ping":114},{"user_id":196,"name":"Faris NyanNyan","steam_id":76561198044604742,"connected_time":1597000000000,"state":"active","ping":34},{"user_id":181,"name":"☭ French Lym","steam_id":76561198954876624,"connected_time":2049000000000,"state":"active","ping":49},{"user_id":209,"name":"Carlo","steam_id":76561198276491098,"connected_time":348000000000,"state":"active","ping":72},{"user_id":94,"name":"(MAC) [BN] Crazyking","steam_id":76561198001668616,"connected_time":7355000000000,"state":"active","ping":42},{"user_id":183,"name":"rainman","steam_id":76561198059761822,"connected_time":1958000000000,"state":"active","ping":55},{"user_id":211,"name":"bug","steam_id":76561198118412910,"connected_time":167000000000,"state":"active","ping":51}]},{"server_id":321,"name":"Uncletopia | London | 4 | All Maps","name_short":"lon-4","host":"lon-1.uk.uncletopia.com","port":27045,"enabled":true,"region":"eu","cc":"gb","latitude":51.509865,"longitude":-0.118092,"reserved":0,"last_update":"0001-01-01T00:00:00Z","name_a2s":"Uncletopia | London | 4 | All Maps","protocol":17,"map":"pl_upward","folder":"tf","game":"Team Fortress","app_id":440,"player_count":24,"max_players":24,"Bots":0,"server_type":"Dedicated","server_os":"Linux","password":true,"vac":true,"version":"7961495","steam_id":85568392924510193,"keywords":["nocrits","nodmgspread","payload","uncletopia"],"game_id":440,"stv_port":27046,"stv_name":"Uncletopia | London | 4 | All Maps | STV","players":[{"user_id":374,"name":"Woman (Real)","steam_id":76561199151823932,"connected_time":6823000000000,"state":"active","ping":61},{"user_id":394,"name":"Lego Piece 6629","steam_id":76561198330040827,"connected_time":4972000000000,"state":"active","ping":41},{"user_id":440,"name":"Lux","steam_id":76561198060417740,"connected_time":2108000000000,"state":"active","ping":45},{"user_id":376,"name":"xavier","steam_id":76561198076494034,"connected_time":6633000000000,"state":"active","ping":53},{"user_id":424,"name":"Eric Catman","steam_id":76561198802117294,"connected_time":3150000000000,"state":"active","ping":54},{"user_id":393,"name":"FireStorm","steam_id":76561198350478325,"connected_time":5054000000000,"state":"active","ping":37},{"user_id":366,"name":"Laru","steam_id":76561197998838438,"connected_time":7407000000000,"state":"active","ping":74},{"user_id":445,"name":"BlackSuperhero","steam_id":76561199500033132,"connected_time":1244000000000,"state":"active","ping":109},{"user_id":453,"name":"D4NTheProtogen","steam_id":76561198206460789,"connected_time":130000000000,"state":"active","ping":49},{"user_id":426,"name":"BTD","steam_id":76561199046044993,"connected_time":3045000000000,"state":"active","ping":62},{"user_id":430,"name":"Crazyyk","steam_id":76561198882313836,"connected_time":2629000000000,"state":"active","ping":57},{"user_id":446,"name":"U;j5ua;YB2_amRe3","steam_id":76561198068429874,"connected_time":1236000000000,"state":"active","ping":159},{"user_id":425,"name":"ran is running","steam_id":76561199443185667,"connected_time":3147000000000,"state":"active","ping":111},{"user_id":452,"name":"tomydjoh","steam_id":76561198077421906,"connected_time":243000000000,"state":"active","ping":45},{"user_id":429,"name":"alex","steam_id":76561199281389958,"connected_time":2682000000000,"state":"active","ping":60},{"user_id":455,"name":"Bobirulez","steam_id":76561198009125458,"connected_time":0,"state":"spawning","ping":32},{"user_id":441,"name":"spencer pooties","steam_id":76561198123044544,"connected_time":1994000000000,"state":"active","ping":65},{"user_id":367,"name":"sowakarana","steam_id":76561199405633261,"connected_time":7380000000000,"state":"active","ping":50},{"user_id":439,"name":"Fran","steam_id":76561199070516960,"connected_time":2402000000000,"state":"active","ping":74},{"user_id":454,"name":"lord-carlos","steam_id":76561198025150761,"connected_time":46000000000,"state":"active","ping":66},{"user_id":444,"name":"A Table","steam_id":76561198056456470,"connected_time":1271000000000,"state":"active","ping":74},{"user_id":447,"name":"stankboxers #savetf2","steam_id":76561198058609582,"connected_time":1232000000000,"state":"active","ping":117},{"user_id":400,"name":"Bajas","steam_id":76561198179339326,"connected_time":4748000000000,"state":"active","ping":88},{"user_id":450,"name":"Udinese Dion","steam_id":76561198067931573,"connected_time":589000000000,"state":"active","ping":64}]},{"server_id":21,"name":"Uncletopia | London | 5 | All Maps","name_short":"lon-5","host":"lon-1.uk.uncletopia.com","port":27055,"enabled":true,"region":"eu","cc":"gb","latitude":51.509865,"longitude":-0.118092,"reserved":0,"last_update":"0001-01-01T00:00:00Z","name_a2s":"Uncletopia | London | 5 | All Maps","protocol":17,"map":"pl_swiftwater_final1","folder":"tf","game":"Team Fortress","app_id":440,"player_count":24,"max_players":24,"Bots":0,"server_type":"Dedicated","server_os":"Linux","password":true,"vac":true,"version":"7961495","steam_id":85568392924742829,"keywords":["nocrits","nodmgspread","payload","uncletopia"],"game_id":440,"stv_port":27056,"stv_name":"Uncletopia | London | 5 | All Maps | STV","players":[{"user_id":311,"name":"Scrungly Bingus","steam_id":76561198106868468,"connected_time":878000000000,"state":"active","ping":55},{"user_id":329,"name":"ultralex","steam_id":76561198024910383,"connected_time":175000000000,"state":"active","ping":44},{"user_id":306,"name":"AIDS","steam_id":76561198111124604,"connected_time":1137000000000,"state":"active","ping":56},{"user_id":308,"name":"Imperial City Guard","steam_id":76561198083355845,"connected_time":1068000000000,"state":"active","ping":56},{"user_id":328,"name":"Diggity","steam_id":76561198297157085,"connected_time":213000000000,"state":"active","ping":35},{"user_id":248,"name":"Mysterious Stranger","steam_id":76561199029796289,"connected_time":4866000000000,"state":"active","ping":157},{"user_id":324,"name":"Morale -10","steam_id":76561198046932043,"connected_time":310000000000,"state":"active","ping":61},{"user_id":259,"name":"cropping","steam_id":76561198026586456,"connected_time":4314000000000,"state":"active","ping":59},{"user_id":325,"name":"Ducksarecool2","steam_id":76561198127055586,"connected_time":298000000000,"state":"active","ping":62},{"user_id":326,"name":"3L","steam_id":76561198007208996,"connected_time":277000000000,"state":"active","ping":57},{"user_id":280,"name":"lark","steam_id":76561198091724522,"connected_time":3028000000000,"state":"active","ping":62},{"user_id":283,"name":"hauntaholic ☆","steam_id":76561198315371425,"connected_time":2969000000000,"state":"active","ping":45},{"user_id":285,"name":"SirVitek","steam_id":76561198142961758,"connected_time":2964000000000,"state":"active","ping":51},{"user_id":284,"name":"Spinosaurus","steam_id":76561199086481600,"connected_time":2966000000000,"state":"active","ping":48},{"user_id":315,"name":"rts","steam_id":76561199090876980,"connected_time":625000000000,"state":"active","ping":63},{"user_id":327,"name":"Team Fortress","steam_id":76561198058722801,"connected_time":268000000000,"state":"active","ping":48},{"user_id":270,"name":"Shapeshifter","steam_id":76561198052898368,"connected_time":3965000000000,"state":"active","ping":87},{"user_id":330,"name":"dirhs","steam_id":76561198383867611,"connected_time":147000000000,"state":"active","ping":46},{"user_id":307,"name":"Malsi","steam_id":76561199061284165,"connected_time":1117000000000,"state":"active","ping":75},{"user_id":279,"name":"sniper's kangaroo wife","steam_id":76561198334042273,"connected_time":3132000000000,"state":"active","ping":37},{"user_id":331,"name":"Kentucky Fried Crab","steam_id":76561198035586715,"connected_time":131000000000,"state":"active","ping":121},{"user_id":332,"name":"Brian","steam_id":76561198077756206,"connected_time":106000000000,"state":"active","ping":40},{"user_id":253,"name":"Saken","steam_id":76561198049075295,"connected_time":4474000000000,"state":"active","ping":60},{"user_id":288,"name":"7-8 венерологов","steam_id":76561199149307190,"connected_time":2844000000000,"state":"active","ping":89}]},{"server_id":22,"name":"Uncletopia | London | 6 | All Maps","name_short":"lon-6","host":"lon-1.uk.uncletopia.com","port":27065,"enabled":true,"region":"eu","cc":"gb","latitude":51.509865,"longitude":-0.118092,"reserved":0,"last_update":"0001-01-01T00:00:00Z","name_a2s":"Uncletopia | London | 6 | All Maps","protocol":17,"map":"cp_dustbowl","folder":"tf","game":"Team Fortress","app_id":440,"player_count":22,"max_players":24,"Bots":0,"server_type":"Dedicated","server_os":"Linux","password":true,"vac":true,"version":"7961495","steam_id":85568392924742830,"keywords":["cp","nocrits","nodmgspread","uncletopia"],"game_id":440,"stv_port":27066,"stv_name":"Uncletopia | London | 6 | All Maps | STV","players":[{"user_id":350,"name":"new chair who dis","steam_id":76561198105348049,"connected_time":2804000000000,"state":"active","ping":74},{"user_id":337,"name":"Violet","steam_id":76561198079388610,"connected_time":3309000000000,"state":"active","ping":57},{"user_id":351,"name":"BigZZZ","steam_id":76561197998461614,"connected_time":2789000000000,"state":"active","ping":43},{"user_id":346,"name":"Nuko_atlantic_flame","steam_id":76561199143922333,"connected_time":2823000000000,"state":"active","ping":53},{"user_id":347,"name":"man of wealth and taste","steam_id":76561198047828651,"connected_time":2815000000000,"state":"active","ping":44},{"user_id":326,"name":"Qwertuss","steam_id":76561198026305366,"connected_time":4367000000000,"state":"active","ping":45},{"user_id":324,"name":"Nurdbot","steam_id":76561197972640060,"connected_time":4609000000000,"state":"active","ping":45},{"user_id":290,"name":"Spligbo","steam_id":76561198412491145,"connected_time":6029000000000,"state":"active","ping":110},{"user_id":356,"name":"heavy sings (real)","steam_id":76561199023804405,"connected_time":2550000000000,"state":"active","ping":73},{"user_id":354,"name":"bryophyta","steam_id":76561197968945306,"connected_time":2585000000000,"state":"active","ping":73},{"user_id":348,"name":"kuno","steam_id":76561198068081430,"connected_time":2814000000000,"state":"active","ping":41},{"user_id":361,"name":"Iris","steam_id":76561198430295815,"connected_time":1457000000000,"state":"active","ping":48},{"user_id":355,"name":"Supercoxylac","steam_id":76561198376300138,"connected_time":2580000000000,"state":"active","ping":58},{"user_id":340,"name":"finbar","steam_id":76561198056812396,"connected_time":3216000000000,"state":"active","ping":80},{"user_id":364,"name":"Markass","steam_id":76561198840047682,"connected_time":1192000000000,"state":"active","ping":61},{"user_id":367,"name":"maniac-baker","steam_id":76561198076966730,"connected_time":868000000000,"state":"active","ping":34},{"user_id":344,"name":"AftiksPL","steam_id":76561198875182686,"connected_time":3141000000000,"state":"active","ping":136},{"user_id":366,"name":"...","steam_id":76561199102883421,"connected_time":1125000000000,"state":"active","ping":123},{"user_id":328,"name":"niandits","steam_id":76561198419798900,"connected_time":3943000000000,"state":"active","ping":121},{"user_id":349,"name":"heatburn","steam_id":76561198019001992,"connected_time":2812000000000,"state":"active","ping":45},{"user_id":308,"name":"onixed","steam_id":76561198995478547,"connected_time":5471000000000,"state":"active","ping":82},{"user_id":309,"name":"tapeworms!","steam_id":76561198069649097,"connected_time":5471000000000,"state":"active","ping":46}]},{"server_id":40,"name":"Uncletopia | London | 7 | Stopwatch","name_short":"lon-7","host":"lon-1.uk.uncletopia.com","port":27075,"enabled":true,"region":"eu","cc":"gb","latitude":51.509865,"longitude":-0.118092,"reserved":0,"last_update":"0001-01-01T00:00:00Z","name_a2s":"Uncletopia | London | 7 | Stopwatch","protocol":17,"map":"workshop/koth_clearcut_b15.ugc2107050255","folder":"tf","game":"Team Fortress","app_id":440,"player_count":2,"max_players":24,"Bots":0,"server_type":"Dedicated","server_os":"Linux","password":true,"vac":true,"version":"7961495","steam_id":85568392924964314,"keywords":["cp","nocrits","nodmgspread","uncletopia"],"game_id":440,"stv_port":27076,"stv_name":"Uncletopia | London | 7 | Stopwatch | STV","players":[{"user_id":22,"name":"Deemaské","steam_id":76561199225833593,"connected_time":344000000000,"state":"active","ping":51},{"user_id":20,"name":"Tx_madmash \u0026 knuckles","steam_id":76561198924656512,"connected_time":1426000000000,"state":"active","ping":122}]},{"server_id":41,"name":"Uncletopia | London | 8 | Community","name_short":"lon-8","host":"lon-1.uk.uncletopia.com","port":27085,"enabled":true,"region":"eu","cc":"gb","latitude":51.509865,"longitude":-0.118092,"reserved":0,"last_update":"0001-01-01T00:00:00Z","name_a2s":"Uncletopia | London | 8 | Community","protocol":17,"map":"workshop/pl_badwater_pro_v12.ugc2142942074","folder":"tf","game":"Team Fortress","app_id":440,"player_count":4,"max_players":24,"Bots":0,"server_type":"Dedicated","server_os":"Linux","password":true,"vac":true,"version":"7961495","steam_id":85568392924964315,"keywords":["nocrits","nodmgspread","payload","uncletopia"],"game_id":440,"stv_port":27086,"stv_name":"Uncletopia | London | 8 | Community | STV","players":[{"user_id":34,"name":"Fleak","steam_id":76561197998892190,"connected_time":1421000000000,"state":"active","ping":44},{"user_id":35,"name":"noah","steam_id":76561199146429428,"connected_time":1368000000000,"state":"active","ping":47},{"user_id":36,"name":"GMAN_L@ver_6978 [GMF][Priest]","steam_id":76561199461851882,"connected_time":700000000000,"state":"active","ping":31},{"user_id":37,"name":"+==[:::::::::::::::::::::::\u003e","steam_id":76561199051212534,"connected_time":217000000000,"state":"active","ping":133}]},{"server_id":300,"name":"Uncletopia | Montréal | 1 | One Thousand Uncles","name_short":"mtl-1","host":"mtl-1.ca.uncletopia.com","port":27015,"enabled":true,"region":"us-east","cc":"ca","latitude":45.50889,"longitude":-73.56167,"reserved":0,"last_update":"0001-01-01T00:00:00Z","name_a2s":"Uncletopia | Montréal | 1 | One Thousand Uncles","protocol":17,"map":"pl_chilly","folder":"tf","game":"Team Fortress","app_id":440,"player_count":0,"max_players":32,"Bots":0,"server_type":"Dedicated","server_os":"Linux","password":true,"vac":true,"version":"7961495","steam_id":85568392924500087,"keywords":["alltalk","danepve","increased_maxplayers","norespawntime","payload","uncletopia"],"game_id":440,"stv_port":0,"stv_name":"","players":null},{"server_id":301,"name":"Uncletopia | Montréal | 2 | One Thousand Uncles","name_short":"mtl-2","host":"mtl-1.ca.uncletopia.com","port":27025,"enabled":true,"region":"us-east","cc":"ca","latitude":45.50889,"longitude":-73.56167,"reserved":0,"last_update":"0001-01-01T00:00:00Z","name_a2s":"Uncletopia | Montréal | 2 | One Thousand Uncles","protocol":17,"map":"pl_chilly","folder":"tf","game":"Team Fortress","app_id":440,"player_count":0,"max_players":32,"Bots":0,"server_type":"Dedicated","server_os":"Linux","password":true,"vac":true,"version":"7961495","steam_id":85568392924500088,"keywords":["alltalk","danepve","increased_maxplayers","norespawntime","payload","uncletopia"],"game_id":440,"stv_port":0,"stv_name":"","players":null},{"server_id":302,"name":"Uncletopia | Montréal | 3 | One Thousand Uncles","name_short":"mtl-3","host":"mtl-1.ca.uncletopia.com","port":27035,"enabled":true,"region":"us-east","cc":"ca","latitude":45.50889,"longitude":-73.56167,"reserved":0,"last_update":"0001-01-01T00:00:00Z","name_a2s":"Uncletopia | Montréal | 3 | One Thousand Uncles","protocol":17,"map":"pl_upward","folder":"tf","game":"Team Fortress","app_id":440,"player_count":25,"max_players":32,"Bots":16,"server_type":"Dedicated","server_os":"Linux","password":true,"vac":true,"version":"7961495","steam_id":85568392924500089,"keywords":["alltalk","bots","danepve","increased_maxplayers","norespawntime","payload","uncletopia"],"game_id":440,"stv_port":0,"stv_name":"","players":[{"user_id":114,"name":"Sindri","steam_id":76561199082381766,"connected_time":2392000000000,"state":"active","ping":107},{"user_id":120,"name":"４０ ＦＰＳ","steam_id":76561198272394965,"connected_time":1301000000000,"state":"active","ping":150},{"user_id":54,"name":"Waaagh!","steam_id":76561197995317887,"connected_time":6926000000000,"state":"active","ping":28},{"user_id":126,"name":"Dzhoshua","steam_id":76561198071915251,"connected_time":298000000000,"state":"active","ping":63},{"user_id":93,"name":"TheBrocklobster","steam_id":76561198039682984,"connected_time":3119000000000,"state":"active","ping":120},{"user_id":127,"name":"fuzzychip2","steam_id":76561199137947851,"connected_time":226000000000,"state":"active","ping":49},{"user_id":97,"name":"samallwise","steam_id":76561199011855102,"connected_time":2555000000000,"state":"active","ping":48},{"user_id":62,"name":"Venk","steam_id":76561198251131422,"connected_time":6065000000000,"state":"active","ping":70},{"user_id":118,"name":"Majoras","steam_id":76561199228369854,"connected_time":1999000000000,"state":"active","ping":204}]},{"server_id":13,"name":"Uncletopia | New York City | 1 | All Maps","name_short":"nyc-1","host":"nyc-1.us.uncletopia.com","port":27015,"enabled":true,"region":"us-east","cc":"us","latitude":40.73061,"longitude":-73.93524,"reserved":0,"last_update":"0001-01-01T00:00:00Z","name_a2s":"Uncletopia | New York City | 1 | All Maps","protocol":17,"map":"koth_harvest_final","folder":"tf","game":"Team Fortress","app_id":440,"player_count":23,"max_players":24,"Bots":0,"server_type":"Dedicated","server_os":"Linux","password":true,"vac":true,"version":"7961495","steam_id":85568392924469993,"keywords":["cp","nocrits","nodmgspread","uncletopia"],"game_id":440,"stv_port":27016,"stv_name":"Uncletopia | New York City | 1 | All Maps | STV","players":[{"user_id":69,"name":"a bellhop","steam_id":76561198046797995,"connected_time":2493000000000,"state":"active","ping":67},{"user_id":65,"name":"Shuko","steam_id":76561197995563378,"connected_time":3087000000000,"state":"active","ping":39},{"user_id":84,"name":"YuhFukingGoatMoutMuduhSkuntYuh","steam_id":76561198057472334,"connected_time":1467000000000,"state":"active","ping":63},{"user_id":71,"name":"NaughtyLink","steam_id":76561198003958657,"connected_time":2475000000000,"state":"active","ping":88},{"user_id":98,"name":"msay","steam_id":76561198170888029,"connected_time":27000000000,"state":"active","ping":56},{"user_id":14,"name":"dicksnip","steam_id":76561198356515396,"connected_time":6275000000000,"state":"active","ping":92},{"user_id":75,"name":"chrissweep","steam_id":76561198072826791,"connected_time":1924000000000,"state":"active","ping":54},{"user_id":38,"name":"emotional suppport e-cigarette","steam_id":76561198172120615,"connected_time":5155000000000,"state":"active","ping":36},{"user_id":52,"name":"ndvr (femboy (REAL))","steam_id":76561199379200102,"connected_time":4379000000000,"state":"active","ping":43},{"user_id":96,"name":"El Bondin","steam_id":76561198820792434,"connected_time":231000000000,"state":"active","ping":103},{"user_id":59,"name":"Raizen","steam_id":76561199092445367,"connected_time":3298000000000,"state":"active","ping":60},{"user_id":99,"name":"Spike Bones","steam_id":76561198234926120,"connected_time":0,"state":"spawning","ping":43},{"user_id":51,"name":"Nestor","steam_id":76561198070782619,"connected_time":4382000000000,"state":"active","ping":74},{"user_id":93,"name":"Young Sheldon Tik-Tok Clip","steam_id":76561198253927199,"connected_time":513000000000,"state":"active","ping":159},{"user_id":85,"name":"poppies","steam_id":76561199057269867,"connected_time":1375000000000,"state":"active","ping":110},{"user_id":87,"name":"Fredrick","steam_id":76561197981419964,"connected_time":1104000000000,"state":"active","ping":33},{"user_id":79,"name":"Bother","steam_id":76561198336750909,"connected_time":1692000000000,"state":"active","ping":46},{"user_id":72,"name":"Shack","steam_id":76561198035503322,"connected_time":2159000000000,"state":"active","ping":58},{"user_id":68,"name":"Kritzburgh","steam_id":76561198149466938,"connected_time":2623000000000,"state":"active","ping":56},{"user_id":92,"name":"iiamiizzyy","steam_id":76561198355030751,"connected_time":524000000000,"state":"active","ping":57},{"user_id":97,"name":"gungybungy","steam_id":76561199165338893,"connected_time":158000000000,"state":"active","ping":66},{"user_id":89,"name":"ṽ⧉ cookie","steam_id":76561197998884823,"connected_time":1028000000000,"state":"active","ping":78},{"user_id":37,"name":"Disco Fever","steam_id":76561198069532215,"connected_time":5239000000000,"state":"active","ping":46}]},{"server_id":14,"name":"Uncletopia | New York City | 2 | All Maps","name_short":"nyc-2","host":"nyc-1.us.uncletopia.com","port":27025,"enabled":true,"region":"us-east","cc":"us","latitude":40.73061,"longitude":-73.93524,"reserved":0,"last_update":"0001-01-01T00:00:00Z","name_a2s":"Uncletopia | New York City | 2 | All Maps","protocol":17,"map":"cp_dustbowl","folder":"tf","game":"Team Fortress","app_id":440,"player_count":2,"max_players":24,"Bots":0,"server_type":"Dedicated","server_os":"Linux","password":true,"vac":true,"version":"7961495","steam_id":85568392924469994,"keywords":["cp","nocrits","nodmgspread","uncletopia"],"game_id":440,"stv_port":27026,"stv_name":"Uncletopia | New York City | 2 | All Maps | STV","players":[{"user_id":20,"name":"_Toazt","steam_id":76561199011728341,"connected_time":135000000000,"state":"active","ping":68},{"user_id":21,"name":"Maxtheand","steam_id":76561198967517258,"connected_time":134000000000,"state":"active","ping":73}]},{"server_id":15,"name":"Uncletopia | New York City | 3 | Stopwatch","name_short":"nyc-3","host":"nyc-1.us.uncletopia.com","port":27035,"enabled":true,"region":"us-east","cc":"us","latitude":40.73061,"longitude":-73.93524,"reserved":0,"last_update":"0001-01-01T00:00:00Z","name_a2s":"Uncletopia | New York City | 3 | Stopwatch","protocol":17,"map":"cp_snakewater_final1","folder":"tf","game":"Team Fortress","app_id":440,"player_count":0,"max_players":24,"Bots":0,"server_type":"Dedicated","server_os":"Linux","password":true,"vac":true,"version":"7961495","steam_id":85568392924742820,"keywords":["cp","nocrits","nodmgspread","uncletopia"],"game_id":440,"stv_port":27036,"stv_name":"Uncletopia | New York City | 3 | Stopwatch | STV","players":null},{"server_id":16,"name":"Uncletopia | New York City | 4 | Community","name_short":"nyc-4","host":"nyc-1.us.uncletopia.com","port":27045,"enabled":true,"region":"us-east","cc":"us","latitude":40.73061,"longitude":-73.93524,"reserved":0,"last_update":"0001-01-01T00:00:00Z","name_a2s":"Uncletopia | New York City | 4 | Community","protocol":17,"map":"workshop/pl_highwood_b13.ugc1769496557","folder":"tf","game":"Team Fortress","app_id":440,"player_count":0,"max_players":24,"Bots":0,"server_type":"Dedicated","server_os":"Linux","password":true,"vac":true,"version":"7961495","steam_id":85568392924742821,"keywords":["nocrits","nodmgspread","payload","uncletopia"],"game_id":440,"stv_port":27046,"stv_name":"Uncletopia | New York City | 4 | Community | STV","players":null},{"server_id":142,"name":"Uncletopia | São Paulo | 1 | All Maps","name_short":"sao-1","host":"sao-1.br.uncletopia.com","port":27015,"enabled":true,"region":"sa","cc":"br","latitude":-23.533773,"longitude":-46.62529,"reserved":0,"last_update":"0001-01-01T00:00:00Z","name_a2s":"Uncletopia | São Paulo | 1 | All Maps","protocol":17,"map":"cp_granary","folder":"tf","game":"Team Fortress","app_id":440,"player_count":0,"max_players":24,"Bots":0,"server_type":"Dedicated","server_os":"Linux","password":true,"vac":true,"version":"7961495","steam_id":85568392924469996,"keywords":["cp","nocrits","nodmgspread","uncletopia"],"game_id":440,"stv_port":27016,"stv_name":"Uncletopia | São Paulo | 1 | All Maps | STV","players":null},{"server_id":143,"name":"Uncletopia | São Paulo | 2 | Community","name_short":"sao-2","host":"sao-2.br.uncletopia.com","port":27015,"enabled":true,"region":"sa","cc":"br","latitude":-23.533773,"longitude":-46.62529,"reserved":0,"last_update":"0001-01-01T00:00:00Z","name_a2s":"Uncletopia | São Paulo | 2 | Community","protocol":17,"map":"workshop/cp_mannbase_rc2a.ugc1900737467","folder":"tf","game":"Team Fortress","app_id":440,"player_count":0,"max_players":24,"Bots":0,"server_type":"Dedicated","server_os":"Linux","password":true,"vac":true,"version":"7961495","steam_id":85568392924485349,"keywords":["cp","nocrits","nodmgspread","uncletopia"],"game_id":440,"stv_port":27016,"stv_name":"Uncletopia | São Paulo | 2 | Community | STV","players":null},{"server_id":7,"name":"Uncletopia | Seattle | 1 | All Maps","name_short":"sea-1","host":"sea-1.us.uncletopia.com","port":27015,"enabled":true,"region":"us-west","cc":"us","latitude":47.608013,"longitude":-122.33517,"reserved":0,"last_update":"0001-01-01T00:00:00Z","name_a2s":"Uncletopia | Seattle | 1 | All Maps","protocol":17,"map":"pl_borneo","folder":"tf","game":"Team Fortress","app_id":440,"player_count":24,"max_players":24,"Bots":0,"server_type":"Dedicated","server_os":"Linux","password":true,"vac":true,"version":"7961495","steam_id":85568392924469997,"keywords":["nocrits","nodmgspread","payload","uncletopia"],"game_id":440,"stv_port":27016,"stv_name":"Uncletopia | Seattle | 1 | All Maps | STV","players":[{"user_id":111,"name":"sagekiss","steam_id":76561198038831240,"connected_time":188000000000,"state":"active","ping":46},{"user_id":113,"name":"The_K!ller[ÐK]","steam_id":76561197994600832,"connected_time":79000000000,"state":"active","ping":192},{"user_id":103,"name":"o o o o o o o o o","steam_id":76561197993757506,"connected_time":556000000000,"state":"active","ping":68},{"user_id":88,"name":"a dead horse","steam_id":76561198002521217,"connected_time":2182000000000,"state":"active","ping":56},{"user_id":104,"name":"backspace1","steam_id":76561198192531745,"connected_time":487000000000,"state":"active","ping":69},{"user_id":105,"name":"Greskrendtregk","steam_id":76561197969553142,"connected_time":443000000000,"state":"active","ping":51},{"user_id":100,"name":"Captain Underbelly","steam_id":76561198811270935,"connected_time":649000000000,"state":"active","ping":62},{"user_id":40,"name":"FOX News goblin","steam_id":76561198167648580,"connected_time":5239000000000,"state":"active","ping":63},{"user_id":92,"name":"Bradz","steam_id":76561198175090085,"connected_time":1896000000000,"state":"active","ping":85},{"user_id":99,"name":"zinnk","steam_id":76561198092081825,"connected_time":682000000000,"state":"active","ping":60},{"user_id":106,"name":"Curse of the Blackened Eye","steam_id":76561198097175164,"connected_time":306000000000,"state":"active","ping":113},{"user_id":101,"name":"The Caretaker","steam_id":76561198125241411,"connected_time":646000000000,"state":"active","ping":98},{"user_id":107,"name":"seeyouauntie","steam_id":76561198045852999,"connected_time":276000000000,"state":"active","ping":91},{"user_id":102,"name":"CartierYT","steam_id":76561199119485917,"connected_time":640000000000,"state":"active","ping":100},{"user_id":60,"name":"Nom Skirrett","steam_id":76561198014600788,"connected_time":4051000000000,"state":"active","ping":74},{"user_id":87,"name":"Compile","steam_id":76561198242842394,"connected_time":2359000000000,"state":"active","ping":95},{"user_id":62,"name":"tmm (theManMan)","steam_id":76561199488457138,"connected_time":3981000000000,"state":"active","ping":56},{"user_id":90,"name":"Linus","steam_id":76561198084279797,"connected_time":2111000000000,"state":"active","ping":74},{"user_id":108,"name":"♥Tonto1♥","steam_id":76561198238492024,"connected_time":258000000000,"state":"active","ping":119},{"user_id":97,"name":"Vincent Van Bro","steam_id":76561197966919802,"connected_time":930000000000,"state":"active","ping":47},{"user_id":95,"name":"Byte The Protogen","steam_id":76561199229871383,"connected_time":1507000000000,"state":"active","ping":88},{"user_id":109,"name":"🎃Bunny🎃","steam_id":76561198074872531,"connected_time":248000000000,"state":"active","ping":78},{"user_id":110,"name":"Firedust19","steam_id":76561198153238631,"connected_time":218000000000,"state":"active","ping":92},{"user_id":73,"name":"Shrew","steam_id":76561198085421224,"connected_time":3684000000000,"state":"active","ping":50}]},{"server_id":119,"name":"Uncletopia | Seattle | 2 | All Maps","name_short":"sea-2","host":"sea-1.us.uncletopia.com","port":27025,"enabled":true,"region":"us-west","cc":"us","latitude":47.608013,"longitude":-122.33517,"reserved":0,"last_update":"0001-01-01T00:00:00Z","name_a2s":"Uncletopia | Seattle | 2 | All Maps","protocol":17,"map":"koth_lakeside_final","folder":"tf","game":"Team Fortress","app_id":440,"player_count":0,"max_players":24,"Bots":0,"server_type":"Dedicated","server_os":"Linux","password":true,"vac":true,"version":"7961495","steam_id":85568392924469998,"keywords":["cp","nocrits","nodmgspread","uncletopia"],"game_id":440,"stv_port":27026,"stv_name":"Uncletopia | Seattle | 2 | All Maps | STV","players":null},{"server_id":406,"name":"Uncletopia | Seattle | 3 | Stopwatch","name_short":"sea-3","host":"sea-1.us.uncletopia.com","port":27035,"enabled":true,"region":"us-west","cc":"us","latitude":47.608013,"longitude":-122.33517,"reserved":0,"last_update":"0001-01-01T00:00:00Z","name_a2s":"Uncletopia | Seattle | 3 | Stopwatch","protocol":17,"map":"workshop/pl_barnblitz_pro7.ugc582280235","folder":"tf","game":"Team Fortress","app_id":440,"player_count":0,"max_players":24,"Bots":0,"server_type":"Dedicated","server_os":"Linux","password":true,"vac":true,"version":"7961495","steam_id":85568392924515217,"keywords":["nocrits","nodmgspread","payload","uncletopia"],"game_id":440,"stv_port":27036,"stv_name":"Uncletopia | Seattle | 3 | Stopwatch | STV","players":null},{"server_id":17,"name":"Uncletopia | San Francisco | 1 | All Maps","name_short":"sfo-1","host":"sfo-1.us.uncletopia.com","port":27015,"enabled":true,"region":"us-west","cc":"us","latitude":37.77397,"longitude":-122.4313,"reserved":0,"last_update":"0001-01-01T00:00:00Z","name_a2s":"Uncletopia | San Francisco | 1 | All Maps","protocol":17,"map":"koth_highpass","folder":"tf","game":"Team Fortress","app_id":440,"player_count":0,"max_players":24,"Bots":0,"server_type":"Dedicated","server_os":"Linux","password":true,"vac":true,"version":"7961495","steam_id":85568392924469999,"keywords":["cp","nocrits","nodmgspread","uncletopia"],"game_id":440,"stv_port":27016,"stv_name":"Uncletopia | San Francisco | 1 | All Maps | STV","players":null},{"server_id":18,"name":"Uncletopia | San Francisco | 2 | All Maps","name_short":"sfo-2","host":"sfo-1.us.uncletopia.com","port":27025,"enabled":true,"region":"us-west","cc":"us","latitude":37.77397,"longitude":-122.4313,"reserved":0,"last_update":"0001-01-01T00:00:00Z","name_a2s":"Uncletopia | San Francisco | 2 | All Maps","protocol":17,"map":"cp_dustbowl","folder":"tf","game":"Team Fortress","app_id":440,"player_count":0,"max_players":24,"Bots":0,"server_type":"Dedicated","server_os":"Linux","password":true,"vac":true,"version":"7961495","steam_id":85568392924470000,"keywords":["cp","nocrits","nodmgspread","uncletopia"],"game_id":440,"stv_port":27026,"stv_name":"Uncletopia | San Francisco | 2 | All Maps | STV","players":null},{"server_id":19,"name":"Uncletopia | San Francisco | 3 | Stopwatch","name_short":"sfo-3","host":"sfo-1.us.uncletopia.com","port":27035,"enabled":true,"region":"us-west","cc":"us","latitude":37.77397,"longitude":-122.4313,"reserved":0,"last_update":"0001-01-01T00:00:00Z","name_a2s":"Uncletopia | San Francisco | 3 | Stopwatch","protocol":17,"map":"workshop/koth_product_final.ugc454272353","folder":"tf","game":"Team Fortress","app_id":440,"player_count":0,"max_players":24,"Bots":0,"server_type":"Dedicated","server_os":"Linux","password":true,"vac":true,"version":"7961495","steam_id":85568392924742824,"keywords":["cp","nocrits","nodmgspread","uncletopia"],"game_id":440,"stv_port":27036,"stv_name":"Uncletopia | San Francisco | 3 | Stopwatch | STV","players":null},{"server_id":20,"name":"Uncletopia | San Francisco | 4 | Community","name_short":"sfo-4","host":"sfo-1.us.uncletopia.com","port":27045,"enabled":true,"region":"us-west","cc":"us","latitude":37.77397,"longitude":-122.4313,"reserved":0,"last_update":"0001-01-01T00:00:00Z","name_a2s":"Uncletopia | San Francisco | 4 | Community","protocol":17,"map":"workshop/pl_cactuscanyon_redux_final2.ugc2579644293","folder":"tf","game":"Team Fortress","app_id":440,"player_count":0,"max_players":24,"Bots":0,"server_type":"Dedicated","server_os":"Linux","password":true,"vac":true,"version":"7961495","steam_id":85568392924742826,"keywords":["nocrits","nodmgspread","payload","uncletopia"],"game_id":440,"stv_port":27046,"stv_name":"Uncletopia | San Francisco | 4 | Community | STV","players":null},{"server_id":141,"name":"Uncletopia | Sydney | 1 | All Maps","name_short":"syd-1","host":"syd-1.au.uncletopia.com","port":27015,"enabled":true,"region":"au","cc":"au","latitude":-33.865143,"longitude":151.2099,"reserved":0,"last_update":"0001-01-01T00:00:00Z","name_a2s":"Uncletopia | Sydney | 1 | All Maps","protocol":17,"map":"cp_snakewater_final1","folder":"tf","game":"Team Fortress","app_id":440,"player_count":0,"max_players":24,"Bots":0,"server_type":"Dedicated","server_os":"Linux","password":true,"vac":true,"version":"7961495","steam_id":85568392924470001,"keywords":["cp","nocrits","nodmgspread","uncletopia"],"game_id":440,"stv_port":27016,"stv_name":"Uncletopia | Sydney | 1 | All Maps | STV","players":null},{"server_id":123,"name":"Uncletopia | Sydney | 2 | All Maps","name_short":"syd-2","host":"syd-1.au.uncletopia.com","port":27025,"enabled":true,"region":"au","cc":"au","latitude":-33.865143,"longitude":151.2099,"reserved":0,"last_update":"0001-01-01T00:00:00Z","name_a2s":"Uncletopia | Sydney | 2 | All Maps","protocol":17,"map":"cp_fastlane","folder":"tf","game":"Team Fortress","app_id":440,"player_count":0,"max_players":24,"Bots":0,"server_type":"Dedicated","server_os":"Linux","password":true,"vac":true,"version":"7961495","steam_id":85568392924470002,"keywords":["cp","nocrits","nodmgspread","uncletopia"],"game_id":440,"stv_port":27026,"stv_name":"Uncletopia | Sydney | 2 | All Maps | STV","players":null},{"server_id":395,"name":"Uncletopia | Sydney | 3 | All Maps","name_short":"syd-3","host":"syd-1.au.uncletopia.com","port":27035,"enabled":true,"region":"au","cc":"au","latitude":-33.865143,"longitude":151.2099,"reserved":0,"last_update":"0001-01-01T00:00:00Z","name_a2s":"Uncletopia | Sydney | 3 | All Maps","protocol":17,"map":"cp_metalworks","folder":"tf","game":"Team Fortress","app_id":440,"player_count":0,"max_players":24,"Bots":0,"server_type":"Dedicated","server_os":"Linux","password":true,"vac":true,"version":"7961495","steam_id":85568392925194467,"keywords":["cp","nocrits","nodmgspread","uncletopia"],"game_id":440,"stv_port":27036,"stv_name":"Uncletopia | Sydney | 3 | All Maps | STV","players":null},{"server_id":396,"name":"Uncletopia | Sydney | 4 | All Maps","name_short":"syd-4","host":"syd-1.au.uncletopia.com","port":27045,"enabled":true,"region":"au","cc":"au","latitude":-33.865143,"longitude":151.2099,"reserved":0,"last_update":"0001-01-01T00:00:00Z","name_a2s":"Uncletopia | Sydney | 4 | All Maps","protocol":17,"map":"koth_cascade","folder":"tf","game":"Team Fortress","app_id":440,"player_count":0,"max_players":24,"Bots":0,"server_type":"Dedicated","server_os":"Linux","password":true,"vac":true,"version":"7961495","steam_id":85568392925397958,"keywords":["cp","nocrits","nodmgspread","uncletopia"],"game_id":440,"stv_port":27046,"stv_name":"Uncletopia | Sydney | 4 | All Maps | STV","players":null},{"server_id":58,"name":"Uncletopia | Sydney | 5 | Stopwatch","name_short":"syd-5","host":"syd-1.au.uncletopia.com","port":27055,"enabled":true,"region":"au","cc":"au","latitude":-33.865143,"longitude":151.2099,"reserved":0,"last_update":"0001-01-01T00:00:00Z","name_a2s":"Uncletopia | Sydney | 5 | Stopwatch","protocol":17,"map":"workshop/koth_product_final.ugc454272353","folder":"tf","game":"Team Fortress","app_id":440,"player_count":0,"max_players":24,"Bots":0,"server_type":"Dedicated","server_os":"Linux","password":true,"vac":true,"version":"7961495","steam_id":85568392925397959,"keywords":["cp","nocrits","nodmgspread","uncletopia"],"game_id":440,"stv_port":27056,"stv_name":"Uncletopia | Sydney | 5 | Stopwatch | STV","players":null},{"server_id":59,"name":"Uncletopia | Sydney | 6 | Community","name_short":"syd-6","host":"syd-1.au.uncletopia.com","port":27065,"enabled":true,"region":"au","cc":"au","latitude":-33.865143,"longitude":151.2099,"reserved":0,"last_update":"0001-01-01T00:00:00Z","name_a2s":"Uncletopia | Sydney | 6 | Community","protocol":17,"map":"workshop/koth_trenchfoot_ab1.ugc731436616","folder":"tf","game":"Team Fortress","app_id":440,"player_count":0,"max_players":24,"Bots":0,"server_type":"Dedicated","server_os":"Linux","password":true,"vac":true,"version":"7961495","steam_id":85568392925397960,"keywords":["cp","nocrits","nodmgspread","uncletopia"],"game_id":440,"stv_port":27066,"stv_name":"Uncletopia | Sydney | 6 | Community | STV","players":null},{"server_id":49,"name":"Uncletopia | Warsaw | 1 | One Thousand Uncles","name_short":"waw-1","host":"waw-1.pl.uncletopia.com","port":27015,"enabled":true,"region":"eu","cc":"pl","latitude":52.2297,"longitude":21.017532,"reserved":0,"last_update":"0001-01-01T00:00:00Z","name_a2s":"Uncletopia | Warsaw | 1 | One Thousand Uncles","protocol":17,"map":"cp_dustbowl","folder":"tf","game":"Team Fortress","app_id":440,"player_count":29,"max_players":32,"Bots":16,"server_type":"Dedicated","server_os":"Linux","password":true,"vac":true,"version":"7961495","steam_id":85568392925397850,"keywords":["alltalk","bots","cp","danepve","increased_maxplayers","norespawntime","uncletopia"],"game_id":440,"stv_port":0,"stv_name":"","players":[{"user_id":519,"name":"Red wine gaming","steam_id":76561198134378108,"connected_time":3290000000000,"state":"active","ping":85},{"user_id":501,"name":"åldepth","steam_id":76561198427965963,"connected_time":3419000000000,"state":"active","ping":100},{"user_id":493,"name":"[HK]我係香港人","steam_id":76561198165376815,"connected_time":4615000000000,"state":"active","ping":86},{"user_id":522,"name":"PuPuruPuruPumPu","steam_id":76561198391950490,"connected_time":2872000000000,"state":"active","ping":104},{"user_id":465,"name":"The f2p enjoyer","steam_id":76561199100077788,"connected_time":5898000000000,"state":"active","ping":75},{"user_id":561,"name":"Dantevicious","steam_id":76561198086021748,"connected_time":91000000000,"state":"active","ping":97},{"user_id":550,"name":"DENON{MK}","steam_id":76561198031664819,"connected_time":1185000000000,"state":"active","ping":102},{"user_id":554,"name":"muztikmuztiko","steam_id":76561199272029074,"connected_time":700000000000,"state":"active","ping":84},{"user_id":557,"name":"nazarik","steam_id":76561199062469396,"connected_time":310000000000,"state":"active","ping":60},{"user_id":532,"name":"aaaaaa","steam_id":76561198086304421,"connected_time":2213000000000,"state":"active","ping":117},{"user_id":525,"name":"Phantom","steam_id":76561199161244218,"connected_time":2764000000000,"state":"active","ping":56},{"user_id":556,"name":"Swati","steam_id":76561198051360169,"connected_time":457000000000,"state":"active","ping":210},{"user_id":558,"name":"Lukas","steam_id":76561198009118452,"connected_time":141000000000,"state":"active","ping":67}]},{"server_id":50,"name":"Uncletopia | Warsaw | 2 | One Thousand Uncles","name_short":"waw-2","host":"waw-1.pl.uncletopia.com","port":27025,"enabled":true,"region":"eu","cc":"pl","latitude":52.2297,"longitude":21.017532,"reserved":0,"last_update":"0001-01-01T00:00:00Z","name_a2s":"Uncletopia | Warsaw | 2 | One Thousand Uncles","protocol":17,"map":"pl_thundermountain","folder":"tf","game":"Team Fortress","app_id":440,"player_count":0,"max_players":32,"Bots":0,"server_type":"Dedicated","server_os":"Linux","password":true,"vac":true,"version":"7961495","steam_id":85568392925397851,"keywords":["alltalk","danepve","increased_maxplayers","norespawntime","payload","uncletopia"],"game_id":440,"stv_port":0,"stv_name":"","players":null},{"server_id":51,"name":"Uncletopia | Warsaw | 3 | All Maps","name_short":"waw-3","host":"waw-1.pl.uncletopia.com","port":27035,"enabled":true,"region":"eu","cc":"pl","latitude":52.2297,"longitude":21.017532,"reserved":0,"last_update":"0001-01-01T00:00:00Z","name_a2s":"Uncletopia | Warsaw | 3 | All Maps","protocol":17,"map":"cp_sunshine","folder":"tf","game":"Team Fortress","app_id":440,"player_count":0,"max_players":24,"Bots":0,"server_type":"Dedicated","server_os":"Linux","password":true,"vac":true,"version":"7961495","steam_id":85568392925397852,"keywords":["cp","nocrits","nodmgspread","uncletopia"],"game_id":440,"stv_port":27036,"stv_name":"Uncletopia | Warsaw | 3 | All Maps | STV","players":null},{"server_id":52,"name":"Uncletopia | Warsaw | 4 | All Maps","name_short":"waw-4","host":"waw-1.pl.uncletopia.com","port":27045,"enabled":true,"region":"eu","cc":"pl","latitude":52.2297,"longitude":21.017532,"reserved":0,"last_update":"0001-01-01T00:00:00Z","name_a2s":"Uncletopia | Warsaw | 4 | All Maps","protocol":17,"map":"koth_cascade","folder":"tf","game":"Team Fortress","app_id":440,"player_count":0,"max_players":24,"Bots":0,"server_type":"Dedicated","server_os":"Linux","password":true,"vac":true,"version":"7961495","steam_id":85568392925397853,"keywords":["cp","nocrits","nodmgspread","uncletopia"],"game_id":440,"stv_port":27046,"stv_name":"Uncletopia | Warsaw | 4 | All Maps | STV","players":null},{"server_id":53,"name":"Uncletopia | Warsaw | 5 | Stopwatch","name_short":"waw-5","host":"waw-1.pl.uncletopia.com","port":27055,"enabled":true,"region":"eu","cc":"pl","latitude":52.2297,"longitude":21.017532,"reserved":0,"last_update":"0001-01-01T00:00:00Z","name_a2s":"Uncletopia | Warsaw | 5 | Stopwatch","protocol":17,"map":"koth_highpass","folder":"tf","game":"Team Fortress","app_id":440,"player_count":0,"max_players":24,"Bots":0,"server_type":"Dedicated","server_os":"Linux","password":true,"vac":true,"version":"7961495","steam_id":85568392925397854,"keywords":["cp","nocrits","nodmgspread","uncletopia"],"game_id":440,"stv_port":27056,"stv_name":"Uncletopia | Warsaw | 5 | Stopwatch | STV","players":null},{"server_id":54,"name":"Uncletopia | Warsaw | 6 | Community","name_short":"waw-6","host":"waw-1.pl.uncletopia.com","port":27065,"enabled":true,"region":"eu","cc":"pl","latitude":52.2297,"longitude":21.017532,"reserved":0,"last_update":"0001-01-01T00:00:00Z","name_a2s":"Uncletopia | Warsaw | 6 | Community","protocol":17,"map":"workshop/rd_asteroid_redux_b1.ugc2154902912","folder":"tf","game":"Team Fortress","app_id":440,"player_count":0,"max_players":24,"Bots":0,"server_type":"Dedicated","server_os":"Linux","password":true,"vac":true,"version":"7961495","steam_id":85568392925397856,"keywords":["beta","nocrits","nodmgspread","rd","uncletopia"],"game_id":440,"stv_port":27066,"stv_name":"Uncletopia | Warsaw | 6 | Community | STV","players":null}]}