{"status":true,"message":"","result":[{"server_id":9,"name":"Uncletopia | Atlanta | 1 | All Maps","name_short":"atl-1","host":"atl-1.us.uncletopia.com","port":27015,"enabled":true,"region":"us-east","cc":"us","latitude":33.753746,"longitude":-84.38633,"reserved":0,"last_update":"0001-01-01T00:00:00Z","name_a2s":"Uncletopia | Atlanta | 1 | All Maps","protocol":17,"map":"koth_suijin","folder":"tf","game":"Team Fortress","app_id":440,"player_count":6,"max_players":24,"Bots":0,"server_type":"Dedicated","server_os":"Linux","password":true,"vac":true,"version":"7704440","steam_id":85568392924469982,"keywords":["cp","nocrits","nodmgspread","uncletopia"],"game_id":440,"stv_port":27016,"stv_name":"Uncletopia | Atlanta | 1 | All Maps | STV","players":[{"user_id":25,"name":"Wexer15","steam_id":76561199083941163,"connected_time":1762000000000,"state":"active","ping":149},{"user_id":37,"name":"-|Kappin'|- ExplosiveDiahrea","steam_id":76561198017045020,"connected_time":49000000000,"state":"active","ping":151},{"user_id":29,"name":"Texan","steam_id":76561199386939629,"connected_time":1110000000000,"state":"active","ping":68},{"user_id":27,"name":"randomoneye","steam_id":76561199380157176,"connected_time":1660000000000,"state":"active","ping":203},{"user_id":38,"name":"-|Kappin'|- Kilbo Fraggins™","steam_id":76561197994725498,"connected_time":41000000000,"state":"spawning","ping":121},{"user_id":34,"name":"Goose Pyro","steam_id":76561198994984332,"connected_time":559000000000,"state":"active","ping":134}]},{"server_id":400,"name":"Uncletopia | Atlanta | 3 | All Maps","name_short":"atl-3","host":"atl-1.us.uncletopia.com","port":27035,"enabled":true,"region":"us-east","cc":"us","latitude":33.753746,"longitude":-84.38633,"reserved":0,"last_update":"0001-01-01T00:00:00Z","name_a2s":"Uncletopia | Atlanta | 3 | All Maps","protocol":17,"map":"koth_lakeside_final","folder":"tf","game":"Team Fortress","app_id":440,"player_count":2,"max_players":24,"Bots":0,"server_type":"Dedicated","server_os":"Linux","password":true,"vac":true,"version":"7704440","steam_id":85568392924515187,"keywords":["cp","nocrits","nodmgspread","uncletopia"],"game_id":440,"stv_port":27036,"stv_name":"Uncletopia | Atlanta | 3 | All Maps | STV","players":[{"user_id":16,"name":"peacekeeper","steam_id":76561199260462952,"connected_time":891000000000,"state":"active","ping":173},{"user_id":17,"name":"Nico","steam_id":76561198125701869,"connected_time":378000000000,"state":"active","ping":98}]},{"server_id":401,"name":"Uncletopia | Atlanta | 4 | No Payload","name_short":"atl-4","host":"atl-1.us.uncletopia.com","port":27045,"enabled":true,"region":"us-east","cc":"us","latitude":33.753746,"longitude":-84.38633,"reserved":0,"last_update":"0001-01-01T00:00:00Z","name_a2s":"Uncletopia | Atlanta | 4 | No Payload","protocol":17,"map":"pl_swiftwater_final1","folder":"tf","game":"Team Fortress","app_id":440,"player_count":0,"max_players":24,"Bots":0,"server_type":"Dedicated","server_os":"Linux","password":true,"vac":true,"version":"7704440","steam_id":85568392924515188,"keywords":["nocrits","nodmgspread","payload","uncletopia"],"game_id":440,"stv_port":0,"stv_name":"","players":null},{"server_id":2,"name":"Uncletopia | Chicago | 1 | All Maps","name_short":"chi-1","host":"chi-1.us.uncletopia.com","port":27015,"enabled":true,"region":"us-central","cc":"us","latitude":41.881832,"longitude":-87.62318,"reserved":0,"last_update":"0001-01-01T00:00:00Z","name_a2s":"Uncletopia | Chicago | 1 | All Maps","protocol":17,"map":"pl_barnblitz","folder":"tf","game":"Team Fortress","app_id":440,"player_count":24,"max_players":24,"Bots":0,"server_type":"Dedicated","server_os":"Linux","password":true,"vac":true,"version":"7704440","steam_id":85568392924469984,"keywords":["nocrits","nodmgspread","payload","uncletopia"],"game_id":440,"stv_port":27016,"stv_name":"Uncletopia | Chicago | 1 | All Maps | STV","players":[{"user_id":98,"name":"The_atom_bomb","steam_id":76561198139944683,"connected_time":516000000000,"state":"active","ping":55},{"user_id":77,"name":"Pelinal","steam_id":76561199061086990,"connected_time":3628000000000,"state":"active","ping":165},{"user_id":64,"name":"aisu","steam_id":76561198043768507,"connected_time":4742000000000,"state":"active","ping":68},{"user_id":106,"name":"Zeadros","steam_id":76561198170158482,"connected_time":162000000000,"state":"active","ping":58},{"user_id":100,"name":"Rice2MeetYou","steam_id":76561198025504965,"connected_time":437000000000,"state":"active","ping":60},{"user_id":69,"name":"The Big","steam_id":76561198078572184,"connected_time":4072000000000,"state":"active","ping":75},{"user_id":102,"name":"Rein","steam_id":76561198300340427,"connected_time":381000000000,"state":"active","ping":61},{"user_id":17,"name":"Chode Mode","steam_id":76561198353840477,"connected_time":7257000000000,"state":"active","ping":57},{"user_id":71,"name":"Female Gamer","steam_id":76561199366482682,"connected_time":3699000000000,"state":"active","ping":94},{"user_id":65,"name":"Rornir","steam_id":76561198081829615,"connected_time":4715000000000,"state":"active","ping":39},{"user_id":73,"name":"Guwahavel","steam_id":76561198246181902,"connected_time":3663000000000,"state":"active","ping":68},{"user_id":66,"name":"coffeeboy","steam_id":76561198049944251,"connected_time":4646000000000,"state":"active","ping":65},{"user_id":96,"name":"lag","steam_id":76561197963872739,"connected_time":624000000000,"state":"active","ping":92},{"user_id":85,"name":"OrionKid","steam_id":76561198359094901,"connected_time":2494000000000,"state":"active","ping":81},{"user_id":103,"name":"MightyMorphinMesothelioma","steam_id":76561198088339246,"connected_time":378000000000,"state":"active","ping":63},{"user_id":104,"name":"chillin smokin vibin","steam_id":76561198041348890,"connected_time":208000000000,"state":"active","ping":55},{"user_id":89,"name":"John Darksoul","steam_id":76561198031675881,"connected_time":1857000000000,"state":"active","ping":69},{"user_id":90,"name":"Chimpish","steam_id":76561199263493270,"connected_time":1847000000000,"state":"active","ping":83},{"user_id":95,"name":"TÖZI","steam_id":76561198045268695,"connected_time":796000000000,"state":"active","ping":57},{"user_id":84,"name":"Tyler\u0026Fingers","steam_id":76561198085154485,"connected_time":2797000000000,"state":"active","ping":70},{"user_id":92,"name":"Whoa","steam_id":76561197970353496,"connected_time":1454000000000,"state":"active","ping":75},{"user_id":37,"name":"Airon","steam_id":76561197970481950,"connected_time":6693000000000,"state":"active","ping":162},{"user_id":107,"name":"yitz","steam_id":76561198375575841,"connected_time":145000000000,"state":"active","ping":59},{"user_id":75,"name":"Void","steam_id":76561198308290211,"connected_time":3659000000000,"state":"active","ping":120}]},{"server_id":106,"name":"Uncletopia | Chicago | 2 | All Maps","name_short":"chi-2","host":"chi-1.us.uncletopia.com","port":27025,"enabled":true,"region":"us-central","cc":"us","latitude":41.881832,"longitude":-87.62318,"reserved":0,"last_update":"0001-01-01T00:00:00Z","name_a2s":"Uncletopia | Chicago | 2 | All Maps","protocol":17,"map":"koth_lakeside_final","folder":"tf","game":"Team Fortress","app_id":440,"player_count":20,"max_players":24,"Bots":0,"server_type":"Dedicated","server_os":"Linux","password":true,"vac":true,"version":"7704440","steam_id":85568392924469985,"keywords":["cp","nocrits","nodmgspread","uncletopia"],"game_id":440,"stv_port":27026,"stv_name":"Uncletopia | Chicago | 2 | All Maps | STV","players":[{"user_id":200,"name":"Chrome Knight","steam_id":76561198851348871,"connected_time":762000000000,"state":"active","ping":72},{"user_id":206,"name":"umbrellajack","steam_id":76561199216952776,"connected_time":520000000000,"state":"active","ping":136},{"user_id":189,"name":"Alibyssel","steam_id":76561199195784827,"connected_time":1378000000000,"state":"active","ping":83},{"user_id":207,"name":"The_Tax_Man","steam_id":76561198205246144,"connected_time":399000000000,"state":"active","ping":72},{"user_id":190,"name":"fi_ji","steam_id":76561198126087725,"connected_time":1354000000000,"state":"active","ping":69},{"user_id":215,"name":"Timbs!!","steam_id":76561198156215344,"connected_time":115000000000,"state":"active","ping":64},{"user_id":216,"name":"Maeko","steam_id":76561198111925708,"connected_time":93000000000,"state":"active","ping":80},{"user_id":201,"name":"Rotation","steam_id":76561198865324866,"connected_time":680000000000,"state":"active","ping":74},{"user_id":217,"name":"prdxninja","steam_id":76561198170081774,"connected_time":83000000000,"state":"active","ping":41},{"user_id":191,"name":"StuartBell511","steam_id":76561198060931721,"connected_time":1326000000000,"state":"active","ping":67},{"user_id":181,"name":"Nomad","steam_id":76561198170173062,"connected_time":2133000000000,"state":"active","ping":92},{"user_id":219,"name":"Curly-Haired Rogue","steam_id":76561198101915594,"connected_time":11000000000,"state":"spawning","ping":84},{"user_id":212,"name":"hamude.alsarhan2011","steam_id":76561199259727736,"connected_time":202000000000,"state":"active","ping":163},{"user_id":202,"name":"Tourmaline Lazuli","steam_id":76561198987049358,"connected_time":625000000000,"state":"active","ping":44},{"user_id":220,"name":"SnowStorm","steam_id":76561198095817025,"connected_time":5000000000,"state":"spawning","ping":62},{"user_id":213,"name":"von","steam_id":76561199003913101,"connected_time":202000000000,"state":"active","ping":54},{"user_id":214,"name":"Corbe","steam_id":76561198353893927,"connected_time":143000000000,"state":"active","ping":36},{"user_id":218,"name":"Miramar","steam_id":76561198022057653,"connected_time":76000000000,"state":"active","ping":75},{"user_id":203,"name":"toastman","steam_id":76561198207073088,"connected_time":593000000000,"state":"active","ping":61},{"user_id":199,"name":"Moz","steam_id":76561198027171160,"connected_time":993000000000,"state":"active","ping":43}]},{"server_id":402,"name":"Uncletopia | Chicago | 3 | All Maps","name_short":"chi-3","host":"chi-1.us.uncletopia.com","port":27035,"enabled":true,"region":"us-central","cc":"us","latitude":41.881832,"longitude":-87.62318,"reserved":0,"last_update":"0001-01-01T00:00:00Z","name_a2s":"Uncletopia | Chicago | 3 | All Maps","protocol":17,"map":"ctf_frosty","folder":"tf","game":"Team Fortress","app_id":440,"player_count":6,"max_players":24,"Bots":0,"server_type":"Dedicated","server_os":"Linux","password":true,"vac":true,"version":"7704440","steam_id":85568392924515191,"keywords":["ctf","nocrits","nodmgspread","uncletopia"],"game_id":440,"stv_port":27036,"stv_name":"Uncletopia | Chicago | 3 | All Maps | STV","players":[{"user_id":166,"name":"Kovalski","steam_id":76561199092689216,"connected_time":43000000000,"state":"active","ping":160},{"user_id":164,"name":"thezranger","steam_id":76561198454086460,"connected_time":516000000000,"state":"active","ping":113},{"user_id":158,"name":"Thumbs","steam_id":76561199065890132,"connected_time":1041000000000,"state":"active","ping":47},{"user_id":139,"name":"majorbobfunction","steam_id":76561198042464632,"connected_time":1961000000000,"state":"active","ping":45},{"user_id":153,"name":"BigBoy","steam_id":76561198099017793,"connected_time":1467000000000,"state":"active","ping":67},{"user_id":155,"name":"PP pump (water)","steam_id":76561198079462109,"connected_time":1445000000000,"state":"active","ping":84}]},{"server_id":403,"name":"Uncletopia | Chicago | 4 | All Maps","name_short":"chi-4","host":"chi-1.us.uncletopia.com","port":27045,"enabled":true,"region":"us-central","cc":"us","latitude":41.881832,"longitude":-87.62318,"reserved":0,"last_update":"0001-01-01T00:00:00Z","name_a2s":"Uncletopia | Chicago | 4 | All Maps","protocol":17,"map":"koth_lakeside_final","folder":"tf","game":"Team Fortress","app_id":440,"player_count":1,"max_players":24,"Bots":0,"server_type":"Dedicated","server_os":"Linux","password":true,"vac":true,"version":"7704440","steam_id":85568392924515193,"keywords":["cp","nocrits","nodmgspread","uncletopia"],"game_id":440,"stv_port":0,"stv_name":"","players":[{"user_id":5,"name":"Turnups","steam_id":76561199078299198,"connected_time":52000000000,"state":"active","ping":86}]},{"server_id":36,"name":"Uncletopia | Chicago | 5 | All Maps","name_short":"chi-5","host":"chi-2.us.uncletopia.com","port":27015,"enabled":true,"region":"us-central","cc":"us","latitude":41.881832,"longitude":-87.62318,"reserved":0,"last_update":"0001-01-01T00:00:00Z","name_a2s":"Uncletopia | Chicago | 5 | All Maps","protocol":17,"map":"pl_borneo","folder":"tf","game":"Team Fortress","app_id":440,"player_count":0,"max_players":24,"Bots":0,"server_type":"Dedicated","server_os":"Linux","password":true,"vac":true,"version":"7704440","steam_id":85568392924866362,"keywords":["nocrits","nodmgspread","payload","uncletopia"],"game_id":440,"stv_port":0,"stv_name":"","players":null},{"server_id":37,"name":"Uncletopia | Chicago | 6 | All Maps","name_short":"chi-6","host":"chi-2.us.uncletopia.com","port":27025,"enabled":true,"region":"us-central","cc":"us","latitude":41.881832,"longitude":-87.62318,"reserved":0,"last_update":"0001-01-01T00:00:00Z","name_a2s":"Uncletopia | Chicago | 6 | All Maps","protocol":17,"map":"pl_upward","folder":"tf","game":"Team Fortress","app_id":440,"player_count":0,"max_players":24,"Bots":0,"server_type":"Dedicated","server_os":"Linux","password":true,"vac":true,"version":"7704440","steam_id":85568392924866363,"keywords":["nocrits","nodmgspread","payload","uncletopia"],"game_id":440,"stv_port":0,"stv_name":"","players":null},{"server_id":38,"name":"Uncletopia | Chicago | 7 | No Payload","name_short":"chi-7","host":"chi-2.us.uncletopia.com","port":27035,"enabled":true,"region":"us-central","cc":"us","latitude":41.881832,"longitude":-87.62318,"reserved":0,"last_update":"0001-01-01T00:00:00Z","name_a2s":"Uncletopia | Chicago | 7 | No Payload","protocol":17,"map":"pl_snowycoast","folder":"tf","game":"Team Fortress","app_id":440,"player_count":0,"max_players":24,"Bots":0,"server_type":"Dedicated","server_os":"Linux","password":true,"vac":true,"version":"7704440","steam_id":85568392924866364,"keywords":["nocrits","nodmgspread","payload","uncletopia"],"game_id":440,"stv_port":0,"stv_name":"","players":null},{"server_id":39,"name":"Uncletopia | Chicago | 8 | Community","name_short":"chi-8","host":"chi-2.us.uncletopia.com","port":27045,"enabled":true,"region":"us-central","cc":"us","latitude":41.881832,"longitude":-87.62318,"reserved":0,"last_update":"0001-01-01T00:00:00Z","name_a2s":"Uncletopia | Chicago | 8 | Community","protocol":17,"map":"pl_upward","folder":"tf","game":"Team Fortress","app_id":440,"player_count":0,"max_players":24,"Bots":0,"server_type":"Dedicated","server_os":"Linux","password":true,"vac":true,"version":"7704440","steam_id":85568392924866365,"keywords":["nocrits","nodmgspread","payload","uncletopia"],"game_id":440,"stv_port":0,"stv_name":"","players":null},{"server_id":8,"name":"Uncletopia | Dallas | 1 | All Maps","name_short":"dal-1","host":"dal-1.us.uncletopia.com","port":27015,"enabled":true,"region":"us-central","cc":"us","latitude":32.779167,"longitude":-96.80889,"reserved":0,"last_update":"0001-01-01T00:00:00Z","name_a2s":"Uncletopia | Dallas | 1 | All Maps","protocol":17,"map":"pl_barnblitz","folder":"tf","game":"Team Fortress","app_id":440,"player_count":0,"max_players":24,"Bots":0,"server_type":"Dedicated","server_os":"Linux","password":true,"vac":true,"version":"7704440","steam_id":85568392924469986,"keywords":["nocrits","nodmgspread","payload","uncletopia"],"game_id":440,"stv_port":27016,"stv_name":"Uncletopia | Dallas | 1 | All Maps | STV","players":null},{"server_id":108,"name":"Uncletopia | Dallas | 2 | All Maps","name_short":"dal-2","host":"dal-1.us.uncletopia.com","port":27025,"enabled":true,"region":"us-central","cc":"us","latitude":32.779167,"longitude":-96.80889,"reserved":0,"last_update":"0001-01-01T00:00:00Z","name_a2s":"Uncletopia | Dallas | 2 | All Maps","protocol":17,"map":"cp_mountainlab","folder":"tf","game":"Team Fortress","app_id":440,"player_count":0,"max_players":24,"Bots":0,"server_type":"Dedicated","server_os":"Linux","password":true,"vac":true,"version":"7704440","steam_id":85568392924469988,"keywords":["cp","nocrits","nodmgspread","uncletopia"],"game_id":440,"stv_port":27026,"stv_name":"Uncletopia | Dallas | 2 | All Maps | STV","players":null},{"server_id":5,"name":"Uncletopia | Frankfurt | 1 | All Maps","name_short":"frk-1","host":"frk-1.de.uncletopia.com","port":27015,"enabled":true,"region":"eu","cc":"de","latitude":50.110924,"longitude":8.682127,"reserved":0,"last_update":"0001-01-01T00:00:00Z","name_a2s":"Uncletopia | Frankfurt | 1 | All Maps","protocol":17,"map":"pl_badwater","folder":"tf","game":"Team Fortress","app_id":440,"player_count":25,"max_players":24,"Bots":0,"server_type":"Dedicated","server_os":"Linux","password":true,"vac":true,"version":"7704440","steam_id":85568392924469989,"keywords":["nocrits","nodmgspread","payload","uncletopia"],"game_id":440,"stv_port":27016,"stv_name":"Uncletopia | Frankfurt | 1 | All Maps | STV","players":[{"user_id":537,"name":"Caliban","steam_id":76561197999696839,"connected_time":2906000000000,"state":"active","ping":94},{"user_id":535,"name":"Pestdoktor","steam_id":76561198058159271,"connected_time":3121000000000,"state":"active","ping":61},{"user_id":536,"name":"Professional Gibus Spy (F2P)","steam_id":76561199082683456,"connected_time":3041000000000,"state":"active","ping":99},{"user_id":580,"name":"fаt cսոt","steam_id":76561198845550388,"connected_time":1186000000000,"state":"active","ping":116},{"user_id":583,"name":"blz","steam_id":76561198180979137,"connected_time":981000000000,"state":"active","ping":72},{"user_id":533,"name":"pandeux","steam_id":76561198343527617,"connected_time":3265000000000,"state":"active","ping":56},{"user_id":553,"name":"Serton♝","steam_id":76561198011061126,"connected_time":2364000000000,"state":"active","ping":93},{"user_id":584,"name":"ScoutPilgrim","steam_id":76561198013007215,"connected_time":957000000000,"state":"active","ping":57},{"user_id":560,"name":"Meatballs","steam_id":76561198005948884,"connected_time":1951000000000,"state":"active","ping":61},{"user_id":585,"name":"Rudebwoyyy","steam_id":76561199387956486,"connected_time":954000000000,"state":"active","ping":53},{"user_id":559,"name":"Transgender E-girl","steam_id":76561198168589809,"connected_time":1984000000000,"state":"active","ping":67},{"user_id":575,"name":"generic alias","steam_id":76561198271607226,"connected_time":1419000000000,"state":"active","ping":99},{"user_id":640,"name":"Vivian From Paper Mario","steam_id":76561198077624205,"connected_time":4000000000,"state":"spawning","ping":171},{"user_id":552,"name":"MrFumble","steam_id":76561198000555490,"connected_time":2425000000000,"state":"active","ping":78},{"user_id":608,"name":"Gabys","steam_id":76561198282892553,"connected_time":699000000000,"state":"active","ping":72},{"user_id":568,"name":"Bones","steam_id":76561198065081225,"connected_time":1553000000000,"state":"active","ping":78},{"user_id":532,"name":"Menty","steam_id":76561198036748212,"connected_time":3471000000000,"state":"active","ping":44},{"user_id":569,"name":"COFFEE","steam_id":76561198869355986,"connected_time":1538000000000,"state":"active","ping":61},{"user_id":600,"name":"miko csgofast.com","steam_id":76561198167085293,"connected_time":760000000000,"state":"active","ping":78},{"user_id":551,"name":"MrKampfCookie","steam_id":76561198085490175,"connected_time":2503000000000,"state":"active","ping":45},{"user_id":586,"name":"deVychu","steam_id":76561198078032019,"connected_time":947000000000,"state":"active","ping":84},{"user_id":572,"name":"outlaw","steam_id":76561198323805289,"connected_time":1476000000000,"state":"active","ping":41},{"user_id":634,"name":"fake jordans","steam_id":76561199250808808,"connected_time":128000000000,"state":"active","ping":76},{"user_id":530,"name":"LarsInABox","steam_id":76561198028329262,"connected_time":3725000000000,"state":"active","ping":72},{"user_id":582,"name":"barry from jetpack joyride","steam_id":76561198881575174,"connected_time":1012000000000,"state":"active","ping":67}]},{"server_id":110,"name":"Uncletopia | Frankfurt | 2 | All Maps","name_short":"frk-2","host":"frk-1.de.uncletopia.com","port":27025,"enabled":true,"region":"eu","cc":"de","latitude":50.110924,"longitude":8.682127,"reserved":0,"last_update":"0001-01-01T00:00:00Z","name_a2s":"Uncletopia | Frankfurt | 2 | All Maps","protocol":17,"map":"koth_harvest_final","folder":"tf","game":"Team Fortress","app_id":440,"player_count":24,"max_players":24,"Bots":0,"server_type":"Dedicated","server_os":"Linux","password":true,"vac":true,"version":"7704440","steam_id":85568392924469990,"keywords":["cp","nocrits","nodmgspread","uncletopia"],"game_id":440,"stv_port":27026,"stv_name":"Uncletopia | Frankfurt | 2 | All Maps | STV","players":[{"user_id":219,"name":"magnolia","steam_id":76561199228865188,"connected_time":1703000000000,"state":"active","ping":167},{"user_id":235,"name":"Efeca","steam_id":76561198018923829,"connected_time":1054000000000,"state":"active","ping":62},{"user_id":248,"name":"BELADIT","steam_id":76561198011911501,"connected_time":45000000000,"state":"active","ping":66},{"user_id":210,"name":"Bun","steam_id":76561197989239999,"connected_time":2185000000000,"state":"active","ping":57},{"user_id":249,"name":"swueuws","steam_id":76561198020716743,"connected_time":31000000000,"state":"active","ping":45},{"user_id":229,"name":"Saltzpyre_Gaiming","steam_id":76561198295461185,"connected_time":1463000000000,"state":"active","ping":98},{"user_id":246,"name":"Mor'du","steam_id":76561198274105878,"connected_time":131000000000,"state":"active","ping":73},{"user_id":209,"name":"wickEd_","steam_id":76561198048068999,"connected_time":2205000000000,"state":"active","ping":149},{"user_id":251,"name":"I wish I was polish","steam_id":76561199433578516,"connected_time":13000000000,"state":"spawning","ping":88},{"user_id":240,"name":"Komki","steam_id":76561198155140035,"connected_time":529000000000,"state":"active","ping":79},{"user_id":211,"name":"nori","steam_id":76561198099077097,"connected_time":2131000000000,"state":"active","ping":83},{"user_id":238,"name":"fallingpencil","steam_id":76561199230233148,"connected_time":667000000000,"state":"active","ping":63},{"user_id":250,"name":"Löysä Masa","steam_id":76561198343396172,"connected_time":24000000000,"state":"spawning","ping":89},{"user_id":220,"name":"Sireena","steam_id":76561198262042305,"connected_time":1692000000000,"state":"active","ping":75},{"user_id":233,"name":"XPullaHiiri","steam_id":76561198031652375,"connected_time":1254000000000,"state":"active","ping":83},{"user_id":166,"name":"walluu","steam_id":76561198121830870,"connected_time":6153000000000,"state":"active","ping":75},{"user_id":252,"name":"Deacon Dracul","steam_id":76561198046880663,"connected_time":9000000000,"state":"spawning","ping":121},{"user_id":177,"name":"Greed","steam_id":76561198034264020,"connected_time":5151000000000,"state":"active","ping":120},{"user_id":215,"name":"3xample","steam_id":76561198805049375,"connected_time":1762000000000,"state":"active","ping":67},{"user_id":192,"name":"Bell","steam_id":76561199413517335,"connected_time":3098000000000,"state":"active","ping":129},{"user_id":241,"name":"Alin","steam_id":76561198059679991,"connected_time":491000000000,"state":"active","ping":94},{"user_id":239,"name":"Klonky","steam_id":76561199068329886,"connected_time":560000000000,"state":"active","ping":71},{"user_id":247,"name":"Vitamin Weee","steam_id":76561199183937747,"connected_time":119000000000,"state":"active","ping":81},{"user_id":228,"name":"EaTtussy","steam_id":76561199235376543,"connected_time":1515000000000,"state":"active","ping":68}]},{"server_id":308,"name":"Uncletopia | Frankfurt | 3 | All Maps","name_short":"frk-3","host":"frk-1.de.uncletopia.com","port":27035,"enabled":true,"region":"eu","cc":"de","latitude":50.110924,"longitude":8.682127,"reserved":0,"last_update":"0001-01-01T00:00:00Z","name_a2s":"Uncletopia | Frankfurt | 3 | All Maps","protocol":17,"map":"pl_snowycoast","folder":"tf","game":"Team Fortress","app_id":440,"player_count":24,"max_players":24,"Bots":0,"server_type":"Dedicated","server_os":"Linux","password":true,"vac":true,"version":"7704440","steam_id":85568392924504274,"keywords":["nocrits","nodmgspread","payload","uncletopia"],"game_id":440,"stv_port":27036,"stv_name":"Uncletopia | Frankfurt | 3 | All Maps | STV","players":[{"user_id":63,"name":"The Kudl","steam_id":76561198075506857,"connected_time":810000000000,"state":"active","ping":87},{"user_id":45,"name":"The Fire Pyro","steam_id":76561198300296457,"connected_time":1616000000000,"state":"active","ping":69},{"user_id":57,"name":"disposablesuperbread","steam_id":76561199074703607,"connected_time":1156000000000,"state":"active","ping":63},{"user_id":66,"name":"AleNebbia","steam_id":76561198416012551,"connected_time":707000000000,"state":"active","ping":81},{"user_id":64,"name":"Phodom","steam_id":76561198348490786,"connected_time":798000000000,"state":"active","ping":64},{"user_id":48,"name":"DeCypher","steam_id":76561198171992619,"connected_time":1543000000000,"state":"active","ping":62},{"user_id":47,"name":"benifis163","steam_id":76561198420973492,"connected_time":1591000000000,"state":"active","ping":95},{"user_id":69,"name":"F4.exe","steam_id":76561198278822807,"connected_time":666000000000,"state":"active","ping":60},{"user_id":81,"name":"Ариша Бкб","steam_id":76561199061779250,"connected_time":72000000000,"state":"spawning","ping":62},{"user_id":76,"name":"a wheelbarrow (real)","steam_id":76561198220124617,"connected_time":390000000000,"state":"active","ping":54},{"user_id":43,"name":"presidentialAIDS","steam_id":76561199257284077,"connected_time":1783000000000,"state":"active","ping":117},{"user_id":50,"name":"forthingthe","steam_id":76561199370089653,"connected_time":1512000000000,"state":"active","ping":144},{"user_id":80,"name":"nafaszom","steam_id":76561198091175167,"connected_time":163000000000,"state":"active","ping":78},{"user_id":52,"name":"eMcP!","steam_id":76561198382509396,"connected_time":1356000000000,"state":"active","ping":67},{"user_id":53,"name":"Insanity Arc","steam_id":76561198314627088,"connected_time":1344000000000,"state":"active","ping":76},{"user_id":74,"name":"lofimonkeyjazz","steam_id":76561198117059662,"connected_time":507000000000,"state":"active","ping":75},{"user_id":56,"name":"Jalm","steam_id":76561198827989200,"connected_time":1237000000000,"state":"active","ping":65},{"user_id":59,"name":"Muffin Mcswagot ඞ","steam_id":76561198055394835,"connected_time":1027000000000,"state":"active","ping":72},{"user_id":77,"name":"G6 sherlock","steam_id":76561198802967796,"connected_time":389000000000,"state":"active","ping":121},{"user_id":67,"name":"Диана Тараска","steam_id":76561199009322650,"connected_time":682000000000,"state":"active","ping":93},{"user_id":78,"name":"Femto","steam_id":76561198044307112,"connected_time":387000000000,"state":"active","ping":76},{"user_id":71,"name":"france.bene.fb","steam_id":76561198416021999,"connected_time":620000000000,"state":"active","ping":66},{"user_id":72,"name":"Kaestal","steam_id":76561198033174157,"connected_time":608000000000,"state":"active","ping":158},{"user_id":73,"name":"Joe","steam_id":76561198061717026,"connected_time":537000000000,"state":"active","ping":60}]},{"server_id":309,"name":"Uncletopia | Frankfurt | 4 | All Maps","name_short":"frk-4","host":"frk-1.de.uncletopia.com","port":27045,"enabled":true,"region":"eu","cc":"de","latitude":50.110924,"longitude":8.682127,"reserved":0,"last_update":"0001-01-01T00:00:00Z","name_a2s":"Uncletopia | Frankfurt | 4 | All Maps","protocol":17,"map":"pl_frontier_final","folder":"tf","game":"Team Fortress","app_id":440,"player_count":24,"max_players":24,"Bots":0,"server_type":"Dedicated","server_os":"Linux","password":true,"vac":true,"version":"7704440","steam_id":85568392924504275,"keywords":["nocrits","nodmgspread","payload","uncletopia"],"game_id":440,"stv_port":27046,"stv_name":"Uncletopia | Frankfurt | 4 | All Maps | STV","players":[{"user_id":351,"name":"witxes","steam_id":76561199442579490,"connected_time":171000000000,"state":"active","ping":52},{"user_id":310,"name":"Aroo","steam_id":76561198132601368,"connected_time":2146000000000,"state":"active","ping":72},{"user_id":332,"name":"R3inis","steam_id":76561199030393569,"connected_time":928000000000,"state":"active","ping":84},{"user_id":350,"name":"Tides","steam_id":76561198257383813,"connected_time":251000000000,"state":"active","ping":47},{"user_id":282,"name":"sHIFTINGvORTEX","steam_id":76561198231648332,"connected_time":3756000000000,"state":"active","ping":73},{"user_id":354,"name":"No | S | uS","steam_id":76561199195727551,"connected_time":75000000000,"state":"active","ping":57},{"user_id":307,"name":"tealoverr.190","steam_id":76561199028497703,"connected_time":2367000000000,"state":"active","ping":100},{"user_id":352,"name":"Nuts Berserk","steam_id":76561198306391641,"connected_time":157000000000,"state":"active","ping":51},{"user_id":331,"name":"MrDimka","steam_id":76561199214148332,"connected_time":1032000000000,"state":"active","ping":79},{"user_id":342,"name":"AdgaroS","steam_id":76561198969373800,"connected_time":659000000000,"state":"active","ping":70},{"user_id":308,"name":"TheFlames","steam_id":76561198179314694,"connected_time":2323000000000,"state":"active","ping":59},{"user_id":330,"name":"Salih","steam_id":76561198287934839,"connected_time":1088000000000,"state":"active","ping":50},{"user_id":313,"name":"Burpman","steam_id":76561198022897937,"connected_time":2107000000000,"state":"active","ping":62},{"user_id":344,"name":"Qatuk","steam_id":76561198857696199,"connected_time":627000000000,"state":"active","ping":68},{"user_id":341,"name":"ruby (ribbit)","steam_id":76561198040870467,"connected_time":710000000000,"state":"active","ping":63},{"user_id":328,"name":"Grimm","steam_id":76561198044684227,"connected_time":1293000000000,"state":"active","ping":66},{"user_id":285,"name":"Carry Krypl","steam_id":76561198136938121,"connected_time":3550000000000,"state":"active","ping":50},{"user_id":337,"name":"miau","steam_id":76561198053919062,"connected_time":793000000000,"state":"active","ping":74},{"user_id":343,"name":"Maerk","steam_id":76561199119121016,"connected_time":647000000000,"state":"active","ping":75},{"user_id":326,"name":"Symbiosis","steam_id":76561198108094593,"connected_time":1420000000000,"state":"active","ping":113},{"user_id":339,"name":"Gagiclunk","steam_id":76561199194862650,"connected_time":755000000000,"state":"active","ping":78},{"user_id":345,"name":"player","steam_id":76561198054474684,"connected_time":621000000000,"state":"active","ping":79},{"user_id":281,"name":"Icarus300","steam_id":76561198015125766,"connected_time":3829000000000,"state":"active","ping":94},{"user_id":349,"name":"PlebCord","steam_id":76561198120685803,"connected_time":330000000000,"state":"active","ping":79}]},{"server_id":310,"name":"Uncletopia | Frankfurt | 5 | All Maps","name_short":"frk-5","host":"frk-1.de.uncletopia.com","port":27055,"enabled":true,"region":"eu","cc":"de","latitude":50.110924,"longitude":8.682127,"reserved":0,"last_update":"0001-01-01T00:00:00Z","name_a2s":"Uncletopia | Frankfurt | 5 | All Maps","protocol":17,"map":"pl_badwater","folder":"tf","game":"Team Fortress","app_id":440,"player_count":24,"max_players":24,"Bots":0,"server_type":"Dedicated","server_os":"Linux","password":true,"vac":true,"version":"7704440","steam_id":85568392924504277,"keywords":["nocrits","nodmgspread","payload","uncletopia"],"game_id":440,"stv_port":27056,"stv_name":"Uncletopia | Frankfurt | 5 | All Maps | STV","players":[{"user_id":117,"name":"ALL BALLS NO SHAFT","steam_id":76561198028701695,"connected_time":858000000000,"state":"active","ping":61},{"user_id":99,"name":"[P-roc] Cmm Bert","steam_id":76561198016658674,"connected_time":1309000000000,"state":"active","ping":71},{"user_id":68,"name":"dongus","steam_id":76561198042774930,"connected_time":4526000000000,"state":"active","ping":76},{"user_id":124,"name":"MAKENTAKEN","steam_id":76561199127359587,"connected_time":170000000000,"state":"active","ping":89},{"user_id":80,"name":"Snus aus Preußen","steam_id":76561197992185747,"connected_time":3154000000000,"state":"active","ping":55},{"user_id":95,"name":"El Gato Volador","steam_id":76561198021296882,"connected_time":1709000000000,"state":"active","ping":68},{"user_id":108,"name":"zinzyk","steam_id":76561198128011822,"connected_time":1157000000000,"state":"active","ping":59},{"user_id":91,"name":"Boobs rater","steam_id":76561198066977580,"connected_time":1954000000000,"state":"active","ping":93},{"user_id":109,"name":"[P-roc] Lovely","steam_id":76561198074361075,"connected_time":1140000000000,"state":"active","ping":67},{"user_id":48,"name":"Waffles","steam_id":76561199086942763,"connected_time":5533000000000,"state":"active","ping":77},{"user_id":115,"name":"Birne","steam_id":76561198001335120,"connected_time":891000000000,"state":"active","ping":62},{"user_id":121,"name":"SpyCrab  Erik Twice","steam_id":76561198009710309,"connected_time":771000000000,"state":"active","ping":63},{"user_id":119,"name":"Octis","steam_id":76561198015536917,"connected_time":824000000000,"state":"active","ping":77},{"user_id":81,"name":"porridge","steam_id":76561198044585737,"connected_time":3059000000000,"state":"active","ping":67},{"user_id":94,"name":"Chocofrolik","steam_id":76561198454779847,"connected_time":1786000000000,"state":"active","ping":76},{"user_id":111,"name":"robot30005","steam_id":76561198998112701,"connected_time":976000000000,"state":"active","ping":60},{"user_id":75,"name":"obi","steam_id":76561198040154461,"connected_time":3932000000000,"state":"active","ping":58},{"user_id":116,"name":"Bentoman","steam_id":76561198154956469,"connected_time":889000000000,"state":"active","ping":57},{"user_id":123,"name":"relax, sugar tits","steam_id":76561197988085026,"connected_time":403000000000,"state":"active","ping":72},{"user_id":103,"name":"jaime8D","steam_id":76561197980590671,"connected_time":1301000000000,"state":"active","ping":89},{"user_id":122,"name":"Estyle","steam_id":76561198157804700,"connected_time":599000000000,"state":"active","ping":90},{"user_id":125,"name":"NotFionn","steam_id":76561198890525176,"connected_time":80000000000,"state":"active","ping":90},{"user_id":85,"name":"SIGMA BALLS","steam_id":76561198302623594,"connected_time":2999000000000,"state":"active","ping":100},{"user_id":114,"name":"cafè","steam_id":76561198037938833,"connected_time":913000000000,"state":"active","ping":58}]},{"server_id":311,"name":"Uncletopia | Frankfurt | 6 | All Maps","name_short":"frk-6","host":"frk-1.de.uncletopia.com","port":27065,"enabled":true,"region":"eu","cc":"de","latitude":50.110924,"longitude":8.682127,"reserved":0,"last_update":"0001-01-01T00:00:00Z","name_a2s":"Uncletopia | Frankfurt | 6 | All Maps","protocol":17,"map":"koth_lakeside_final","folder":"tf","game":"Team Fortress","app_id":440,"player_count":0,"max_players":24,"Bots":0,"server_type":"Dedicated","server_os":"Linux","password":true,"vac":true,"version":"7704440","steam_id":85568392924504278,"keywords":["cp","nocrits","nodmgspread","uncletopia"],"game_id":440,"stv_port":0,"stv_name":"","players":null},{"server_id":23,"name":"Uncletopia | Frankfurt | 7 | No Payload","name_short":"frk-7","host":"frk-1.de.uncletopia.com","port":27075,"enabled":true,"region":"eu","cc":"de","latitude":50.110924,"longitude":8.682127,"reserved":0,"last_update":"0001-01-01T00:00:00Z","name_a2s":"Uncletopia | Frankfurt | 7 | No Payload","protocol":17,"map":"cp_gullywash_final1","folder":"tf","game":"Team Fortress","app_id":440,"player_count":12,"max_players":24,"Bots":0,"server_type":"Dedicated","server_os":"Linux","password":true,"vac":true,"version":"7704440","steam_id":85568392924742827,"keywords":["cp","nocrits","nodmgspread","uncletopia"],"game_id":440,"stv_port":27076,"stv_name":"Uncletopia | Frankfurt | 7 | No Payload | STV","players":[{"user_id":167,"name":"i am bread","steam_id":76561199180277321,"connected_time":92000000000,"state":"active","ping":55},{"user_id":21,"name":"Him","steam_id":76561198086400484,"connected_time":8206000000000,"state":"active","ping":70},{"user_id":168,"name":"Avoonix","steam_id":76561198186954897,"connected_time":85000000000,"state":"active","ping":62},{"user_id":155,"name":"Posture Check","steam_id":76561198053897197,"connected_time":774000000000,"state":"active","ping":48},{"user_id":136,"name":"muppi","steam_id":76561198067765324,"connected_time":2472000000000,"state":"active","ping":74},{"user_id":85,"name":"Flex Finster","steam_id":76561198061632224,"connected_time":4829000000000,"state":"active","ping":45},{"user_id":160,"name":"jama","steam_id":76561198058062331,"connected_time":350000000000,"state":"active","ping":74},{"user_id":152,"name":"LemonLeCitron","steam_id":76561198215545267,"connected_time":1062000000000,"state":"active","ping":64},{"user_id":149,"name":"htraB","steam_id":76561198043122677,"connected_time":1550000000000,"state":"active","ping":58},{"user_id":157,"name":"tori_spring #savetf2","steam_id":76561199375975842,"connected_time":682000000000,"state":"active","ping":60},{"user_id":146,"name":"Scrample","steam_id":76561198040422830,"connected_time":1988000000000,"state":"active","ping":49},{"user_id":138,"name":"skitsvår att höra","steam_id":76561198216544293,"connected_time":2436000000000,"state":"active","ping":68}]},{"server_id":24,"name":"Uncletopia | Frankfurt | 8 | Community","name_short":"frk-8","host":"frk-1.de.uncletopia.com","port":27085,"enabled":true,"region":"eu","cc":"de","latitude":50.110924,"longitude":8.682127,"reserved":0,"last_update":"0001-01-01T00:00:00Z","name_a2s":"Uncletopia | Frankfurt | 8 | Community","protocol":17,"map":"workshop/koth_synthetic_rc6a.ugc1549817316","folder":"tf","game":"Team Fortress","app_id":440,"player_count":2,"max_players":24,"Bots":0,"server_type":"Dedicated","server_os":"Linux","password":true,"vac":true,"version":"7704440","steam_id":85568392924742828,"keywords":["cp","nocrits","nodmgspread","uncletopia"],"game_id":440,"stv_port":27086,"stv_name":"Uncletopia | Frankfurt | 8 | Community | STV","players":[{"user_id":6,"name":"Lost And Damned","steam_id":76561198453240974,"connected_time":303000000000,"state":"active","ping":171},{"user_id":9,"name":"X-01 power armor","steam_id":76561198448562489,"connected_time":106000000000,"state":"active","ping":63}]},{"server_id":202,"name":"Uncletopia | Hong Kong | 1 | All Maps","name_short":"hgk-1","host":"hgk-1.hk.uncletopia.com","port":27015,"enabled":true,"region":"asia","cc":"hk","latitude":22.302711,"longitude":114.177216,"reserved":0,"last_update":"0001-01-01T00:00:00Z","name_a2s":"Uncletopia | Hong Kong | 1 | All Maps","protocol":17,"map":"koth_lakeside_final","folder":"tf","game":"Team Fortress","app_id":440,"player_count":0,"max_players":24,"Bots":0,"server_type":"Dedicated","server_os":"Linux","password":true,"vac":true,"version":"7704440","steam_id":85568392924494504,"keywords":["cp","nocrits","nodmgspread","uncletopia"],"game_id":440,"stv_port":27016,"stv_name":"Uncletopia | Hong Kong | 1 | All Maps | STV","players":null},{"server_id":1,"name":"Uncletopia | Los Angeles | 1 | All Maps","name_short":"lax-1","host":"lax-1.us.uncletopia.com","port":27015,"enabled":true,"region":"us-west","cc":"us","latitude":33.94279,"longitude":-118.41004,"reserved":0,"last_update":"0001-01-01T00:00:00Z","name_a2s":"Uncletopia | Los Angeles | 1 | All Maps","protocol":17,"map":"pl_barnblitz","folder":"tf","game":"Team Fortress","app_id":440,"player_count":0,"max_players":24,"Bots":0,"server_type":"Dedicated","server_os":"Linux","password":true,"vac":true,"version":"7704440","steam_id":85568392924469991,"keywords":["nocrits","nodmgspread","payload","uncletopia"],"game_id":440,"stv_port":0,"stv_name":"","players":null},{"server_id":112,"name":"Uncletopia | Los Angeles | 2 | All Maps","name_short":"lax-2","host":"lax-1.us.uncletopia.com","port":27025,"enabled":true,"region":"us-west","cc":"us","latitude":33.94279,"longitude":-118.41004,"reserved":0,"last_update":"0001-01-01T00:00:00Z","name_a2s":"Uncletopia | Los Angeles | 2 | All Maps","protocol":17,"map":"pl_pier","folder":"tf","game":"Team Fortress","app_id":440,"player_count":0,"max_players":24,"Bots":0,"server_type":"Dedicated","server_os":"Linux","password":true,"vac":true,"version":"7704440","steam_id":85568392924469992,"keywords":["nocrits","nodmgspread","payload","uncletopia"],"game_id":440,"stv_port":0,"stv_name":"","players":null},{"server_id":324,"name":"Uncletopia | Los Angeles | 3 | All Maps","name_short":"lax-3","host":"lax-1.us.uncletopia.com","port":27035,"enabled":true,"region":"us-west","cc":"us","latitude":33.94279,"longitude":-118.41004,"reserved":0,"last_update":"0001-01-01T00:00:00Z","name_a2s":"Uncletopia | Los Angeles | 3 | All Maps","protocol":17,"map":"cp_dustbowl","folder":"tf","game":"Team Fortress","app_id":440,"player_count":0,"max_players":24,"Bots":0,"server_type":"Dedicated","server_os":"Linux","password":true,"vac":true,"version":"7704440","steam_id":85568392924510198,"keywords":["cp","nocrits","nodmgspread","uncletopia"],"game_id":440,"stv_port":0,"stv_name":"","players":null},{"server_id":25,"name":"Uncletopia | Los Angeles | 4 | No Payload","name_short":"lax-4","host":"lax-1.us.uncletopia.com","port":27045,"enabled":true,"region":"us-west","cc":"us","latitude":33.94279,"longitude":-118.41004,"reserved":0,"last_update":"0001-01-01T00:00:00Z","name_a2s":"Uncletopia | Los Angeles | 4 | No Payload","protocol":17,"map":"ctf_doublecross","folder":"tf","game":"Team Fortress","app_id":440,"player_count":0,"max_players":24,"Bots":0,"server_type":"Dedicated","server_os":"Linux","password":true,"vac":true,"version":"7704440","steam_id":85568392924510199,"keywords":["ctf","nocrits","nodmgspread","uncletopia"],"game_id":440,"stv_port":27046,"stv_name":"Uncletopia | Los Angeles | 4 | No Payload | STV","players":null},{"server_id":11,"name":"Uncletopia | London | 1 | All Maps","name_short":"lon-1","host":"lon-1.uk.uncletopia.com","port":27015,"enabled":true,"region":"eu","cc":"gb","latitude":51.509865,"longitude":-0.118092,"reserved":0,"last_update":"0001-01-01T00:00:00Z","name_a2s":"Uncletopia | London | 1 | All Maps","protocol":17,"map":"pl_chilly","folder":"tf","game":"Team Fortress","app_id":440,"player_count":24,"max_players":24,"Bots":0,"server_type":"Dedicated","server_os":"Linux","password":true,"vac":true,"version":"7704440","steam_id":85568392924367362,"keywords":["nocrits","nodmgspread","payload","uncletopia"],"game_id":440,"stv_port":27016,"stv_name":"Uncletopia | London | 1 | All Maps | STV","players":[{"user_id":390,"name":"Crimea a bridge","steam_id":76561198030898371,"connected_time":263000000000,"state":"active","ping":79},{"user_id":383,"name":"Combat Wombat","steam_id":76561197994720068,"connected_time":540000000000,"state":"active","ping":51},{"user_id":347,"name":"Revenge Ridden Scootz","steam_id":76561198018491455,"connected_time":4142000000000,"state":"active","ping":54},{"user_id":380,"name":"psychotic friends network","steam_id":76561199160343323,"connected_time":565000000000,"state":"active","ping":103},{"user_id":381,"name":"When Life gives you Lemons","steam_id":76561198318290663,"connected_time":558000000000,"state":"active","ping":57},{"user_id":382,"name":"professional kid gaslighter","steam_id":76561198941142018,"connected_time":551000000000,"state":"active","ping":64},{"user_id":335,"name":"festive jones","steam_id":76561198073975078,"connected_time":5477000000000,"state":"active","ping":44},{"user_id":401,"name":"chrissymas","steam_id":76561198096547662,"connected_time":127000000000,"state":"active","ping":57},{"user_id":392,"name":"lurjus","steam_id":76561198042894236,"connected_time":223000000000,"state":"active","ping":96},{"user_id":385,"name":"Kahvi","steam_id":76561198723244199,"connected_time":508000000000,"state":"active","ping":75},{"user_id":386,"name":"Kapitan Polska","steam_id":76561197968069413,"connected_time":490000000000,"state":"active","ping":68},{"user_id":389,"name":"compusMentus","steam_id":76561199134152606,"connected_time":344000000000,"state":"active","ping":68},{"user_id":393,"name":"saml","steam_id":76561198040716257,"connected_time":208000000000,"state":"active","ping":76},{"user_id":375,"name":"Festivized Pitpit","steam_id":76561198005342133,"connected_time":868000000000,"state":"active","ping":41},{"user_id":358,"name":"Mango","steam_id":76561198139555709,"connected_time":3098000000000,"state":"active","ping":59},{"user_id":377,"name":"「◆Raku• 」","steam_id":76561198059283183,"connected_time":771000000000,"state":"active","ping":86},{"user_id":378,"name":"Joseph Stalin LFT","steam_id":76561198033199746,"connected_time":647000000000,"state":"active","ping":46},{"user_id":394,"name":"holykyckling","steam_id":76561198040661615,"connected_time":196000000000,"state":"active","ping":75},{"user_id":371,"name":"Nedge","steam_id":76561197963549701,"connected_time":1574000000000,"state":"active","ping":50},{"user_id":342,"name":"ahh, eto... nya. :3","steam_id":76561198878171763,"connected_time":4741000000000,"state":"active","ping":50},{"user_id":395,"name":"jingleboob","steam_id":76561198097507847,"connected_time":186000000000,"state":"active","ping":83},{"user_id":396,"name":"twitch.tv/biofun_","steam_id":76561198170609049,"connected_time":179000000000,"state":"active","ping":62},{"user_id":400,"name":"Simping for Pizza-san","steam_id":76561198067204908,"connected_time":131000000000,"state":"active","ping":50},{"user_id":399,"name":"Whurlpuul #SaveTF2","steam_id":76561198028340642,"connected_time":170000000000,"state":"active","ping":46}]},{"server_id":114,"name":"Uncletopia | London | 2 | All Maps","name_short":"lon-2","host":"lon-1.uk.uncletopia.com","port":27025,"enabled":true,"region":"eu","cc":"gb","latitude":51.509865,"longitude":-0.118092,"reserved":0,"last_update":"0001-01-01T00:00:00Z","name_a2s":"Uncletopia | London | 2 | All Maps","protocol":17,"map":"cp_sunshine","folder":"tf","game":"Team Fortress","app_id":440,"player_count":22,"max_players":24,"Bots":0,"server_type":"Dedicated","server_os":"Linux","password":true,"vac":true,"version":"7704440","steam_id":85568392924470941,"keywords":["cp","nocrits","nodmgspread","uncletopia"],"game_id":440,"stv_port":27026,"stv_name":"Uncletopia | London | 2 | All Maps | STV","players":[{"user_id":213,"name":"Edek","steam_id":76561197995835321,"connected_time":1250000000000,"state":"active","ping":66},{"user_id":155,"name":"Kylul_","steam_id":76561198042981061,"connected_time":4463000000000,"state":"active","ping":30},{"user_id":214,"name":"Aaron","steam_id":76561197990046953,"connected_time":1185000000000,"state":"active","ping":61},{"user_id":200,"name":"Gnarville","steam_id":76561198006373329,"connected_time":1495000000000,"state":"active","ping":47},{"user_id":222,"name":"Mikeal not so Garden","steam_id":76561198241759034,"connected_time":505000000000,"state":"active","ping":105},{"user_id":215,"name":"tekszi","steam_id":76561198107220903,"connected_time":1161000000000,"state":"active","ping":60},{"user_id":203,"name":"RedPyro2009","steam_id":76561198935824363,"connected_time":1471000000000,"state":"active","ping":57},{"user_id":205,"name":"An alleged masochist","steam_id":76561198977420882,"connected_time":1459000000000,"state":"active","ping":37},{"user_id":105,"name":"Classic gamer","steam_id":76561198125638711,"connected_time":7782000000000,"state":"active","ping":91},{"user_id":144,"name":"dochris.2","steam_id":76561198026478625,"connected_time":5542000000000,"state":"active","ping":53},{"user_id":173,"name":"Mr.McNuggets","steam_id":76561199205631497,"connected_time":3716000000000,"state":"active","ping":49},{"user_id":202,"name":"Dr. Cox","steam_id":76561198246629218,"connected_time":1479000000000,"state":"active","ping":98},{"user_id":224,"name":"Bottomest","steam_id":76561198091734693,"connected_time":183000000000,"state":"active","ping":60},{"user_id":34,"name":"goofy goober","steam_id":76561198013237629,"connected_time":12226000000000,"state":"active","ping":443},{"user_id":209,"name":"LadyMissfit","steam_id":76561198042236349,"connected_time":1406000000000,"state":"active","ping":76},{"user_id":185,"name":"heisenburger","steam_id":76561198284589853,"connected_time":2595000000000,"state":"active","ping":92},{"user_id":217,"name":"fiyahstorm","steam_id":76561197992574261,"connected_time":1109000000000,"state":"active","ping":42},{"user_id":221,"name":"Twink_enjoyer_6969","steam_id":76561198397024973,"connected_time":528000000000,"state":"active","ping":35},{"user_id":188,"name":"fénix","steam_id":76561198083199151,"connected_time":2408000000000,"state":"active","ping":56},{"user_id":197,"name":"War Ren","steam_id":76561198301524251,"connected_time":1571000000000,"state":"active","ping":50},{"user_id":212,"name":"ball sniffa","steam_id":76561199022705805,"connected_time":1354000000000,"state":"active","ping":42},{"user_id":145,"name":"sareena","steam_id":76561198810194062,"connected_time":5507000000000,"state":"active","ping":68}]},{"server_id":320,"name":"Uncletopia | London | 3 | All Maps","name_short":"lon-3","host":"lon-1.uk.uncletopia.com","port":27035,"enabled":true,"region":"eu","cc":"gb","latitude":51.509865,"longitude":-0.118092,"reserved":0,"last_update":"0001-01-01T00:00:00Z","name_a2s":"Uncletopia | London | 3 | All Maps","protocol":17,"map":"ctf_2fort","folder":"tf","game":"Team Fortress","app_id":440,"player_count":22,"max_players":24,"Bots":0,"server_type":"Dedicated","server_os":"Linux","password":true,"vac":true,"version":"7704440","steam_id":85568392924510192,"keywords":["ctf","nocrits","nodmgspread","uncletopia"],"game_id":440,"stv_port":27036,"stv_name":"Uncletopia | London | 3 | All Maps | STV","players":[{"user_id":176,"name":"SaltyCupcakes","steam_id":76561198256386417,"connected_time":698000000000,"state":"active","ping":43},{"user_id":168,"name":"Yelowchy","steam_id":76561198199416121,"connected_time":1200000000000,"state":"active","ping":92},{"user_id":161,"name":"ТЯЖЕЛЫЕ ИГРЫ","steam_id":76561198413545609,"connected_time":1764000000000,"state":"active","ping":54},{"user_id":91,"name":"hulluheppu1","steam_id":76561198093458326,"connected_time":4686000000000,"state":"active","ping":65},{"user_id":153,"name":"Bargon","steam_id":76561198964641940,"connected_time":2189000000000,"state":"active","ping":76},{"user_id":187,"name":"GentleRex","steam_id":76561198136589162,"connected_time":25000000000,"state":"active","ping":1596},{"user_id":111,"name":"Rouxls Kaard","steam_id":76561199439917592,"connected_time":3689000000000,"state":"active","ping":78},{"user_id":179,"name":"Ar Di","steam_id":76561198119526557,"connected_time":626000000000,"state":"active","ping":39},{"user_id":165,"name":"Michael","steam_id":76561198003146906,"connected_time":1346000000000,"state":"active","ping":40},{"user_id":166,"name":"$100","steam_id":76561198851003008,"connected_time":1333000000000,"state":"active","ping":57},{"user_id":124,"name":"Zm4j","steam_id":76561198259465946,"connected_time":3485000000000,"state":"active","ping":81},{"user_id":184,"name":"Uncle Lame","steam_id":76561198089003514,"connected_time":338000000000,"state":"active","ping":57},{"user_id":150,"name":"100 IQ gaming","steam_id":76561198948719596,"connected_time":2377000000000,"state":"active","ping":42},{"user_id":182,"name":"Jafoul","steam_id":76561199383437138,"connected_time":516000000000,"state":"active","ping":125},{"user_id":139,"name":"Marcus","steam_id":76561198205027963,"connected_time":2848000000000,"state":"active","ping":60},{"user_id":167,"name":"deri100","steam_id":76561198397588574,"connected_time":1264000000000,"state":"active","ping":88},{"user_id":156,"name":"Lag","steam_id":76561198159360376,"connected_time":1820000000000,"state":"active","ping":65},{"user_id":183,"name":"coachnetworkoperared514","steam_id":76561198236015392,"connected_time":411000000000,"state":"active","ping":123},{"user_id":186,"name":"Ignatz","steam_id":76561198799086472,"connected_time":251000000000,"state":"active","ping":96},{"user_id":130,"name":"Marukuso","steam_id":76561198154229845,"connected_time":3252000000000,"state":"active","ping":61},{"user_id":125,"name":"Sham!","steam_id":76561198050434275,"connected_time":3435000000000,"state":"active","ping":62},{"user_id":126,"name":"El_Kommadante","steam_id":76561198079551685,"connected_time":3431000000000,"state":"active","ping":59}]},{"server_id":321,"name":"Uncletopia | London | 4 | All Maps","name_short":"lon-4","host":"lon-1.uk.uncletopia.com","port":27045,"enabled":true,"region":"eu","cc":"gb","latitude":51.509865,"longitude":-0.118092,"reserved":0,"last_update":"0001-01-01T00:00:00Z","name_a2s":"Uncletopia | London | 4 | All Maps","protocol":17,"map":"koth_viaduct","folder":"tf","game":"Team Fortress","app_id":440,"player_count":0,"max_players":24,"Bots":0,"server_type":"Dedicated","server_os":"Linux","password":true,"vac":true,"version":"7704440","steam_id":85568392924510193,"keywords":["cp","nocrits","nodmgspread","uncletopia"],"game_id":440,"stv_port":0,"stv_name":"","players":null},{"server_id":21,"name":"Uncletopia | London | 5 | All Maps","name_short":"lon-5","host":"lon-1.uk.uncletopia.com","port":27055,"enabled":true,"region":"eu","cc":"gb","latitude":51.509865,"longitude":-0.118092,"reserved":0,"last_update":"0001-01-01T00:00:00Z","name_a2s":"Uncletopia | London | 5 | All Maps","protocol":17,"map":"cp_process_final","folder":"tf","game":"Team Fortress","app_id":440,"player_count":23,"max_players":24,"Bots":0,"server_type":"Dedicated","server_os":"Linux","password":true,"vac":true,"version":"7704440","steam_id":85568392924742829,"keywords":["cp","nocrits","nodmgspread","uncletopia"],"game_id":440,"stv_port":27056,"stv_name":"Uncletopia | London | 5 | All Maps | STV","players":[{"user_id":467,"name":"Sniper, no sniping!","steam_id":76561198148074472,"connected_time":441000000000,"state":"active","ping":45},{"user_id":472,"name":"Jimmy's balls","steam_id":76561198841930820,"connected_time":60000000000,"state":"active","ping":90},{"user_id":435,"name":"03197427","steam_id":76561198363548450,"connected_time":1581000000000,"state":"active","ping":58},{"user_id":462,"name":"Hexagon","steam_id":76561198151205758,"connected_time":585000000000,"state":"active","ping":62},{"user_id":465,"name":"tacker11","steam_id":76561198886244287,"connected_time":512000000000,"state":"active","ping":51},{"user_id":455,"name":"demoknight tf2","steam_id":76561199012488416,"connected_time":819000000000,"state":"active","ping":89},{"user_id":463,"name":"Mr. Mundy","steam_id":76561198132008918,"connected_time":578000000000,"state":"active","ping":83},{"user_id":459,"name":"Bob_Tostas","steam_id":76561198249006560,"connected_time":663000000000,"state":"active","ping":80},{"user_id":406,"name":"Team Dim Sun Grunt","steam_id":76561198393596975,"connected_time":4281000000000,"state":"active","ping":46},{"user_id":442,"name":"Threon","steam_id":76561198826783545,"connected_time":1393000000000,"state":"active","ping":96},{"user_id":460,"name":"Aven","steam_id":76561198974343597,"connected_time":638000000000,"state":"active","ping":78},{"user_id":443,"name":"esheen","steam_id":76561198139376665,"connected_time":1391000000000,"state":"active","ping":71},{"user_id":243,"name":"Plop_","steam_id":76561198112567921,"connected_time":16513000000000,"state":"active","ping":42},{"user_id":473,"name":"mayonnaise","steam_id":76561198317960853,"connected_time":56000000000,"state":"active","ping":120},{"user_id":444,"name":"vpathy","steam_id":76561198078770942,"connected_time":1374000000000,"state":"active","ping":80},{"user_id":466,"name":"Old Hat","steam_id":76561197994673297,"connected_time":461000000000,"state":"active","ping":53},{"user_id":468,"name":"ok","steam_id":76561198147277460,"connected_time":411000000000,"state":"active","ping":75},{"user_id":471,"name":"dafydd","steam_id":76561198052200325,"connected_time":307000000000,"state":"active","ping":88},{"user_id":427,"name":"Ashen","steam_id":76561198274631806,"connected_time":2646000000000,"state":"active","ping":46},{"user_id":428,"name":"bleizahn","steam_id":76561198095981061,"connected_time":2645000000000,"state":"active","ping":59},{"user_id":429,"name":"I LOVE BULGARIA:flag_bg::flag_b","steam_id":76561198281256009,"connected_time":2574000000000,"state":"active","ping":103},{"user_id":470,"name":"Sad Slut","steam_id":76561198838277022,"connected_time":387000000000,"state":"active","ping":74},{"user_id":448,"name":"Marp.","steam_id":76561198073827052,"connected_time":1204000000000,"state":"active","ping":59}]},{"server_id":22,"name":"Uncletopia | London | 6 | All Maps","name_short":"lon-6","host":"lon-1.uk.uncletopia.com","port":27065,"enabled":true,"region":"eu","cc":"gb","latitude":51.509865,"longitude":-0.118092,"reserved":0,"last_update":"0001-01-01T00:00:00Z","name_a2s":"Uncletopia | London | 6 | All Maps","protocol":17,"map":"cp_sunshine","folder":"tf","game":"Team Fortress","app_id":440,"player_count":0,"max_players":24,"Bots":0,"server_type":"Dedicated","server_os":"Linux","password":true,"vac":true,"version":"7704440","steam_id":85568392924742830,"keywords":["cp","nocrits","nodmgspread","uncletopia"],"game_id":440,"stv_port":27066,"stv_name":"Uncletopia | London | 6 | All Maps | STV","players":null},{"server_id":40,"name":"Uncletopia | London | 7 | No Payload","name_short":"lon-7","host":"lon-1.uk.uncletopia.com","port":27075,"enabled":true,"region":"eu","cc":"gb","latitude":51.509865,"longitude":-0.118092,"reserved":0,"last_update":"0001-01-01T00:00:00Z","name_a2s":"Uncletopia | London | 7 | No Payload","protocol":17,"map":"plr_bananabay","folder":"tf","game":"Team Fortress","app_id":440,"player_count":0,"max_players":24,"Bots":0,"server_type":"Dedicated","server_os":"Linux","password":true,"vac":true,"version":"7704440","steam_id":85568392924964314,"keywords":["nocrits","nodmgspread","payload","uncletopia"],"game_id":440,"stv_port":27076,"stv_name":"Uncletopia | London | 7 | No Payload | STV","players":null},{"server_id":41,"name":"Uncletopia | London | 8 | Community","name_short":"lon-8","host":"lon-1.uk.uncletopia.com","port":27085,"enabled":true,"region":"eu","cc":"gb","latitude":51.509865,"longitude":-0.118092,"reserved":0,"last_update":"0001-01-01T00:00:00Z","name_a2s":"Uncletopia | London | 8 | Community","protocol":17,"map":"workshop/cp_caldera_rc2.ugc2834196889","folder":"tf","game":"Team Fortress","app_id":440,"player_count":2,"max_players":24,"Bots":0,"server_type":"Dedicated","server_os":"Linux","password":true,"vac":true,"version":"7704440","steam_id":85568392924964315,"keywords":["cp","nocrits","nodmgspread","uncletopia"],"game_id":440,"stv_port":27086,"stv_name":"Uncletopia | London | 8 | Community | STV","players":[{"user_id":7,"name":"Davidoff","steam_id":76561199099163283,"connected_time":1120000000000,"state":"active","ping":74},{"user_id":8,"name":"pustiu'","steam_id":76561199036449456,"connected_time":998000000000,"state":"active","ping":75}]},{"server_id":300,"name":"Uncletopia | Montréal | 1 | All Maps","name_short":"mtl-1","host":"mtl-1.ca.uncletopia.com","port":27015,"enabled":true,"region":"us-east","cc":"ca","latitude":45.50889,"longitude":-73.56167,"reserved":0,"last_update":"0001-01-01T00:00:00Z","name_a2s":"Uncletopia | Montréal | 1 | All Maps","protocol":17,"map":"pl_snowycoast","folder":"tf","game":"Team Fortress","app_id":440,"player_count":0,"max_players":24,"Bots":0,"server_type":"Dedicated","server_os":"Linux","password":true,"vac":true,"version":"7704440","steam_id":85568392924500087,"keywords":["nocrits","nodmgspread","payload","uncletopia"],"game_id":440,"stv_port":0,"stv_name":"","players":null},{"server_id":301,"name":"Uncletopia | Montréal | 2 | All Maps","name_short":"mtl-2","host":"mtl-1.ca.uncletopia.com","port":27025,"enabled":true,"region":"us-east","cc":"ca","latitude":45.50889,"longitude":-73.56167,"reserved":0,"last_update":"0001-01-01T00:00:00Z","name_a2s":"Uncletopia | Montréal | 2 | All Maps","protocol":17,"map":"cp_snakewater_final1","folder":"tf","game":"Team Fortress","app_id":440,"player_count":0,"max_players":24,"Bots":0,"server_type":"Dedicated","server_os":"Linux","password":true,"vac":true,"version":"7704440","steam_id":85568392924500088,"keywords":["cp","nocrits","nodmgspread","uncletopia"],"game_id":440,"stv_port":0,"stv_name":"","players":null},{"server_id":302,"name":"Uncletopia | Montréal | 3 | All Maps","name_short":"mtl-3","host":"mtl-1.ca.uncletopia.com","port":27035,"enabled":true,"region":"us-east","cc":"ca","latitude":45.50889,"longitude":-73.56167,"reserved":0,"last_update":"0001-01-01T00:00:00Z","name_a2s":"Uncletopia | Montréal | 3 | All Maps","protocol":17,"map":"pl_pier","folder":"tf","game":"Team Fortress","app_id":440,"player_count":0,"max_players":24,"Bots":0,"server_type":"Dedicated","server_os":"Linux","password":true,"vac":true,"version":"7704440","steam_id":85568392924500089,"keywords":["nocrits","nodmgspread","payload","uncletopia"],"game_id":440,"stv_port":0,"stv_name":"","players":null},{"server_id":303,"name":"Uncletopia | Montréal | 4 | No Payload","name_short":"mtl-4","host":"mtl-1.ca.uncletopia.com","port":27045,"enabled":true,"region":"us-east","cc":"ca","latitude":45.50889,"longitude":-73.56167,"reserved":0,"last_update":"0001-01-01T00:00:00Z","name_a2s":"Uncletopia | Montréal | 4 | No Payload","protocol":17,"map":"koth_brazil","folder":"tf","game":"Team Fortress","app_id":440,"player_count":0,"max_players":24,"Bots":0,"server_type":"Dedicated","server_os":"Linux","password":true,"vac":true,"version":"7704440","steam_id":85568392924500090,"keywords":["cp","nocrits","nodmgspread","uncletopia"],"game_id":440,"stv_port":27046,"stv_name":"Uncletopia | Montréal | 4 | No Payload | STV","players":null},{"server_id":13,"name":"Uncletopia | New York City | 1 | All Maps","name_short":"nyc-1","host":"nyc-1.us.uncletopia.com","port":27015,"enabled":true,"region":"us-east","cc":"us","latitude":40.73061,"longitude":-73.93524,"reserved":0,"last_update":"0001-01-01T00:00:00Z","name_a2s":"Uncletopia | New York City | 1 | All Maps","protocol":17,"map":"koth_lakeside_final","folder":"tf","game":"Team Fortress","app_id":440,"player_count":0,"max_players":24,"Bots":0,"server_type":"Dedicated","server_os":"Linux","password":true,"vac":true,"version":"7704440","steam_id":85568392924469993,"keywords":["cp","nocrits","nodmgspread","uncletopia"],"game_id":440,"stv_port":0,"stv_name":"","players":null},{"server_id":14,"name":"Uncletopia | New York City | 2 | All Maps","name_short":"nyc-2","host":"nyc-1.us.uncletopia.com","port":27025,"enabled":true,"region":"us-east","cc":"us","latitude":40.73061,"longitude":-73.93524,"reserved":0,"last_update":"0001-01-01T00:00:00Z","name_a2s":"Uncletopia | New York City | 2 | All Maps","protocol":17,"map":"pl_upward","folder":"tf","game":"Team Fortress","app_id":440,"player_count":0,"max_players":24,"Bots":0,"server_type":"Dedicated","server_os":"Linux","password":true,"vac":true,"version":"7704440","steam_id":85568392924469994,"keywords":["nocrits","nodmgspread","payload","uncletopia"],"game_id":440,"stv_port":27026,"stv_name":"Uncletopia | New York City | 2 | All Maps | STV","players":null},{"server_id":15,"name":"Uncletopia | New York City | 3 | All Maps","name_short":"nyc-3","host":"nyc-1.us.uncletopia.com","port":27035,"enabled":true,"region":"us-east","cc":"us","latitude":40.73061,"longitude":-73.93524,"reserved":0,"last_update":"0001-01-01T00:00:00Z","name_a2s":"Uncletopia | New York City | 3 | All Maps","protocol":17,"map":"pl_borneo","folder":"tf","game":"Team Fortress","app_id":440,"player_count":0,"max_players":24,"Bots":0,"server_type":"Dedicated","server_os":"Linux","password":true,"vac":true,"version":"7704440","steam_id":85568392924742820,"keywords":["nocrits","nodmgspread","payload","uncletopia"],"game_id":440,"stv_port":27036,"stv_name":"Uncletopia | New York City | 3 | All Maps | STV","players":null},{"server_id":16,"name":"Uncletopia | New York City | 4 | Community","name_short":"nyc-4","host":"nyc-1.us.uncletopia.com","port":27045,"enabled":true,"region":"us-east","cc":"us","latitude":40.73061,"longitude":-73.93524,"reserved":0,"last_update":"0001-01-01T00:00:00Z","name_a2s":"Uncletopia | New York City | 4 | Community","protocol":17,"map":"workshop/cp_villa_b19.ugc2113052569","folder":"tf","game":"Team Fortress","app_id":440,"player_count":0,"max_players":24,"Bots":0,"server_type":"Dedicated","server_os":"Linux","password":true,"vac":true,"version":"7704440","steam_id":85568392924742821,"keywords":["cp","nocrits","nodmgspread","uncletopia"],"game_id":440,"stv_port":27046,"stv_name":"Uncletopia | New York City | 4 | Community | STV","players":null},{"server_id":142,"name":"Uncletopia | São Paulo | 1 | All Maps","name_short":"sao-1","host":"sao-1.br.uncletopia.com","port":27015,"enabled":true,"region":"sa","cc":"br","latitude":-23.533773,"longitude":-46.62529,"reserved":0,"last_update":"0001-01-01T00:00:00Z","name_a2s":"Uncletopia | São Paulo | 1 | All Maps","protocol":17,"map":"cp_altitude","folder":"tf","game":"Team Fortress","app_id":440,"player_count":0,"max_players":24,"Bots":0,"server_type":"Dedicated","server_os":"Linux","password":true,"vac":true,"version":"7704440","steam_id":85568392924469996,"keywords":["cp","nocrits","nodmgspread","uncletopia"],"game_id":440,"stv_port":27016,"stv_name":"Uncletopia | São Paulo | 1 | All Maps | STV","players":null},{"server_id":143,"name":"Uncletopia | São Paulo | 2 | All Maps","name_short":"sao-2","host":"sao-2.br.uncletopia.com","port":27015,"enabled":true,"region":"sa","cc":"br","latitude":-23.533773,"longitude":-46.62529,"reserved":0,"last_update":"0001-01-01T00:00:00Z","name_a2s":"Uncletopia | São Paulo | 2 | All Maps","protocol":17,"map":"koth_cascade","folder":"tf","game":"Team Fortress","app_id":440,"player_count":2,"max_players":24,"Bots":0,"server_type":"Dedicated","server_os":"Linux","password":true,"vac":true,"version":"7704440","steam_id":85568392924485349,"keywords":["cp","nocrits","nodmgspread","uncletopia"],"game_id":440,"stv_port":27016,"stv_name":"Uncletopia | São Paulo | 2 | All Maps | STV","players":[{"user_id":12,"name":"Just a Dud","steam_id":76561199016767341,"connected_time":1024000000000,"state":"active","ping":59},{"user_id":14,"name":"siirtyaoliveira","steam_id":76561199176805537,"connected_time":249000000000,"state":"active","ping":390}]},{"server_id":7,"name":"Uncletopia | Seattle | 1 | All Maps","name_short":"sea-1","host":"sea-1.us.uncletopia.com","port":27015,"enabled":true,"region":"us-west","cc":"us","latitude":47.608013,"longitude":-122.33517,"reserved":0,"last_update":"0001-01-01T00:00:00Z","name_a2s":"Uncletopia | Seattle | 1 | All Maps","protocol":17,"map":"cp_mountainlab","folder":"tf","game":"Team Fortress","app_id":440,"player_count":0,"max_players":24,"Bots":0,"server_type":"Dedicated","server_os":"Linux","password":true,"vac":true,"version":"7704440","steam_id":85568392924469997,"keywords":["cp","nocrits","nodmgspread","uncletopia"],"game_id":440,"stv_port":27016,"stv_name":"Uncletopia | Seattle | 1 | All Maps | STV","players":null},{"server_id":119,"name":"Uncletopia | Seattle | 2 | All Maps","name_short":"sea-2","host":"sea-1.us.uncletopia.com","port":27025,"enabled":true,"region":"us-west","cc":"us","latitude":47.608013,"longitude":-122.33517,"reserved":0,"last_update":"0001-01-01T00:00:00Z","name_a2s":"Uncletopia | Seattle | 2 | All Maps","protocol":17,"map":"cp_dustbowl","folder":"tf","game":"Team Fortress","app_id":440,"player_count":24,"max_players":24,"Bots":0,"server_type":"Dedicated","server_os":"Linux","password":true,"vac":true,"version":"7704440","steam_id":85568392924469998,"keywords":["cp","nocrits","nodmgspread","uncletopia"],"game_id":440,"stv_port":27026,"stv_name":"Uncletopia | Seattle | 2 | All Maps | STV","players":[{"user_id":60,"name":"Rocky","steam_id":76561198048158539,"connected_time":1617000000000,"state":"active","ping":89},{"user_id":85,"name":"Fajita Master","steam_id":76561198329150962,"connected_time":194000000000,"state":"active","ping":71},{"user_id":29,"name":"dust","steam_id":76561198045218909,"connected_time":5382000000000,"state":"active","ping":34},{"user_id":49,"name":"MuffinMan","steam_id":76561198272111654,"connected_time":2466000000000,"state":"active","ping":111},{"user_id":76,"name":"Sailor","steam_id":76561199081983517,"connected_time":1035000000000,"state":"active","ping":99},{"user_id":72,"name":"ultragamer500","steam_id":76561199122523218,"connected_time":1209000000000,"state":"active","ping":81},{"user_id":78,"name":"sevanial","steam_id":76561198071532126,"connected_time":860000000000,"state":"active","ping":105},{"user_id":84,"name":"Jface1221","steam_id":76561198188082091,"connected_time":346000000000,"state":"active","ping":75},{"user_id":47,"name":"kirby7","steam_id":76561199167006749,"connected_time":2663000000000,"state":"active","ping":146},{"user_id":62,"name":"BayanTheBear","steam_id":76561198134537476,"connected_time":1584000000000,"state":"active","ping":132},{"user_id":63,"name":"PleaseBeNiceToMe","steam_id":76561198079419701,"connected_time":1580000000000,"state":"active","ping":148},{"user_id":75,"name":"Terezi Pyrope","steam_id":76561198065112186,"connected_time":1077000000000,"state":"active","ping":55},{"user_id":64,"name":"Fly Man","steam_id":76561198201036790,"connected_time":1548000000000,"state":"active","ping":150},{"user_id":52,"name":"kid ichster","steam_id":76561198011675372,"connected_time":2294000000000,"state":"active","ping":53},{"user_id":69,"name":"Little Pew","steam_id":76561198140341533,"connected_time":1411000000000,"state":"active","ping":75},{"user_id":55,"name":"Compress Dong","steam_id":76561198018950826,"connected_time":2039000000000,"state":"active","ping":60},{"user_id":57,"name":"Seru","steam_id":76561199219827214,"connected_time":1978000000000,"state":"active","ping":145},{"user_id":86,"name":"Naffers","steam_id":76561198195957335,"connected_time":39000000000,"state":"active","ping":110},{"user_id":68,"name":"whimmu","steam_id":76561198370839794,"connected_time":1424000000000,"state":"active","ping":90},{"user_id":77,"name":"King Keifer","steam_id":76561198141070466,"connected_time":940000000000,"state":"active","ping":58},{"user_id":79,"name":"The Potato Romancer","steam_id":76561198204197648,"connected_time":708000000000,"state":"active","ping":84},{"user_id":83,"name":"Bubbamanme","steam_id":76561198119778504,"connected_time":599000000000,"state":"active","ping":53},{"user_id":81,"name":"hardfork","steam_id":76561197960958019,"connected_time":675000000000,"state":"active","ping":45},{"user_id":82,"name":"reulak","steam_id":76561199401700886,"connected_time":661000000000,"state":"active","ping":120}]},{"server_id":17,"name":"Uncletopia | San Francisco | 1 | All Maps","name_short":"sfo-1","host":"sfo-1.us.uncletopia.com","port":27015,"enabled":true,"region":"us-west","cc":"us","latitude":37.77397,"longitude":-122.4313,"reserved":0,"last_update":"0001-01-01T00:00:00Z","name_a2s":"Uncletopia | San Francisco | 1 | All Maps","protocol":17,"map":"pl_borneo","folder":"tf","game":"Team Fortress","app_id":440,"player_count":0,"max_players":24,"Bots":0,"server_type":"Dedicated","server_os":"Linux","password":true,"vac":true,"version":"7704440","steam_id":85568392924469999,"keywords":["nocrits","nodmgspread","payload","uncletopia"],"game_id":440,"stv_port":27016,"stv_name":"Uncletopia | San Francisco | 1 | All Maps | STV","players":null},{"server_id":18,"name":"Uncletopia | San Francisco | 2 | All Maps","name_short":"sfo-2","host":"sfo-1.us.uncletopia.com","port":27025,"enabled":true,"region":"us-west","cc":"us","latitude":37.77397,"longitude":-122.4313,"reserved":0,"last_update":"0001-01-01T00:00:00Z","name_a2s":"Uncletopia | San Francisco | 2 | All Maps","protocol":17,"map":"koth_highpass","folder":"tf","game":"Team Fortress","app_id":440,"player_count":0,"max_players":24,"Bots":0,"server_type":"Dedicated","server_os":"Linux","password":true,"vac":true,"version":"7704440","steam_id":85568392924470000,"keywords":["cp","nocrits","nodmgspread","uncletopia"],"game_id":440,"stv_port":0,"stv_name":"","players":null},{"server_id":19,"name":"Uncletopia | San Francisco | 3 | No Payload","name_short":"sfo-3","host":"sfo-1.us.uncletopia.com","port":27035,"enabled":true,"region":"us-west","cc":"us","latitude":37.77397,"longitude":-122.4313,"reserved":0,"last_update":"0001-01-01T00:00:00Z","name_a2s":"Uncletopia | San Francisco | 3 | No Payload","protocol":17,"map":"cp_process_final","folder":"tf","game":"Team Fortress","app_id":440,"player_count":0,"max_players":24,"Bots":0,"server_type":"Dedicated","server_os":"Linux","password":true,"vac":true,"version":"7704440","steam_id":85568392924742824,"keywords":["cp","nocrits","nodmgspread","uncletopia"],"game_id":440,"stv_port":0,"stv_name":"","players":null},{"server_id":20,"name":"Uncletopia | San Francisco | 4 | Community","name_short":"sfo-4","host":"sfo-1.us.uncletopia.com","port":27045,"enabled":true,"region":"us-west","cc":"us","latitude":37.77397,"longitude":-122.4313,"reserved":0,"last_update":"0001-01-01T00:00:00Z","name_a2s":"Uncletopia | San Francisco | 4 | Community","protocol":17,"map":"koth_highpass","folder":"tf","game":"Team Fortress","app_id":440,"player_count":0,"max_players":24,"Bots":0,"server_type":"Dedicated","server_os":"Linux","password":true,"vac":true,"version":"7704440","steam_id":85568392924742826,"keywords":["cp","nocrits","nodmgspread","uncletopia"],"game_id":440,"stv_port":0,"stv_name":"","players":null},{"server_id":141,"name":"Uncletopia | Sydney | 1 | All Maps","name_short":"syd-1","host":"syd-1.au.uncletopia.com","port":27015,"enabled":true,"region":"au","cc":"au","latitude":-33.865143,"longitude":151.2099,"reserved":0,"last_update":"0001-01-01T00:00:00Z","name_a2s":"Uncletopia | Sydney | 1 | All Maps","protocol":17,"map":"cp_mountainlab","folder":"tf","game":"Team Fortress","app_id":440,"player_count":0,"max_players":24,"Bots":0,"server_type":"Dedicated","server_os":"Linux","password":true,"vac":true,"version":"7704440","steam_id":85568392924470001,"keywords":["cp","nocrits","nodmgspread","uncletopia"],"game_id":440,"stv_port":27016,"stv_name":"Uncletopia | Sydney | 1 | All Maps | STV","players":null},{"server_id":123,"name":"Uncletopia | Sydney | 2 | All Maps","name_short":"syd-2","host":"syd-1.au.uncletopia.com","port":27025,"enabled":true,"region":"au","cc":"au","latitude":-33.865143,"longitude":151.2099,"reserved":0,"last_update":"0001-01-01T00:00:00Z","name_a2s":"Uncletopia | Sydney | 2 | All Maps","protocol":17,"map":"koth_viaduct","folder":"tf","game":"Team Fortress","app_id":440,"player_count":0,"max_players":24,"Bots":0,"server_type":"Dedicated","server_os":"Linux","password":true,"vac":true,"version":"7704440","steam_id":85568392924470002,"keywords":["cp","nocrits","nodmgspread","uncletopia"],"game_id":440,"stv_port":27026,"stv_name":"Uncletopia | Sydney | 2 | All Maps | STV","players":null},{"server_id":395,"name":"Uncletopia | Sydney | 3 | All Maps","name_short":"syd-3","host":"syd-1.au.uncletopia.com","port":27035,"enabled":true,"region":"au","cc":"au","latitude":-33.865143,"longitude":151.2099,"reserved":0,"last_update":"0001-01-01T00:00:00Z","name_a2s":"Uncletopia | Sydney | 3 | All Maps","protocol":17,"map":"pl_pier","folder":"tf","game":"Team Fortress","app_id":440,"player_count":0,"max_players":24,"Bots":0,"server_type":"Dedicated","server_os":"Linux","password":true,"vac":true,"version":"7704440","steam_id":85568392925194467,"keywords":["nocrits","nodmgspread","payload","uncletopia"],"game_id":440,"stv_port":27036,"stv_name":"Uncletopia | Sydney | 3 | All Maps | STV","players":null},{"server_id":396,"name":"Uncletopia | Sydney | 4 | All Maps","name_short":"syd-4","host":"syd-1.au.uncletopia.com","port":27045,"enabled":true,"region":"au","cc":"au","latitude":-33.865143,"longitude":151.2099,"reserved":0,"last_update":"0001-01-01T00:00:00Z","name_a2s":"Uncletopia | Sydney | 4 | All Maps","protocol":17,"map":"koth_highpass","folder":"tf","game":"Team Fortress","app_id":440,"player_count":0,"max_players":24,"Bots":0,"server_type":"Dedicated","server_os":"Linux","password":true,"vac":true,"version":"7704440","steam_id":85568392925397958,"keywords":["cp","nocrits","nodmgspread","uncletopia"],"game_id":440,"stv_port":27046,"stv_name":"Uncletopia | Sydney | 4 | All Maps | STV","players":null},{"server_id":58,"name":"Uncletopia | Sydney | 5 | No Payload","name_short":"syd-5","host":"syd-1.au.uncletopia.com","port":27055,"enabled":true,"region":"au","cc":"au","latitude":-33.865143,"longitude":151.2099,"reserved":0,"last_update":"0001-01-01T00:00:00Z","name_a2s":"Uncletopia | Sydney | 5 | No Payload","protocol":17,"map":"pl_barnblitz","folder":"tf","game":"Team Fortress","app_id":440,"player_count":0,"max_players":24,"Bots":0,"server_type":"Dedicated","server_os":"Linux","password":true,"vac":true,"version":"7704440","steam_id":85568392925397959,"keywords":["nocrits","nodmgspread","payload","uncletopia"],"game_id":440,"stv_port":0,"stv_name":"","players":null},{"server_id":59,"name":"Uncletopia | Sydney | 6 | Community","name_short":"syd-6","host":"syd-1.au.uncletopia.com","port":27065,"enabled":true,"region":"au","cc":"au","latitude":-33.865143,"longitude":151.2099,"reserved":0,"last_update":"0001-01-01T00:00:00Z","name_a2s":"Uncletopia | Sydney | 6 | Community","protocol":17,"map":"workshop/rd_asteroid_redux_rc9.ugc2154902912","folder":"tf","game":"Team Fortress","app_id":440,"player_count":0,"max_players":24,"Bots":0,"server_type":"Dedicated","server_os":"Linux","password":true,"vac":true,"version":"7704440","steam_id":85568392925397960,"keywords":["beta","nocrits","nodmgspread","rd","uncletopia"],"game_id":440,"stv_port":27066,"stv_name":"Uncletopia | Sydney | 6 | Community | STV","players":null},{"server_id":49,"name":"Uncletopia | Warsaw | 1 | All Maps","name_short":"waw-1","host":"waw-1.pl.uncletopia.com","port":27015,"enabled":true,"region":"eu","cc":"pl","latitude":52.2297,"longitude":21.017532,"reserved":0,"last_update":"0001-01-01T00:00:00Z","name_a2s":"Uncletopia | Warsaw | 1 | All Maps","protocol":17,"map":"koth_cascade","folder":"tf","game":"Team Fortress","app_id":440,"player_count":0,"max_players":24,"Bots":0,"server_type":"Dedicated","server_os":"Linux","password":true,"vac":true,"version":"7704440","steam_id":85568392925397850,"keywords":["cp","nocrits","nodmgspread","uncletopia"],"game_id":440,"stv_port":27016,"stv_name":"Uncletopia | Warsaw | 1 | All Maps | STV","players":null},{"server_id":50,"name":"Uncletopia | Warsaw | 2 | All Maps","name_short":"waw-2","host":"waw-1.pl.uncletopia.com","port":27025,"enabled":true,"region":"eu","cc":"pl","latitude":52.2297,"longitude":21.017532,"reserved":0,"last_update":"0001-01-01T00:00:00Z","name_a2s":"Uncletopia | Warsaw | 2 | All Maps","protocol":17,"map":"koth_lakeside_final","folder":"tf","game":"Team Fortress","app_id":440,"player_count":0,"max_players":24,"Bots":0,"server_type":"Dedicated","server_os":"Linux","password":true,"vac":true,"version":"7704440","steam_id":85568392925397851,"keywords":["cp","nocrits","nodmgspread","uncletopia"],"game_id":440,"stv_port":27026,"stv_name":"Uncletopia | Warsaw | 2 | All Maps | STV","players":null},{"server_id":51,"name":"Uncletopia | Warsaw | 3 | All Maps","name_short":"waw-3","host":"waw-1.pl.uncletopia.com","port":27035,"enabled":true,"region":"eu","cc":"pl","latitude":52.2297,"longitude":21.017532,"reserved":0,"last_update":"0001-01-01T00:00:00Z","name_a2s":"Uncletopia | Warsaw | 3 | All Maps","protocol":17,"map":"pl_swiftwater_final1","folder":"tf","game":"Team Fortress","app_id":440,"player_count":0,"max_players":24,"Bots":0,"server_type":"Dedicated","server_os":"Linux","password":true,"vac":true,"version":"7704440","steam_id":85568392925397852,"keywords":["nocrits","nodmgspread","payload","uncletopia"],"game_id":440,"stv_port":27036,"stv_name":"Uncletopia | Warsaw | 3 | All Maps | STV","players":null},{"server_id":52,"name":"Uncletopia | Warsaw | 4 | All Maps","name_short":"waw-4","host":"waw-1.pl.uncletopia.com","port":27045,"enabled":true,"region":"eu","cc":"pl","latitude":52.2297,"longitude":21.017532,"reserved":0,"last_update":"0001-01-01T00:00:00Z","name_a2s":"Uncletopia | Warsaw | 4 | All Maps","protocol":17,"map":"koth_highpass","folder":"tf","game":"Team Fortress","app_id":440,"player_count":0,"max_players":24,"Bots":0,"server_type":"Dedicated","server_os":"Linux","password":true,"vac":true,"version":"7704440","steam_id":85568392925397853,"keywords":["cp","nocrits","nodmgspread","uncletopia"],"game_id":440,"stv_port":27046,"stv_name":"Uncletopia | Warsaw | 4 | All Maps | STV","players":null},{"server_id":53,"name":"Uncletopia | Warsaw | 5 | No Payload","name_short":"waw-5","host":"waw-1.pl.uncletopia.com","port":27055,"enabled":true,"region":"eu","cc":"pl","latitude":52.2297,"longitude":21.017532,"reserved":0,"last_update":"0001-01-01T00:00:00Z","name_a2s":"Uncletopia | Warsaw | 5 | No Payload","protocol":17,"map":"cp_process_final","folder":"tf","game":"Team Fortress","app_id":440,"player_count":0,"max_players":24,"Bots":0,"server_type":"Dedicated","server_os":"Linux","password":true,"vac":true,"version":"7704440","steam_id":85568392925397854,"keywords":["cp","nocrits","nodmgspread","uncletopia"],"game_id":440,"stv_port":27056,"stv_name":"Uncletopia | Warsaw | 5 | No Payload | STV","players":null},{"server_id":54,"name":"Uncletopia | Warsaw | 6 | Community","name_short":"waw-6","host":"waw-1.pl.uncletopia.com","port":27065,"enabled":true,"region":"eu","cc":"pl","latitude":52.2297,"longitude":21.017532,"reserved":0,"last_update":"0001-01-01T00:00:00Z","name_a2s":"Uncletopia | Warsaw | 6 | Community","protocol":17,"map":"workshop/koth_slaughter_rc1.ugc1712845210","folder":"tf","game":"Team Fortress","app_id":440,"player_count":0,"max_players":24,"Bots":0,"server_type":"Dedicated","server_os":"Linux","password":true,"vac":true,"version":"7704440","steam_id":85568392925397856,"keywords":["cp","nocrits","nodmgspread","uncletopia"],"game_id":440,"stv_port":27066,"stv_name":"Uncletopia | Warsaw | 6 | Community | STV","players":null}]}