{"status":true,"message":"","result":[{"server_id":9,"name":"Uncletopia | Atlanta | 1 | All Maps","name_short":"atl-1","host":"atl-1.us.uncletopia.com","port":27015,"enabled":true,"region":"us-east","cc":"us","latitude":33.753746,"longitude":-84.38633,"reserved":0,"last_update":"0001-01-01T00:00:00Z","name_a2s":"Uncletopia | Atlanta | 1 | All Maps","protocol":17,"map":"pl_upward","folder":"tf","game":"Team Fortress","app_id":440,"player_count":24,"max_players":24,"Bots":0,"server_type":"Dedicated","server_os":"Linux","password":true,"vac":true,"version":"7757534","steam_id":85568392924469982,"keywords":["nocrits","nodmgspread","payload","uncletopia"],"game_id":440,"stv_port":27016,"stv_name":"Uncletopia | Atlanta | 1 | All Maps | STV","players":[{"user_id":125,"name":"trilobita","steam_id":76561198428215606,"connected_time":1514000000000,"state":"active","ping":68},{"user_id":141,"name":"yalecrane","steam_id":76561198136298714,"connected_time":909000000000,"state":"active","ping":73},{"user_id":137,"name":"indi","steam_id":76561198045917538,"connected_time":1182000000000,"state":"active","ping":69},{"user_id":68,"name":"ShredMaan","steam_id":76561198429982138,"connected_time":5594000000000,"state":"active","ping":113},{"user_id":121,"name":"iceman","steam_id":76561198135397441,"connected_time":1547000000000,"state":"active","ping":75},{"user_id":70,"name":"MSIBoys","steam_id":76561198213692935,"connected_time":5588000000000,"state":"active","ping":116},{"user_id":139,"name":"Ankliosumos","steam_id":76561198106443757,"connected_time":1076000000000,"state":"active","ping":52},{"user_id":138,"name":"AquaEclipse","steam_id":76561198225964744,"connected_time":1175000000000,"state":"active","ping":71},{"user_id":146,"name":"FN-FAL","steam_id":76561198110157871,"connected_time":120000000000,"state":"spawning","ping":166},{"user_id":145,"name":"floppy muppet","steam_id":76561198003076261,"connected_time":198000000000,"state":"active","ping":65},{"user_id":129,"name":"JaketheDog217","steam_id":76561198424859448,"connected_time":1353000000000,"state":"active","ping":71},{"user_id":73,"name":"SyberBunn","steam_id":76561198287851222,"connected_time":5437000000000,"state":"active","ping":66},{"user_id":108,"name":"rennco","steam_id":76561198024019445,"connected_time":2684000000000,"state":"active","ping":75},{"user_id":147,"name":"Chato","steam_id":76561198168989022,"connected_time":114000000000,"state":"active","ping":101},{"user_id":122,"name":"Scrumlet","steam_id":76561198339806643,"connected_time":1545000000000,"state":"active","ping":78},{"user_id":143,"name":"thx you are the best","steam_id":76561198068958789,"connected_time":856000000000,"state":"active","ping":47},{"user_id":134,"name":"jturner1nm","steam_id":76561198344493652,"connected_time":1263000000000,"state":"active","ping":117},{"user_id":144,"name":"Tman","steam_id":76561198118515559,"connected_time":292000000000,"state":"active","ping":50},{"user_id":148,"name":"nAk","steam_id":76561198151387942,"connected_time":107000000000,"state":"active","ping":101},{"user_id":132,"name":"Colin102004","steam_id":76561198202384334,"connected_time":1285000000000,"state":"active","ping":61},{"user_id":149,"name":"Wrench","steam_id":76561198055879094,"connected_time":78000000000,"state":"spawning","ping":152},{"user_id":135,"name":"primordialheath","steam_id":76561199386942638,"connected_time":1259000000000,"state":"active","ping":91},{"user_id":105,"name":"Genetic Komodo","steam_id":76561198174806758,"connected_time":3053000000000,"state":"active","ping":59},{"user_id":119,"name":"sansa musa","steam_id":76561198163723555,"connected_time":1974000000000,"state":"active","ping":62}]},{"server_id":400,"name":"Uncletopia | Atlanta | 3 | Stopwatch Beta","name_short":"atl-3","host":"atl-1.us.uncletopia.com","port":27035,"enabled":true,"region":"us-east","cc":"us","latitude":33.753746,"longitude":-84.38633,"reserved":0,"last_update":"0001-01-01T00:00:00Z","name_a2s":"Uncletopia | Atlanta | 3 | Stopwatch Beta","protocol":17,"map":"pl_upward","folder":"tf","game":"Team Fortress","app_id":440,"player_count":0,"max_players":24,"Bots":0,"server_type":"Dedicated","server_os":"Linux","password":true,"vac":true,"version":"7757534","steam_id":85568392924515187,"keywords":["nocrits","nodmgspread","payload","uncletopia"],"game_id":440,"stv_port":27036,"stv_name":"Uncletopia | Atlanta | 3 | Stopwatch Beta | STV","players":null},{"server_id":401,"name":"Uncletopia | Atlanta | 4 | No Payload","name_short":"atl-4","host":"atl-1.us.uncletopia.com","port":27045,"enabled":true,"region":"us-east","cc":"us","latitude":33.753746,"longitude":-84.38633,"reserved":0,"last_update":"0001-01-01T00:00:00Z","name_a2s":"Uncletopia | Atlanta | 4 | No Payload","protocol":17,"map":"pl_pier","folder":"tf","game":"Team Fortress","app_id":440,"player_count":0,"max_players":24,"Bots":0,"server_type":"Dedicated","server_os":"Linux","password":true,"vac":true,"version":"7723704","steam_id":85568392924515188,"keywords":["nocrits","nodmgspread","payload","uncletopia"],"game_id":440,"stv_port":27046,"stv_name":"Uncletopia | Atlanta | 4 | No Payload | STV","players":null},{"server_id":2,"name":"Uncletopia | Chicago | 1 | All Maps","name_short":"chi-1","host":"chi-1.us.uncletopia.com","port":27015,"enabled":true,"region":"us-central","cc":"us","latitude":41.881832,"longitude":-87.62318,"reserved":0,"last_update":"0001-01-01T00:00:00Z","name_a2s":"Uncletopia | Chicago | 1 | All Maps","protocol":17,"map":"pl_frontier_final","folder":"tf","game":"Team Fortress","app_id":440,"player_count":24,"max_players":24,"Bots":0,"server_type":"Dedicated","server_os":"Linux","password":true,"vac":true,"version":"7757534","steam_id":85568392924469984,"keywords":["nocrits","nodmgspread","payload","uncletopia"],"game_id":440,"stv_port":27016,"stv_name":"Uncletopia | Chicago | 1 | All Maps | STV","players":[{"user_id":290,"name":"Tyco","steam_id":76561197978414167,"connected_time":933000000000,"state":"active","ping":70},{"user_id":293,"name":"SamFec","steam_id":76561198414538682,"connected_time":581000000000,"state":"active","ping":119},{"user_id":294,"name":"TWICE THE PIMPY THRICE THE BAPE","steam_id":76561198074678273,"connected_time":516000000000,"state":"active","ping":58},{"user_id":295,"name":"juhg, koop","steam_id":76561198388955908,"connected_time":507000000000,"state":"active","ping":62},{"user_id":301,"name":"Craig Isonychia","steam_id":76561198272013678,"connected_time":196000000000,"state":"active","ping":73},{"user_id":255,"name":"Kubloo","steam_id":76561198067391168,"connected_time":4006000000000,"state":"active","ping":55},{"user_id":275,"name":"ProfessorCagan","steam_id":76561198141372356,"connected_time":2518000000000,"state":"active","ping":72},{"user_id":291,"name":"debin","steam_id":76561198070711217,"connected_time":640000000000,"state":"active","ping":59},{"user_id":278,"name":"clavin_","steam_id":76561198046398447,"connected_time":1899000000000,"state":"active","ping":52},{"user_id":240,"name":"THRILLHO","steam_id":76561198371663047,"connected_time":5881000000000,"state":"active","ping":60},{"user_id":273,"name":"theancientnut","steam_id":76561199396708880,"connected_time":2642000000000,"state":"active","ping":58},{"user_id":296,"name":"Heroofchaos","steam_id":76561199106660090,"connected_time":465000000000,"state":"active","ping":87},{"user_id":267,"name":"Astoriae!","steam_id":76561199090168858,"connected_time":3425000000000,"state":"active","ping":65},{"user_id":297,"name":"Sir Lagsalot","steam_id":76561198133576262,"connected_time":464000000000,"state":"active","ping":134},{"user_id":298,"name":"Slime-san","steam_id":76561198886509660,"connected_time":441000000000,"state":"active","ping":88},{"user_id":270,"name":"Monsterjessy","steam_id":76561198035630985,"connected_time":2941000000000,"state":"active","ping":60},{"user_id":289,"name":"i hate 2fort","steam_id":76561199241619967,"connected_time":1164000000000,"state":"active","ping":67},{"user_id":271,"name":"rumes","steam_id":76561198349219467,"connected_time":2936000000000,"state":"active","ping":94},{"user_id":283,"name":"Lennu","steam_id":76561198060730154,"connected_time":1406000000000,"state":"active","ping":73},{"user_id":132,"name":"Rornir","steam_id":76561198081829615,"connected_time":14057000000000,"state":"active","ping":40},{"user_id":299,"name":"MrActionJaxon","steam_id":76561198093549908,"connected_time":431000000000,"state":"active","ping":84},{"user_id":284,"name":"MEDIC!","steam_id":76561198149344029,"connected_time":1403000000000,"state":"active","ping":76},{"user_id":300,"name":"F R O G","steam_id":76561198166604331,"connected_time":368000000000,"state":"active","ping":84},{"user_id":282,"name":"Bait","steam_id":76561198336489647,"connected_time":1876000000000,"state":"active","ping":60}]},{"server_id":106,"name":"Uncletopia | Chicago | 2 | All Maps","name_short":"chi-2","host":"chi-1.us.uncletopia.com","port":27025,"enabled":true,"region":"us-central","cc":"us","latitude":41.881832,"longitude":-87.62318,"reserved":0,"last_update":"0001-01-01T00:00:00Z","name_a2s":"Uncletopia | Chicago | 2 | All Maps","protocol":17,"map":"pl_borneo","folder":"tf","game":"Team Fortress","app_id":440,"player_count":24,"max_players":24,"Bots":0,"server_type":"Dedicated","server_os":"Linux","password":true,"vac":true,"version":"7757534","steam_id":85568392924469985,"keywords":["nocrits","nodmgspread","payload","uncletopia"],"game_id":440,"stv_port":27026,"stv_name":"Uncletopia | Chicago | 2 | All Maps | STV","players":[{"user_id":492,"name":"Coup de Grass","steam_id":76561198011643226,"connected_time":1477000000000,"state":"active","ping":49},{"user_id":506,"name":"Not_Douglas","steam_id":76561199024184136,"connected_time":600000000000,"state":"active","ping":62},{"user_id":495,"name":"Everglade","steam_id":76561198068654532,"connected_time":867000000000,"state":"active","ping":78},{"user_id":453,"name":"veemoment","steam_id":76561198003467221,"connected_time":3286000000000,"state":"active","ping":47},{"user_id":488,"name":"Lost","steam_id":76561198025933206,"connected_time":1601000000000,"state":"active","ping":61},{"user_id":503,"name":"LonelyPlanet","steam_id":76561198142754673,"connected_time":644000000000,"state":"active","ping":103},{"user_id":457,"name":"Platinum","steam_id":76561198052463484,"connected_time":3098000000000,"state":"active","ping":109},{"user_id":473,"name":"guh","steam_id":76561197972342286,"connected_time":2610000000000,"state":"active","ping":74},{"user_id":458,"name":"Quatts","steam_id":76561198051482153,"connected_time":3081000000000,"state":"active","ping":62},{"user_id":496,"name":"Thog","steam_id":76561198093699060,"connected_time":851000000000,"state":"active","ping":66},{"user_id":494,"name":"Cat_Gaben","steam_id":76561198308094558,"connected_time":1175000000000,"state":"active","ping":70},{"user_id":497,"name":"LerN","steam_id":76561198083463877,"connected_time":837000000000,"state":"active","ping":59},{"user_id":509,"name":"McDamage","steam_id":76561198140571306,"connected_time":108000000000,"state":"active","ping":67},{"user_id":498,"name":"Godfinger","steam_id":76561198426346549,"connected_time":807000000000,"state":"active","ping":64},{"user_id":463,"name":"Mr.Momo","steam_id":76561199013406551,"connected_time":2954000000000,"state":"active","ping":106},{"user_id":504,"name":"Boxmania","steam_id":76561198043873859,"connected_time":644000000000,"state":"active","ping":99},{"user_id":478,"name":"BuhByeFalecia","steam_id":76561198364710587,"connected_time":2147000000000,"state":"active","ping":74},{"user_id":499,"name":"ShotgunGuy06","steam_id":76561199071591465,"connected_time":805000000000,"state":"active","ping":66},{"user_id":500,"name":"Sigiferd","steam_id":76561198148788110,"connected_time":798000000000,"state":"active","ping":117},{"user_id":480,"name":"$3.99 Shrimps","steam_id":76561198077272494,"connected_time":1959000000000,"state":"active","ping":58},{"user_id":470,"name":"cornshot","steam_id":76561198043496387,"connected_time":2727000000000,"state":"active","ping":113},{"user_id":501,"name":"クケイ","steam_id":76561198215122444,"connected_time":791000000000,"state":"active","ping":77},{"user_id":507,"name":"Tyrone","steam_id":76561198189429665,"connected_time":532000000000,"state":"active","ping":72},{"user_id":510,"name":"David Davidson","steam_id":76561199058337415,"connected_time":94000000000,"state":"active","ping":95}]},{"server_id":402,"name":"Uncletopia | Chicago | 3 | All Maps","name_short":"chi-3","host":"chi-1.us.uncletopia.com","port":27035,"enabled":true,"region":"us-central","cc":"us","latitude":41.881832,"longitude":-87.62318,"reserved":0,"last_update":"0001-01-01T00:00:00Z","name_a2s":"Uncletopia | Chicago | 3 | All Maps","protocol":17,"map":"koth_viaduct","folder":"tf","game":"Team Fortress","app_id":440,"player_count":0,"max_players":24,"Bots":0,"server_type":"Dedicated","server_os":"Linux","password":true,"vac":true,"version":"7757534","steam_id":85568392924515191,"keywords":["cp","nocrits","nodmgspread","uncletopia"],"game_id":440,"stv_port":27036,"stv_name":"Uncletopia | Chicago | 3 | All Maps | STV","players":null},{"server_id":403,"name":"Uncletopia | Chicago | 4 | All Maps","name_short":"chi-4","host":"chi-1.us.uncletopia.com","port":27045,"enabled":true,"region":"us-central","cc":"us","latitude":41.881832,"longitude":-87.62318,"reserved":0,"last_update":"0001-01-01T00:00:00Z","name_a2s":"Uncletopia | Chicago | 4 | All Maps","protocol":17,"map":"cp_dustbowl","folder":"tf","game":"Team Fortress","app_id":440,"player_count":23,"max_players":24,"Bots":0,"server_type":"Dedicated","server_os":"Linux","password":true,"vac":true,"version":"7757534","steam_id":85568392924515193,"keywords":["cp","nocrits","nodmgspread","uncletopia"],"game_id":440,"stv_port":27046,"stv_name":"Uncletopia | Chicago | 4 | All Maps | STV","players":[{"user_id":61,"name":"Tommy Pickles (Very Cool)","steam_id":76561198391261463,"connected_time":2360000000000,"state":"active","ping":71},{"user_id":11,"name":"twinkluvr69","steam_id":76561198068712028,"connected_time":5009000000000,"state":"active","ping":69},{"user_id":91,"name":"Pick","steam_id":76561198116251178,"connected_time":424000000000,"state":"active","ping":77},{"user_id":83,"name":"Atlas","steam_id":76561198127975050,"connected_time":1054000000000,"state":"active","ping":74},{"user_id":88,"name":"cloud","steam_id":76561198321354668,"connected_time":998000000000,"state":"active","ping":50},{"user_id":76,"name":"denny razor","steam_id":76561198143044044,"connected_time":1143000000000,"state":"active","ping":58},{"user_id":92,"name":"Squeejj","steam_id":76561198149250974,"connected_time":148000000000,"state":"active","ping":45},{"user_id":78,"name":"Bnyds","steam_id":76561199206410653,"connected_time":1075000000000,"state":"active","ping":78},{"user_id":81,"name":"Spoonastic","steam_id":76561198343838009,"connected_time":1071000000000,"state":"active","ping":113},{"user_id":84,"name":"NUt","steam_id":76561198031007966,"connected_time":1046000000000,"state":"active","ping":70},{"user_id":86,"name":"Shaunhan","steam_id":76561198386596938,"connected_time":1031000000000,"state":"active","ping":56},{"user_id":68,"name":"phranklin","steam_id":76561198161385870,"connected_time":2069000000000,"state":"active","ping":90},{"user_id":64,"name":"Red_Hatkins","steam_id":76561198214004105,"connected_time":2301000000000,"state":"active","ping":88},{"user_id":71,"name":"Moobs","steam_id":76561198215527235,"connected_time":2050000000000,"state":"active","ping":120},{"user_id":90,"name":"Remzy","steam_id":76561198272401170,"connected_time":469000000000,"state":"active","ping":108},{"user_id":51,"name":"Joker","steam_id":76561198825464266,"connected_time":2912000000000,"state":"active","ping":79},{"user_id":72,"name":"Champion Heavy","steam_id":76561199187337967,"connected_time":1802000000000,"state":"active","ping":60},{"user_id":42,"name":"Walter.J.Kovacs","steam_id":76561199034498380,"connected_time":3222000000000,"state":"active","ping":116},{"user_id":52,"name":"Darknile55","steam_id":76561198042029359,"connected_time":2868000000000,"state":"active","ping":72},{"user_id":67,"name":"POWER!!!!!!!!!!!!!!!!!!!!!!!!!!","steam_id":76561198112388117,"connected_time":2283000000000,"state":"active","ping":77},{"user_id":55,"name":"Bozanimal","steam_id":76561198044096897,"connected_time":2848000000000,"state":"active","ping":66},{"user_id":73,"name":"Hobocop","steam_id":76561198076321907,"connected_time":1549000000000,"state":"active","ping":85},{"user_id":87,"name":"soyelaua","steam_id":76561199055798939,"connected_time":1027000000000,"state":"active","ping":132}]},{"server_id":36,"name":"Uncletopia | Chicago | 5 | All Maps","name_short":"chi-5","host":"chi-2.us.uncletopia.com","port":27015,"enabled":true,"region":"us-central","cc":"us","latitude":41.881832,"longitude":-87.62318,"reserved":0,"last_update":"0001-01-01T00:00:00Z","name_a2s":"Uncletopia | Chicago | 5 | All Maps","protocol":17,"map":"koth_cascade","folder":"tf","game":"Team Fortress","app_id":440,"player_count":0,"max_players":24,"Bots":0,"server_type":"Dedicated","server_os":"Linux","password":true,"vac":true,"version":"7757534","steam_id":85568392924866362,"keywords":["cp","nocrits","nodmgspread","uncletopia"],"game_id":440,"stv_port":27016,"stv_name":"Uncletopia | Chicago | 5 | All Maps | STV","players":null},{"server_id":37,"name":"Uncletopia | Chicago | 6 | All Maps","name_short":"chi-6","host":"chi-2.us.uncletopia.com","port":27025,"enabled":true,"region":"us-central","cc":"us","latitude":41.881832,"longitude":-87.62318,"reserved":0,"last_update":"0001-01-01T00:00:00Z","name_a2s":"Uncletopia | Chicago | 6 | All Maps","protocol":17,"map":"pl_frontier_final","folder":"tf","game":"Team Fortress","app_id":440,"player_count":24,"max_players":24,"Bots":0,"server_type":"Dedicated","server_os":"Linux","password":true,"vac":true,"version":"7757534","steam_id":85568392924866363,"keywords":["nocrits","nodmgspread","payload","uncletopia"],"game_id":440,"stv_port":27026,"stv_name":"Uncletopia | Chicago | 6 | All Maps | STV","players":[{"user_id":106,"name":"Dilly Pickles","steam_id":76561198312068499,"connected_time":2367000000000,"state":"active","ping":89},{"user_id":132,"name":"wire-guided","steam_id":76561198055407168,"connected_time":1011000000000,"state":"active","ping":68},{"user_id":116,"name":"ZeFizzyPop™","steam_id":76561198258104981,"connected_time":1827000000000,"state":"active","ping":44},{"user_id":99,"name":"Candy Sparkles","steam_id":76561198126871264,"connected_time":2808000000000,"state":"active","ping":84},{"user_id":140,"name":"supcupman","steam_id":76561198051513866,"connected_time":160000000000,"state":"active","ping":110},{"user_id":100,"name":"REALLINUSJEWTIP.","steam_id":76561198056647983,"connected_time":2778000000000,"state":"active","ping":75},{"user_id":133,"name":"white ray","steam_id":76561198026664629,"connected_time":936000000000,"state":"active","ping":58},{"user_id":113,"name":"Chromatic Bliss","steam_id":76561198252604816,"connected_time":1916000000000,"state":"active","ping":77},{"user_id":101,"name":"paisano","steam_id":76561198065575472,"connected_time":2775000000000,"state":"active","ping":59},{"user_id":117,"name":"None of that $9.99 bullshit","steam_id":76561198116169903,"connected_time":1818000000000,"state":"active","ping":46},{"user_id":120,"name":"Rice Donut","steam_id":76561198071762078,"connected_time":1750000000000,"state":"active","ping":61},{"user_id":129,"name":"drinkos","steam_id":76561198261556166,"connected_time":1058000000000,"state":"active","ping":47},{"user_id":111,"name":"Sublime","steam_id":76561198018268623,"connected_time":1961000000000,"state":"active","ping":154},{"user_id":118,"name":"Karrot","steam_id":76561198058970903,"connected_time":1816000000000,"state":"active","ping":68},{"user_id":79,"name":"Tim the Enchanter","steam_id":76561197970503120,"connected_time":3987000000000,"state":"active","ping":70},{"user_id":130,"name":"lawrencefishdom","steam_id":76561199190918059,"connected_time":1054000000000,"state":"active","ping":165},{"user_id":123,"name":"Plasmoklo","steam_id":76561199071571167,"connected_time":1643000000000,"state":"active","ping":82},{"user_id":131,"name":"Sol Goodman","steam_id":76561198289164442,"connected_time":1039000000000,"state":"active","ping":72},{"user_id":136,"name":"Mister36","steam_id":76561198019132100,"connected_time":816000000000,"state":"active","ping":46},{"user_id":125,"name":"footoftheday","steam_id":76561198052712449,"connected_time":1472000000000,"state":"active","ping":65},{"user_id":137,"name":"SuperFresh","steam_id":76561198200723198,"connected_time":574000000000,"state":"active","ping":43},{"user_id":139,"name":"trippingbull419","steam_id":76561199111639935,"connected_time":431000000000,"state":"active","ping":89},{"user_id":109,"name":"ReggieTheIdiot","steam_id":76561198288168746,"connected_time":1988000000000,"state":"active","ping":87},{"user_id":60,"name":"Meh","steam_id":76561198078187920,"connected_time":5657000000000,"state":"active","ping":92}]},{"server_id":38,"name":"Uncletopia | Chicago | 7 | Stopwatch Beta","name_short":"chi-7","host":"chi-2.us.uncletopia.com","port":27035,"enabled":true,"region":"us-central","cc":"us","latitude":41.881832,"longitude":-87.62318,"reserved":0,"last_update":"0001-01-01T00:00:00Z","name_a2s":"Uncletopia | Chicago | 7 | Stopwatch Beta","protocol":17,"map":"pl_borneo","folder":"tf","game":"Team Fortress","app_id":440,"player_count":0,"max_players":24,"Bots":0,"server_type":"Dedicated","server_os":"Linux","password":true,"vac":true,"version":"7757534","steam_id":85568392924866364,"keywords":["nocrits","nodmgspread","payload","uncletopia"],"game_id":440,"stv_port":27036,"stv_name":"Uncletopia | Chicago | 7 | Stopwatch Beta | STV","players":null},{"server_id":39,"name":"Uncletopia | Chicago | 8 | Community","name_short":"chi-8","host":"chi-2.us.uncletopia.com","port":27045,"enabled":true,"region":"us-central","cc":"us","latitude":41.881832,"longitude":-87.62318,"reserved":0,"last_update":"0001-01-01T00:00:00Z","name_a2s":"Uncletopia | Chicago | 8 | Community","protocol":17,"map":"workshop/koth_product_final.ugc454272353","folder":"tf","game":"Team Fortress","app_id":440,"player_count":0,"max_players":24,"Bots":0,"server_type":"Dedicated","server_os":"Linux","password":true,"vac":true,"version":"7757534","steam_id":85568392924866365,"keywords":["cp","nocrits","nodmgspread","uncletopia"],"game_id":440,"stv_port":27046,"stv_name":"Uncletopia | Chicago | 8 | Community | STV","players":null},{"server_id":8,"name":"Uncletopia | Dallas | 1 | All Maps","name_short":"dal-1","host":"dal-1.us.uncletopia.com","port":27015,"enabled":true,"region":"us-central","cc":"us","latitude":32.779167,"longitude":-96.80889,"reserved":0,"last_update":"0001-01-01T00:00:00Z","name_a2s":"Uncletopia | Dallas | 1 | All Maps","protocol":17,"map":"pl_frontier_final","folder":"tf","game":"Team Fortress","app_id":440,"player_count":24,"max_players":24,"Bots":0,"server_type":"Dedicated","server_os":"Linux","password":true,"vac":true,"version":"7757534","steam_id":85568392924469986,"keywords":["nocrits","nodmgspread","payload","uncletopia"],"game_id":440,"stv_port":27016,"stv_name":"Uncletopia | Dallas | 1 | All Maps | STV","players":[{"user_id":157,"name":"Flaurosa | twitch.tv","steam_id":76561198193606823,"connected_time":2098000000000,"state":"active","ping":60},{"user_id":148,"name":"ULTRACOCK","steam_id":76561198022967929,"connected_time":2581000000000,"state":"active","ping":67},{"user_id":188,"name":"Keg","steam_id":76561198242688458,"connected_time":434000000000,"state":"active","ping":113},{"user_id":149,"name":"yeyoi","steam_id":76561198069821885,"connected_time":2515000000000,"state":"active","ping":36},{"user_id":193,"name":"Rusty","steam_id":76561198055585129,"connected_time":190000000000,"state":"active","ping":104},{"user_id":158,"name":"Good Mudkip","steam_id":76561198439784449,"connected_time":2065000000000,"state":"active","ping":79},{"user_id":184,"name":"miraakz420","steam_id":76561199013850154,"connected_time":895000000000,"state":"active","ping":75},{"user_id":180,"name":"Vibey","steam_id":76561198342873474,"connected_time":1165000000000,"state":"active","ping":118},{"user_id":176,"name":"catrinaisahuman","steam_id":76561198281355729,"connected_time":1780000000000,"state":"active","ping":60},{"user_id":150,"name":"Foomfa","steam_id":76561198007033616,"connected_time":2441000000000,"state":"active","ping":74},{"user_id":194,"name":"XinPing","steam_id":76561198174498174,"connected_time":163000000000,"state":"active","ping":114},{"user_id":154,"name":"a Salty Individual","steam_id":76561197979951077,"connected_time":2116000000000,"state":"active","ping":130},{"user_id":171,"name":"skia (nyan)","steam_id":76561198053818001,"connected_time":1962000000000,"state":"active","ping":70},{"user_id":146,"name":"Riff","steam_id":76561198066921423,"connected_time":2711000000000,"state":"active","ping":68},{"user_id":187,"name":"Sixrow","steam_id":76561198269289716,"connected_time":495000000000,"state":"active","ping":41},{"user_id":186,"name":"bo scrungulus","steam_id":76561198038036122,"connected_time":815000000000,"state":"active","ping":69},{"user_id":182,"name":"aViSiNg","steam_id":76561198161198820,"connected_time":1003000000000,"state":"active","ping":40},{"user_id":147,"name":"heavy weapons guy","steam_id":76561198151135298,"connected_time":2699000000000,"state":"active","ping":65},{"user_id":189,"name":"KingSteve42","steam_id":76561198409455888,"connected_time":366000000000,"state":"active","ping":104},{"user_id":172,"name":"Lord GabeN","steam_id":76561198140862723,"connected_time":1955000000000,"state":"active","ping":95},{"user_id":144,"name":"John Dungus (the real one)","steam_id":76561198049191027,"connected_time":2858000000000,"state":"active","ping":60},{"user_id":175,"name":"Mcstuffer","steam_id":76561198033974816,"connected_time":1826000000000,"state":"active","ping":58},{"user_id":80,"name":"Certified Hood Classic","steam_id":76561199086159354,"connected_time":6775000000000,"state":"active","ping":56},{"user_id":183,"name":"shady","steam_id":76561198058098509,"connected_time":998000000000,"state":"active","ping":75}]},{"server_id":108,"name":"Uncletopia | Dallas | 2 | All Maps","name_short":"dal-2","host":"dal-1.us.uncletopia.com","port":27025,"enabled":true,"region":"us-central","cc":"us","latitude":32.779167,"longitude":-96.80889,"reserved":0,"last_update":"0001-01-01T00:00:00Z","name_a2s":"Uncletopia | Dallas | 2 | All Maps","protocol":17,"map":"cp_altitude","folder":"tf","game":"Team Fortress","app_id":440,"player_count":1,"max_players":24,"Bots":0,"server_type":"Dedicated","server_os":"Linux","password":true,"vac":true,"version":"7757534","steam_id":85568392924469988,"keywords":["cp","nocrits","nodmgspread","uncletopia"],"game_id":440,"stv_port":27026,"stv_name":"Uncletopia | Dallas | 2 | All Maps | STV","players":[{"user_id":15,"name":"Robomandude","steam_id":76561198043909566,"connected_time":277000000000,"state":"active","ping":46}]},{"server_id":5,"name":"Uncletopia | Frankfurt | 1 | All Maps","name_short":"frk-1","host":"frk-1.de.uncletopia.com","port":27015,"enabled":true,"region":"eu","cc":"de","latitude":50.110924,"longitude":8.682127,"reserved":0,"last_update":"0001-01-01T00:00:00Z","name_a2s":"Uncletopia | Frankfurt | 1 | All Maps","protocol":17,"map":"pl_upward","folder":"tf","game":"Team Fortress","app_id":440,"player_count":24,"max_players":24,"Bots":0,"server_type":"Dedicated","server_os":"Linux","password":true,"vac":true,"version":"7757534","steam_id":85568392924469989,"keywords":["nocrits","nodmgspread","payload","uncletopia"],"game_id":440,"stv_port":27016,"stv_name":"Uncletopia | Frankfurt | 1 | All Maps | STV","players":[{"user_id":429,"name":"Accident","steam_id":76561198115160396,"connected_time":4295000000000,"state":"active","ping":65},{"user_id":451,"name":"LasagnaLarry21","steam_id":76561198058159271,"connected_time":1093000000000,"state":"active","ping":62},{"user_id":452,"name":"Burgoo_King","steam_id":76561198133572225,"connected_time":1090000000000,"state":"active","ping":76},{"user_id":458,"name":"SoupER","steam_id":76561198063056668,"connected_time":990000000000,"state":"active","ping":57},{"user_id":445,"name":"PrivatePengu","steam_id":76561198100112667,"connected_time":1892000000000,"state":"active","ping":46},{"user_id":439,"name":"mohemmedmokhter2005","steam_id":76561199197650506,"connected_time":2753000000000,"state":"active","ping":109},{"user_id":398,"name":"LarsInABox","steam_id":76561198028329262,"connected_time":5550000000000,"state":"active","ping":70},{"user_id":459,"name":"Stümpy","steam_id":76561198255904077,"connected_time":304000000000,"state":"active","ping":60},{"user_id":437,"name":"Taskyy","steam_id":76561198134901175,"connected_time":3131000000000,"state":"active","ping":82},{"user_id":392,"name":"Albino Jellyfish","steam_id":76561198208561097,"connected_time":6041000000000,"state":"active","ping":138},{"user_id":371,"name":"Fat Pigeon","steam_id":76561198817940142,"connected_time":7376000000000,"state":"active","ping":53},{"user_id":433,"name":"Udinese Dion","steam_id":76561198067931573,"connected_time":3357000000000,"state":"active","ping":41},{"user_id":453,"name":"иван","steam_id":76561198072730591,"connected_time":1076000000000,"state":"active","ping":61},{"user_id":448,"name":"ムGeRmAn |×UA×ム","steam_id":76561199044754898,"connected_time":1713000000000,"state":"active","ping":69},{"user_id":440,"name":"CRWND","steam_id":76561198329810027,"connected_time":2747000000000,"state":"active","ping":55},{"user_id":449,"name":"Rory","steam_id":76561198354037580,"connected_time":1640000000000,"state":"active","ping":52},{"user_id":401,"name":"Mach |=|20BB|)","steam_id":76561198952487564,"connected_time":5193000000000,"state":"active","ping":76},{"user_id":455,"name":"√(-Wolf)","steam_id":76561198024769704,"connected_time":1050000000000,"state":"active","ping":92},{"user_id":456,"name":"nedilya","steam_id":76561198039692077,"connected_time":1038000000000,"state":"active","ping":54},{"user_id":321,"name":"LasagnaLarry22","steam_id":76561198089478290,"connected_time":10721000000000,"state":"active","ping":50},{"user_id":457,"name":"makarov","steam_id":76561198363892870,"connected_time":1036000000000,"state":"active","ping":66},{"user_id":407,"name":"LasagnaLarry20","steam_id":76561198189940229,"connected_time":4753000000000,"state":"active","ping":53},{"user_id":418,"name":"Serton♝","steam_id":76561198011061126,"connected_time":4683000000000,"state":"active","ping":89},{"user_id":438,"name":"Chambersite","steam_id":76561198197022399,"connected_time":2941000000000,"state":"active","ping":65}]},{"server_id":110,"name":"Uncletopia | Frankfurt | 2 | All Maps","name_short":"frk-2","host":"frk-1.de.uncletopia.com","port":27025,"enabled":true,"region":"eu","cc":"de","latitude":50.110924,"longitude":8.682127,"reserved":0,"last_update":"0001-01-01T00:00:00Z","name_a2s":"Uncletopia | Frankfurt | 2 | All Maps","protocol":17,"map":"pl_swiftwater_final1","folder":"tf","game":"Team Fortress","app_id":440,"player_count":24,"max_players":24,"Bots":0,"server_type":"Dedicated","server_os":"Linux","password":true,"vac":true,"version":"7757534","steam_id":85568392924469990,"keywords":["nocrits","nodmgspread","payload","uncletopia"],"game_id":440,"stv_port":27026,"stv_name":"Uncletopia | Frankfurt | 2 | All Maps | STV","players":[{"user_id":417,"name":"Maxinator80","steam_id":76561198064728122,"connected_time":475000000000,"state":"active","ping":54},{"user_id":314,"name":"kuroblakka","steam_id":76561198260700096,"connected_time":6510000000000,"state":"active","ping":91},{"user_id":412,"name":"♫★Xriasp★♫","steam_id":76561198104721321,"connected_time":598000000000,"state":"active","ping":74},{"user_id":400,"name":"Negative Rodger","steam_id":76561198030956814,"connected_time":919000000000,"state":"active","ping":88},{"user_id":414,"name":"TJ1212","steam_id":76561199013575313,"connected_time":583000000000,"state":"active","ping":74},{"user_id":367,"name":"MaeStro","steam_id":76561198046513151,"connected_time":2904000000000,"state":"active","ping":93},{"user_id":401,"name":"minespweper","steam_id":76561199096919345,"connected_time":916000000000,"state":"active","ping":74},{"user_id":402,"name":"Old Man Winter","steam_id":76561198007653168,"connected_time":912000000000,"state":"active","ping":76},{"user_id":403,"name":".quickfast.","steam_id":76561199438900919,"connected_time":859000000000,"state":"active","ping":58},{"user_id":393,"name":"Fatass Scout","steam_id":76561198282110428,"connected_time":1225000000000,"state":"active","ping":71},{"user_id":404,"name":"Master of tiktok","steam_id":76561199379233899,"connected_time":853000000000,"state":"active","ping":90},{"user_id":405,"name":"Sorexsum","steam_id":76561198137086495,"connected_time":837000000000,"state":"active","ping":59},{"user_id":394,"name":"Emil420m","steam_id":76561198241894374,"connected_time":1127000000000,"state":"active","ping":57},{"user_id":413,"name":"Oolongcat","steam_id":76561198027033783,"connected_time":595000000000,"state":"active","ping":44},{"user_id":379,"name":"hello kitty gaming","steam_id":76561197972008326,"connected_time":1822000000000,"state":"active","ping":78},{"user_id":387,"name":"Steven AssMaster","steam_id":76561198083489951,"connected_time":1540000000000,"state":"active","ping":65},{"user_id":416,"name":"jovi_","steam_id":76561198449280552,"connected_time":518000000000,"state":"active","ping":70},{"user_id":411,"name":"darkwater","steam_id":76561197986978738,"connected_time":658000000000,"state":"active","ping":59},{"user_id":408,"name":"I.C. Wiener","steam_id":76561197999912254,"connected_time":802000000000,"state":"active","ping":91},{"user_id":324,"name":"robitamoft","steam_id":76561198315903156,"connected_time":6201000000000,"state":"active","ping":86},{"user_id":384,"name":"☩ Knightz ☩","steam_id":76561198040936414,"connected_time":1737000000000,"state":"active","ping":121},{"user_id":371,"name":"Professional facestab","steam_id":76561198258721056,"connected_time":2281000000000,"state":"active","ping":51},{"user_id":409,"name":"Toon","steam_id":76561198065421595,"connected_time":778000000000,"state":"active","ping":47},{"user_id":415,"name":"jinkies","steam_id":76561198094939950,"connected_time":581000000000,"state":"active","ping":72}]},{"server_id":308,"name":"Uncletopia | Frankfurt | 3 | All Maps","name_short":"frk-3","host":"frk-1.de.uncletopia.com","port":27035,"enabled":true,"region":"eu","cc":"de","latitude":50.110924,"longitude":8.682127,"reserved":0,"last_update":"0001-01-01T00:00:00Z","name_a2s":"Uncletopia | Frankfurt | 3 | All Maps","protocol":17,"map":"pl_badwater","folder":"tf","game":"Team Fortress","app_id":440,"player_count":24,"max_players":24,"Bots":0,"server_type":"Dedicated","server_os":"Linux","password":true,"vac":true,"version":"7757534","steam_id":85568392924504274,"keywords":["nocrits","nodmgspread","payload","uncletopia"],"game_id":440,"stv_port":27036,"stv_name":"Uncletopia | Frankfurt | 3 | All Maps | STV","players":[{"user_id":353,"name":"Sir.JJ","steam_id":76561198020681204,"connected_time":721000000000,"state":"active","ping":58},{"user_id":340,"name":"Elon Ma","steam_id":76561199018053264,"connected_time":1631000000000,"state":"active","ping":59},{"user_id":313,"name":"Duck!","steam_id":76561198047723907,"connected_time":3362000000000,"state":"active","ping":59},{"user_id":349,"name":"Truck-Sama's Victim","steam_id":76561198826861582,"connected_time":793000000000,"state":"active","ping":78},{"user_id":328,"name":"ike","steam_id":76561198039573338,"connected_time":2178000000000,"state":"active","ping":75},{"user_id":350,"name":"Umberto Bossi","steam_id":76561198136150267,"connected_time":749000000000,"state":"active","ping":52},{"user_id":351,"name":"Djingis Khan","steam_id":76561197967864460,"connected_time":740000000000,"state":"active","ping":46},{"user_id":357,"name":"DUBBO","steam_id":76561198106529171,"connected_time":383000000000,"state":"active","ping":62},{"user_id":270,"name":"Innocent Bystander","steam_id":76561198259885007,"connected_time":5630000000000,"state":"active","ping":52},{"user_id":344,"name":"gOnzaLOXX2005","steam_id":76561198056744152,"connected_time":1084000000000,"state":"active","ping":94},{"user_id":352,"name":"Banal Destroyer","steam_id":76561198299570372,"connected_time":733000000000,"state":"active","ping":60},{"user_id":354,"name":"stand on my money now i'm 4'3","steam_id":76561198273358760,"connected_time":648000000000,"state":"active","ping":71},{"user_id":338,"name":"Torttu","steam_id":76561198013980029,"connected_time":1888000000000,"state":"active","ping":60},{"user_id":304,"name":"Deathpunch212","steam_id":76561198019767288,"connected_time":3582000000000,"state":"active","ping":63},{"user_id":342,"name":"Morgan BullFrog","steam_id":76561198088334623,"connected_time":1516000000000,"state":"active","ping":88},{"user_id":322,"name":"MagicTITIKAKA","steam_id":76561198129509548,"connected_time":2548000000000,"state":"active","ping":100},{"user_id":305,"name":"Fogic yo!","steam_id":76561198084624833,"connected_time":3580000000000,"state":"active","ping":77},{"user_id":341,"name":"mattyczeml","steam_id":76561198173558878,"connected_time":1603000000000,"state":"active","ping":59},{"user_id":334,"name":"murf","steam_id":76561199184831395,"connected_time":1966000000000,"state":"active","ping":59},{"user_id":355,"name":"árvíztűrő tükörfúrógép","steam_id":76561198296643061,"connected_time":612000000000,"state":"active","ping":60},{"user_id":306,"name":"Boonir","steam_id":76561198049172108,"connected_time":3566000000000,"state":"active","ping":103},{"user_id":359,"name":"Cordo","steam_id":76561198365265953,"connected_time":81000000000,"state":"active","ping":45},{"user_id":360,"name":"GogsCrunchyNuts","steam_id":76561198150599213,"connected_time":68000000000,"state":"active","ping":112},{"user_id":318,"name":"Baki ツ","steam_id":76561198193615529,"connected_time":3217000000000,"state":"active","ping":55}]},{"server_id":309,"name":"Uncletopia | Frankfurt | 4 | All Maps","name_short":"frk-4","host":"frk-1.de.uncletopia.com","port":27045,"enabled":true,"region":"eu","cc":"de","latitude":50.110924,"longitude":8.682127,"reserved":0,"last_update":"0001-01-01T00:00:00Z","name_a2s":"Uncletopia | Frankfurt | 4 | All Maps","protocol":17,"map":"pl_pier","folder":"tf","game":"Team Fortress","app_id":440,"player_count":24,"max_players":24,"Bots":0,"server_type":"Dedicated","server_os":"Linux","password":true,"vac":true,"version":"7757534","steam_id":85568392924504275,"keywords":["nocrits","nodmgspread","payload","uncletopia"],"game_id":440,"stv_port":27046,"stv_name":"Uncletopia | Frankfurt | 4 | All Maps | STV","players":[{"user_id":300,"name":"ReVerb","steam_id":76561198024949870,"connected_time":1361000000000,"state":"active","ping":59},{"user_id":330,"name":"w4gthp0h","steam_id":76561198133193445,"connected_time":69000000000,"state":"active","ping":78},{"user_id":292,"name":"Bagels","steam_id":76561198389646406,"connected_time":1718000000000,"state":"active","ping":72},{"user_id":259,"name":"Ennard777","steam_id":76561198965409493,"connected_time":3468000000000,"state":"active","ping":102},{"user_id":288,"name":"Limeg210","steam_id":76561198152671630,"connected_time":2422000000000,"state":"active","ping":87},{"user_id":301,"name":"Pingus","steam_id":76561198164880756,"connected_time":1349000000000,"state":"active","ping":76},{"user_id":322,"name":"Sulatejuusto","steam_id":76561198063971856,"connected_time":600000000000,"state":"active","ping":87},{"user_id":266,"name":"★poyo★","steam_id":76561198150078959,"connected_time":3159000000000,"state":"active","ping":78},{"user_id":302,"name":"kaelan!","steam_id":76561198001425310,"connected_time":1346000000000,"state":"active","ping":75},{"user_id":283,"name":"neo","steam_id":76561198136265838,"connected_time":2587000000000,"state":"active","ping":60},{"user_id":317,"name":"Leituga","steam_id":76561198051127598,"connected_time":1106000000000,"state":"active","ping":93},{"user_id":304,"name":"Raldow","steam_id":76561198021389301,"connected_time":1338000000000,"state":"active","ping":69},{"user_id":324,"name":"Zembis","steam_id":76561198008017918,"connected_time":188000000000,"state":"active","ping":95},{"user_id":305,"name":"Españaa","steam_id":76561198879587832,"connected_time":1307000000000,"state":"active","ping":83},{"user_id":320,"name":"Tea","steam_id":76561198799243030,"connected_time":744000000000,"state":"active","ping":71},{"user_id":307,"name":"SpilledMilk","steam_id":76561198174123971,"connected_time":1291000000000,"state":"active","ping":60},{"user_id":331,"name":"kloada","steam_id":76561198082113271,"connected_time":46000000000,"state":"active","ping":91},{"user_id":165,"name":"The Wolf Leader","steam_id":76561198038007462,"connected_time":9233000000000,"state":"active","ping":68},{"user_id":289,"name":"Real","steam_id":76561198322220924,"connected_time":2308000000000,"state":"active","ping":62},{"user_id":297,"name":"Tasque Manager","steam_id":76561198301728644,"connected_time":1541000000000,"state":"active","ping":71},{"user_id":326,"name":"Jimu","steam_id":76561197971586392,"connected_time":159000000000,"state":"active","ping":77},{"user_id":328,"name":"SaltyCupcakes","steam_id":76561198256386417,"connected_time":113000000000,"state":"active","ping":60},{"user_id":319,"name":"Vanta_BlackLD","steam_id":76561198346271576,"connected_time":798000000000,"state":"active","ping":60},{"user_id":329,"name":"Vitun Jonne","steam_id":76561198401737380,"connected_time":105000000000,"state":"active","ping":60}]},{"server_id":310,"name":"Uncletopia | Frankfurt | 5 | All Maps","name_short":"frk-5","host":"frk-1.de.uncletopia.com","port":27055,"enabled":true,"region":"eu","cc":"de","latitude":50.110924,"longitude":8.682127,"reserved":0,"last_update":"0001-01-01T00:00:00Z","name_a2s":"Uncletopia | Frankfurt | 5 | All Maps","protocol":17,"map":"pl_barnblitz","folder":"tf","game":"Team Fortress","app_id":440,"player_count":24,"max_players":24,"Bots":0,"server_type":"Dedicated","server_os":"Linux","password":true,"vac":true,"version":"7757534","steam_id":85568392924504277,"keywords":["nocrits","nodmgspread","payload","uncletopia"],"game_id":440,"stv_port":27056,"stv_name":"Uncletopia | Frankfurt | 5 | All Maps | STV","players":[{"user_id":220,"name":"men snus","steam_id":76561198311864757,"connected_time":1706000000000,"state":"active","ping":69},{"user_id":218,"name":"Ted Kaczynski","steam_id":76561198064795519,"connected_time":1765000000000,"state":"active","ping":78},{"user_id":229,"name":"ULTIMATE_GORDON","steam_id":76561198044470038,"connected_time":400000000000,"state":"active","ping":48},{"user_id":231,"name":"salatkas","steam_id":76561198033237090,"connected_time":320000000000,"state":"active","ping":45},{"user_id":225,"name":"Pachakamakk","steam_id":76561197989010401,"connected_time":1115000000000,"state":"active","ping":56},{"user_id":185,"name":"Nyoelle","steam_id":76561198041717890,"connected_time":4829000000000,"state":"active","ping":79},{"user_id":189,"name":"Carrot","steam_id":76561198119340863,"connected_time":4756000000000,"state":"active","ping":56},{"user_id":230,"name":"I'm high on crack","steam_id":76561198175433731,"connected_time":331000000000,"state":"active","ping":84},{"user_id":232,"name":"KLAMA  ❤","steam_id":76561198351549661,"connected_time":288000000000,"state":"active","ping":75},{"user_id":187,"name":"where is my egg?","steam_id":76561198172542535,"connected_time":4811000000000,"state":"active","ping":74},{"user_id":233,"name":"Bottom 1 Johnnii","steam_id":76561198012841225,"connected_time":281000000000,"state":"active","ping":70},{"user_id":157,"name":"Penis Contortionist","steam_id":76561198073663784,"connected_time":6386000000000,"state":"active","ping":54},{"user_id":234,"name":"Kerzch","steam_id":76561198022730443,"connected_time":271000000000,"state":"active","ping":151},{"user_id":235,"name":"Saser","steam_id":76561198070438914,"connected_time":241000000000,"state":"active","ping":95},{"user_id":223,"name":"Mr.Man","steam_id":76561199175688390,"connected_time":1526000000000,"state":"active","ping":75},{"user_id":236,"name":"lolmurphyy","steam_id":76561198143068715,"connected_time":240000000000,"state":"active","ping":52},{"user_id":237,"name":"Totally Something","steam_id":76561198916824935,"connected_time":233000000000,"state":"active","ping":80},{"user_id":238,"name":"deri100","steam_id":76561198397588574,"connected_time":209000000000,"state":"active","ping":86},{"user_id":222,"name":"New","steam_id":76561198402195911,"connected_time":1682000000000,"state":"active","ping":119},{"user_id":164,"name":"_zipfile","steam_id":76561198066133808,"connected_time":6265000000000,"state":"active","ping":85},{"user_id":239,"name":"Bl_ue2th","steam_id":76561198804551869,"connected_time":169000000000,"state":"active","ping":115},{"user_id":181,"name":"Simoh The Swoob","steam_id":76561198058078322,"connected_time":5050000000000,"state":"active","ping":86},{"user_id":197,"name":"jan09102004","steam_id":76561198445458615,"connected_time":3188000000000,"state":"active","ping":86},{"user_id":191,"name":"It hurts when i pee (real)","steam_id":76561198139404261,"connected_time":4165000000000,"state":"active","ping":60}]},{"server_id":311,"name":"Uncletopia | Frankfurt | 6 | All Maps","name_short":"frk-6","host":"frk-1.de.uncletopia.com","port":27065,"enabled":true,"region":"eu","cc":"de","latitude":50.110924,"longitude":8.682127,"reserved":0,"last_update":"0001-01-01T00:00:00Z","name_a2s":"Uncletopia | Frankfurt | 6 | All Maps","protocol":17,"map":"pl_badwater","folder":"tf","game":"Team Fortress","app_id":440,"player_count":24,"max_players":24,"Bots":0,"server_type":"Dedicated","server_os":"Linux","password":true,"vac":true,"version":"7757534","steam_id":85568392924504278,"keywords":["nocrits","nodmgspread","payload","uncletopia"],"game_id":440,"stv_port":27066,"stv_name":"Uncletopia | Frankfurt | 6 | All Maps | STV","players":[{"user_id":244,"name":"We are in a world of magic","steam_id":76561198104745492,"connected_time":1579000000000,"state":"active","ping":72},{"user_id":258,"name":"LinkOfAsgard","steam_id":76561198845682529,"connected_time":997000000000,"state":"active","ping":90},{"user_id":246,"name":"lazoboy","steam_id":76561199074095198,"connected_time":1236000000000,"state":"active","ping":122},{"user_id":247,"name":"Bilaterial Newt","steam_id":76561198074655679,"connected_time":1201000000000,"state":"active","ping":73},{"user_id":248,"name":"decriminalise goblins","steam_id":76561198048257605,"connected_time":1183000000000,"state":"active","ping":73},{"user_id":273,"name":"crsld","steam_id":76561198281682473,"connected_time":139000000000,"state":"active","ping":139},{"user_id":249,"name":"scharque","steam_id":76561198071227039,"connected_time":1180000000000,"state":"active","ping":84},{"user_id":274,"name":"❀snorlax","steam_id":76561198051629288,"connected_time":130000000000,"state":"active","ping":50},{"user_id":275,"name":"KFC Enjoyer","steam_id":76561198840259819,"connected_time":127000000000,"state":"active","ping":46},{"user_id":252,"name":"sesw","steam_id":76561198057332404,"connected_time":1086000000000,"state":"active","ping":68},{"user_id":256,"name":"ciaraaxox","steam_id":76561198273912610,"connected_time":1036000000000,"state":"active","ping":84},{"user_id":253,"name":"rez777ka","steam_id":76561198107605938,"connected_time":1075000000000,"state":"active","ping":85},{"user_id":254,"name":"Danger Noodle","steam_id":76561198874093656,"connected_time":1062000000000,"state":"active","ping":84},{"user_id":255,"name":"McGov","steam_id":76561198211361463,"connected_time":1041000000000,"state":"active","ping":66},{"user_id":270,"name":"Zero (Orbital Gear Mastermind)","steam_id":76561198017416816,"connected_time":320000000000,"state":"active","ping":57},{"user_id":259,"name":"Sir Skyber","steam_id":76561198064440004,"connected_time":977000000000,"state":"active","ping":101},{"user_id":260,"name":"China Cat","steam_id":76561198313835792,"connected_time":952000000000,"state":"active","ping":65},{"user_id":261,"name":"76561199065328117","steam_id":76561199065328117,"connected_time":943000000000,"state":"active","ping":107},{"user_id":269,"name":"the real lancer from deltarune","steam_id":76561199078505144,"connected_time":347000000000,"state":"active","ping":83},{"user_id":263,"name":"☣Strale☣","steam_id":76561198026578820,"connected_time":936000000000,"state":"active","ping":75},{"user_id":264,"name":"Vieltox","steam_id":76561199075861497,"connected_time":929000000000,"state":"active","ping":52},{"user_id":271,"name":"Rasmusson [29th ID]","steam_id":76561198191451713,"connected_time":319000000000,"state":"active","ping":88},{"user_id":265,"name":"goodguydragg","steam_id":76561198305104891,"connected_time":919000000000,"state":"active","ping":67},{"user_id":272,"name":"xjdjfjcfjf","steam_id":76561198838855134,"connected_time":312000000000,"state":"active","ping":81}]},{"server_id":23,"name":"Uncletopia | Frankfurt | 7 | Stopwatch Beta","name_short":"frk-7","host":"frk-1.de.uncletopia.com","port":27075,"enabled":true,"region":"eu","cc":"de","latitude":50.110924,"longitude":8.682127,"reserved":0,"last_update":"0001-01-01T00:00:00Z","name_a2s":"Uncletopia | Frankfurt | 7 | Stopwatch Beta","protocol":17,"map":"pl_borneo","folder":"tf","game":"Team Fortress","app_id":440,"player_count":0,"max_players":24,"Bots":0,"server_type":"Dedicated","server_os":"Linux","password":true,"vac":true,"version":"7757534","steam_id":85568392924742827,"keywords":["nocrits","nodmgspread","payload","uncletopia"],"game_id":440,"stv_port":27076,"stv_name":"Uncletopia | Frankfurt | 7 | Stopwatch Beta | STV","players":null},{"server_id":24,"name":"Uncletopia | Frankfurt | 8 | Community","name_short":"frk-8","host":"frk-1.de.uncletopia.com","port":27085,"enabled":true,"region":"eu","cc":"de","latitude":50.110924,"longitude":8.682127,"reserved":0,"last_update":"0001-01-01T00:00:00Z","name_a2s":"Uncletopia | Frankfurt | 8 | Community","protocol":17,"map":"workshop/koth_bagel_rc5.ugc2514036946","folder":"tf","game":"Team Fortress","app_id":440,"player_count":0,"max_players":24,"Bots":0,"server_type":"Dedicated","server_os":"Linux","password":true,"vac":true,"version":"7757534","steam_id":85568392924742828,"keywords":["cp","nocrits","nodmgspread","uncletopia"],"game_id":440,"stv_port":27086,"stv_name":"Uncletopia | Frankfurt | 8 | Community | STV","players":null},{"server_id":202,"name":"Uncletopia | Hong Kong | 1 | All Maps","name_short":"hgk-1","host":"hgk-1.hk.uncletopia.com","port":27015,"enabled":true,"region":"asia","cc":"hk","latitude":22.302711,"longitude":114.177216,"reserved":0,"last_update":"0001-01-01T00:00:00Z","name_a2s":"Uncletopia | Hong Kong | 1 | All Maps","protocol":17,"map":"cp_dustbowl","folder":"tf","game":"Team Fortress","app_id":440,"player_count":0,"max_players":24,"Bots":0,"server_type":"Dedicated","server_os":"Linux","password":true,"vac":true,"version":"7757534","steam_id":85568392924494504,"keywords":["cp","nocrits","nodmgspread","uncletopia"],"game_id":440,"stv_port":27016,"stv_name":"Uncletopia | Hong Kong | 1 | All Maps | STV","players":null},{"server_id":1,"name":"Uncletopia | Los Angeles | 1 | All Maps","name_short":"lax-1","host":"lax-1.us.uncletopia.com","port":27015,"enabled":true,"region":"us-west","cc":"us","latitude":33.94279,"longitude":-118.41004,"reserved":0,"last_update":"0001-01-01T00:00:00Z","name_a2s":"Uncletopia | Los Angeles | 1 | All Maps","protocol":17,"map":"cp_mountainlab","folder":"tf","game":"Team Fortress","app_id":440,"player_count":0,"max_players":24,"Bots":0,"server_type":"Dedicated","server_os":"Linux","password":true,"vac":true,"version":"7757534","steam_id":85568392924469991,"keywords":["cp","nocrits","nodmgspread","uncletopia"],"game_id":440,"stv_port":27016,"stv_name":"Uncletopia | Los Angeles | 1 | All Maps | STV","players":null},{"server_id":112,"name":"Uncletopia | Los Angeles | 2 | All Maps","name_short":"lax-2","host":"lax-1.us.uncletopia.com","port":27025,"enabled":true,"region":"us-west","cc":"us","latitude":33.94279,"longitude":-118.41004,"reserved":0,"last_update":"0001-01-01T00:00:00Z","name_a2s":"Uncletopia | Los Angeles | 2 | All Maps","protocol":17,"map":"koth_cascade","folder":"tf","game":"Team Fortress","app_id":440,"player_count":0,"max_players":24,"Bots":0,"server_type":"Dedicated","server_os":"Linux","password":true,"vac":true,"version":"7757534","steam_id":85568392924469992,"keywords":["cp","nocrits","nodmgspread","uncletopia"],"game_id":440,"stv_port":27026,"stv_name":"Uncletopia | Los Angeles | 2 | All Maps | STV","players":null},{"server_id":324,"name":"Uncletopia | Los Angeles | 3 | All Maps","name_short":"lax-3","host":"lax-1.us.uncletopia.com","port":27035,"enabled":true,"region":"us-west","cc":"us","latitude":33.94279,"longitude":-118.41004,"reserved":0,"last_update":"0001-01-01T00:00:00Z","name_a2s":"Uncletopia | Los Angeles | 3 | All Maps","protocol":17,"map":"koth_highpass","folder":"tf","game":"Team Fortress","app_id":440,"player_count":0,"max_players":24,"Bots":0,"server_type":"Dedicated","server_os":"Linux","password":true,"vac":true,"version":"7757534","steam_id":85568392924510198,"keywords":["cp","nocrits","nodmgspread","uncletopia"],"game_id":440,"stv_port":27036,"stv_name":"Uncletopia | Los Angeles | 3 | All Maps | STV","players":null},{"server_id":25,"name":"Uncletopia | Los Angeles | 4 | Stopwatch Beta","name_short":"lax-4","host":"lax-1.us.uncletopia.com","port":27045,"enabled":true,"region":"us-west","cc":"us","latitude":33.94279,"longitude":-118.41004,"reserved":0,"last_update":"0001-01-01T00:00:00Z","name_a2s":"Uncletopia | Los Angeles | 4 | Stopwatch Beta","protocol":17,"map":"koth_viaduct","folder":"tf","game":"Team Fortress","app_id":440,"player_count":0,"max_players":24,"Bots":0,"server_type":"Dedicated","server_os":"Linux","password":true,"vac":true,"version":"7757534","steam_id":85568392924510199,"keywords":["cp","nocrits","nodmgspread","uncletopia"],"game_id":440,"stv_port":27046,"stv_name":"Uncletopia | Los Angeles | 4 | Stopwatch Beta | STV","players":null},{"server_id":11,"name":"Uncletopia | London | 1 | All Maps","name_short":"lon-1","host":"lon-1.uk.uncletopia.com","port":27015,"enabled":true,"region":"eu","cc":"gb","latitude":51.509865,"longitude":-0.118092,"reserved":0,"last_update":"0001-01-01T00:00:00Z","name_a2s":"Uncletopia | London | 1 | All Maps","protocol":17,"map":"pl_swiftwater_final1","folder":"tf","game":"Team Fortress","app_id":440,"player_count":24,"max_players":24,"Bots":0,"server_type":"Dedicated","server_os":"Linux","password":true,"vac":true,"version":"7757534","steam_id":85568392924367362,"keywords":["nocrits","nodmgspread","payload","uncletopia"],"game_id":440,"stv_port":27016,"stv_name":"Uncletopia | London | 1 | All Maps | STV","players":[{"user_id":333,"name":"a sticky situation","steam_id":76561198011692496,"connected_time":440000000000,"state":"active","ping":80},{"user_id":330,"name":"Apox","steam_id":76561198008005377,"connected_time":474000000000,"state":"active","ping":61},{"user_id":331,"name":"Garfield Gaming","steam_id":76561198254539791,"connected_time":464000000000,"state":"active","ping":49},{"user_id":318,"name":"Hole sympathizer","steam_id":76561198193357946,"connected_time":797000000000,"state":"active","ping":106},{"user_id":340,"name":"Pinkchup","steam_id":76561198106802803,"connected_time":200000000000,"state":"active","ping":78},{"user_id":305,"name":"G.L.O.R.I.","steam_id":76561198134414380,"connected_time":1682000000000,"state":"active","ping":56},{"user_id":321,"name":"Chaz","steam_id":76561198077292814,"connected_time":710000000000,"state":"active","ping":65},{"user_id":288,"name":"M.L.JEW","steam_id":76561198997375055,"connected_time":2011000000000,"state":"active","ping":166},{"user_id":296,"name":"Xie Xil Ling","steam_id":76561198053394831,"connected_time":1858000000000,"state":"active","ping":75},{"user_id":329,"name":"Sigmar's Weakest Soldier","steam_id":76561198320506848,"connected_time":481000000000,"state":"active","ping":39},{"user_id":326,"name":"you call THAT breaking my spine","steam_id":76561198329640236,"connected_time":543000000000,"state":"active","ping":48},{"user_id":250,"name":"dec","steam_id":76561198009660168,"connected_time":5373000000000,"state":"active","ping":54},{"user_id":319,"name":"Semtilion","steam_id":76561198107642445,"connected_time":785000000000,"state":"active","ping":119},{"user_id":320,"name":"IceDreamer","steam_id":76561197997569989,"connected_time":750000000000,"state":"active","ping":45},{"user_id":341,"name":"avon.wav","steam_id":76561198063093802,"connected_time":58000000000,"state":"active","ping":64},{"user_id":280,"name":"teddy","steam_id":76561198007436837,"connected_time":3214000000000,"state":"active","ping":45},{"user_id":306,"name":"Posho","steam_id":76561198062396436,"connected_time":1679000000000,"state":"active","ping":42},{"user_id":327,"name":"Bounter","steam_id":76561198072614188,"connected_time":515000000000,"state":"active","ping":74},{"user_id":309,"name":"Celtins","steam_id":76561198839837475,"connected_time":1271000000000,"state":"active","ping":61},{"user_id":332,"name":"When Life gives you Lemons","steam_id":76561198318290663,"connected_time":460000000000,"state":"active","ping":57},{"user_id":336,"name":"the forbidden milkie","steam_id":76561198293131519,"connected_time":413000000000,"state":"active","ping":87},{"user_id":337,"name":"G6 sherlock","steam_id":76561198802967796,"connected_time":354000000000,"state":"active","ping":118},{"user_id":338,"name":"banrab","steam_id":76561198083615367,"connected_time":344000000000,"state":"active","ping":35},{"user_id":339,"name":"boy","steam_id":76561198162462063,"connected_time":334000000000,"state":"active","ping":53}]},{"server_id":114,"name":"Uncletopia | London | 2 | All Maps","name_short":"lon-2","host":"lon-1.uk.uncletopia.com","port":27025,"enabled":true,"region":"eu","cc":"gb","latitude":51.509865,"longitude":-0.118092,"reserved":0,"last_update":"0001-01-01T00:00:00Z","name_a2s":"Uncletopia | London | 2 | All Maps","protocol":17,"map":"pl_frontier_final","folder":"tf","game":"Team Fortress","app_id":440,"player_count":24,"max_players":24,"Bots":0,"server_type":"Dedicated","server_os":"Linux","password":true,"vac":true,"version":"7757534","steam_id":85568392924470941,"keywords":["nocrits","nodmgspread","payload","uncletopia"],"game_id":440,"stv_port":27026,"stv_name":"Uncletopia | London | 2 | All Maps | STV","players":[{"user_id":292,"name":"mind goblin 1","steam_id":76561198013873239,"connected_time":1281000000000,"state":"active","ping":97},{"user_id":312,"name":"Avos","steam_id":76561198173551849,"connected_time":334000000000,"state":"active","ping":79},{"user_id":275,"name":"caps.","steam_id":76561198116528817,"connected_time":2549000000000,"state":"active","ping":53},{"user_id":268,"name":"Combat Wombat","steam_id":76561197994720068,"connected_time":3745000000000,"state":"active","ping":64},{"user_id":291,"name":"Choruptian","steam_id":76561198017686366,"connected_time":1308000000000,"state":"active","ping":60},{"user_id":288,"name":"0","steam_id":76561198267909207,"connected_time":1658000000000,"state":"active","ping":106},{"user_id":299,"name":"Patrick Ratrick","steam_id":76561198086190783,"connected_time":946000000000,"state":"active","ping":50},{"user_id":304,"name":"Daud","steam_id":76561199177668753,"connected_time":755000000000,"state":"active","ping":36},{"user_id":301,"name":"Carrot Arc","steam_id":76561198164957006,"connected_time":865000000000,"state":"active","ping":82},{"user_id":309,"name":"Elisko246","steam_id":76561198070377333,"connected_time":486000000000,"state":"active","ping":90},{"user_id":313,"name":"iuSDIB8+ ň7","steam_id":76561198363768590,"connected_time":142000000000,"state":"active","ping":118},{"user_id":302,"name":"big al","steam_id":76561198800662675,"connected_time":863000000000,"state":"active","ping":90},{"user_id":303,"name":"rolmos","steam_id":76561198024121853,"connected_time":857000000000,"state":"active","ping":66},{"user_id":305,"name":"✪ m_br3","steam_id":76561198044981990,"connected_time":709000000000,"state":"active","ping":86},{"user_id":257,"name":"Crunchy","steam_id":76561198184973203,"connected_time":4076000000000,"state":"active","ping":60},{"user_id":278,"name":"PrimaryComet","steam_id":76561198085505932,"connected_time":2504000000000,"state":"active","ping":55},{"user_id":311,"name":"fregaropa","steam_id":76561198150806166,"connected_time":401000000000,"state":"active","ping":79},{"user_id":290,"name":"giclure :;","steam_id":76561197986362828,"connected_time":1589000000000,"state":"active","ping":50},{"user_id":296,"name":"Dachowiec","steam_id":76561198195408281,"connected_time":1247000000000,"state":"active","ping":68},{"user_id":260,"name":"goblin","steam_id":76561199010825303,"connected_time":4048000000000,"state":"active","ping":78},{"user_id":280,"name":"mercedes ben","steam_id":76561198000147423,"connected_time":2502000000000,"state":"active","ping":44},{"user_id":261,"name":"rosepinkyfuzz","steam_id":76561198018546334,"connected_time":4045000000000,"state":"active","ping":75},{"user_id":267,"name":"tactical783","steam_id":76561199051688560,"connected_time":3810000000000,"state":"active","ping":70},{"user_id":307,"name":"Sam","steam_id":76561198203070687,"connected_time":645000000000,"state":"active","ping":57}]},{"server_id":320,"name":"Uncletopia | London | 3 | All Maps","name_short":"lon-3","host":"lon-1.uk.uncletopia.com","port":27035,"enabled":true,"region":"eu","cc":"gb","latitude":51.509865,"longitude":-0.118092,"reserved":0,"last_update":"0001-01-01T00:00:00Z","name_a2s":"Uncletopia | London | 3 | All Maps","protocol":17,"map":"pl_swiftwater_final1","folder":"tf","game":"Team Fortress","app_id":440,"player_count":23,"max_players":24,"Bots":0,"server_type":"Dedicated","server_os":"Linux","password":true,"vac":true,"version":"7757534","steam_id":85568392924510192,"keywords":["nocrits","nodmgspread","payload","uncletopia"],"game_id":440,"stv_port":27036,"stv_name":"Uncletopia | London | 3 | All Maps | STV","players":[{"user_id":204,"name":"snake9544","steam_id":76561198083076205,"connected_time":243000000000,"state":"active","ping":79},{"user_id":172,"name":"stun","steam_id":76561198276681691,"connected_time":2831000000000,"state":"active","ping":45},{"user_id":195,"name":"eating crayfries","steam_id":76561198146525237,"connected_time":562000000000,"state":"active","ping":135},{"user_id":167,"name":"pain","steam_id":76561198047359132,"connected_time":3524000000000,"state":"active","ping":74},{"user_id":155,"name":"God's Silliest Little Jester","steam_id":76561197987168654,"connected_time":4408000000000,"state":"active","ping":58},{"user_id":199,"name":"Stoneley","steam_id":76561199182443625,"connected_time":447000000000,"state":"active","ping":62},{"user_id":186,"name":"Calmedy","steam_id":76561198295310457,"connected_time":1797000000000,"state":"active","ping":59},{"user_id":200,"name":"Jonas Destark","steam_id":76561198030327441,"connected_time":447000000000,"state":"active","ping":66},{"user_id":196,"name":"Baron","steam_id":76561198021901783,"connected_time":540000000000,"state":"active","ping":53},{"user_id":175,"name":"Arturias","steam_id":76561198188720263,"connected_time":2370000000000,"state":"active","ping":49},{"user_id":160,"name":"Senior","steam_id":76561198065014164,"connected_time":4160000000000,"state":"active","ping":48},{"user_id":183,"name":"Bread God","steam_id":76561198209877131,"connected_time":2020000000000,"state":"active","ping":67},{"user_id":197,"name":"Spotmonkey","steam_id":76561198003994092,"connected_time":523000000000,"state":"active","ping":57},{"user_id":198,"name":"FilipeLuk","steam_id":76561198150675438,"connected_time":471000000000,"state":"active","ping":61},{"user_id":174,"name":"Ducc","steam_id":76561198030677425,"connected_time":2497000000000,"state":"active","ping":60},{"user_id":201,"name":"RadialMount","steam_id":76561198063002562,"connected_time":436000000000,"state":"active","ping":71},{"user_id":164,"name":"Pingutaro","steam_id":76561198112803718,"connected_time":3572000000000,"state":"active","ping":61},{"user_id":202,"name":"JohnarasGamer1","steam_id":76561198365929872,"connected_time":407000000000,"state":"active","ping":89},{"user_id":203,"name":"medick","steam_id":76561199380849468,"connected_time":397000000000,"state":"active","ping":61},{"user_id":166,"name":"Explosive_kink","steam_id":76561198998702838,"connected_time":3557000000000,"state":"active","ping":53},{"user_id":171,"name":"Dodoshka","steam_id":76561198093464840,"connected_time":2859000000000,"state":"active","ping":96},{"user_id":190,"name":"pierre.de.leone","steam_id":76561199034499666,"connected_time":1422000000000,"state":"active","ping":84},{"user_id":182,"name":"TheEventGuy","steam_id":76561197972797744,"connected_time":2206000000000,"state":"active","ping":76}]},{"server_id":321,"name":"Uncletopia | London | 4 | All Maps","name_short":"lon-4","host":"lon-1.uk.uncletopia.com","port":27045,"enabled":true,"region":"eu","cc":"gb","latitude":51.509865,"longitude":-0.118092,"reserved":0,"last_update":"0001-01-01T00:00:00Z","name_a2s":"Uncletopia | London | 4 | All Maps","protocol":17,"map":"pl_upward","folder":"tf","game":"Team Fortress","app_id":440,"player_count":24,"max_players":24,"Bots":0,"server_type":"Dedicated","server_os":"Linux","password":true,"vac":true,"version":"7757534","steam_id":85568392924510193,"keywords":["nocrits","nodmgspread","payload","uncletopia"],"game_id":440,"stv_port":27046,"stv_name":"Uncletopia | London | 4 | All Maps | STV","players":[{"user_id":691,"name":"Christmas Ham","steam_id":76561198119601623,"connected_time":1352000000000,"state":"active","ping":51},{"user_id":710,"name":"borokpop","steam_id":76561199163530777,"connected_time":370000000000,"state":"active","ping":67},{"user_id":698,"name":"(=blackstabby=)","steam_id":76561199217036236,"connected_time":1023000000000,"state":"active","ping":105},{"user_id":702,"name":"y0shi","steam_id":76561198396302192,"connected_time":945000000000,"state":"active","ping":102},{"user_id":708,"name":"Tioghi","steam_id":76561199210186788,"connected_time":613000000000,"state":"active","ping":67},{"user_id":658,"name":"KlevukaS™","steam_id":76561198312867604,"connected_time":3382000000000,"state":"active","ping":85},{"user_id":654,"name":"Raatel","steam_id":76561198370703651,"connected_time":3962000000000,"state":"active","ping":59},{"user_id":700,"name":"Hotgamerdad","steam_id":76561198085940613,"connected_time":976000000000,"state":"active","ping":59},{"user_id":678,"name":"Cypher","steam_id":76561199023619899,"connected_time":2137000000000,"state":"active","ping":56},{"user_id":685,"name":"Neo Testament","steam_id":76561199049633351,"connected_time":1912000000000,"state":"active","ping":78},{"user_id":701,"name":"The Bean Man","steam_id":76561198046932811,"connected_time":973000000000,"state":"active","ping":58},{"user_id":712,"name":"Vezage","steam_id":76561198064916164,"connected_time":70000000000,"state":"active","ping":70},{"user_id":648,"name":"𝙿ringle𝚆ings","steam_id":76561198355221367,"connected_time":4897000000000,"state":"active","ping":56},{"user_id":443,"name":"Brass beast heavy","steam_id":76561198274197623,"connected_time":19619000000000,"state":"active","ping":60},{"user_id":706,"name":"Thomas_Is_Ready","steam_id":76561199072059059,"connected_time":712000000000,"state":"active","ping":61},{"user_id":539,"name":"FELHEEE","steam_id":76561197987151150,"connected_time":12852000000000,"state":"active","ping":81},{"user_id":635,"name":"Teffg","steam_id":76561198274386094,"connected_time":5429000000000,"state":"active","ping":93},{"user_id":711,"name":"SoldierC44","steam_id":76561199234559888,"connected_time":256000000000,"state":"active","ping":82},{"user_id":688,"name":"Unexpected","steam_id":76561198944781914,"connected_time":1814000000000,"state":"active","ping":90},{"user_id":651,"name":"Keizer420","steam_id":76561198354567661,"connected_time":4572000000000,"state":"active","ping":45},{"user_id":714,"name":"Economic crisis","steam_id":76561198063562843,"connected_time":52000000000,"state":"active","ping":62},{"user_id":704,"name":"joe","steam_id":76561198026484403,"connected_time":907000000000,"state":"active","ping":60},{"user_id":682,"name":"tomydjoh","steam_id":76561198077421906,"connected_time":2003000000000,"state":"active","ping":49},{"user_id":666,"name":"X45Y","steam_id":76561198112534025,"connected_time":3209000000000,"state":"active","ping":47}]},{"server_id":21,"name":"Uncletopia | London | 5 | All Maps","name_short":"lon-5","host":"lon-1.uk.uncletopia.com","port":27055,"enabled":true,"region":"eu","cc":"gb","latitude":51.509865,"longitude":-0.118092,"reserved":0,"last_update":"0001-01-01T00:00:00Z","name_a2s":"Uncletopia | London | 5 | All Maps","protocol":17,"map":"ctf_turbine","folder":"tf","game":"Team Fortress","app_id":440,"player_count":7,"max_players":24,"Bots":0,"server_type":"Dedicated","server_os":"Linux","password":true,"vac":true,"version":"7757534","steam_id":85568392924742829,"keywords":["ctf","nocrits","nodmgspread","uncletopia"],"game_id":440,"stv_port":27056,"stv_name":"Uncletopia | London | 5 | All Maps | STV","players":[{"user_id":762,"name":"shitler","steam_id":76561198834897089,"connected_time":1211000000000,"state":"active","ping":70},{"user_id":763,"name":"elli","steam_id":76561198279637513,"connected_time":1169000000000,"state":"active","ping":59},{"user_id":754,"name":"that1pig","steam_id":76561198185459619,"connected_time":2109000000000,"state":"active","ping":64},{"user_id":769,"name":"full power heart attack","steam_id":76561199196568965,"connected_time":698000000000,"state":"active","ping":69},{"user_id":770,"name":"Uncle Henk","steam_id":76561198067863614,"connected_time":617000000000,"state":"active","ping":95},{"user_id":771,"name":"Vibing Wave [IRAN]","steam_id":76561198866358613,"connected_time":288000000000,"state":"active","ping":154},{"user_id":772,"name":"Ezon","steam_id":76561198323163868,"connected_time":165000000000,"state":"active","ping":68}]},{"server_id":22,"name":"Uncletopia | London | 6 | All Maps","name_short":"lon-6","host":"lon-1.uk.uncletopia.com","port":27065,"enabled":true,"region":"eu","cc":"gb","latitude":51.509865,"longitude":-0.118092,"reserved":0,"last_update":"0001-01-01T00:00:00Z","name_a2s":"Uncletopia | London | 6 | All Maps","protocol":17,"map":"pl_badwater","folder":"tf","game":"Team Fortress","app_id":440,"player_count":24,"max_players":24,"Bots":0,"server_type":"Dedicated","server_os":"Linux","password":true,"vac":true,"version":"7757534","steam_id":85568392924742830,"keywords":["nocrits","nodmgspread","payload","uncletopia"],"game_id":440,"stv_port":27066,"stv_name":"Uncletopia | London | 6 | All Maps | STV","players":[{"user_id":109,"name":"Mr. Man","steam_id":76561198372082915,"connected_time":35000000000,"state":"active","ping":78},{"user_id":77,"name":"AFerociousTeddyBearSlayer","steam_id":76561198247447256,"connected_time":1647000000000,"state":"active","ping":48},{"user_id":100,"name":"Crimea a bridge","steam_id":76561198030898371,"connected_time":273000000000,"state":"active","ping":86},{"user_id":102,"name":"shadowhunter","steam_id":76561198247456394,"connected_time":194000000000,"state":"active","ping":45},{"user_id":95,"name":"TMC","steam_id":76561198077956157,"connected_time":709000000000,"state":"active","ping":33},{"user_id":91,"name":"FairlyFatFungus","steam_id":76561199152828854,"connected_time":1074000000000,"state":"active","ping":54},{"user_id":79,"name":"Zalbart","steam_id":76561198286576943,"connected_time":1646000000000,"state":"active","ping":70},{"user_id":101,"name":"Juiceydough","steam_id":76561197997323419,"connected_time":203000000000,"state":"active","ping":89},{"user_id":110,"name":"pansexual LFT Open/Low","steam_id":76561198047778351,"connected_time":35000000000,"state":"active","ping":40},{"user_id":111,"name":"BSantos57","steam_id":76561198000597094,"connected_time":4000000000,"state":"spawning","ping":91},{"user_id":105,"name":"weasl","steam_id":76561198076388927,"connected_time":178000000000,"state":"active","ping":51},{"user_id":56,"name":"KillerQueen (he/they/she)","steam_id":76561199019399725,"connected_time":2335000000000,"state":"active","ping":49},{"user_id":106,"name":"tiiyama","steam_id":76561198046196005,"connected_time":176000000000,"state":"active","ping":55},{"user_id":112,"name":"Bgm_","steam_id":76561198056452044,"connected_time":3000000000,"state":"spawning","ping":62},{"user_id":60,"name":"Johnny Cockroach","steam_id":76561198049648277,"connected_time":2219000000000,"state":"active","ping":103},{"user_id":62,"name":"d u k k i","steam_id":76561198071807437,"connected_time":2164000000000,"state":"active","ping":92},{"user_id":63,"name":"yeetsama","steam_id":76561198073039144,"connected_time":2162000000000,"state":"active","ping":72},{"user_id":85,"name":"Blade the vampire (bisexual)","steam_id":76561198074097655,"connected_time":1479000000000,"state":"active","ping":35},{"user_id":66,"name":"s a i","steam_id":76561197970379754,"connected_time":2126000000000,"state":"active","ping":61},{"user_id":86,"name":"JoelTheMoel","steam_id":76561198326357465,"connected_time":1473000000000,"state":"active","ping":48},{"user_id":92,"name":"Miquel128","steam_id":76561198274955794,"connected_time":911000000000,"state":"active","ping":78},{"user_id":71,"name":"Cum Mentalist Mikuri","steam_id":76561198298576765,"connected_time":1970000000000,"state":"active","ping":75},{"user_id":98,"name":"Node #H0-L1C","steam_id":76561199468764173,"connected_time":431000000000,"state":"active","ping":72},{"user_id":74,"name":"FoOzTV","steam_id":76561197998636728,"connected_time":1930000000000,"state":"active","ping":68}]},{"server_id":40,"name":"Uncletopia | London | 7 | No Payload","name_short":"lon-7","host":"lon-1.uk.uncletopia.com","port":27075,"enabled":true,"region":"eu","cc":"gb","latitude":51.509865,"longitude":-0.118092,"reserved":0,"last_update":"0001-01-01T00:00:00Z","name_a2s":"Uncletopia | London | 7 | No Payload","protocol":17,"map":"cp_granary","folder":"tf","game":"Team Fortress","app_id":440,"player_count":0,"max_players":24,"Bots":0,"server_type":"Dedicated","server_os":"Linux","password":true,"vac":true,"version":"7757534","steam_id":85568392924964314,"keywords":["cp","nocrits","nodmgspread","uncletopia"],"game_id":440,"stv_port":27076,"stv_name":"Uncletopia | London | 7 | No Payload | STV","players":null},{"server_id":41,"name":"Uncletopia | London | 8 | Community","name_short":"lon-8","host":"lon-1.uk.uncletopia.com","port":27085,"enabled":true,"region":"eu","cc":"gb","latitude":51.509865,"longitude":-0.118092,"reserved":0,"last_update":"0001-01-01T00:00:00Z","name_a2s":"Uncletopia | London | 8 | Community","protocol":17,"map":"workshop/koth_synthetic_rc6a.ugc1549817316","folder":"tf","game":"Team Fortress","app_id":440,"player_count":0,"max_players":24,"Bots":0,"server_type":"Dedicated","server_os":"Linux","password":true,"vac":true,"version":"7757534","steam_id":85568392924964315,"keywords":["cp","nocrits","nodmgspread","uncletopia"],"game_id":440,"stv_port":27086,"stv_name":"Uncletopia | London | 8 | Community | STV","players":null},{"server_id":300,"name":"Uncletopia | Montréal | 1 | All Maps","name_short":"mtl-1","host":"mtl-1.ca.uncletopia.com","port":27015,"enabled":true,"region":"us-east","cc":"ca","latitude":45.50889,"longitude":-73.56167,"reserved":0,"last_update":"0001-01-01T00:00:00Z","name_a2s":"Uncletopia | Montréal | 1 | All Maps","protocol":17,"map":"koth_cascade","folder":"tf","game":"Team Fortress","app_id":440,"player_count":0,"max_players":24,"Bots":0,"server_type":"Dedicated","server_os":"Linux","password":true,"vac":true,"version":"7757534","steam_id":85568392924500087,"keywords":["cp","nocrits","nodmgspread","uncletopia"],"game_id":440,"stv_port":27016,"stv_name":"Uncletopia | Montréal | 1 | All Maps | STV","players":null},{"server_id":301,"name":"Uncletopia | Montréal | 2 | All Maps","name_short":"mtl-2","host":"mtl-1.ca.uncletopia.com","port":27025,"enabled":true,"region":"us-east","cc":"ca","latitude":45.50889,"longitude":-73.56167,"reserved":0,"last_update":"0001-01-01T00:00:00Z","name_a2s":"Uncletopia | Montréal | 2 | All Maps","protocol":17,"map":"pl_borneo","folder":"tf","game":"Team Fortress","app_id":440,"player_count":0,"max_players":24,"Bots":0,"server_type":"Dedicated","server_os":"Linux","password":true,"vac":true,"version":"7757534","steam_id":85568392924500088,"keywords":["nocrits","nodmgspread","payload","uncletopia"],"game_id":440,"stv_port":27026,"stv_name":"Uncletopia | Montréal | 2 | All Maps | STV","players":null},{"server_id":302,"name":"Uncletopia | Montréal | 3 | All Maps","name_short":"mtl-3","host":"mtl-1.ca.uncletopia.com","port":27035,"enabled":true,"region":"us-east","cc":"ca","latitude":45.50889,"longitude":-73.56167,"reserved":0,"last_update":"0001-01-01T00:00:00Z","name_a2s":"Uncletopia | Montréal | 3 | All Maps","protocol":17,"map":"koth_viaduct","folder":"tf","game":"Team Fortress","app_id":440,"player_count":0,"max_players":24,"Bots":0,"server_type":"Dedicated","server_os":"Linux","password":true,"vac":true,"version":"7757534","steam_id":85568392924500089,"keywords":["cp","nocrits","nodmgspread","uncletopia"],"game_id":440,"stv_port":27036,"stv_name":"Uncletopia | Montréal | 3 | All Maps | STV","players":null},{"server_id":303,"name":"Uncletopia | Montréal | 4 | No Payload","name_short":"mtl-4","host":"mtl-1.ca.uncletopia.com","port":27045,"enabled":true,"region":"us-east","cc":"ca","latitude":45.50889,"longitude":-73.56167,"reserved":0,"last_update":"0001-01-01T00:00:00Z","name_a2s":"Uncletopia | Montréal | 4 | No Payload","protocol":17,"map":"koth_lakeside_final","folder":"tf","game":"Team Fortress","app_id":440,"player_count":0,"max_players":24,"Bots":0,"server_type":"Dedicated","server_os":"Linux","password":true,"vac":true,"version":"7757534","steam_id":85568392924500090,"keywords":["cp","nocrits","nodmgspread","uncletopia"],"game_id":440,"stv_port":27046,"stv_name":"Uncletopia | Montréal | 4 | No Payload | STV","players":null},{"server_id":13,"name":"Uncletopia | New York City | 1 | All Maps","name_short":"nyc-1","host":"nyc-1.us.uncletopia.com","port":27015,"enabled":true,"region":"us-east","cc":"us","latitude":40.73061,"longitude":-73.93524,"reserved":0,"last_update":"0001-01-01T00:00:00Z","name_a2s":"Uncletopia | New York City | 1 | All Maps","protocol":17,"map":"pl_wutville_event","folder":"tf","game":"Team Fortress","app_id":440,"player_count":24,"max_players":24,"Bots":0,"server_type":"Dedicated","server_os":"Linux","password":true,"vac":true,"version":"7757534","steam_id":85568392924469993,"keywords":["nocrits","nodmgspread","payload","uncletopia"],"game_id":440,"stv_port":27016,"stv_name":"Uncletopia | New York City | 1 | All Maps | STV","players":[{"user_id":240,"name":"p. sugar gaming","steam_id":76561198799740059,"connected_time":793000000000,"state":"active","ping":54},{"user_id":237,"name":"MrrPamplemousse","steam_id":76561198072241333,"connected_time":1095000000000,"state":"active","ping":60},{"user_id":238,"name":"anewbpro2015","steam_id":76561198214610860,"connected_time":1038000000000,"state":"active","ping":62},{"user_id":239,"name":"abed","steam_id":76561198072856511,"connected_time":893000000000,"state":"active","ping":65},{"user_id":228,"name":"Juri Han","steam_id":76561198041678517,"connected_time":1733000000000,"state":"active","ping":132},{"user_id":246,"name":"Yankee_Pirate","steam_id":76561198260667117,"connected_time":321000000000,"state":"active","ping":63},{"user_id":234,"name":"Mr.FlippyFlop","steam_id":76561198182559351,"connected_time":1211000000000,"state":"active","ping":67},{"user_id":235,"name":"Yello","steam_id":76561198206290207,"connected_time":1199000000000,"state":"active","ping":65},{"user_id":244,"name":"inexperienced great horned owl","steam_id":76561198047077020,"connected_time":585000000000,"state":"active","ping":56},{"user_id":245,"name":"stratty\u003c3","steam_id":76561198926926961,"connected_time":517000000000,"state":"active","ping":61},{"user_id":208,"name":"Iris (b-day 4 days!!!!)","steam_id":76561198124998397,"connected_time":2643000000000,"state":"active","ping":63},{"user_id":202,"name":"Ripley","steam_id":76561198080766916,"connected_time":3000000000000,"state":"active","ping":63},{"user_id":247,"name":"joyeuxnoelle","steam_id":76561198062423120,"connected_time":311000000000,"state":"active","ping":57},{"user_id":248,"name":"nathanieltrades","steam_id":76561199057191847,"connected_time":272000000000,"state":"active","ping":71},{"user_id":249,"name":"Rouxls Kaard","steam_id":76561199439917592,"connected_time":272000000000,"state":"active","ping":154},{"user_id":250,"name":"Dr. Nobotnik","steam_id":76561198357339092,"connected_time":267000000000,"state":"active","ping":99},{"user_id":251,"name":"Ironfyn","steam_id":76561198256850182,"connected_time":264000000000,"state":"active","ping":57},{"user_id":259,"name":"Blooby","steam_id":76561199013299586,"connected_time":172000000000,"state":"active","ping":59},{"user_id":253,"name":"Duelist","steam_id":76561198415159702,"connected_time":253000000000,"state":"active","ping":55},{"user_id":261,"name":"Michael myers","steam_id":76561198891152046,"connected_time":80000000000,"state":"active","ping":100},{"user_id":256,"name":"ndvr","steam_id":76561199379200102,"connected_time":217000000000,"state":"active","ping":52},{"user_id":217,"name":"Seru","steam_id":76561199219827214,"connected_time":2523000000000,"state":"active","ping":75},{"user_id":260,"name":"vintage","steam_id":76561198253382579,"connected_time":151000000000,"state":"active","ping":76},{"user_id":225,"name":"mcslam","steam_id":76561198056261882,"connected_time":2054000000000,"state":"active","ping":48}]},{"server_id":14,"name":"Uncletopia | New York City | 2 | All Maps","name_short":"nyc-2","host":"nyc-1.us.uncletopia.com","port":27025,"enabled":true,"region":"us-east","cc":"us","latitude":40.73061,"longitude":-73.93524,"reserved":0,"last_update":"0001-01-01T00:00:00Z","name_a2s":"Uncletopia | New York City | 2 | All Maps","protocol":17,"map":"cp_mountainlab","folder":"tf","game":"Team Fortress","app_id":440,"player_count":0,"max_players":24,"Bots":0,"server_type":"Dedicated","server_os":"Linux","password":true,"vac":true,"version":"7757534","steam_id":85568392924469994,"keywords":["cp","nocrits","nodmgspread","uncletopia"],"game_id":440,"stv_port":27026,"stv_name":"Uncletopia | New York City | 2 | All Maps | STV","players":null},{"server_id":15,"name":"Uncletopia | New York City | 3 | Stopwatch Beta","name_short":"nyc-3","host":"nyc-1.us.uncletopia.com","port":27035,"enabled":true,"region":"us-east","cc":"us","latitude":40.73061,"longitude":-73.93524,"reserved":0,"last_update":"0001-01-01T00:00:00Z","name_a2s":"Uncletopia | New York City | 3 | Stopwatch Beta","protocol":17,"map":"koth_lakeside_final","folder":"tf","game":"Team Fortress","app_id":440,"player_count":1,"max_players":24,"Bots":0,"server_type":"Dedicated","server_os":"Linux","password":true,"vac":true,"version":"7757534","steam_id":85568392924742820,"keywords":["cp","nocrits","nodmgspread","uncletopia"],"game_id":440,"stv_port":27036,"stv_name":"Uncletopia | New York City | 3 | Stopwatch Beta | STV","players":[{"user_id":6,"name":"Tanky","steam_id":76561199440310323,"connected_time":162000000000,"state":"active","ping":95}]},{"server_id":16,"name":"Uncletopia | New York City | 4 | Community","name_short":"nyc-4","host":"nyc-1.us.uncletopia.com","port":27045,"enabled":true,"region":"us-east","cc":"us","latitude":40.73061,"longitude":-73.93524,"reserved":0,"last_update":"0001-01-01T00:00:00Z","name_a2s":"Uncletopia | New York City | 4 | Community","protocol":17,"map":"workshop/cp_villa_b19.ugc2113052569","folder":"tf","game":"Team Fortress","app_id":440,"player_count":0,"max_players":24,"Bots":0,"server_type":"Dedicated","server_os":"Linux","password":true,"vac":true,"version":"7757534","steam_id":85568392924742821,"keywords":["cp","nocrits","nodmgspread","uncletopia"],"game_id":440,"stv_port":27046,"stv_name":"Uncletopia | New York City | 4 | Community | STV","players":null},{"server_id":142,"name":"Uncletopia | São Paulo | 1 | All Maps","name_short":"sao-1","host":"sao-1.br.uncletopia.com","port":27015,"enabled":true,"region":"sa","cc":"br","latitude":-23.533773,"longitude":-46.62529,"reserved":0,"last_update":"0001-01-01T00:00:00Z","name_a2s":"Uncletopia | São Paulo | 1 | All Maps","protocol":17,"map":"cp_altitude","folder":"tf","game":"Team Fortress","app_id":440,"player_count":0,"max_players":24,"Bots":0,"server_type":"Dedicated","server_os":"Linux","password":true,"vac":true,"version":"7757534","steam_id":85568392924469996,"keywords":["cp","nocrits","nodmgspread","uncletopia"],"game_id":440,"stv_port":27016,"stv_name":"Uncletopia | São Paulo | 1 | All Maps | STV","players":null},{"server_id":143,"name":"Uncletopia | São Paulo | 2 | All Maps","name_short":"sao-2","host":"sao-2.br.uncletopia.com","port":27015,"enabled":true,"region":"sa","cc":"br","latitude":-23.533773,"longitude":-46.62529,"reserved":0,"last_update":"0001-01-01T00:00:00Z","name_a2s":"Uncletopia | São Paulo | 2 | All Maps","protocol":17,"map":"pl_upward","folder":"tf","game":"Team Fortress","app_id":440,"player_count":0,"max_players":24,"Bots":0,"server_type":"Dedicated","server_os":"Linux","password":true,"vac":true,"version":"7757534","steam_id":85568392924485349,"keywords":["nocrits","nodmgspread","payload","uncletopia"],"game_id":440,"stv_port":27016,"stv_name":"Uncletopia | São Paulo | 2 | All Maps | STV","players":null},{"server_id":7,"name":"Uncletopia | Seattle | 1 | All Maps","name_short":"sea-1","host":"sea-1.us.uncletopia.com","port":27015,"enabled":true,"region":"us-west","cc":"us","latitude":47.608013,"longitude":-122.33517,"reserved":0,"last_update":"0001-01-01T00:00:00Z","name_a2s":"Uncletopia | Seattle | 1 | All Maps","protocol":17,"map":"cp_mercenarypark","folder":"tf","game":"Team Fortress","app_id":440,"player_count":22,"max_players":24,"Bots":0,"server_type":"Dedicated","server_os":"Linux","password":true,"vac":true,"version":"7757534","steam_id":85568392924469997,"keywords":["cp","nocrits","nodmgspread","uncletopia"],"game_id":440,"stv_port":27016,"stv_name":"Uncletopia | Seattle | 1 | All Maps | STV","players":[{"user_id":317,"name":"AAAAAAAAAAAAAAAAAAAAAAAAAAAAAAA","steam_id":76561198817866879,"connected_time":735000000000,"state":"active","ping":130},{"user_id":294,"name":"BangusHonkle","steam_id":76561198218887511,"connected_time":2329000000000,"state":"active","ping":131},{"user_id":291,"name":"A Fucking Degenerate","steam_id":76561198093261788,"connected_time":2372000000000,"state":"active","ping":158},{"user_id":262,"name":"AmiableNebula","steam_id":76561198094306627,"connected_time":5559000000000,"state":"active","ping":75},{"user_id":318,"name":"A Man Named Pancho","steam_id":76561197984895522,"connected_time":557000000000,"state":"active","ping":65},{"user_id":244,"name":"Mignyanne :3","steam_id":76561198048754056,"connected_time":6677000000000,"state":"active","ping":64},{"user_id":311,"name":"average teleporter utilizer","steam_id":76561199190800520,"connected_time":1184000000000,"state":"active","ping":39},{"user_id":305,"name":"Classic Muzz","steam_id":76561198835514043,"connected_time":2112000000000,"state":"active","ping":102},{"user_id":266,"name":"raku","steam_id":76561198124069038,"connected_time":4845000000000,"state":"active","ping":59},{"user_id":320,"name":"bronk","steam_id":76561198181109553,"connected_time":247000000000,"state":"active","ping":67},{"user_id":313,"name":"Dr. Karl, the AUS Science Guy","steam_id":76561198031278747,"connected_time":884000000000,"state":"active","ping":44},{"user_id":263,"name":"TheMagicMrWaffle","steam_id":76561198104357256,"connected_time":5529000000000,"state":"active","ping":72},{"user_id":310,"name":"Glanderson booper","steam_id":76561198021223747,"connected_time":1208000000000,"state":"active","ping":85},{"user_id":298,"name":"Cob","steam_id":76561198042518365,"connected_time":2218000000000,"state":"active","ping":65},{"user_id":299,"name":"hart","steam_id":76561198046073848,"connected_time":2215000000000,"state":"active","ping":45},{"user_id":256,"name":"〣dust〣 -she/her-","steam_id":76561198045218909,"connected_time":5847000000000,"state":"active","ping":44},{"user_id":319,"name":"pizzalover_2014","steam_id":76561198870649125,"connected_time":269000000000,"state":"active","ping":83},{"user_id":46,"name":"THE NUT","steam_id":76561198067813626,"connected_time":21737000000000,"state":"active","ping":50},{"user_id":282,"name":"Deku Scrublord","steam_id":76561198036602402,"connected_time":2980000000000,"state":"active","ping":104},{"user_id":309,"name":"BodaChola","steam_id":76561198074089567,"connected_time":1518000000000,"state":"active","ping":92},{"user_id":321,"name":"another breloom","steam_id":76561198006938024,"connected_time":34000000000,"state":"active","ping":59},{"user_id":304,"name":"pipe","steam_id":76561198115269587,"connected_time":2143000000000,"state":"active","ping":116}]},{"server_id":119,"name":"Uncletopia | Seattle | 2 | All Maps","name_short":"sea-2","host":"sea-1.us.uncletopia.com","port":27025,"enabled":true,"region":"us-west","cc":"us","latitude":47.608013,"longitude":-122.33517,"reserved":0,"last_update":"0001-01-01T00:00:00Z","name_a2s":"Uncletopia | Seattle | 2 | All Maps","protocol":17,"map":"cp_process_final","folder":"tf","game":"Team Fortress","app_id":440,"player_count":0,"max_players":24,"Bots":0,"server_type":"Dedicated","server_os":"Linux","password":true,"vac":true,"version":"7757534","steam_id":85568392924469998,"keywords":["cp","nocrits","nodmgspread","uncletopia"],"game_id":440,"stv_port":27026,"stv_name":"Uncletopia | Seattle | 2 | All Maps | STV","players":null},{"server_id":406,"name":"Uncletopia | Seattle | 3 | Stopwatch Beta","name_short":"sea-3","host":"sea-1.us.uncletopia.com","port":27035,"enabled":true,"region":"us-west","cc":"us","latitude":47.608013,"longitude":-122.33517,"reserved":0,"last_update":"0001-01-01T00:00:00Z","name_a2s":"Uncletopia | Seattle | 3 | Stopwatch Beta","protocol":17,"map":"workshop/pl_summercoast_rc8e.ugc1761528829","folder":"tf","game":"Team Fortress","app_id":440,"player_count":0,"max_players":24,"Bots":0,"server_type":"Dedicated","server_os":"Linux","password":true,"vac":true,"version":"7757534","steam_id":85568392924515217,"keywords":["nocrits","nodmgspread","payload","uncletopia"],"game_id":440,"stv_port":27036,"stv_name":"Uncletopia | Seattle | 3 | Stopwatch Beta | STV","players":null},{"server_id":17,"name":"Uncletopia | San Francisco | 1 | All Maps","name_short":"sfo-1","host":"sfo-1.us.uncletopia.com","port":27015,"enabled":true,"region":"us-west","cc":"us","latitude":37.77397,"longitude":-122.4313,"reserved":0,"last_update":"0001-01-01T00:00:00Z","name_a2s":"Uncletopia | San Francisco | 1 | All Maps","protocol":17,"map":"pl_pier","folder":"tf","game":"Team Fortress","app_id":440,"player_count":0,"max_players":24,"Bots":0,"server_type":"Dedicated","server_os":"Linux","password":true,"vac":true,"version":"7757534","steam_id":85568392924469999,"keywords":["nocrits","nodmgspread","payload","uncletopia"],"game_id":440,"stv_port":27016,"stv_name":"Uncletopia | San Francisco | 1 | All Maps | STV","players":null},{"server_id":18,"name":"Uncletopia | San Francisco | 2 | All Maps","name_short":"sfo-2","host":"sfo-1.us.uncletopia.com","port":27025,"enabled":true,"region":"us-west","cc":"us","latitude":37.77397,"longitude":-122.4313,"reserved":0,"last_update":"0001-01-01T00:00:00Z","name_a2s":"Uncletopia | San Francisco | 2 | All Maps","protocol":17,"map":"cp_mountainlab","folder":"tf","game":"Team Fortress","app_id":440,"player_count":0,"max_players":24,"Bots":0,"server_type":"Dedicated","server_os":"Linux","password":true,"vac":true,"version":"7757534","steam_id":85568392924470000,"keywords":["cp","nocrits","nodmgspread","uncletopia"],"game_id":440,"stv_port":27026,"stv_name":"Uncletopia | San Francisco | 2 | All Maps | STV","players":null},{"server_id":19,"name":"Uncletopia | San Francisco | 3 | Stopwatch Beta","name_short":"sfo-3","host":"sfo-1.us.uncletopia.com","port":27035,"enabled":true,"region":"us-west","cc":"us","latitude":37.77397,"longitude":-122.4313,"reserved":0,"last_update":"0001-01-01T00:00:00Z","name_a2s":"Uncletopia | San Francisco | 3 | Stopwatch Beta","protocol":17,"map":"koth_viaduct","folder":"tf","game":"Team Fortress","app_id":440,"player_count":0,"max_players":24,"Bots":0,"server_type":"Dedicated","server_os":"Linux","password":true,"vac":true,"version":"7757534","steam_id":85568392924742824,"keywords":["cp","nocrits","nodmgspread","uncletopia"],"game_id":440,"stv_port":27036,"stv_name":"Uncletopia | San Francisco | 3 | Stopwatch Beta | STV","players":null},{"server_id":20,"name":"Uncletopia | San Francisco | 4 | Community","name_short":"sfo-4","host":"sfo-1.us.uncletopia.com","port":27045,"enabled":true,"region":"us-west","cc":"us","latitude":37.77397,"longitude":-122.4313,"reserved":0,"last_update":"0001-01-01T00:00:00Z","name_a2s":"Uncletopia | San Francisco | 4 | Community","protocol":17,"map":"pl_borneo","folder":"tf","game":"Team Fortress","app_id":440,"player_count":0,"max_players":24,"Bots":0,"server_type":"Dedicated","server_os":"Linux","password":true,"vac":true,"version":"7757534","steam_id":85568392924742826,"keywords":["nocrits","nodmgspread","payload","uncletopia"],"game_id":440,"stv_port":27046,"stv_name":"Uncletopia | San Francisco | 4 | Community | STV","players":null},{"server_id":141,"name":"Uncletopia | Sydney | 1 | All Maps","name_short":"syd-1","host":"syd-1.au.uncletopia.com","port":27015,"enabled":true,"region":"au","cc":"au","latitude":-33.865143,"longitude":151.2099,"reserved":0,"last_update":"0001-01-01T00:00:00Z","name_a2s":"Uncletopia | Sydney | 1 | All Maps","protocol":17,"map":"koth_lakeside_final","folder":"tf","game":"Team Fortress","app_id":440,"player_count":0,"max_players":24,"Bots":0,"server_type":"Dedicated","server_os":"Linux","password":true,"vac":true,"version":"7757534","steam_id":85568392924470001,"keywords":["cp","nocrits","nodmgspread","uncletopia"],"game_id":440,"stv_port":27016,"stv_name":"Uncletopia | Sydney | 1 | All Maps | STV","players":null},{"server_id":123,"name":"Uncletopia | Sydney | 2 | All Maps","name_short":"syd-2","host":"syd-1.au.uncletopia.com","port":27025,"enabled":true,"region":"au","cc":"au","latitude":-33.865143,"longitude":151.2099,"reserved":0,"last_update":"0001-01-01T00:00:00Z","name_a2s":"Uncletopia | Sydney | 2 | All Maps","protocol":17,"map":"koth_viaduct","folder":"tf","game":"Team Fortress","app_id":440,"player_count":0,"max_players":24,"Bots":0,"server_type":"Dedicated","server_os":"Linux","password":true,"vac":true,"version":"7757534","steam_id":85568392924470002,"keywords":["cp","nocrits","nodmgspread","uncletopia"],"game_id":440,"stv_port":27026,"stv_name":"Uncletopia | Sydney | 2 | All Maps | STV","players":null},{"server_id":395,"name":"Uncletopia | Sydney | 3 | All Maps","name_short":"syd-3","host":"syd-1.au.uncletopia.com","port":27035,"enabled":true,"region":"au","cc":"au","latitude":-33.865143,"longitude":151.2099,"reserved":0,"last_update":"0001-01-01T00:00:00Z","name_a2s":"Uncletopia | Sydney | 3 | All Maps","protocol":17,"map":"koth_viaduct","folder":"tf","game":"Team Fortress","app_id":440,"player_count":0,"max_players":24,"Bots":0,"server_type":"Dedicated","server_os":"Linux","password":true,"vac":true,"version":"7757534","steam_id":85568392925194467,"keywords":["cp","nocrits","nodmgspread","uncletopia"],"game_id":440,"stv_port":27036,"stv_name":"Uncletopia | Sydney | 3 | All Maps | STV","players":null},{"server_id":396,"name":"Uncletopia | Sydney | 4 | All Maps","name_short":"syd-4","host":"syd-1.au.uncletopia.com","port":27045,"enabled":true,"region":"au","cc":"au","latitude":-33.865143,"longitude":151.2099,"reserved":0,"last_update":"0001-01-01T00:00:00Z","name_a2s":"Uncletopia | Sydney | 4 | All Maps","protocol":17,"map":"pl_badwater","folder":"tf","game":"Team Fortress","app_id":440,"player_count":2,"max_players":24,"Bots":0,"server_type":"Dedicated","server_os":"Linux","password":true,"vac":true,"version":"7757534","steam_id":85568392925397958,"keywords":["nocrits","nodmgspread","payload","uncletopia"],"game_id":440,"stv_port":27046,"stv_name":"Uncletopia | Sydney | 4 | All Maps | STV","players":[{"user_id":3,"name":"Astronosising","steam_id":76561199431038414,"connected_time":3720000000000,"state":"active","ping":82},{"user_id":5,"name":"jchthm12","steam_id":76561199376385352,"connected_time":3204000000000,"state":"active","ping":60}]},{"server_id":58,"name":"Uncletopia | Sydney | 5 | Stopwatch Beta","name_short":"syd-5","host":"syd-1.au.uncletopia.com","port":27055,"enabled":true,"region":"au","cc":"au","latitude":-33.865143,"longitude":151.2099,"reserved":0,"last_update":"0001-01-01T00:00:00Z","name_a2s":"Uncletopia | Sydney | 5 | Stopwatch Beta","protocol":17,"map":"pl_barnblitz","folder":"tf","game":"Team Fortress","app_id":440,"player_count":0,"max_players":24,"Bots":0,"server_type":"Dedicated","server_os":"Linux","password":true,"vac":true,"version":"7757534","steam_id":85568392925397959,"keywords":["nocrits","nodmgspread","payload","uncletopia"],"game_id":440,"stv_port":27056,"stv_name":"Uncletopia | Sydney | 5 | Stopwatch Beta | STV","players":null},{"server_id":59,"name":"Uncletopia | Sydney | 6 | Community","name_short":"syd-6","host":"syd-1.au.uncletopia.com","port":27065,"enabled":true,"region":"au","cc":"au","latitude":-33.865143,"longitude":151.2099,"reserved":0,"last_update":"0001-01-01T00:00:00Z","name_a2s":"Uncletopia | Sydney | 6 | Community","protocol":17,"map":"cp_mountainlab","folder":"tf","game":"Team Fortress","app_id":440,"player_count":0,"max_players":24,"Bots":0,"server_type":"Dedicated","server_os":"Linux","password":true,"vac":true,"version":"7757534","steam_id":85568392925397960,"keywords":["cp","nocrits","nodmgspread","uncletopia"],"game_id":440,"stv_port":27066,"stv_name":"Uncletopia | Sydney | 6 | Community | STV","players":null},{"server_id":49,"name":"Uncletopia | Warsaw | 1 | All Maps","name_short":"waw-1","host":"waw-1.pl.uncletopia.com","port":27015,"enabled":true,"region":"eu","cc":"pl","latitude":52.2297,"longitude":21.017532,"reserved":0,"last_update":"0001-01-01T00:00:00Z","name_a2s":"","protocol":0,"map":"","folder":"","game":"","app_id":0,"player_count":0,"max_players":0,"Bots":0,"server_type":"","server_os":"","password":false,"vac":false,"version":"","steam_id":0,"keywords":null,"game_id":0,"stv_port":0,"stv_name":"","players":null},{"server_id":50,"name":"Uncletopia | Warsaw | 2 | All Maps","name_short":"waw-2","host":"waw-1.pl.uncletopia.com","port":27025,"enabled":true,"region":"eu","cc":"pl","latitude":52.2297,"longitude":21.017532,"reserved":0,"last_update":"0001-01-01T00:00:00Z","name_a2s":"Uncletopia | Warsaw | 2 | All Maps","protocol":17,"map":"koth_highpass","folder":"tf","game":"Team Fortress","app_id":440,"player_count":0,"max_players":24,"Bots":0,"server_type":"Dedicated","server_os":"Linux","password":true,"vac":true,"version":"7757534","steam_id":85568392925397851,"keywords":["cp","nocrits","nodmgspread","uncletopia"],"game_id":440,"stv_port":27026,"stv_name":"Uncletopia | Warsaw | 2 | All Maps | STV","players":null},{"server_id":51,"name":"Uncletopia | Warsaw | 3 | All Maps","name_short":"waw-3","host":"waw-1.pl.uncletopia.com","port":27035,"enabled":true,"region":"eu","cc":"pl","latitude":52.2297,"longitude":21.017532,"reserved":0,"last_update":"0001-01-01T00:00:00Z","name_a2s":"Uncletopia | Warsaw | 3 | All Maps","protocol":17,"map":"pl_pier","folder":"tf","game":"Team Fortress","app_id":440,"player_count":24,"max_players":24,"Bots":0,"server_type":"Dedicated","server_os":"Linux","password":true,"vac":true,"version":"7757534","steam_id":85568392925397852,"keywords":["nocrits","nodmgspread","payload","uncletopia"],"game_id":440,"stv_port":27036,"stv_name":"Uncletopia | Warsaw | 3 | All Maps | STV","players":[{"user_id":419,"name":"i n n o","steam_id":76561199230689289,"connected_time":637000000000,"state":"active","ping":53},{"user_id":406,"name":"-⁧Loading","steam_id":76561198329022442,"connected_time":2326000000000,"state":"active","ping":89},{"user_id":425,"name":"Essen","steam_id":76561198140149284,"connected_time":110000000000,"state":"active","ping":60},{"user_id":355,"name":"KatTheCookiCat","steam_id":76561199054643392,"connected_time":5194000000000,"state":"active","ping":48},{"user_id":417,"name":"$b","steam_id":76561198118412910,"connected_time":1220000000000,"state":"active","ping":131},{"user_id":398,"name":"meriones","steam_id":76561198034234373,"connected_time":2875000000000,"state":"active","ping":72},{"user_id":420,"name":"Lalo Salamanca","steam_id":76561199116882319,"connected_time":579000000000,"state":"active","ping":82},{"user_id":426,"name":"Lukas","steam_id":76561198009118452,"connected_time":41000000000,"state":"active","ping":84},{"user_id":418,"name":"Laxslow","steam_id":76561198065361846,"connected_time":1123000000000,"state":"active","ping":75},{"user_id":412,"name":"Flex","steam_id":76561197970482191,"connected_time":1509000000000,"state":"active","ping":79},{"user_id":390,"name":"Hilldog","steam_id":76561198082209322,"connected_time":3488000000000,"state":"active","ping":120},{"user_id":421,"name":"TrueDeadPool","steam_id":76561198060378867,"connected_time":570000000000,"state":"active","ping":92},{"user_id":374,"name":"siarczan (VI) miedzi (II)","steam_id":76561198327848460,"connected_time":4225000000000,"state":"active","ping":41},{"user_id":371,"name":"Kenopsia","steam_id":76561198126750888,"connected_time":4288000000000,"state":"active","ping":66},{"user_id":422,"name":"clutchbert","steam_id":76561198275245884,"connected_time":505000000000,"state":"active","ping":78},{"user_id":373,"name":"Crocodile","steam_id":76561197984680667,"connected_time":4267000000000,"state":"active","ping":84},{"user_id":423,"name":"B@yka","steam_id":76561198986736592,"connected_time":463000000000,"state":"active","ping":76},{"user_id":424,"name":"Grandma","steam_id":76561198192419939,"connected_time":308000000000,"state":"active","ping":86},{"user_id":384,"name":"wolfenstein03","steam_id":76561198147173457,"connected_time":3815000000000,"state":"active","ping":89},{"user_id":415,"name":"HakugemY","steam_id":76561198152132299,"connected_time":1415000000000,"state":"active","ping":97},{"user_id":399,"name":"Нікітрон","steam_id":76561198044401080,"connected_time":2847000000000,"state":"active","ping":39},{"user_id":416,"name":"NeoCrest","steam_id":76561198800175929,"connected_time":1390000000000,"state":"active","ping":78},{"user_id":388,"name":"Nish","steam_id":76561197996068735,"connected_time":3684000000000,"state":"active","ping":100}]},{"server_id":52,"name":"Uncletopia | Warsaw | 4 | All Maps","name_short":"waw-4","host":"waw-1.pl.uncletopia.com","port":27045,"enabled":true,"region":"eu","cc":"pl","latitude":52.2297,"longitude":21.017532,"reserved":0,"last_update":"0001-01-01T00:00:00Z","name_a2s":"Uncletopia | Warsaw | 4 | All Maps","protocol":17,"map":"koth_lakeside_final","folder":"tf","game":"Team Fortress","app_id":440,"player_count":0,"max_players":24,"Bots":0,"server_type":"Dedicated","server_os":"Linux","password":true,"vac":true,"version":"7757534","steam_id":85568392925397853,"keywords":["cp","nocrits","nodmgspread","uncletopia"],"game_id":440,"stv_port":27046,"stv_name":"Uncletopia | Warsaw | 4 | All Maps | STV","players":null},{"server_id":53,"name":"Uncletopia | Warsaw | 5 | Stopwatch Beta","name_short":"waw-5","host":"waw-1.pl.uncletopia.com","port":27055,"enabled":true,"region":"eu","cc":"pl","latitude":52.2297,"longitude":21.017532,"reserved":0,"last_update":"0001-01-01T00:00:00Z","name_a2s":"Uncletopia | Warsaw | 5 | Stopwatch Beta","protocol":17,"map":"pl_upward","folder":"tf","game":"Team Fortress","app_id":440,"player_count":0,"max_players":24,"Bots":0,"server_type":"Dedicated","server_os":"Linux","password":true,"vac":true,"version":"7757534","steam_id":85568392925397854,"keywords":["nocrits","nodmgspread","payload","uncletopia"],"game_id":440,"stv_port":27056,"stv_name":"Uncletopia | Warsaw | 5 | Stopwatch Beta | STV","players":null},{"server_id":54,"name":"Uncletopia | Warsaw | 6 | Community","name_short":"waw-6","host":"waw-1.pl.uncletopia.com","port":27065,"enabled":true,"region":"eu","cc":"pl","latitude":52.2297,"longitude":21.017532,"reserved":0,"last_update":"0001-01-01T00:00:00Z","name_a2s":"Uncletopia | Warsaw | 6 | Community","protocol":17,"map":"workshop/cp_overgrown_rc7b.ugc503939302","folder":"tf","game":"Team Fortress","app_id":440,"player_count":0,"max_players":24,"Bots":0,"server_type":"Dedicated","server_os":"Linux","password":true,"vac":true,"version":"7757534","steam_id":85568392925397856,"keywords":["cp","nocrits","nodmgspread","uncletopia"],"game_id":440,"stv_port":27066,"stv_name":"Uncletopia | Warsaw | 6 | Community | STV","players":null}]}