{"status":true,"message":"","result":[{"server_id":2,"name":"Uncletopia | Chicago | 1 | All Maps","name_short":"chi-1","host":"chi-1.us.uncletopia.com","port":27015,"enabled":true,"region":"us-central","cc":"us","latitude":41.881832,"longitude":-87.62318,"reserved":0,"last_update":"0001-01-01T00:00:00Z","name_a2s":"Uncletopia | Chicago | 1 | All Maps","protocol":17,"map":"cp_dustbowl","folder":"tf","game":"Team Fortress","app_id":440,"player_count":24,"max_players":24,"Bots":0,"server_type":"Dedicated","server_os":"Linux","password":true,"vac":true,"version":"7932396","steam_id":85568392924469984,"keywords":["cp","nocrits","nodmgspread","uncletopia"],"game_id":440,"stv_port":27016,"stv_name":"Uncletopia | Chicago | 1 | All Maps | STV","players":[{"user_id":654,"name":"Willem Dafoe","steam_id":76561198037453253,"connected_time":64000000000,"state":"active","ping":56},{"user_id":554,"name":"Mavrick","steam_id":76561198039678150,"connected_time":3326000000000,"state":"active","ping":61},{"user_id":645,"name":"Preacher","steam_id":76561198022215764,"connected_time":440000000000,"state":"active","ping":70},{"user_id":530,"name":"Dullahan","steam_id":76561198119668908,"connected_time":5567000000000,"state":"active","ping":102},{"user_id":637,"name":"Bodhi","steam_id":76561198103230995,"connected_time":1414000000000,"state":"active","ping":91},{"user_id":639,"name":"T-Sex Instead Of T-Rex","steam_id":76561199133082806,"connected_time":1042000000000,"state":"active","ping":107},{"user_id":531,"name":"GreenApples","steam_id":76561198120559543,"connected_time":5561000000000,"state":"active","ping":105},{"user_id":638,"name":"100FootTallGoose","steam_id":76561198056611082,"connected_time":1383000000000,"state":"active","ping":75},{"user_id":651,"name":"TheAlmightyG","steam_id":76561198235946096,"connected_time":318000000000,"state":"active","ping":91},{"user_id":603,"name":"Waning Sanity","steam_id":76561197963089845,"connected_time":2227000000000,"state":"active","ping":84},{"user_id":471,"name":"Cider Lia (TTV)","steam_id":76561198151569597,"connected_time":9950000000000,"state":"active","ping":144},{"user_id":553,"name":"Yam Jazzy Jim","steam_id":76561198000788950,"connected_time":3332000000000,"state":"active","ping":61},{"user_id":653,"name":"Oddball","steam_id":76561198040440984,"connected_time":83000000000,"state":"active","ping":71},{"user_id":565,"name":"Darkmaen","steam_id":76561198060543390,"connected_time":3059000000000,"state":"active","ping":143},{"user_id":655,"name":"wahooka","steam_id":76561197981211922,"connected_time":63000000000,"state":"active","ping":70},{"user_id":632,"name":"♥Bunny♥Slut♥","steam_id":76561198206376851,"connected_time":1657000000000,"state":"active","ping":88},{"user_id":646,"name":"Adam (Cursed Confetti Creature)","steam_id":76561198317690197,"connected_time":433000000000,"state":"active","ping":47},{"user_id":656,"name":"FIREPOW #RTB","steam_id":76561198111259720,"connected_time":51000000000,"state":"active","ping":63},{"user_id":657,"name":"KrashBoomBang","steam_id":76561199002978777,"connected_time":29000000000,"state":"active","ping":64},{"user_id":642,"name":"Celestial Bodies","steam_id":76561198212572955,"connected_time":463000000000,"state":"active","ping":76},{"user_id":658,"name":"c2 FlawlessPooby1 xX","steam_id":76561198336395761,"connected_time":3000000000,"state":"spawning","ping":58},{"user_id":643,"name":"AYAYA!!!","steam_id":76561198992102180,"connected_time":461000000000,"state":"active","ping":49},{"user_id":652,"name":"ImKindaLeft","steam_id":76561198998634786,"connected_time":87000000000,"state":"active","ping":97},{"user_id":536,"name":"Season Veteran","steam_id":76561198088619665,"connected_time":5529000000000,"state":"active","ping":76}]},{"server_id":106,"name":"Uncletopia | Chicago | 2 | All Maps","name_short":"chi-2","host":"chi-1.us.uncletopia.com","port":27025,"enabled":true,"region":"us-central","cc":"us","latitude":41.881832,"longitude":-87.62318,"reserved":0,"last_update":"0001-01-01T00:00:00Z","name_a2s":"Uncletopia | Chicago | 2 | All Maps","protocol":17,"map":"cp_dustbowl","folder":"tf","game":"Team Fortress","app_id":440,"player_count":23,"max_players":24,"Bots":0,"server_type":"Dedicated","server_os":"Linux","password":true,"vac":true,"version":"7932396","steam_id":85568392924469985,"keywords":["cp","nocrits","nodmgspread","uncletopia"],"game_id":440,"stv_port":27026,"stv_name":"Uncletopia | Chicago | 2 | All Maps | STV","players":[{"user_id":250,"name":"Tarnation Bob","steam_id":76561198107382571,"connected_time":497000000000,"state":"active","ping":133},{"user_id":232,"name":"TRGG","steam_id":76561198797867876,"connected_time":2618000000000,"state":"active","ping":59},{"user_id":251,"name":"teyatranzzz","steam_id":76561199192896853,"connected_time":492000000000,"state":"active","ping":86},{"user_id":252,"name":"Pixel","steam_id":76561198129243055,"connected_time":490000000000,"state":"active","ping":46},{"user_id":264,"name":"Discourse","steam_id":76561198984286678,"connected_time":149000000000,"state":"active","ping":55},{"user_id":234,"name":"AreYouMyMummy?","steam_id":76561197995101745,"connected_time":2587000000000,"state":"active","ping":81},{"user_id":256,"name":"ZenkoZSprite","steam_id":76561198190132250,"connected_time":443000000000,"state":"active","ping":87},{"user_id":197,"name":"Draconic Ballad","steam_id":76561198027191515,"connected_time":5626000000000,"state":"active","ping":55},{"user_id":265,"name":"SamuraiFoolish","steam_id":76561198963318097,"connected_time":57000000000,"state":"spawning","ping":363},{"user_id":203,"name":"TechnoBear2099","steam_id":76561198238863596,"connected_time":5091000000000,"state":"active","ping":66},{"user_id":241,"name":"Spygie","steam_id":76561198218573049,"connected_time":1654000000000,"state":"active","ping":94},{"user_id":212,"name":"neekap","steam_id":76561198165102867,"connected_time":4783000000000,"state":"active","ping":123},{"user_id":243,"name":"bonk","steam_id":76561199132598729,"connected_time":1335000000000,"state":"active","ping":178},{"user_id":257,"name":"violetgoop","steam_id":76561198969344183,"connected_time":437000000000,"state":"active","ping":99},{"user_id":244,"name":"Jill the Owl","steam_id":76561197999210583,"connected_time":1298000000000,"state":"active","ping":70},{"user_id":258,"name":"IAmAProfesonal","steam_id":76561199171858953,"connected_time":409000000000,"state":"active","ping":53},{"user_id":249,"name":"Keyboard Warrior","steam_id":76561198152587680,"connected_time":511000000000,"state":"active","ping":94},{"user_id":266,"name":"Mikael_01","steam_id":76561199080253129,"connected_time":28000000000,"state":"active","ping":182},{"user_id":245,"name":"Not_Douglas","steam_id":76561199024184136,"connected_time":1236000000000,"state":"active","ping":59},{"user_id":263,"name":"Pengi","steam_id":76561198333097000,"connected_time":263000000000,"state":"active","ping":40},{"user_id":220,"name":"novu","steam_id":76561198886997024,"connected_time":3872000000000,"state":"active","ping":86},{"user_id":222,"name":"honor in defeat","steam_id":76561198013735714,"connected_time":3815000000000,"state":"active","ping":76},{"user_id":240,"name":"spherewithahat","steam_id":76561199122192660,"connected_time":1773000000000,"state":"active","ping":73}]},{"server_id":402,"name":"Uncletopia | Chicago | 3 | All Maps","name_short":"chi-3","host":"chi-1.us.uncletopia.com","port":27035,"enabled":true,"region":"us-central","cc":"us","latitude":41.881832,"longitude":-87.62318,"reserved":0,"last_update":"0001-01-01T00:00:00Z","name_a2s":"Uncletopia | Chicago | 3 | All Maps","protocol":17,"map":"pl_upward","folder":"tf","game":"Team Fortress","app_id":440,"player_count":22,"max_players":24,"Bots":0,"server_type":"Dedicated","server_os":"Linux","password":true,"vac":true,"version":"7932396","steam_id":85568392924515191,"keywords":["nocrits","nodmgspread","payload","uncletopia"],"game_id":440,"stv_port":27036,"stv_name":"Uncletopia | Chicago | 3 | All Maps | STV","players":[{"user_id":207,"name":"big steve","steam_id":76561199037050183,"connected_time":2016000000000,"state":"active","ping":86},{"user_id":227,"name":"Illuminaughty","steam_id":76561199163662910,"connected_time":388000000000,"state":"active","ping":63},{"user_id":182,"name":"pieftwc","steam_id":76561198844080556,"connected_time":3675000000000,"state":"active","ping":89},{"user_id":223,"name":"AutoCon17","steam_id":76561198209977473,"connected_time":724000000000,"state":"active","ping":36},{"user_id":214,"name":"Walkiing","steam_id":76561198074473413,"connected_time":1133000000000,"state":"active","ping":39},{"user_id":189,"name":"Acolyte Of Pain","steam_id":76561198143094194,"connected_time":3289000000000,"state":"active","ping":66},{"user_id":215,"name":"Tanuki with a gun.","steam_id":76561198027487285,"connected_time":1119000000000,"state":"active","ping":79},{"user_id":183,"name":"2ndWhiterunGuard","steam_id":76561198105382714,"connected_time":3663000000000,"state":"active","ping":766},{"user_id":229,"name":"GooniOoni","steam_id":76561198102154561,"connected_time":235000000000,"state":"active","ping":32},{"user_id":228,"name":"Pasta","steam_id":76561198358320222,"connected_time":331000000000,"state":"active","ping":75},{"user_id":217,"name":"Broadsword","steam_id":76561198011160411,"connected_time":1092000000000,"state":"active","ping":84},{"user_id":222,"name":"meo ♥","steam_id":76561197992719272,"connected_time":798000000000,"state":"active","ping":52},{"user_id":184,"name":"TopHatWearingKoala","steam_id":76561198068192599,"connected_time":3622000000000,"state":"active","ping":81},{"user_id":231,"name":"creal","steam_id":76561198127116199,"connected_time":117000000000,"state":"active","ping":55},{"user_id":200,"name":"Shady Businessman","steam_id":76561198143855968,"connected_time":2799000000000,"state":"active","ping":88},{"user_id":208,"name":"shmoney maker","steam_id":76561198241948526,"connected_time":1819000000000,"state":"active","ping":70},{"user_id":156,"name":"wakeupbdot","steam_id":76561198160786631,"connected_time":5938000000000,"state":"active","ping":61},{"user_id":213,"name":"Militant Pacifist","steam_id":76561198290691432,"connected_time":1185000000000,"state":"active","ping":101},{"user_id":218,"name":"Robin","steam_id":76561198121165149,"connected_time":1092000000000,"state":"active","ping":43},{"user_id":219,"name":"Hatfam","steam_id":76561199192629036,"connected_time":1088000000000,"state":"active","ping":115},{"user_id":220,"name":"aiden","steam_id":76561198449527009,"connected_time":1067000000000,"state":"active","ping":83},{"user_id":226,"name":"anonpain","steam_id":76561198081317092,"connected_time":597000000000,"state":"active","ping":50}]},{"server_id":403,"name":"Uncletopia | Chicago | 4 | All Maps","name_short":"chi-4","host":"chi-1.us.uncletopia.com","port":27045,"enabled":true,"region":"us-central","cc":"us","latitude":41.881832,"longitude":-87.62318,"reserved":0,"last_update":"0001-01-01T00:00:00Z","name_a2s":"Uncletopia | Chicago | 4 | All Maps","protocol":17,"map":"pl_frontier_final","folder":"tf","game":"Team Fortress","app_id":440,"player_count":21,"max_players":24,"Bots":0,"server_type":"Dedicated","server_os":"Linux","password":true,"vac":true,"version":"7932396","steam_id":85568392924515193,"keywords":["nocrits","nodmgspread","payload","uncletopia"],"game_id":440,"stv_port":27046,"stv_name":"Uncletopia | Chicago | 4 | All Maps | STV","players":[{"user_id":389,"name":"EliaStar","steam_id":76561198965030150,"connected_time":535000000000,"state":"connecting","ping":101},{"user_id":371,"name":"clio","steam_id":76561198141700569,"connected_time":873000000000,"state":"connecting","ping":100},{"user_id":372,"name":"tesagi","steam_id":76561198026664629,"connected_time":814000000000,"state":"connecting","ping":78},{"user_id":373,"name":"Green™","steam_id":76561198136522734,"connected_time":802000000000,"state":"connecting","ping":79},{"user_id":308,"name":"Tri-Dot","steam_id":76561199075186597,"connected_time":4162000000000,"state":"connecting","ping":65},{"user_id":367,"name":"chiswola","steam_id":76561198046920142,"connected_time":1050000000000,"state":"connecting","ping":93},{"user_id":368,"name":"Letters","steam_id":76561198035508148,"connected_time":989000000000,"state":"connecting","ping":122},{"user_id":365,"name":"the real big sips","steam_id":76561197999945358,"connected_time":1255000000000,"state":"connecting","ping":75},{"user_id":379,"name":"a table","steam_id":76561198158461279,"connected_time":619000000000,"state":"connecting","ping":58},{"user_id":363,"name":"God","steam_id":76561198131089513,"connected_time":1620000000000,"state":"connecting","ping":57},{"user_id":347,"name":"Larry","steam_id":76561198068311987,"connected_time":2441000000000,"state":"connecting","ping":125},{"user_id":395,"name":"Qwerty","steam_id":76561198023525894,"connected_time":248000000000,"state":"connecting","ping":195},{"user_id":396,"name":"Echo21","steam_id":76561199105713105,"connected_time":228000000000,"state":"connecting","ping":98},{"user_id":380,"name":"aunt may kills Batman","steam_id":76561198300250162,"connected_time":612000000000,"state":"connecting","ping":79},{"user_id":383,"name":"✪ goofbears -iwnl-","steam_id":76561199100831175,"connected_time":593000000000,"state":"connecting","ping":79},{"user_id":397,"name":"giant_dork","steam_id":76561199105606956,"connected_time":215000000000,"state":"connecting","ping":87},{"user_id":400,"name":"Panic Opossum","steam_id":76561198043838227,"connected_time":105000000000,"state":"connecting","ping":60},{"user_id":399,"name":"NikoOS (NO SOUND)","steam_id":76561198180020521,"connected_time":160000000000,"state":"connecting","ping":179},{"user_id":355,"name":"ultralisk52","steam_id":76561198051666604,"connected_time":2117000000000,"state":"connecting","ping":76},{"user_id":388,"name":"ShawnLmao","steam_id":76561198350691501,"connected_time":571000000000,"state":"connecting","ping":92}]},{"server_id":36,"name":"Uncletopia | Chicago | 5 | All Maps","name_short":"chi-5","host":"chi-2.us.uncletopia.com","port":27015,"enabled":true,"region":"us-central","cc":"us","latitude":41.881832,"longitude":-87.62318,"reserved":0,"last_update":"0001-01-01T00:00:00Z","name_a2s":"Uncletopia | Chicago | 5 | All Maps","protocol":17,"map":"cp_dustbowl","folder":"tf","game":"Team Fortress","app_id":440,"player_count":17,"max_players":24,"Bots":0,"server_type":"Dedicated","server_os":"Linux","password":true,"vac":true,"version":"7932396","steam_id":85568392924866362,"keywords":["nocrits","nodmgspread","payload","uncletopia"],"game_id":440,"stv_port":27016,"stv_name":"Uncletopia | Chicago | 5 | All Maps | STV","players":[{"user_id":170,"name":"Waddlehi","steam_id":76561198072553840,"connected_time":374000000000,"state":"connecting","ping":67},{"user_id":145,"name":"Kingdom","steam_id":76561198056270107,"connected_time":1705000000000,"state":"connecting","ping":95},{"user_id":164,"name":"Universe Man","steam_id":76561197997710655,"connected_time":707000000000,"state":"connecting","ping":92},{"user_id":171,"name":"Super Sand Lesbian","steam_id":76561198028157625,"connected_time":281000000000,"state":"connecting","ping":113},{"user_id":135,"name":"Angry Ginger","steam_id":76561198256929349,"connected_time":2045000000000,"state":"connecting","ping":62},{"user_id":148,"name":"99999999 説明を見て","steam_id":76561199163884669,"connected_time":1653000000000,"state":"connecting","ping":139},{"user_id":157,"name":"Mr. Soupman","steam_id":76561198021649598,"connected_time":1197000000000,"state":"connecting","ping":84},{"user_id":107,"name":"faxxy","steam_id":76561198079621240,"connected_time":3924000000000,"state":"connecting","ping":95},{"user_id":139,"name":"BigDumbAnimal","steam_id":76561197998645697,"connected_time":1869000000000,"state":"connecting","ping":63},{"user_id":154,"name":"The GrillMaster","steam_id":76561199088154401,"connected_time":1558000000000,"state":"connecting","ping":71},{"user_id":167,"name":"ZeN","steam_id":76561199098746585,"connected_time":433000000000,"state":"connecting","ping":69},{"user_id":161,"name":"Florence, the Talking Mailbox","steam_id":76561198129314173,"connected_time":1010000000000,"state":"connecting","ping":92},{"user_id":168,"name":"trobin120","steam_id":76561199122420273,"connected_time":433000000000,"state":"connecting","ping":101},{"user_id":150,"name":"Fraggot","steam_id":76561198864841966,"connected_time":1638000000000,"state":"connecting","ping":102},{"user_id":169,"name":"paetho YT (new vid!)","steam_id":76561198152690003,"connected_time":418000000000,"state":"connecting","ping":64}]},{"server_id":37,"name":"Uncletopia | Chicago | 6 | All Maps","name_short":"chi-6","host":"chi-2.us.uncletopia.com","port":27025,"enabled":true,"region":"us-central","cc":"us","latitude":41.881832,"longitude":-87.62318,"reserved":0,"last_update":"0001-01-01T00:00:00Z","name_a2s":"Uncletopia | Chicago | 6 | All Maps","protocol":17,"map":"pl_barnblitz","folder":"tf","game":"Team Fortress","app_id":440,"player_count":24,"max_players":24,"Bots":0,"server_type":"Dedicated","server_os":"Linux","password":true,"vac":true,"version":"7932396","steam_id":85568392924866363,"keywords":["nocrits","nodmgspread","payload","uncletopia"],"game_id":440,"stv_port":27026,"stv_name":"Uncletopia | Chicago | 6 | All Maps | STV","players":[{"user_id":105,"name":"Soos","steam_id":76561198140948078,"connected_time":2689000000000,"state":"active","ping":86},{"user_id":131,"name":"Gnum","steam_id":76561197963046358,"connected_time":371000000000,"state":"active","ping":67},{"user_id":123,"name":"xLeoparrd","steam_id":76561198940657194,"connected_time":988000000000,"state":"active","ping":85},{"user_id":122,"name":"chikin.sauce","steam_id":76561198042464635,"connected_time":1041000000000,"state":"active","ping":89},{"user_id":104,"name":"t.tv/ibbKitty∑:3","steam_id":76561198110858518,"connected_time":2692000000000,"state":"active","ping":61},{"user_id":134,"name":"Swifgz","steam_id":76561198162875756,"connected_time":100000000000,"state":"active","ping":62},{"user_id":107,"name":"jarrettconsult","steam_id":76561198249998262,"connected_time":2052000000000,"state":"active","ping":80},{"user_id":91,"name":"Goober","steam_id":76561198941700660,"connected_time":3371000000000,"state":"active","ping":84},{"user_id":132,"name":"terrapieseven","steam_id":76561198072062415,"connected_time":176000000000,"state":"active","ping":77},{"user_id":28,"name":"daemon","steam_id":76561198001541433,"connected_time":6860000000000,"state":"active","ping":61},{"user_id":124,"name":"That One Chicken","steam_id":76561199037423029,"connected_time":964000000000,"state":"active","ping":72},{"user_id":53,"name":"hashmap","steam_id":76561198043794014,"connected_time":5880000000000,"state":"active","ping":53},{"user_id":111,"name":"onion","steam_id":76561198242311084,"connected_time":1966000000000,"state":"active","ping":64},{"user_id":118,"name":"brio","steam_id":76561198108685037,"connected_time":1832000000000,"state":"active","ping":75},{"user_id":114,"name":"2 Eggs, Scrambled","steam_id":76561198077756206,"connected_time":1928000000000,"state":"active","ping":136},{"user_id":79,"name":"Krissy","steam_id":76561197960848174,"connected_time":4308000000000,"state":"active","ping":73},{"user_id":133,"name":"4ling","steam_id":76561197994398381,"connected_time":126000000000,"state":"active","ping":88},{"user_id":129,"name":"DavyC","steam_id":76561197988901502,"connected_time":631000000000,"state":"active","ping":61},{"user_id":135,"name":"minecraft","steam_id":76561198104345201,"connected_time":94000000000,"state":"active","ping":74},{"user_id":117,"name":"raybryan2008","steam_id":76561199465495736,"connected_time":1838000000000,"state":"active","ping":89},{"user_id":97,"name":"A Sun","steam_id":76561198142545364,"connected_time":3241000000000,"state":"active","ping":78},{"user_id":130,"name":"gIBBY","steam_id":76561198080099598,"connected_time":373000000000,"state":"active","ping":62},{"user_id":127,"name":"Chiki","steam_id":76561198063590320,"connected_time":689000000000,"state":"active","ping":73},{"user_id":71,"name":"shadowking","steam_id":76561199284698401,"connected_time":5052000000000,"state":"active","ping":96}]},{"server_id":38,"name":"Uncletopia | Chicago | 7 | Stopwatch Beta","name_short":"chi-7","host":"chi-2.us.uncletopia.com","port":27035,"enabled":true,"region":"us-central","cc":"us","latitude":41.881832,"longitude":-87.62318,"reserved":0,"last_update":"0001-01-01T00:00:00Z","name_a2s":"Uncletopia | Chicago | 7 | Stopwatch Beta","protocol":17,"map":"pl_borneo","folder":"tf","game":"Team Fortress","app_id":440,"player_count":0,"max_players":24,"Bots":0,"server_type":"Dedicated","server_os":"Linux","password":true,"vac":true,"version":"7932396","steam_id":85568392924866364,"keywords":["nocrits","nodmgspread","payload","uncletopia"],"game_id":440,"stv_port":27036,"stv_name":"Uncletopia | Chicago | 7 | Stopwatch Beta | STV","players":null},{"server_id":39,"name":"Uncletopia | Chicago | 8 | Community","name_short":"chi-8","host":"chi-2.us.uncletopia.com","port":27045,"enabled":true,"region":"us-central","cc":"us","latitude":41.881832,"longitude":-87.62318,"reserved":0,"last_update":"0001-01-01T00:00:00Z","name_a2s":"Uncletopia | Chicago | 8 | Community","protocol":17,"map":"workshop/pl_badwater_pro_v12.ugc2142942074","folder":"tf","game":"Team Fortress","app_id":440,"player_count":23,"max_players":24,"Bots":0,"server_type":"Dedicated","server_os":"Linux","password":true,"vac":true,"version":"7932396","steam_id":85568392924866365,"keywords":["nocrits","nodmgspread","payload","uncletopia"],"game_id":440,"stv_port":27046,"stv_name":"Uncletopia | Chicago | 8 | Community | STV","players":[{"user_id":347,"name":"UncookedBacon","steam_id":76561198223137700,"connected_time":2350000000000,"state":"active","ping":57},{"user_id":349,"name":"alpha 2-4","steam_id":76561199097451404,"connected_time":2312000000000,"state":"active","ping":80},{"user_id":366,"name":"Brandonazz","steam_id":76561197994366351,"connected_time":1116000000000,"state":"active","ping":66},{"user_id":379,"name":"Witch Vomit","steam_id":76561198080766921,"connected_time":129000000000,"state":"active","ping":70},{"user_id":377,"name":"Furrio","steam_id":76561198174104607,"connected_time":279000000000,"state":"active","ping":81},{"user_id":367,"name":"Ezakt","steam_id":76561199099132304,"connected_time":981000000000,"state":"active","ping":72},{"user_id":303,"name":"shitass | troutsupply.net","steam_id":76561198210572481,"connected_time":5950000000000,"state":"active","ping":90},{"user_id":352,"name":"The Jarge","steam_id":76561198970722195,"connected_time":2196000000000,"state":"active","ping":107},{"user_id":322,"name":"AudaCD","steam_id":76561198202775853,"connected_time":4725000000000,"state":"active","ping":59},{"user_id":363,"name":"Hersheysquirts21","steam_id":76561198862137054,"connected_time":1591000000000,"state":"active","ping":74},{"user_id":368,"name":"Thequirka","steam_id":76561198968058652,"connected_time":974000000000,"state":"active","ping":99},{"user_id":373,"name":"Glazed","steam_id":76561198043020404,"connected_time":887000000000,"state":"active","ping":88},{"user_id":310,"name":"Xrath","steam_id":76561198220741860,"connected_time":5599000000000,"state":"active","ping":69},{"user_id":375,"name":"two sentient corn cobs kissing","steam_id":76561198238842076,"connected_time":465000000000,"state":"active","ping":75},{"user_id":353,"name":"Rhea","steam_id":76561198066626240,"connected_time":2172000000000,"state":"active","ping":76},{"user_id":381,"name":"vergil","steam_id":76561199171221906,"connected_time":71000000000,"state":"active","ping":56},{"user_id":376,"name":"Hob-Goblin Jim The IV","steam_id":76561199046650666,"connected_time":459000000000,"state":"active","ping":55},{"user_id":351,"name":"the pest","steam_id":76561198826298849,"connected_time":2248000000000,"state":"active","ping":91},{"user_id":371,"name":"some tree","steam_id":76561198166093346,"connected_time":947000000000,"state":"active","ping":60},{"user_id":355,"name":"Asutorou","steam_id":76561198124207514,"connected_time":2078000000000,"state":"active","ping":78},{"user_id":311,"name":"[CAL] Gasous","steam_id":76561198093151157,"connected_time":5577000000000,"state":"active","ping":80},{"user_id":374,"name":"goob","steam_id":76561198057017027,"connected_time":768000000000,"state":"active","ping":87},{"user_id":357,"name":"BigMan","steam_id":76561198277150955,"connected_time":2008000000000,"state":"active","ping":72}]},{"server_id":8,"name":"Uncletopia | Dallas | 1 | All Maps","name_short":"dal-1","host":"dal-1.us.uncletopia.com","port":27015,"enabled":true,"region":"us-central","cc":"us","latitude":32.779167,"longitude":-96.80889,"reserved":0,"last_update":"0001-01-01T00:00:00Z","name_a2s":"Uncletopia | Dallas | 1 | All Maps","protocol":17,"map":"pl_borneo","folder":"tf","game":"Team Fortress","app_id":440,"player_count":24,"max_players":24,"Bots":0,"server_type":"Dedicated","server_os":"Linux","password":true,"vac":true,"version":"7932396","steam_id":85568392924469986,"keywords":["nocrits","nodmgspread","payload","uncletopia"],"game_id":440,"stv_port":27016,"stv_name":"Uncletopia | Dallas | 1 | All Maps | STV","players":[{"user_id":352,"name":"aiming with drawing tablet","steam_id":76561198397662124,"connected_time":1647000000000,"state":"active","ping":58},{"user_id":353,"name":"joe","steam_id":76561199389283507,"connected_time":1594000000000,"state":"active","ping":96},{"user_id":365,"name":"Kasimir","steam_id":76561198013840333,"connected_time":1258000000000,"state":"active","ping":60},{"user_id":329,"name":"SLaPPy- oNaSiS","steam_id":76561198009286862,"connected_time":3692000000000,"state":"active","ping":97},{"user_id":343,"name":"Albino Jellyfish","steam_id":76561198208561097,"connected_time":2568000000000,"state":"active","ping":85},{"user_id":375,"name":"xX_HimboSwallower_Xx","steam_id":76561198016029965,"connected_time":496000000000,"state":"active","ping":69},{"user_id":378,"name":"A Straw","steam_id":76561199367935846,"connected_time":244000000000,"state":"active","ping":66},{"user_id":264,"name":"Kalir","steam_id":76561197996125658,"connected_time":8325000000000,"state":"active","ping":81},{"user_id":368,"name":"DefaultKoala","steam_id":76561198059141147,"connected_time":1065000000000,"state":"active","ping":68},{"user_id":349,"name":"errant","steam_id":76561197961758410,"connected_time":1779000000000,"state":"active","ping":44},{"user_id":358,"name":"Yatchi.","steam_id":76561198878073232,"connected_time":1454000000000,"state":"active","ping":116},{"user_id":376,"name":"Johnny Lawrence #JohnnyMaxxing","steam_id":76561199367141671,"connected_time":440000000000,"state":"active","ping":86},{"user_id":377,"name":"emerge","steam_id":76561198186882891,"connected_time":379000000000,"state":"active","ping":93},{"user_id":370,"name":"Saskia","steam_id":76561199417419551,"connected_time":940000000000,"state":"active","ping":73},{"user_id":373,"name":"Hiser","steam_id":76561198308193624,"connected_time":512000000000,"state":"active","ping":63},{"user_id":292,"name":"BurningKev","steam_id":76561198057688837,"connected_time":6251000000000,"state":"active","ping":70},{"user_id":359,"name":"SPEEEEEEEEEEEEEEEEEEEEED","steam_id":76561198316768819,"connected_time":1437000000000,"state":"active","ping":85},{"user_id":316,"name":"artixes","steam_id":76561198379574232,"connected_time":4380000000000,"state":"active","ping":58},{"user_id":369,"name":"mutedx10","steam_id":76561198253556858,"connected_time":1056000000000,"state":"active","ping":47},{"user_id":342,"name":"popfulmail","steam_id":76561198865971290,"connected_time":2845000000000,"state":"active","ping":95},{"user_id":367,"name":"Master John Thursday","steam_id":76561197987593154,"connected_time":1207000000000,"state":"active","ping":43},{"user_id":364,"name":"Toothpork_","steam_id":76561198152242368,"connected_time":1357000000000,"state":"active","ping":105},{"user_id":321,"name":"McCanny","steam_id":76561198324340383,"connected_time":4102000000000,"state":"active","ping":132},{"user_id":374,"name":"Wookie","steam_id":76561198019780053,"connected_time":511000000000,"state":"active","ping":99}]},{"server_id":108,"name":"Uncletopia | Dallas | 2 | All Maps","name_short":"dal-2","host":"dal-1.us.uncletopia.com","port":27025,"enabled":true,"region":"us-central","cc":"us","latitude":32.779167,"longitude":-96.80889,"reserved":0,"last_update":"0001-01-01T00:00:00Z","name_a2s":"Uncletopia | Dallas | 2 | All Maps","protocol":17,"map":"pl_badwater","folder":"tf","game":"Team Fortress","app_id":440,"player_count":24,"max_players":24,"Bots":0,"server_type":"Dedicated","server_os":"Linux","password":true,"vac":true,"version":"7932396","steam_id":85568392924469988,"keywords":["nocrits","nodmgspread","payload","uncletopia"],"game_id":440,"stv_port":27026,"stv_name":"Uncletopia | Dallas | 2 | All Maps | STV","players":[{"user_id":142,"name":"FrostyLawns","steam_id":76561198251576516,"connected_time":3286000000000,"state":"active","ping":87},{"user_id":136,"name":"Zeora","steam_id":76561198799145251,"connected_time":3539000000000,"state":"active","ping":89},{"user_id":170,"name":"Kravixx","steam_id":76561197995777255,"connected_time":1301000000000,"state":"active","ping":80},{"user_id":151,"name":"moor3061","steam_id":76561197970893112,"connected_time":2828000000000,"state":"active","ping":54},{"user_id":171,"name":"FizzleWizard","steam_id":76561198045990868,"connected_time":1294000000000,"state":"active","ping":84},{"user_id":143,"name":"Fishios","steam_id":76561199436428380,"connected_time":3250000000000,"state":"active","ping":80},{"user_id":183,"name":"DAX","steam_id":76561198189418762,"connected_time":399000000000,"state":"active","ping":82},{"user_id":184,"name":"Shalom","steam_id":76561198410005222,"connected_time":368000000000,"state":"active","ping":55},{"user_id":182,"name":"Suburban Wolf Dad","steam_id":76561198069234954,"connected_time":434000000000,"state":"active","ping":64},{"user_id":112,"name":"Sentient Plaid Shirt","steam_id":76561198073338999,"connected_time":4792000000000,"state":"active","ping":55},{"user_id":185,"name":"CORGI.EXE","steam_id":76561198077093432,"connected_time":345000000000,"state":"active","ping":86},{"user_id":178,"name":"gnome zone","steam_id":76561198883349445,"connected_time":995000000000,"state":"active","ping":88},{"user_id":173,"name":"Fragment Guy","steam_id":76561198178413086,"connected_time":1280000000000,"state":"active","ping":67},{"user_id":139,"name":"Jesse Bear","steam_id":76561198217075305,"connected_time":3384000000000,"state":"active","ping":98},{"user_id":186,"name":"cc","steam_id":76561199215821942,"connected_time":290000000000,"state":"active","ping":45},{"user_id":150,"name":"Zorlovo","steam_id":76561198006443283,"connected_time":2996000000000,"state":"active","ping":81},{"user_id":146,"name":"nayonhaha","steam_id":76561198066507360,"connected_time":3219000000000,"state":"active","ping":68},{"user_id":174,"name":"SirKnight5067","steam_id":76561198377306047,"connected_time":1271000000000,"state":"active","ping":84},{"user_id":167,"name":"girthmilk","steam_id":76561198054799782,"connected_time":1796000000000,"state":"active","ping":77},{"user_id":175,"name":"Doctor Emerald(real)","steam_id":76561199123003872,"connected_time":1268000000000,"state":"active","ping":84},{"user_id":180,"name":"Game_Stormer","steam_id":76561199098016096,"connected_time":907000000000,"state":"active","ping":87},{"user_id":160,"name":"Joe Nathan","steam_id":76561198041030399,"connected_time":2374000000000,"state":"active","ping":55},{"user_id":161,"name":"Ⓑ⓪⓪ⓣⓨⓒⓐⓚⓔⓢ","steam_id":76561198088776421,"connected_time":2355000000000,"state":"active","ping":87},{"user_id":176,"name":"HappySmiles1010","steam_id":76561199202300463,"connected_time":1265000000000,"state":"active","ping":98}]},{"server_id":5,"name":"Uncletopia | Frankfurt | 1 | All Maps","name_short":"frk-1","host":"frk-1.de.uncletopia.com","port":27015,"enabled":true,"region":"eu","cc":"de","latitude":50.110924,"longitude":8.682127,"reserved":0,"last_update":"0001-01-01T00:00:00Z","name_a2s":"Uncletopia | Frankfurt | 1 | All Maps","protocol":17,"map":"pl_upward","folder":"tf","game":"Team Fortress","app_id":440,"player_count":24,"max_players":24,"Bots":0,"server_type":"Dedicated","server_os":"Linux","password":true,"vac":true,"version":"7932396","steam_id":85568392924469989,"keywords":["nocrits","nodmgspread","payload","uncletopia"],"game_id":440,"stv_port":27016,"stv_name":"Uncletopia | Frankfurt | 1 | All Maps | STV","players":[{"user_id":721,"name":"ButtSucker69","steam_id":76561199162157270,"connected_time":2378000000000,"state":"active","ping":119},{"user_id":725,"name":"snowycoast","steam_id":76561198346638308,"connected_time":2314000000000,"state":"active","ping":61},{"user_id":689,"name":"cinny","steam_id":76561198832112629,"connected_time":4002000000000,"state":"active","ping":71},{"user_id":726,"name":"asko","steam_id":76561198081966620,"connected_time":2291000000000,"state":"active","ping":88},{"user_id":684,"name":"XL54M15Y","steam_id":76561198048250715,"connected_time":4293000000000,"state":"active","ping":46},{"user_id":741,"name":"The Mask...","steam_id":76561198052402891,"connected_time":518000000000,"state":"active","ping":57},{"user_id":744,"name":"ethan","steam_id":76561198119495513,"connected_time":368000000000,"state":"active","ping":59},{"user_id":682,"name":"Slifer The Sky Dragon","steam_id":76561198062255803,"connected_time":4377000000000,"state":"active","ping":60},{"user_id":745,"name":"BONA FIDE PISS","steam_id":76561198130020929,"connected_time":366000000000,"state":"active","ping":56},{"user_id":669,"name":"cuddle","steam_id":76561198805181599,"connected_time":4979000000000,"state":"active","ping":68},{"user_id":747,"name":"Mach","steam_id":76561198952487564,"connected_time":313000000000,"state":"active","ping":172},{"user_id":720,"name":"✧ Ghosty ✧","steam_id":76561198312022168,"connected_time":2719000000000,"state":"active","ping":56},{"user_id":731,"name":"minn","steam_id":76561198099101232,"connected_time":1605000000000,"state":"active","ping":65},{"user_id":751,"name":"BuzzBees ❤","steam_id":76561198101502273,"connected_time":42000000000,"state":"active","ping":74},{"user_id":748,"name":"aGryphoN","steam_id":76561198245175308,"connected_time":280000000000,"state":"active","ping":64},{"user_id":718,"name":"CAMON ENGELAND","steam_id":76561198054301125,"connected_time":2787000000000,"state":"active","ping":93},{"user_id":695,"name":"Sarah Obama Michella","steam_id":76561198078996559,"connected_time":3604000000000,"state":"active","ping":75},{"user_id":749,"name":"Hohle Fritte","steam_id":76561198140620298,"connected_time":276000000000,"state":"active","ping":77},{"user_id":673,"name":"Wyremingo","steam_id":76561198314337596,"connected_time":4934000000000,"state":"active","ping":119},{"user_id":724,"name":"lanzer","steam_id":76561198049983016,"connected_time":2343000000000,"state":"active","ping":96},{"user_id":750,"name":"KittyKate ❤","steam_id":76561198116340817,"connected_time":259000000000,"state":"active","ping":63},{"user_id":719,"name":"froglids","steam_id":76561198045466919,"connected_time":2751000000000,"state":"active","ping":69},{"user_id":737,"name":"Volcyy","steam_id":76561198063979124,"connected_time":1164000000000,"state":"active","ping":42},{"user_id":743,"name":"finbar","steam_id":76561198056812396,"connected_time":501000000000,"state":"active","ping":74}]},{"server_id":110,"name":"Uncletopia | Frankfurt | 2 | All Maps","name_short":"frk-2","host":"frk-1.de.uncletopia.com","port":27025,"enabled":true,"region":"eu","cc":"de","latitude":50.110924,"longitude":8.682127,"reserved":0,"last_update":"0001-01-01T00:00:00Z","name_a2s":"Uncletopia | Frankfurt | 2 | All Maps","protocol":17,"map":"pl_snowycoast","folder":"tf","game":"Team Fortress","app_id":440,"player_count":0,"max_players":24,"Bots":0,"server_type":"Dedicated","server_os":"Linux","password":true,"vac":true,"version":"7932396","steam_id":85568392924469990,"keywords":["nocrits","nodmgspread","payload","uncletopia"],"game_id":440,"stv_port":27026,"stv_name":"Uncletopia | Frankfurt | 2 | All Maps | STV","players":null},{"server_id":308,"name":"Uncletopia | Frankfurt | 3 | All Maps","name_short":"frk-3","host":"frk-1.de.uncletopia.com","port":27035,"enabled":true,"region":"eu","cc":"de","latitude":50.110924,"longitude":8.682127,"reserved":0,"last_update":"0001-01-01T00:00:00Z","name_a2s":"Uncletopia | Frankfurt | 3 | All Maps","protocol":17,"map":"cp_sunshine","folder":"tf","game":"Team Fortress","app_id":440,"player_count":0,"max_players":24,"Bots":0,"server_type":"Dedicated","server_os":"Linux","password":true,"vac":true,"version":"7932396","steam_id":85568392924504274,"keywords":["cp","nocrits","nodmgspread","uncletopia"],"game_id":440,"stv_port":27036,"stv_name":"Uncletopia | Frankfurt | 3 | All Maps | STV","players":null},{"server_id":309,"name":"Uncletopia | Frankfurt | 4 | All Maps","name_short":"frk-4","host":"frk-1.de.uncletopia.com","port":27045,"enabled":true,"region":"eu","cc":"de","latitude":50.110924,"longitude":8.682127,"reserved":0,"last_update":"0001-01-01T00:00:00Z","name_a2s":"Uncletopia | Frankfurt | 4 | All Maps","protocol":17,"map":"pl_borneo","folder":"tf","game":"Team Fortress","app_id":440,"player_count":0,"max_players":24,"Bots":0,"server_type":"Dedicated","server_os":"Linux","password":true,"vac":true,"version":"7932396","steam_id":85568392924504275,"keywords":["nocrits","nodmgspread","payload","uncletopia"],"game_id":440,"stv_port":27046,"stv_name":"Uncletopia | Frankfurt | 4 | All Maps | STV","players":null},{"server_id":310,"name":"Uncletopia | Frankfurt | 5 | All Maps","name_short":"frk-5","host":"frk-1.de.uncletopia.com","port":27055,"enabled":true,"region":"eu","cc":"de","latitude":50.110924,"longitude":8.682127,"reserved":0,"last_update":"0001-01-01T00:00:00Z","name_a2s":"Uncletopia | Frankfurt | 5 | All Maps","protocol":17,"map":"koth_viaduct","folder":"tf","game":"Team Fortress","app_id":440,"player_count":0,"max_players":24,"Bots":0,"server_type":"Dedicated","server_os":"Linux","password":true,"vac":true,"version":"7932396","steam_id":85568392924504277,"keywords":["cp","nocrits","nodmgspread","uncletopia"],"game_id":440,"stv_port":27056,"stv_name":"Uncletopia | Frankfurt | 5 | All Maps | STV","players":null},{"server_id":311,"name":"Uncletopia | Frankfurt | 6 | All Maps","name_short":"frk-6","host":"frk-1.de.uncletopia.com","port":27065,"enabled":true,"region":"eu","cc":"de","latitude":50.110924,"longitude":8.682127,"reserved":0,"last_update":"0001-01-01T00:00:00Z","name_a2s":"Uncletopia | Frankfurt | 6 | All Maps","protocol":17,"map":"koth_lakeside_final","folder":"tf","game":"Team Fortress","app_id":440,"player_count":0,"max_players":24,"Bots":0,"server_type":"Dedicated","server_os":"Linux","password":true,"vac":true,"version":"7932396","steam_id":85568392924504278,"keywords":["cp","nocrits","nodmgspread","uncletopia"],"game_id":440,"stv_port":27066,"stv_name":"Uncletopia | Frankfurt | 6 | All Maps | STV","players":null},{"server_id":23,"name":"Uncletopia | Frankfurt | 7 | Stopwatch Beta","name_short":"frk-7","host":"frk-1.de.uncletopia.com","port":27075,"enabled":true,"region":"eu","cc":"de","latitude":50.110924,"longitude":8.682127,"reserved":0,"last_update":"0001-01-01T00:00:00Z","name_a2s":"Uncletopia | Frankfurt | 7 | Stopwatch Beta","protocol":17,"map":"pl_snowycoast","folder":"tf","game":"Team Fortress","app_id":440,"player_count":0,"max_players":24,"Bots":0,"server_type":"Dedicated","server_os":"Linux","password":true,"vac":true,"version":"7932396","steam_id":85568392924742827,"keywords":["nocrits","nodmgspread","payload","uncletopia"],"game_id":440,"stv_port":27076,"stv_name":"Uncletopia | Frankfurt | 7 | Stopwatch Beta | STV","players":null},{"server_id":24,"name":"Uncletopia | Frankfurt | 8 | Community","name_short":"frk-8","host":"frk-1.de.uncletopia.com","port":27085,"enabled":true,"region":"eu","cc":"de","latitude":50.110924,"longitude":8.682127,"reserved":0,"last_update":"0001-01-01T00:00:00Z","name_a2s":"Uncletopia | Frankfurt | 8 | Community","protocol":17,"map":"workshop/koth_product_final.ugc454272353","folder":"tf","game":"Team Fortress","app_id":440,"player_count":0,"max_players":24,"Bots":0,"server_type":"Dedicated","server_os":"Linux","password":true,"vac":true,"version":"7932396","steam_id":85568392924742828,"keywords":["cp","nocrits","nodmgspread","uncletopia"],"game_id":440,"stv_port":27086,"stv_name":"Uncletopia | Frankfurt | 8 | Community | STV","players":null},{"server_id":202,"name":"Uncletopia | Hong Kong | 1 | All Maps","name_short":"hgk-1","host":"hgk-1.hk.uncletopia.com","port":27015,"enabled":true,"region":"asia","cc":"hk","latitude":22.302711,"longitude":114.177216,"reserved":0,"last_update":"0001-01-01T00:00:00Z","name_a2s":"Uncletopia | Hong Kong | 1 | All Maps","protocol":17,"map":"cp_altitude","folder":"tf","game":"Team Fortress","app_id":440,"player_count":0,"max_players":24,"Bots":0,"server_type":"Dedicated","server_os":"Linux","password":true,"vac":true,"version":"7932396","steam_id":85568392924494504,"keywords":["cp","nocrits","nodmgspread","uncletopia"],"game_id":440,"stv_port":27016,"stv_name":"Uncletopia | Hong Kong | 1 | All Maps | STV","players":null},{"server_id":1,"name":"Uncletopia | Los Angeles | 1 | All Maps","name_short":"lax-1","host":"lax-1.us.uncletopia.com","port":27015,"enabled":true,"region":"us-west","cc":"us","latitude":33.94279,"longitude":-118.41004,"reserved":0,"last_update":"0001-01-01T00:00:00Z","name_a2s":"Uncletopia | Los Angeles | 1 | All Maps","protocol":17,"map":"koth_cascade","folder":"tf","game":"Team Fortress","app_id":440,"player_count":0,"max_players":24,"Bots":0,"server_type":"Dedicated","server_os":"Linux","password":true,"vac":true,"version":"7932396","steam_id":85568392924469991,"keywords":["cp","nocrits","nodmgspread","uncletopia"],"game_id":440,"stv_port":27016,"stv_name":"Uncletopia | Los Angeles | 1 | All Maps | STV","players":null},{"server_id":112,"name":"Uncletopia | Los Angeles | 2 | All Maps","name_short":"lax-2","host":"lax-1.us.uncletopia.com","port":27025,"enabled":true,"region":"us-west","cc":"us","latitude":33.94279,"longitude":-118.41004,"reserved":0,"last_update":"0001-01-01T00:00:00Z","name_a2s":"Uncletopia | Los Angeles | 2 | All Maps","protocol":17,"map":"ctf_2fort","folder":"tf","game":"Team Fortress","app_id":440,"player_count":24,"max_players":24,"Bots":0,"server_type":"Dedicated","server_os":"Linux","password":true,"vac":true,"version":"7932396","steam_id":85568392924469992,"keywords":["ctf","nocrits","nodmgspread","uncletopia"],"game_id":440,"stv_port":27026,"stv_name":"Uncletopia | Los Angeles | 2 | All Maps | STV","players":[{"user_id":192,"name":"RedZone","steam_id":76561197973665180,"connected_time":947000000000,"state":"active","ping":126},{"user_id":201,"name":"M.U.Z.I.D","steam_id":76561198148412699,"connected_time":635000000000,"state":"active","ping":113},{"user_id":206,"name":"The Collective(Hypnotist)","steam_id":76561198170423483,"connected_time":142000000000,"state":"active","ping":107},{"user_id":129,"name":"Skull emoji","steam_id":76561199387783793,"connected_time":5003000000000,"state":"active","ping":99},{"user_id":193,"name":"meanmugg","steam_id":76561198079448456,"connected_time":911000000000,"state":"active","ping":132},{"user_id":106,"name":"AimBütter","steam_id":76561198060108739,"connected_time":5943000000000,"state":"active","ping":45},{"user_id":188,"name":"SomeFuckingGuy","steam_id":76561199239165015,"connected_time":1471000000000,"state":"active","ping":101},{"user_id":151,"name":"Dededoo","steam_id":76561198279033471,"connected_time":3910000000000,"state":"active","ping":96},{"user_id":179,"name":"HooDoo","steam_id":76561198088994018,"connected_time":2250000000000,"state":"active","ping":79},{"user_id":153,"name":"danielsonsawyer6","steam_id":76561199478706910,"connected_time":3740000000000,"state":"active","ping":58},{"user_id":143,"name":"Scorcho","steam_id":76561198071413833,"connected_time":4395000000000,"state":"active","ping":85},{"user_id":194,"name":"Seriously Bruh","steam_id":76561198070408485,"connected_time":893000000000,"state":"active","ping":92},{"user_id":195,"name":"ooidial","steam_id":76561199086221916,"connected_time":857000000000,"state":"active","ping":133},{"user_id":196,"name":"johnplays3pm","steam_id":76561199111558073,"connected_time":807000000000,"state":"active","ping":51},{"user_id":180,"name":"Cleverless Biped","steam_id":76561198045984856,"connected_time":2234000000000,"state":"active","ping":66},{"user_id":199,"name":"Punished Shitster","steam_id":76561198150452857,"connected_time":718000000000,"state":"active","ping":75},{"user_id":198,"name":"The Spanked Monkey","steam_id":76561198128293111,"connected_time":736000000000,"state":"active","ping":112},{"user_id":200,"name":"Gabe loves Sales","steam_id":76561198097707933,"connected_time":685000000000,"state":"active","ping":110},{"user_id":202,"name":"The Super Mario Bros. Movie","steam_id":76561198871692156,"connected_time":635000000000,"state":"active","ping":109},{"user_id":203,"name":"TeCon","steam_id":76561198049127236,"connected_time":610000000000,"state":"active","ping":45},{"user_id":169,"name":"FERAL JESUS","steam_id":76561197982917950,"connected_time":2806000000000,"state":"active","ping":132},{"user_id":205,"name":"TheGreatDong","steam_id":76561198000634178,"connected_time":409000000000,"state":"active","ping":65},{"user_id":207,"name":"eau:","steam_id":76561198110020262,"connected_time":53000000000,"state":"active","ping":33}]},{"server_id":324,"name":"Uncletopia | Los Angeles | 3 | All Maps","name_short":"lax-3","host":"lax-1.us.uncletopia.com","port":27035,"enabled":true,"region":"us-west","cc":"us","latitude":33.94279,"longitude":-118.41004,"reserved":0,"last_update":"0001-01-01T00:00:00Z","name_a2s":"Uncletopia | Los Angeles | 3 | All Maps","protocol":17,"map":"cp_snakewater_final1","folder":"tf","game":"Team Fortress","app_id":440,"player_count":20,"max_players":24,"Bots":0,"server_type":"Dedicated","server_os":"Linux","password":true,"vac":true,"version":"7932396","steam_id":85568392924510198,"keywords":["cp","nocrits","nodmgspread","uncletopia"],"game_id":440,"stv_port":27036,"stv_name":"Uncletopia | Los Angeles | 3 | All Maps | STV","players":[{"user_id":466,"name":"YuriPuri","steam_id":76561198053330909,"connected_time":1764000000000,"state":"active","ping":101},{"user_id":451,"name":"zain","steam_id":76561198139243305,"connected_time":2867000000000,"state":"active","ping":47},{"user_id":452,"name":"Hayd3nQ","steam_id":76561198124849736,"connected_time":2628000000000,"state":"active","ping":98},{"user_id":489,"name":"Chirp","steam_id":76561198240780230,"connected_time":209000000000,"state":"active","ping":44},{"user_id":485,"name":"Tony Tony Choppa","steam_id":76561198926443232,"connected_time":247000000000,"state":"active","ping":77},{"user_id":490,"name":"NotNamedBob","steam_id":76561199482149729,"connected_time":112000000000,"state":"active","ping":98},{"user_id":456,"name":"pikminmaster128","steam_id":76561198958620086,"connected_time":2409000000000,"state":"active","ping":73},{"user_id":457,"name":"I Use Basher for Medic","steam_id":76561198165834369,"connected_time":2262000000000,"state":"active","ping":56},{"user_id":481,"name":"Hurb","steam_id":76561198746677086,"connected_time":1032000000000,"state":"active","ping":112},{"user_id":463,"name":"OverlordCharles","steam_id":76561198109439632,"connected_time":1848000000000,"state":"active","ping":63},{"user_id":491,"name":"reymundo","steam_id":76561197989412830,"connected_time":62000000000,"state":"active","ping":61},{"user_id":492,"name":"Zen56","steam_id":76561198074554894,"connected_time":37000000000,"state":"active","ping":101},{"user_id":493,"name":"Sinn","steam_id":76561199013434543,"connected_time":23000000000,"state":"active","ping":69},{"user_id":487,"name":"Fungus","steam_id":76561198390297486,"connected_time":233000000000,"state":"active","ping":31},{"user_id":465,"name":"HomeSlice","steam_id":76561198024277233,"connected_time":1771000000000,"state":"active","ping":101},{"user_id":494,"name":"Ass Blaster, Disaster Master","steam_id":76561197997774469,"connected_time":11000000000,"state":"active","ping":60},{"user_id":486,"name":"John Wesley Harding (1967)","steam_id":76561199127590316,"connected_time":245000000000,"state":"active","ping":60},{"user_id":484,"name":"5mech","steam_id":76561198979167520,"connected_time":614000000000,"state":"active","ping":75},{"user_id":482,"name":"Chimpanzee","steam_id":76561198850387282,"connected_time":1014000000000,"state":"active","ping":99},{"user_id":474,"name":"donkeyballs2007","steam_id":76561199466298683,"connected_time":1487000000000,"state":"active","ping":43}]},{"server_id":25,"name":"Uncletopia | Los Angeles | 4 | Stopwatch Beta","name_short":"lax-4","host":"lax-1.us.uncletopia.com","port":27045,"enabled":true,"region":"us-west","cc":"us","latitude":33.94279,"longitude":-118.41004,"reserved":0,"last_update":"0001-01-01T00:00:00Z","name_a2s":"Uncletopia | Los Angeles | 4 | Stopwatch Beta","protocol":17,"map":"cp_altitude","folder":"tf","game":"Team Fortress","app_id":440,"player_count":0,"max_players":24,"Bots":0,"server_type":"Dedicated","server_os":"Linux","password":true,"vac":true,"version":"7932396","steam_id":85568392924510199,"keywords":["cp","nocrits","nodmgspread","uncletopia"],"game_id":440,"stv_port":27046,"stv_name":"Uncletopia | Los Angeles | 4 | Stopwatch Beta | STV","players":null},{"server_id":11,"name":"Uncletopia | London | 1 | All Maps","name_short":"lon-1","host":"lon-1.uk.uncletopia.com","port":27015,"enabled":true,"region":"eu","cc":"gb","latitude":51.509865,"longitude":-0.118092,"reserved":0,"last_update":"0001-01-01T00:00:00Z","name_a2s":"Uncletopia | London | 1 | All Maps","protocol":17,"map":"pl_upward","folder":"tf","game":"Team Fortress","app_id":440,"player_count":24,"max_players":24,"Bots":0,"server_type":"Dedicated","server_os":"Linux","password":true,"vac":true,"version":"7932396","steam_id":85568392924367362,"keywords":["nocrits","nodmgspread","payload","uncletopia"],"game_id":440,"stv_port":27016,"stv_name":"Uncletopia | London | 1 | All Maps | STV","players":[{"user_id":866,"name":"Doritoshredder","steam_id":76561198826710752,"connected_time":1785000000000,"state":"active","ping":107},{"user_id":825,"name":"yep, woke up sexy again today","steam_id":76561198043159259,"connected_time":3757000000000,"state":"active","ping":50},{"user_id":897,"name":"D_Ink","steam_id":76561198267716662,"connected_time":246000000000,"state":"active","ping":34},{"user_id":887,"name":"NotTony69","steam_id":76561199122717140,"connected_time":447000000000,"state":"active","ping":183},{"user_id":882,"name":"Traylie","steam_id":76561198050797796,"connected_time":630000000000,"state":"active","ping":66},{"user_id":868,"name":"Gry","steam_id":76561198053961616,"connected_time":1694000000000,"state":"active","ping":47},{"user_id":898,"name":"Tomfool","steam_id":76561197993256481,"connected_time":234000000000,"state":"active","ping":72},{"user_id":896,"name":"Banjo","steam_id":76561198004652853,"connected_time":286000000000,"state":"active","ping":191},{"user_id":888,"name":"ScaryTree","steam_id":76561199384362833,"connected_time":433000000000,"state":"active","ping":52},{"user_id":876,"name":"The Chip-Damage Creeper","steam_id":76561198032359132,"connected_time":1381000000000,"state":"active","ping":45},{"user_id":894,"name":"can u do sum for me","steam_id":76561198132723577,"connected_time":326000000000,"state":"active","ping":82},{"user_id":889,"name":"Anonymous47007","steam_id":76561199005211417,"connected_time":429000000000,"state":"active","ping":81},{"user_id":890,"name":"D D","steam_id":76561198257836694,"connected_time":415000000000,"state":"active","ping":45},{"user_id":891,"name":"Ironnicall","steam_id":76561199060151538,"connected_time":411000000000,"state":"active","ping":130},{"user_id":838,"name":"Ankly","steam_id":76561198080299623,"connected_time":3412000000000,"state":"active","ping":70},{"user_id":873,"name":"rozen","steam_id":76561198119167317,"connected_time":1521000000000,"state":"active","ping":51},{"user_id":851,"name":"halow","steam_id":76561198061505163,"connected_time":2634000000000,"state":"active","ping":98},{"user_id":839,"name":"r1ghty","steam_id":76561198022349611,"connected_time":3385000000000,"state":"active","ping":106},{"user_id":874,"name":"swagmaster9000","steam_id":76561198232259356,"connected_time":1482000000000,"state":"active","ping":60},{"user_id":893,"name":"METhOphetamine","steam_id":76561198068216224,"connected_time":358000000000,"state":"active","ping":61},{"user_id":877,"name":"Silvestro","steam_id":76561198021660066,"connected_time":1337000000000,"state":"active","ping":91},{"user_id":852,"name":"SpacePig","steam_id":76561198044662873,"connected_time":2508000000000,"state":"active","ping":101},{"user_id":878,"name":"człowiek kolimator","steam_id":76561198128797110,"connected_time":1332000000000,"state":"active","ping":64},{"user_id":895,"name":"jones","steam_id":76561198044434971,"connected_time":290000000000,"state":"active","ping":64}]},{"server_id":114,"name":"Uncletopia | London | 2 | All Maps","name_short":"lon-2","host":"lon-1.uk.uncletopia.com","port":27025,"enabled":true,"region":"eu","cc":"gb","latitude":51.509865,"longitude":-0.118092,"reserved":0,"last_update":"0001-01-01T00:00:00Z","name_a2s":"Uncletopia | London | 2 | All Maps","protocol":17,"map":"koth_cascade","folder":"tf","game":"Team Fortress","app_id":440,"player_count":6,"max_players":24,"Bots":0,"server_type":"Dedicated","server_os":"Linux","password":true,"vac":true,"version":"7932396","steam_id":85568392924470941,"keywords":["cp","nocrits","nodmgspread","uncletopia"],"game_id":440,"stv_port":27026,"stv_name":"Uncletopia | London | 2 | All Maps | STV","players":[{"user_id":699,"name":"yuno appreciator","steam_id":76561198083286511,"connected_time":695000000000,"state":"active","ping":31},{"user_id":695,"name":"i forgor","steam_id":76561199120622265,"connected_time":955000000000,"state":"active","ping":155},{"user_id":696,"name":"bookreader","steam_id":76561198978568007,"connected_time":886000000000,"state":"active","ping":112},{"user_id":700,"name":"\"I did a thing in a game wow\"","steam_id":76561199433948284,"connected_time":583000000000,"state":"active","ping":111},{"user_id":701,"name":"Nyrgon","steam_id":76561198269206916,"connected_time":78000000000,"state":"active","ping":67},{"user_id":664,"name":"mr mufasi","steam_id":76561198068453867,"connected_time":4020000000000,"state":"active","ping":49}]},{"server_id":320,"name":"Uncletopia | London | 3 | All Maps","name_short":"lon-3","host":"lon-1.uk.uncletopia.com","port":27035,"enabled":true,"region":"eu","cc":"gb","latitude":51.509865,"longitude":-0.118092,"reserved":0,"last_update":"0001-01-01T00:00:00Z","name_a2s":"Uncletopia | London | 3 | All Maps","protocol":17,"map":"pl_borneo","folder":"tf","game":"Team Fortress","app_id":440,"player_count":9,"max_players":24,"Bots":0,"server_type":"Dedicated","server_os":"Linux","password":true,"vac":true,"version":"7932396","steam_id":85568392924510192,"keywords":["nocrits","nodmgspread","payload","uncletopia"],"game_id":440,"stv_port":27036,"stv_name":"Uncletopia | London | 3 | All Maps | STV","players":[{"user_id":448,"name":"Carson_Clay_Gaming","steam_id":76561199403298146,"connected_time":9000000000,"state":"spawning","ping":45},{"user_id":441,"name":"boBobobobobobobobobobobobobobob","steam_id":76561197970369565,"connected_time":927000000000,"state":"active","ping":41},{"user_id":445,"name":"Chillrend | #SaveTF2","steam_id":76561198452963141,"connected_time":703000000000,"state":"active","ping":90},{"user_id":440,"name":"Jinxie","steam_id":76561198008762303,"connected_time":979000000000,"state":"active","ping":66},{"user_id":392,"name":"Zina Tv","steam_id":76561198116530769,"connected_time":5297000000000,"state":"active","ping":90},{"user_id":439,"name":"Fish 'n' Chips","steam_id":76561198033476886,"connected_time":1022000000000,"state":"active","ping":45},{"user_id":436,"name":"♥ImWithMilk","steam_id":76561198269577569,"connected_time":1294000000000,"state":"active","ping":47},{"user_id":442,"name":"God's Silliest Little Jester","steam_id":76561197987168654,"connected_time":914000000000,"state":"active","ping":59},{"user_id":399,"name":"H-say","steam_id":76561198177400362,"connected_time":4217000000000,"state":"active","ping":96}]},{"server_id":321,"name":"Uncletopia | London | 4 | All Maps","name_short":"lon-4","host":"lon-1.uk.uncletopia.com","port":27045,"enabled":true,"region":"eu","cc":"gb","latitude":51.509865,"longitude":-0.118092,"reserved":0,"last_update":"0001-01-01T00:00:00Z","name_a2s":"Uncletopia | London | 4 | All Maps","protocol":17,"map":"pl_barnblitz","folder":"tf","game":"Team Fortress","app_id":440,"player_count":24,"max_players":24,"Bots":0,"server_type":"Dedicated","server_os":"Linux","password":true,"vac":true,"version":"7932396","steam_id":85568392924510193,"keywords":["nocrits","nodmgspread","payload","uncletopia"],"game_id":440,"stv_port":27046,"stv_name":"Uncletopia | London | 4 | All Maps | STV","players":[{"user_id":440,"name":"Mike","steam_id":76561198228455736,"connected_time":746000000000,"state":"active","ping":48},{"user_id":431,"name":"Thing","steam_id":76561197997904403,"connected_time":1738000000000,"state":"active","ping":99},{"user_id":444,"name":"Mr Gnash","steam_id":76561198007410990,"connected_time":523000000000,"state":"active","ping":67},{"user_id":441,"name":"idenburg","steam_id":76561198063574956,"connected_time":678000000000,"state":"active","ping":52},{"user_id":450,"name":"Dane_","steam_id":76561198088448077,"connected_time":98000000000,"state":"active","ping":53},{"user_id":424,"name":"raehik","steam_id":76561198025278149,"connected_time":2082000000000,"state":"active","ping":46},{"user_id":425,"name":"cansado","steam_id":76561198003898089,"connected_time":2028000000000,"state":"active","ping":73},{"user_id":434,"name":"thorius","steam_id":76561199456078522,"connected_time":1719000000000,"state":"active","ping":60},{"user_id":452,"name":"Famous Collector","steam_id":76561198097693666,"connected_time":82000000000,"state":"active","ping":45},{"user_id":443,"name":"calum92","steam_id":76561197992188760,"connected_time":570000000000,"state":"active","ping":66},{"user_id":358,"name":"Doctor Marijuana","steam_id":76561198288289879,"connected_time":6669000000000,"state":"active","ping":49},{"user_id":438,"name":"KUWOJ03","steam_id":76561198058398266,"connected_time":823000000000,"state":"active","ping":80},{"user_id":418,"name":"Nassu","steam_id":76561198147367577,"connected_time":2373000000000,"state":"active","ping":168},{"user_id":429,"name":"Web","steam_id":76561198187663954,"connected_time":1862000000000,"state":"active","ping":42},{"user_id":430,"name":"LIGHTWEIGHT BABY","steam_id":76561198002761980,"connected_time":1770000000000,"state":"active","ping":54},{"user_id":453,"name":"plateterminator","steam_id":76561199379730185,"connected_time":70000000000,"state":"active","ping":73},{"user_id":442,"name":"[PKBG] Pipera","steam_id":76561197998280567,"connected_time":616000000000,"state":"active","ping":55},{"user_id":432,"name":"AestheticalZ","steam_id":76561198269554197,"connected_time":1737000000000,"state":"active","ping":56},{"user_id":447,"name":"p1","steam_id":76561198125266153,"connected_time":401000000000,"state":"active","ping":86},{"user_id":454,"name":"✎ Spicy","steam_id":76561198313533067,"connected_time":66000000000,"state":"active","ping":155},{"user_id":448,"name":"Gnaisse","steam_id":76561198010560642,"connected_time":126000000000,"state":"active","ping":75},{"user_id":422,"name":"Faustino","steam_id":76561198061771785,"connected_time":2171000000000,"state":"active","ping":81},{"user_id":455,"name":"Gilly","steam_id":76561198041995636,"connected_time":50000000000,"state":"active","ping":38},{"user_id":446,"name":"jt7","steam_id":76561198073655162,"connected_time":507000000000,"state":"active","ping":72}]},{"server_id":21,"name":"Uncletopia | London | 5 | All Maps","name_short":"lon-5","host":"lon-1.uk.uncletopia.com","port":27055,"enabled":true,"region":"eu","cc":"gb","latitude":51.509865,"longitude":-0.118092,"reserved":0,"last_update":"0001-01-01T00:00:00Z","name_a2s":"Uncletopia | London | 5 | All Maps","protocol":17,"map":"pl_pier","folder":"tf","game":"Team Fortress","app_id":440,"player_count":24,"max_players":24,"Bots":0,"server_type":"Dedicated","server_os":"Linux","password":true,"vac":true,"version":"7932396","steam_id":85568392924742829,"keywords":["nocrits","nodmgspread","payload","uncletopia"],"game_id":440,"stv_port":27056,"stv_name":"Uncletopia | London | 5 | All Maps | STV","players":[{"user_id":568,"name":"Space Rimmer","steam_id":76561198069243201,"connected_time":1257000000000,"state":"active","ping":50},{"user_id":551,"name":"YOU DON'T SHOOT ON DEMO","steam_id":76561198798803845,"connected_time":2337000000000,"state":"active","ping":47},{"user_id":552,"name":"Urfangonultasadana","steam_id":76561199389286151,"connected_time":2333000000000,"state":"active","ping":116},{"user_id":564,"name":"Uber","steam_id":76561198036528206,"connected_time":1398000000000,"state":"active","ping":83},{"user_id":555,"name":"MR ASSMAN","steam_id":76561198206227241,"connected_time":2292000000000,"state":"active","ping":59},{"user_id":548,"name":"BloodFuel","steam_id":76561198146340825,"connected_time":3120000000000,"state":"active","ping":104},{"user_id":521,"name":"Starach","steam_id":76561198084530972,"connected_time":5221000000000,"state":"active","ping":45},{"user_id":572,"name":"JackDegle","steam_id":76561198427027677,"connected_time":920000000000,"state":"active","ping":77},{"user_id":576,"name":"jmash","steam_id":76561198076787032,"connected_time":728000000000,"state":"active","ping":48},{"user_id":516,"name":"Kekeke","steam_id":76561198063672270,"connected_time":5329000000000,"state":"active","ping":97},{"user_id":517,"name":"el gato","steam_id":76561199380849468,"connected_time":5303000000000,"state":"active","ping":60},{"user_id":565,"name":"frosty","steam_id":76561198094560834,"connected_time":1344000000000,"state":"active","ping":52},{"user_id":573,"name":"Bobirulez","steam_id":76561198009125458,"connected_time":918000000000,"state":"active","ping":74},{"user_id":494,"name":"n//?!bu","steam_id":76561198307037169,"connected_time":7376000000000,"state":"active","ping":58},{"user_id":560,"name":"Olaf Gasbrigi","steam_id":76561198000618491,"connected_time":1623000000000,"state":"active","ping":69},{"user_id":496,"name":"yaaayayyay","steam_id":76561198088624259,"connected_time":7362000000000,"state":"active","ping":60},{"user_id":577,"name":"Pestdoktor","steam_id":76561198058159271,"connected_time":303000000000,"state":"active","ping":100},{"user_id":562,"name":"meistjr","steam_id":76561198077240093,"connected_time":1578000000000,"state":"active","ping":57},{"user_id":498,"name":"HOT WINDS BLOWING","steam_id":76561198090146457,"connected_time":7352000000000,"state":"active","ping":42},{"user_id":574,"name":"Aeglos","steam_id":76561198248698294,"connected_time":911000000000,"state":"active","ping":68},{"user_id":569,"name":"Lorelei","steam_id":76561198056341754,"connected_time":1212000000000,"state":"active","ping":44},{"user_id":570,"name":"Grimlock","steam_id":76561198087751260,"connected_time":1164000000000,"state":"active","ping":75},{"user_id":578,"name":"Grillem Dafoe","steam_id":76561198306874574,"connected_time":219000000000,"state":"active","ping":72},{"user_id":575,"name":"Burbie","steam_id":76561198046069449,"connected_time":900000000000,"state":"active","ping":57}]},{"server_id":22,"name":"Uncletopia | London | 6 | All Maps","name_short":"lon-6","host":"lon-1.uk.uncletopia.com","port":27065,"enabled":true,"region":"eu","cc":"gb","latitude":51.509865,"longitude":-0.118092,"reserved":0,"last_update":"0001-01-01T00:00:00Z","name_a2s":"Uncletopia | London | 6 | All Maps","protocol":17,"map":"pl_frontier_final","folder":"tf","game":"Team Fortress","app_id":440,"player_count":24,"max_players":24,"Bots":0,"server_type":"Dedicated","server_os":"Linux","password":true,"vac":true,"version":"7932396","steam_id":85568392924742830,"keywords":["nocrits","nodmgspread","payload","uncletopia"],"game_id":440,"stv_port":27066,"stv_name":"Uncletopia | London | 6 | All Maps | STV","players":[{"user_id":146,"name":"TheEventGuy","steam_id":76561197972797744,"connected_time":1969000000000,"state":"active","ping":74},{"user_id":147,"name":"cherry❤","steam_id":76561198346851670,"connected_time":1882000000000,"state":"active","ping":69},{"user_id":148,"name":"bubbleTea","steam_id":76561199487938189,"connected_time":1825000000000,"state":"active","ping":70},{"user_id":78,"name":"LiterallyRyanGosling","steam_id":76561199017856691,"connected_time":6368000000000,"state":"active","ping":56},{"user_id":134,"name":"Twin Ih","steam_id":76561198159968450,"connected_time":2989000000000,"state":"active","ping":103},{"user_id":79,"name":"DelaNo","steam_id":76561199125086655,"connected_time":6360000000000,"state":"active","ping":41},{"user_id":98,"name":"nobodyy","steam_id":76561198027735766,"connected_time":5337000000000,"state":"active","ping":74},{"user_id":143,"name":"W","steam_id":76561198273623211,"connected_time":2804000000000,"state":"active","ping":87},{"user_id":157,"name":"Pyrotechnist","steam_id":76561198014709230,"connected_time":794000000000,"state":"active","ping":86},{"user_id":159,"name":"travis","steam_id":76561198138119811,"connected_time":435000000000,"state":"active","ping":45},{"user_id":158,"name":"hm.","steam_id":76561198969286813,"connected_time":468000000000,"state":"active","ping":74},{"user_id":160,"name":"BELADIT","steam_id":76561198011911501,"connected_time":416000000000,"state":"active","ping":78},{"user_id":156,"name":"Virgil","steam_id":76561198248786778,"connected_time":811000000000,"state":"active","ping":116},{"user_id":149,"name":"Doggo225","steam_id":76561198166707002,"connected_time":1804000000000,"state":"active","ping":43},{"user_id":165,"name":"Tiberius Bingleton","steam_id":76561198855873744,"connected_time":222000000000,"state":"active","ping":52},{"user_id":106,"name":"pad6z23h8s","steam_id":76561198880756741,"connected_time":4630000000000,"state":"active","ping":87},{"user_id":112,"name":"Teacup","steam_id":76561198190654091,"connected_time":4210000000000,"state":"active","ping":49},{"user_id":166,"name":"ff:ff:ff:ff:ff:ff","steam_id":76561198072122983,"connected_time":173000000000,"state":"active","ping":77},{"user_id":151,"name":"SolarLight","steam_id":76561198070962612,"connected_time":1785000000000,"state":"active","ping":45},{"user_id":118,"name":"C.H.E.R.E.P.","steam_id":76561198026938595,"connected_time":3788000000000,"state":"active","ping":90},{"user_id":58,"name":"sarii ☆","steam_id":76561199155102111,"connected_time":7795000000000,"state":"active","ping":78},{"user_id":164,"name":"Max Power","steam_id":76561198019269089,"connected_time":259000000000,"state":"active","ping":59},{"user_id":57,"name":"Finn","steam_id":76561198179960193,"connected_time":8060000000000,"state":"active","ping":32},{"user_id":167,"name":"ArmedWithWings","steam_id":76561198154615474,"connected_time":132000000000,"state":"active","ping":88}]},{"server_id":40,"name":"Uncletopia | London | 7 | No Payload","name_short":"lon-7","host":"lon-1.uk.uncletopia.com","port":27075,"enabled":true,"region":"eu","cc":"gb","latitude":51.509865,"longitude":-0.118092,"reserved":0,"last_update":"0001-01-01T00:00:00Z","name_a2s":"Uncletopia | London | 7 | No Payload","protocol":17,"map":"koth_suijin","folder":"tf","game":"Team Fortress","app_id":440,"player_count":22,"max_players":24,"Bots":0,"server_type":"Dedicated","server_os":"Linux","password":true,"vac":true,"version":"7932396","steam_id":85568392924964314,"keywords":["cp","nocrits","nodmgspread","uncletopia"],"game_id":440,"stv_port":27076,"stv_name":"Uncletopia | London | 7 | No Payload | STV","players":[{"user_id":181,"name":"perry the platypus","steam_id":76561199379159771,"connected_time":660000000000,"state":"active","ping":142},{"user_id":182,"name":"Awesome Style Gaming","steam_id":76561198311537713,"connected_time":481000000000,"state":"active","ping":138},{"user_id":174,"name":"Sputnik","steam_id":76561198138660241,"connected_time":1021000000000,"state":"active","ping":55},{"user_id":141,"name":"eevee","steam_id":76561198447072392,"connected_time":3849000000000,"state":"active","ping":86},{"user_id":124,"name":"meow (they/them)","steam_id":76561198416657815,"connected_time":6238000000000,"state":"active","ping":81},{"user_id":183,"name":"Rodgedan","steam_id":76561198226236524,"connected_time":267000000000,"state":"active","ping":145},{"user_id":142,"name":"veto vuyisio","steam_id":76561199101145470,"connected_time":3845000000000,"state":"active","ping":73},{"user_id":164,"name":"Sippie","steam_id":76561198130393388,"connected_time":1900000000000,"state":"active","ping":67},{"user_id":186,"name":"Pvt. Prinny","steam_id":76561198030278562,"connected_time":12000000000,"state":"spawning","ping":44},{"user_id":165,"name":"Colingaffney","steam_id":76561198197984574,"connected_time":1547000000000,"state":"active","ping":64},{"user_id":166,"name":"KiT","steam_id":76561198043770371,"connected_time":1442000000000,"state":"active","ping":76},{"user_id":178,"name":"Sabour","steam_id":76561197963965445,"connected_time":892000000000,"state":"active","ping":69},{"user_id":185,"name":"R@DIO","steam_id":76561197995533046,"connected_time":148000000000,"state":"active","ping":86},{"user_id":151,"name":"jenniibee","steam_id":76561198813802277,"connected_time":3488000000000,"state":"active","ping":64},{"user_id":152,"name":"Weaponized_Battle_Toaster","steam_id":76561198285512826,"connected_time":3474000000000,"state":"active","ping":55},{"user_id":169,"name":"brique","steam_id":76561199103944229,"connected_time":1238000000000,"state":"active","ping":74},{"user_id":158,"name":"Niko","steam_id":76561198436817109,"connected_time":3084000000000,"state":"active","ping":50},{"user_id":170,"name":"alcheminty","steam_id":76561198166021485,"connected_time":1222000000000,"state":"active","ping":38},{"user_id":179,"name":"CouT1nho","steam_id":76561198203926376,"connected_time":823000000000,"state":"active","ping":39},{"user_id":172,"name":"Lazisaurus","steam_id":76561198320344262,"connected_time":1167000000000,"state":"active","ping":40},{"user_id":173,"name":"JOJOBISH","steam_id":76561198116933540,"connected_time":1157000000000,"state":"active","ping":46},{"user_id":180,"name":"unknown","steam_id":76561198066452389,"connected_time":807000000000,"state":"active","ping":60}]},{"server_id":41,"name":"Uncletopia | London | 8 | Community","name_short":"lon-8","host":"lon-1.uk.uncletopia.com","port":27085,"enabled":true,"region":"eu","cc":"gb","latitude":51.509865,"longitude":-0.118092,"reserved":0,"last_update":"0001-01-01T00:00:00Z","name_a2s":"Uncletopia | London | 8 | Community","protocol":17,"map":"workshop/cp_sulfur_rc2.ugc619869471","folder":"tf","game":"Team Fortress","app_id":440,"player_count":0,"max_players":24,"Bots":0,"server_type":"Dedicated","server_os":"Linux","password":true,"vac":true,"version":"7932396","steam_id":85568392924964315,"keywords":["cp","nocrits","nodmgspread","uncletopia"],"game_id":440,"stv_port":27086,"stv_name":"Uncletopia | London | 8 | Community | STV","players":null},{"server_id":300,"name":"Uncletopia | Montréal | 1 | All Maps","name_short":"mtl-1","host":"mtl-1.ca.uncletopia.com","port":27015,"enabled":true,"region":"us-east","cc":"ca","latitude":45.50889,"longitude":-73.56167,"reserved":0,"last_update":"0001-01-01T00:00:00Z","name_a2s":"Uncletopia | Montréal | 1 | All Maps","protocol":17,"map":"cp_altitude","folder":"tf","game":"Team Fortress","app_id":440,"player_count":0,"max_players":24,"Bots":0,"server_type":"Dedicated","server_os":"Linux","password":true,"vac":true,"version":"7932396","steam_id":85568392924500087,"keywords":["cp","nocrits","nodmgspread","uncletopia"],"game_id":440,"stv_port":27016,"stv_name":"Uncletopia | Montréal | 1 | All Maps | STV","players":null},{"server_id":301,"name":"Uncletopia | Montréal | 2 | All Maps","name_short":"mtl-2","host":"mtl-1.ca.uncletopia.com","port":27025,"enabled":true,"region":"us-east","cc":"ca","latitude":45.50889,"longitude":-73.56167,"reserved":0,"last_update":"0001-01-01T00:00:00Z","name_a2s":"Uncletopia | Montréal | 2 | All Maps","protocol":17,"map":"pl_badwater","folder":"tf","game":"Team Fortress","app_id":440,"player_count":0,"max_players":24,"Bots":0,"server_type":"Dedicated","server_os":"Linux","password":true,"vac":true,"version":"7932396","steam_id":85568392924500088,"keywords":["nocrits","nodmgspread","payload","uncletopia"],"game_id":440,"stv_port":27026,"stv_name":"Uncletopia | Montréal | 2 | All Maps | STV","players":null},{"server_id":302,"name":"Uncletopia | Montréal | 3 | All Maps","name_short":"mtl-3","host":"mtl-1.ca.uncletopia.com","port":27035,"enabled":true,"region":"us-east","cc":"ca","latitude":45.50889,"longitude":-73.56167,"reserved":0,"last_update":"0001-01-01T00:00:00Z","name_a2s":"Uncletopia | Montréal | 3 | All Maps","protocol":17,"map":"cp_process_final","folder":"tf","game":"Team Fortress","app_id":440,"player_count":0,"max_players":24,"Bots":0,"server_type":"Dedicated","server_os":"Linux","password":true,"vac":true,"version":"7932396","steam_id":85568392924500089,"keywords":["cp","nocrits","nodmgspread","uncletopia"],"game_id":440,"stv_port":27036,"stv_name":"Uncletopia | Montréal | 3 | All Maps | STV","players":null},{"server_id":303,"name":"Uncletopia | Montréal | 4 | No Payload","name_short":"mtl-4","host":"mtl-1.ca.uncletopia.com","port":27045,"enabled":true,"region":"us-east","cc":"ca","latitude":45.50889,"longitude":-73.56167,"reserved":0,"last_update":"0001-01-01T00:00:00Z","name_a2s":"Uncletopia | Montréal | 4 | No Payload","protocol":17,"map":"cp_snakewater_final1","folder":"tf","game":"Team Fortress","app_id":440,"player_count":0,"max_players":24,"Bots":0,"server_type":"Dedicated","server_os":"Linux","password":true,"vac":true,"version":"7932396","steam_id":85568392924500090,"keywords":["cp","nocrits","nodmgspread","uncletopia"],"game_id":440,"stv_port":27046,"stv_name":"Uncletopia | Montréal | 4 | No Payload | STV","players":null},{"server_id":13,"name":"Uncletopia | New York City | 1 | All Maps","name_short":"nyc-1","host":"nyc-1.us.uncletopia.com","port":27015,"enabled":true,"region":"us-east","cc":"us","latitude":40.73061,"longitude":-73.93524,"reserved":0,"last_update":"0001-01-01T00:00:00Z","name_a2s":"Uncletopia | New York City | 1 | All Maps","protocol":17,"map":"koth_cascade","folder":"tf","game":"Team Fortress","app_id":440,"player_count":0,"max_players":24,"Bots":0,"server_type":"Dedicated","server_os":"Linux","password":true,"vac":true,"version":"7932396","steam_id":85568392924469993,"keywords":["cp","nocrits","nodmgspread","uncletopia"],"game_id":440,"stv_port":27016,"stv_name":"Uncletopia | New York City | 1 | All Maps | STV","players":null},{"server_id":14,"name":"Uncletopia | New York City | 2 | All Maps","name_short":"nyc-2","host":"nyc-1.us.uncletopia.com","port":27025,"enabled":true,"region":"us-east","cc":"us","latitude":40.73061,"longitude":-73.93524,"reserved":0,"last_update":"0001-01-01T00:00:00Z","name_a2s":"Uncletopia | New York City | 2 | All Maps","protocol":17,"map":"koth_lakeside_final","folder":"tf","game":"Team Fortress","app_id":440,"player_count":0,"max_players":24,"Bots":0,"server_type":"Dedicated","server_os":"Linux","password":true,"vac":true,"version":"7932396","steam_id":85568392924469994,"keywords":["cp","nocrits","nodmgspread","uncletopia"],"game_id":440,"stv_port":27026,"stv_name":"Uncletopia | New York City | 2 | All Maps | STV","players":null},{"server_id":15,"name":"Uncletopia | New York City | 3 | Stopwatch Beta","name_short":"nyc-3","host":"nyc-1.us.uncletopia.com","port":27035,"enabled":true,"region":"us-east","cc":"us","latitude":40.73061,"longitude":-73.93524,"reserved":0,"last_update":"0001-01-01T00:00:00Z","name_a2s":"Uncletopia | New York City | 3 | Stopwatch Beta","protocol":17,"map":"cp_sunshine","folder":"tf","game":"Team Fortress","app_id":440,"player_count":0,"max_players":24,"Bots":0,"server_type":"Dedicated","server_os":"Linux","password":true,"vac":true,"version":"7932396","steam_id":85568392924742820,"keywords":["cp","nocrits","nodmgspread","uncletopia"],"game_id":440,"stv_port":27036,"stv_name":"Uncletopia | New York City | 3 | Stopwatch Beta | STV","players":null},{"server_id":16,"name":"Uncletopia | New York City | 4 | Community","name_short":"nyc-4","host":"nyc-1.us.uncletopia.com","port":27045,"enabled":true,"region":"us-east","cc":"us","latitude":40.73061,"longitude":-73.93524,"reserved":0,"last_update":"0001-01-01T00:00:00Z","name_a2s":"Uncletopia | New York City | 4 | Community","protocol":17,"map":"workshop/cp_kalinka_rc6a.ugc1272700588","folder":"tf","game":"Team Fortress","app_id":440,"player_count":0,"max_players":24,"Bots":0,"server_type":"Dedicated","server_os":"Linux","password":true,"vac":true,"version":"7932396","steam_id":85568392924742821,"keywords":["cp","nocrits","nodmgspread","uncletopia"],"game_id":440,"stv_port":27046,"stv_name":"Uncletopia | New York City | 4 | Community | STV","players":null},{"server_id":142,"name":"Uncletopia | São Paulo | 1 | All Maps","name_short":"sao-1","host":"sao-1.br.uncletopia.com","port":27015,"enabled":true,"region":"sa","cc":"br","latitude":-23.533773,"longitude":-46.62529,"reserved":0,"last_update":"0001-01-01T00:00:00Z","name_a2s":"Uncletopia | São Paulo | 1 | All Maps","protocol":17,"map":"cp_sunshine","folder":"tf","game":"Team Fortress","app_id":440,"player_count":0,"max_players":24,"Bots":0,"server_type":"Dedicated","server_os":"Linux","password":true,"vac":true,"version":"7932396","steam_id":85568392924469996,"keywords":["cp","nocrits","nodmgspread","uncletopia"],"game_id":440,"stv_port":27016,"stv_name":"Uncletopia | São Paulo | 1 | All Maps | STV","players":null},{"server_id":143,"name":"Uncletopia | São Paulo | 2 | All Maps","name_short":"sao-2","host":"sao-2.br.uncletopia.com","port":27015,"enabled":true,"region":"sa","cc":"br","latitude":-23.533773,"longitude":-46.62529,"reserved":0,"last_update":"0001-01-01T00:00:00Z","name_a2s":"Uncletopia | São Paulo | 2 | All Maps","protocol":17,"map":"cp_altitude","folder":"tf","game":"Team Fortress","app_id":440,"player_count":0,"max_players":24,"Bots":0,"server_type":"Dedicated","server_os":"Linux","password":true,"vac":true,"version":"7932396","steam_id":85568392924485349,"keywords":["cp","nocrits","nodmgspread","uncletopia"],"game_id":440,"stv_port":27016,"stv_name":"Uncletopia | São Paulo | 2 | All Maps | STV","players":null},{"server_id":7,"name":"Uncletopia | Seattle | 1 | All Maps","name_short":"sea-1","host":"sea-1.us.uncletopia.com","port":27015,"enabled":true,"region":"us-west","cc":"us","latitude":47.608013,"longitude":-122.33517,"reserved":0,"last_update":"0001-01-01T00:00:00Z","name_a2s":"Uncletopia | Seattle | 1 | All Maps","protocol":17,"map":"pl_snowycoast","folder":"tf","game":"Team Fortress","app_id":440,"player_count":23,"max_players":24,"Bots":0,"server_type":"Dedicated","server_os":"Linux","password":true,"vac":true,"version":"7932396","steam_id":85568392924469997,"keywords":["nocrits","nodmgspread","payload","uncletopia"],"game_id":440,"stv_port":27016,"stv_name":"Uncletopia | Seattle | 1 | All Maps | STV","players":[{"user_id":391,"name":"chunkysquare","steam_id":76561199076468383,"connected_time":6946000000000,"state":"active","ping":97},{"user_id":443,"name":"Zing","steam_id":76561198042716725,"connected_time":2883000000000,"state":"active","ping":98},{"user_id":451,"name":"Cardboardcoin","steam_id":76561199421284163,"connected_time":2247000000000,"state":"active","ping":80},{"user_id":398,"name":"Toaster","steam_id":76561198039891934,"connected_time":6357000000000,"state":"active","ping":76},{"user_id":442,"name":"evilOlive","steam_id":76561198106222025,"connected_time":2920000000000,"state":"active","ping":89},{"user_id":436,"name":"Andalite Warrior","steam_id":76561198057999536,"connected_time":3558000000000,"state":"active","ping":30},{"user_id":465,"name":"Daz","steam_id":76561198041431938,"connected_time":524000000000,"state":"active","ping":51},{"user_id":461,"name":"dust | she/it","steam_id":76561198045218909,"connected_time":1126000000000,"state":"active","ping":43},{"user_id":394,"name":"SHADOW (he/him)","steam_id":76561198207768148,"connected_time":6419000000000,"state":"active","ping":106},{"user_id":456,"name":"Funbearable ʕ •ᴥ•ʔ","steam_id":76561197968272094,"connected_time":1374000000000,"state":"active","ping":46},{"user_id":457,"name":"NEBULA","steam_id":76561198086878595,"connected_time":1324000000000,"state":"active","ping":105},{"user_id":388,"name":"MacchuPeachu","steam_id":76561199093242587,"connected_time":7282000000000,"state":"active","ping":69},{"user_id":455,"name":"tree","steam_id":76561198025773277,"connected_time":1909000000000,"state":"active","ping":102},{"user_id":466,"name":"Coowil","steam_id":76561198070985437,"connected_time":398000000000,"state":"active","ping":45},{"user_id":467,"name":"YourFriendJessie #savetf2","steam_id":76561198176883097,"connected_time":34000000000,"state":"active","ping":111},{"user_id":458,"name":"mega","steam_id":76561198089520959,"connected_time":1319000000000,"state":"active","ping":100},{"user_id":431,"name":"..flop","steam_id":76561197989058876,"connected_time":4390000000000,"state":"active","ping":88},{"user_id":415,"name":"all pain no gain","steam_id":76561199468119975,"connected_time":4948000000000,"state":"active","ping":46},{"user_id":459,"name":"!mute","steam_id":76561198219209367,"connected_time":1305000000000,"state":"active","ping":55},{"user_id":462,"name":"Geobeetle","steam_id":76561198207400124,"connected_time":866000000000,"state":"active","ping":61},{"user_id":463,"name":"Mitchell","steam_id":76561197972922328,"connected_time":866000000000,"state":"active","ping":116},{"user_id":439,"name":"Moon_Man","steam_id":76561199028500370,"connected_time":3309000000000,"state":"active","ping":40},{"user_id":450,"name":"superbad","steam_id":76561198065913973,"connected_time":2272000000000,"state":"active","ping":68}]},{"server_id":119,"name":"Uncletopia | Seattle | 2 | All Maps","name_short":"sea-2","host":"sea-1.us.uncletopia.com","port":27025,"enabled":true,"region":"us-west","cc":"us","latitude":47.608013,"longitude":-122.33517,"reserved":0,"last_update":"0001-01-01T00:00:00Z","name_a2s":"Uncletopia | Seattle | 2 | All Maps","protocol":17,"map":"cp_granary","folder":"tf","game":"Team Fortress","app_id":440,"player_count":24,"max_players":24,"Bots":0,"server_type":"Dedicated","server_os":"Linux","password":true,"vac":true,"version":"7932396","steam_id":85568392924469998,"keywords":["cp","nocrits","nodmgspread","uncletopia"],"game_id":440,"stv_port":27026,"stv_name":"Uncletopia | Seattle | 2 | All Maps | STV","players":[{"user_id":91,"name":"fox news goblin","steam_id":76561198167648580,"connected_time":13682000000000,"state":"active","ping":75},{"user_id":266,"name":"please play 5cp","steam_id":76561198020322241,"connected_time":2771000000000,"state":"active","ping":53},{"user_id":276,"name":"Lord Saddla","steam_id":76561199127423378,"connected_time":1605000000000,"state":"active","ping":83},{"user_id":257,"name":"RedCo","steam_id":76561198335366889,"connected_time":3558000000000,"state":"active","ping":105},{"user_id":271,"name":"¿soup?","steam_id":76561198121042852,"connected_time":1746000000000,"state":"active","ping":54},{"user_id":248,"name":"Meet The Kazoo","steam_id":76561199229748300,"connected_time":3877000000000,"state":"active","ping":104},{"user_id":282,"name":"oz","steam_id":76561198176547317,"connected_time":595000000000,"state":"active","ping":49},{"user_id":253,"name":"RysN Yeen ♥","steam_id":76561198105359319,"connected_time":3650000000000,"state":"active","ping":75},{"user_id":284,"name":"StrayGuitarist","steam_id":76561198091315714,"connected_time":266000000000,"state":"active","ping":161},{"user_id":285,"name":"Rock under the sun","steam_id":76561198881093314,"connected_time":259000000000,"state":"active","ping":61},{"user_id":279,"name":"TYPICAL-HUMAN","steam_id":76561198060914982,"connected_time":981000000000,"state":"active","ping":115},{"user_id":182,"name":"[TTV]slendermansmoom","steam_id":76561199053946374,"connected_time":7893000000000,"state":"active","ping":64},{"user_id":244,"name":"tiredfisherman69","steam_id":76561199228963816,"connected_time":4435000000000,"state":"active","ping":119},{"user_id":286,"name":"Grandpa 1MinecraftEmpire","steam_id":76561198069046338,"connected_time":242000000000,"state":"active","ping":49},{"user_id":274,"name":"Epifiny","steam_id":76561198027958086,"connected_time":1696000000000,"state":"active","ping":124},{"user_id":281,"name":"Rude Boi","steam_id":76561198377201388,"connected_time":646000000000,"state":"active","ping":70},{"user_id":287,"name":"That wasn't milk","steam_id":76561198155294045,"connected_time":235000000000,"state":"active","ping":65},{"user_id":265,"name":"Impadop","steam_id":76561198964240347,"connected_time":2845000000000,"state":"active","ping":98},{"user_id":283,"name":"Sgt Autmn","steam_id":76561198072047939,"connected_time":328000000000,"state":"active","ping":45},{"user_id":252,"name":"Cresty","steam_id":76561199118643461,"connected_time":3699000000000,"state":"active","ping":67},{"user_id":288,"name":"FireQuiz","steam_id":76561198107357249,"connected_time":223000000000,"state":"active","ping":69},{"user_id":289,"name":"the mug maniac","steam_id":76561198389268114,"connected_time":173000000000,"state":"active","ping":130},{"user_id":290,"name":"sk","steam_id":76561198133360797,"connected_time":168000000000,"state":"active","ping":105},{"user_id":280,"name":"Admiral Catradora","steam_id":76561198017271944,"connected_time":688000000000,"state":"active","ping":127}]},{"server_id":406,"name":"Uncletopia | Seattle | 3 | Stopwatch Beta","name_short":"sea-3","host":"sea-1.us.uncletopia.com","port":27035,"enabled":true,"region":"us-west","cc":"us","latitude":47.608013,"longitude":-122.33517,"reserved":0,"last_update":"0001-01-01T00:00:00Z","name_a2s":"Uncletopia | Seattle | 3 | Stopwatch Beta","protocol":17,"map":"pl_borneo","folder":"tf","game":"Team Fortress","app_id":440,"player_count":0,"max_players":24,"Bots":0,"server_type":"Dedicated","server_os":"Linux","password":true,"vac":true,"version":"7932396","steam_id":85568392924515217,"keywords":["nocrits","nodmgspread","payload","uncletopia"],"game_id":440,"stv_port":27036,"stv_name":"Uncletopia | Seattle | 3 | Stopwatch Beta | STV","players":null},{"server_id":17,"name":"Uncletopia | San Francisco | 1 | All Maps","name_short":"sfo-1","host":"sfo-1.us.uncletopia.com","port":27015,"enabled":true,"region":"us-west","cc":"us","latitude":37.77397,"longitude":-122.4313,"reserved":0,"last_update":"0001-01-01T00:00:00Z","name_a2s":"Uncletopia | San Francisco | 1 | All Maps","protocol":17,"map":"pl_frontier_final","folder":"tf","game":"Team Fortress","app_id":440,"player_count":23,"max_players":24,"Bots":0,"server_type":"Dedicated","server_os":"Linux","password":true,"vac":true,"version":"7932396","steam_id":85568392924469999,"keywords":["nocrits","nodmgspread","payload","uncletopia"],"game_id":440,"stv_port":27016,"stv_name":"Uncletopia | San Francisco | 1 | All Maps | STV","players":[{"user_id":96,"name":"FellowCum","steam_id":76561198809618726,"connected_time":298000000000,"state":"active","ping":60},{"user_id":90,"name":"Vordt","steam_id":76561198040942866,"connected_time":552000000000,"state":"active","ping":99},{"user_id":80,"name":"Mike","steam_id":76561198122500429,"connected_time":1642000000000,"state":"active","ping":115},{"user_id":74,"name":"lilixdust","steam_id":76561199391478575,"connected_time":2260000000000,"state":"active","ping":81},{"user_id":63,"name":"mrthugpug1732","steam_id":76561198881200768,"connected_time":2802000000000,"state":"active","ping":68},{"user_id":47,"name":"Fluffy","steam_id":76561198213561811,"connected_time":4005000000000,"state":"active","ping":39},{"user_id":102,"name":"gunboats lol","steam_id":76561198046526036,"connected_time":9000000000,"state":"active","ping":237},{"user_id":34,"name":"Huntsman Sniper","steam_id":76561198204055701,"connected_time":4514000000000,"state":"active","ping":58},{"user_id":83,"name":"ZAKALAKASPALDO","steam_id":76561198116675189,"connected_time":1500000000000,"state":"active","ping":105},{"user_id":89,"name":"bingus","steam_id":76561199198633203,"connected_time":587000000000,"state":"active","ping":88},{"user_id":35,"name":"Sleempreem","steam_id":76561198131987251,"connected_time":4430000000000,"state":"active","ping":47},{"user_id":42,"name":"Giorno Giovanna","steam_id":76561198044106874,"connected_time":4170000000000,"state":"active","ping":81},{"user_id":84,"name":"rxqueen","steam_id":76561198049258493,"connected_time":1232000000000,"state":"active","ping":66},{"user_id":91,"name":"Funky Kong Jr.","steam_id":76561199351137762,"connected_time":550000000000,"state":"active","ping":70},{"user_id":92,"name":"Big Boobs","steam_id":76561198401455467,"connected_time":484000000000,"state":"active","ping":58},{"user_id":93,"name":"EpicBatCow","steam_id":76561198121828925,"connected_time":467000000000,"state":"active","ping":69},{"user_id":99,"name":"Papillon","steam_id":76561198049725849,"connected_time":111000000000,"state":"active","ping":118},{"user_id":60,"name":"10HourNaps","steam_id":76561199082304859,"connected_time":3100000000000,"state":"active","ping":80},{"user_id":100,"name":"SpectreBurn","steam_id":76561198163300780,"connected_time":104000000000,"state":"active","ping":109},{"user_id":95,"name":"Irase","steam_id":76561198065354440,"connected_time":392000000000,"state":"active","ping":59},{"user_id":79,"name":"Cambonieboo","steam_id":76561198139174433,"connected_time":1780000000000,"state":"active","ping":61},{"user_id":72,"name":"Interrobang","steam_id":76561198385044529,"connected_time":2427000000000,"state":"active","ping":102},{"user_id":69,"name":"Thunderchief","steam_id":76561198022802780,"connected_time":2644000000000,"state":"active","ping":77}]},{"server_id":18,"name":"Uncletopia | San Francisco | 2 | All Maps","name_short":"sfo-2","host":"sfo-1.us.uncletopia.com","port":27025,"enabled":true,"region":"us-west","cc":"us","latitude":37.77397,"longitude":-122.4313,"reserved":0,"last_update":"0001-01-01T00:00:00Z","name_a2s":"Uncletopia | San Francisco | 2 | All Maps","protocol":17,"map":"koth_highpass","folder":"tf","game":"Team Fortress","app_id":440,"player_count":0,"max_players":24,"Bots":0,"server_type":"Dedicated","server_os":"Linux","password":true,"vac":true,"version":"7932396","steam_id":85568392924470000,"keywords":["cp","nocrits","nodmgspread","uncletopia"],"game_id":440,"stv_port":27026,"stv_name":"Uncletopia | San Francisco | 2 | All Maps | STV","players":null},{"server_id":19,"name":"Uncletopia | San Francisco | 3 | Stopwatch Beta","name_short":"sfo-3","host":"sfo-1.us.uncletopia.com","port":27035,"enabled":true,"region":"us-west","cc":"us","latitude":37.77397,"longitude":-122.4313,"reserved":0,"last_update":"0001-01-01T00:00:00Z","name_a2s":"Uncletopia | San Francisco | 3 | Stopwatch Beta","protocol":17,"map":"workshop/koth_product_final.ugc454272353","folder":"tf","game":"Team Fortress","app_id":440,"player_count":0,"max_players":24,"Bots":0,"server_type":"Dedicated","server_os":"Linux","password":true,"vac":true,"version":"7932396","steam_id":85568392924742824,"keywords":["cp","nocrits","nodmgspread","uncletopia"],"game_id":440,"stv_port":27036,"stv_name":"Uncletopia | San Francisco | 3 | Stopwatch Beta | STV","players":null},{"server_id":20,"name":"Uncletopia | San Francisco | 4 | Community","name_short":"sfo-4","host":"sfo-1.us.uncletopia.com","port":27045,"enabled":true,"region":"us-west","cc":"us","latitude":37.77397,"longitude":-122.4313,"reserved":0,"last_update":"0001-01-01T00:00:00Z","name_a2s":"Uncletopia | San Francisco | 4 | Community","protocol":17,"map":"workshop/koth_kemptown_rc1.ugc767410655","folder":"tf","game":"Team Fortress","app_id":440,"player_count":0,"max_players":24,"Bots":0,"server_type":"Dedicated","server_os":"Linux","password":true,"vac":true,"version":"7932396","steam_id":85568392924742826,"keywords":["cp","nocrits","nodmgspread","uncletopia"],"game_id":440,"stv_port":27046,"stv_name":"Uncletopia | San Francisco | 4 | Community | STV","players":null},{"server_id":141,"name":"Uncletopia | Sydney | 1 | All Maps","name_short":"syd-1","host":"syd-1.au.uncletopia.com","port":27015,"enabled":true,"region":"au","cc":"au","latitude":-33.865143,"longitude":151.2099,"reserved":0,"last_update":"0001-01-01T00:00:00Z","name_a2s":"Uncletopia | Sydney | 1 | All Maps","protocol":17,"map":"pl_pier","folder":"tf","game":"Team Fortress","app_id":440,"player_count":0,"max_players":24,"Bots":0,"server_type":"Dedicated","server_os":"Linux","password":true,"vac":true,"version":"7932396","steam_id":85568392924470001,"keywords":["nocrits","nodmgspread","payload","uncletopia"],"game_id":440,"stv_port":27016,"stv_name":"Uncletopia | Sydney | 1 | All Maps | STV","players":null},{"server_id":123,"name":"Uncletopia | Sydney | 2 | All Maps","name_short":"syd-2","host":"syd-1.au.uncletopia.com","port":27025,"enabled":true,"region":"au","cc":"au","latitude":-33.865143,"longitude":151.2099,"reserved":0,"last_update":"0001-01-01T00:00:00Z","name_a2s":"Uncletopia | Sydney | 2 | All Maps","protocol":17,"map":"koth_lakeside_final","folder":"tf","game":"Team Fortress","app_id":440,"player_count":0,"max_players":24,"Bots":0,"server_type":"Dedicated","server_os":"Linux","password":true,"vac":true,"version":"7932396","steam_id":85568392924470002,"keywords":["cp","nocrits","nodmgspread","uncletopia"],"game_id":440,"stv_port":27026,"stv_name":"Uncletopia | Sydney | 2 | All Maps | STV","players":null},{"server_id":395,"name":"Uncletopia | Sydney | 3 | All Maps","name_short":"syd-3","host":"syd-1.au.uncletopia.com","port":27035,"enabled":true,"region":"au","cc":"au","latitude":-33.865143,"longitude":151.2099,"reserved":0,"last_update":"0001-01-01T00:00:00Z","name_a2s":"Uncletopia | Sydney | 3 | All Maps","protocol":17,"map":"pl_barnblitz","folder":"tf","game":"Team Fortress","app_id":440,"player_count":0,"max_players":24,"Bots":0,"server_type":"Dedicated","server_os":"Linux","password":true,"vac":true,"version":"7932396","steam_id":85568392925194467,"keywords":["nocrits","nodmgspread","payload","uncletopia"],"game_id":440,"stv_port":27036,"stv_name":"Uncletopia | Sydney | 3 | All Maps | STV","players":null},{"server_id":396,"name":"Uncletopia | Sydney | 4 | All Maps","name_short":"syd-4","host":"syd-1.au.uncletopia.com","port":27045,"enabled":true,"region":"au","cc":"au","latitude":-33.865143,"longitude":151.2099,"reserved":0,"last_update":"0001-01-01T00:00:00Z","name_a2s":"Uncletopia | Sydney | 4 | All Maps","protocol":17,"map":"pl_pier","folder":"tf","game":"Team Fortress","app_id":440,"player_count":0,"max_players":24,"Bots":0,"server_type":"Dedicated","server_os":"Linux","password":true,"vac":true,"version":"7932396","steam_id":85568392925397958,"keywords":["nocrits","nodmgspread","payload","uncletopia"],"game_id":440,"stv_port":27046,"stv_name":"Uncletopia | Sydney | 4 | All Maps | STV","players":null},{"server_id":58,"name":"Uncletopia | Sydney | 5 | Stopwatch Beta","name_short":"syd-5","host":"syd-1.au.uncletopia.com","port":27055,"enabled":true,"region":"au","cc":"au","latitude":-33.865143,"longitude":151.2099,"reserved":0,"last_update":"0001-01-01T00:00:00Z","name_a2s":"Uncletopia | Sydney | 5 | Stopwatch Beta","protocol":17,"map":"pl_borneo","folder":"tf","game":"Team Fortress","app_id":440,"player_count":0,"max_players":24,"Bots":0,"server_type":"Dedicated","server_os":"Linux","password":true,"vac":true,"version":"7932396","steam_id":85568392925397959,"keywords":["nocrits","nodmgspread","payload","uncletopia"],"game_id":440,"stv_port":27056,"stv_name":"Uncletopia | Sydney | 5 | Stopwatch Beta | STV","players":null},{"server_id":59,"name":"Uncletopia | Sydney | 6 | Community","name_short":"syd-6","host":"syd-1.au.uncletopia.com","port":27065,"enabled":true,"region":"au","cc":"au","latitude":-33.865143,"longitude":151.2099,"reserved":0,"last_update":"0001-01-01T00:00:00Z","name_a2s":"Uncletopia | Sydney | 6 | Community","protocol":17,"map":"pl_badwater","folder":"tf","game":"Team Fortress","app_id":440,"player_count":0,"max_players":24,"Bots":0,"server_type":"Dedicated","server_os":"Linux","password":true,"vac":true,"version":"7932396","steam_id":85568392925397960,"keywords":["nocrits","nodmgspread","payload","uncletopia"],"game_id":440,"stv_port":27066,"stv_name":"Uncletopia | Sydney | 6 | Community | STV","players":null},{"server_id":49,"name":"Uncletopia | Warsaw | 1 | All Maps","name_short":"waw-1","host":"waw-1.pl.uncletopia.com","port":27015,"enabled":true,"region":"eu","cc":"pl","latitude":52.2297,"longitude":21.017532,"reserved":0,"last_update":"0001-01-01T00:00:00Z","name_a2s":"","protocol":0,"map":"","folder":"","game":"","app_id":0,"player_count":0,"max_players":0,"Bots":0,"server_type":"","server_os":"","password":false,"vac":false,"version":"","steam_id":0,"keywords":null,"game_id":0,"stv_port":0,"stv_name":"","players":null},{"server_id":50,"name":"Uncletopia | Warsaw | 2 | All Maps","name_short":"waw-2","host":"waw-1.pl.uncletopia.com","port":27025,"enabled":true,"region":"eu","cc":"pl","latitude":52.2297,"longitude":21.017532,"reserved":0,"last_update":"0001-01-01T00:00:00Z","name_a2s":"Uncletopia | Warsaw | 2 | All Maps","protocol":17,"map":"koth_highpass","folder":"tf","game":"Team Fortress","app_id":440,"player_count":0,"max_players":24,"Bots":0,"server_type":"Dedicated","server_os":"Linux","password":true,"vac":true,"version":"7932396","steam_id":85568392925397851,"keywords":["cp","nocrits","nodmgspread","uncletopia"],"game_id":440,"stv_port":27026,"stv_name":"Uncletopia | Warsaw | 2 | All Maps | STV","players":null},{"server_id":51,"name":"Uncletopia | Warsaw | 3 | All Maps","name_short":"waw-3","host":"waw-1.pl.uncletopia.com","port":27035,"enabled":true,"region":"eu","cc":"pl","latitude":52.2297,"longitude":21.017532,"reserved":0,"last_update":"0001-01-01T00:00:00Z","name_a2s":"Uncletopia | Warsaw | 3 | All Maps","protocol":17,"map":"koth_lakeside_final","folder":"tf","game":"Team Fortress","app_id":440,"player_count":0,"max_players":24,"Bots":0,"server_type":"Dedicated","server_os":"Linux","password":true,"vac":true,"version":"7932396","steam_id":85568392925397852,"keywords":["cp","nocrits","nodmgspread","uncletopia"],"game_id":440,"stv_port":27036,"stv_name":"Uncletopia | Warsaw | 3 | All Maps | STV","players":null},{"server_id":52,"name":"Uncletopia | Warsaw | 4 | All Maps","name_short":"waw-4","host":"waw-1.pl.uncletopia.com","port":27045,"enabled":true,"region":"eu","cc":"pl","latitude":52.2297,"longitude":21.017532,"reserved":0,"last_update":"0001-01-01T00:00:00Z","name_a2s":"Uncletopia | Warsaw | 4 | All Maps","protocol":17,"map":"koth_lakeside_final","folder":"tf","game":"Team Fortress","app_id":440,"player_count":0,"max_players":24,"Bots":0,"server_type":"Dedicated","server_os":"Linux","password":true,"vac":true,"version":"7932396","steam_id":85568392925397853,"keywords":["cp","nocrits","nodmgspread","uncletopia"],"game_id":440,"stv_port":27046,"stv_name":"Uncletopia | Warsaw | 4 | All Maps | STV","players":null},{"server_id":53,"name":"Uncletopia | Warsaw | 5 | Stopwatch Beta","name_short":"waw-5","host":"waw-1.pl.uncletopia.com","port":27055,"enabled":true,"region":"eu","cc":"pl","latitude":52.2297,"longitude":21.017532,"reserved":0,"last_update":"0001-01-01T00:00:00Z","name_a2s":"Uncletopia | Warsaw | 5 | Stopwatch Beta","protocol":17,"map":"workshop/koth_ramjam_rc1.ugc459778887","folder":"tf","game":"Team Fortress","app_id":440,"player_count":0,"max_players":24,"Bots":0,"server_type":"Dedicated","server_os":"Linux","password":true,"vac":true,"version":"7932396","steam_id":85568392925397854,"keywords":["cp","nocrits","nodmgspread","uncletopia"],"game_id":440,"stv_port":27056,"stv_name":"Uncletopia | Warsaw | 5 | Stopwatch Beta | STV","players":null},{"server_id":54,"name":"Uncletopia | Warsaw | 6 | Community","name_short":"waw-6","host":"waw-1.pl.uncletopia.com","port":27065,"enabled":true,"region":"eu","cc":"pl","latitude":52.2297,"longitude":21.017532,"reserved":0,"last_update":"0001-01-01T00:00:00Z","name_a2s":"Uncletopia | Warsaw | 6 | Community","protocol":17,"map":"workshop/koth_product_final.ugc454272353","folder":"tf","game":"Team Fortress","app_id":440,"player_count":1,"max_players":24,"Bots":0,"server_type":"Dedicated","server_os":"Linux","password":true,"vac":true,"version":"7932396","steam_id":85568392925397856,"keywords":["cp","nocrits","nodmgspread","uncletopia"],"game_id":440,"stv_port":27066,"stv_name":"Uncletopia | Warsaw | 6 | Community | STV","players":[{"user_id":5,"name":"Xenowolfraptor","steam_id":76561199085273567,"connected_time":593000000000,"state":"active","ping":101}]}]}