{"status":true,"message":"","result":[{"server_id":2,"name":"Uncletopia | Chicago | 1 | All Maps","name_short":"chi-1","host":"chi-1.us.uncletopia.com","port":27015,"enabled":true,"region":"us-central","cc":"us","latitude":41.881832,"longitude":-87.62318,"reserved":0,"last_update":"0001-01-01T00:00:00Z","name_a2s":"Uncletopia | Chicago | 1 | All Maps","protocol":17,"map":"pl_pier","folder":"tf","game":"Team Fortress","app_id":440,"player_count":24,"max_players":24,"Bots":0,"server_type":"Dedicated","server_os":"Linux","password":true,"vac":true,"version":"7932396","steam_id":85568392924469984,"keywords":["nocrits","nodmgspread","payload","uncletopia"],"game_id":440,"stv_port":27016,"stv_name":"Uncletopia | Chicago | 1 | All Maps | STV","players":[{"user_id":796,"name":"Man Time","steam_id":76561198151147218,"connected_time":1698000000000,"state":"active","ping":79},{"user_id":801,"name":"Snom","steam_id":76561198333827920,"connected_time":723000000000,"state":"active","ping":99},{"user_id":747,"name":"Zoot","steam_id":76561198121944243,"connected_time":7312000000000,"state":"active","ping":76},{"user_id":809,"name":"BigNugs","steam_id":76561198056402610,"connected_time":421000000000,"state":"active","ping":68},{"user_id":810,"name":"Seller of Waffles","steam_id":76561198296018138,"connected_time":403000000000,"state":"active","ping":55},{"user_id":813,"name":"Saucy Boy","steam_id":76561198178332031,"connected_time":54000000000,"state":"active","ping":70},{"user_id":803,"name":"Zippy","steam_id":76561198279229422,"connected_time":713000000000,"state":"active","ping":58},{"user_id":782,"name":"blob","steam_id":76561198122375328,"connected_time":4546000000000,"state":"active","ping":56},{"user_id":793,"name":"KFC Rat","steam_id":76561198135128086,"connected_time":2275000000000,"state":"active","ping":107},{"user_id":794,"name":"Six Piece Chicken McNobody","steam_id":76561198129848222,"connected_time":2272000000000,"state":"active","ping":65},{"user_id":778,"name":"t","steam_id":76561198175988929,"connected_time":4611000000000,"state":"active","ping":78},{"user_id":800,"name":"Milkmur","steam_id":76561198210043821,"connected_time":1290000000000,"state":"active","ping":70},{"user_id":797,"name":"vivid but the bad","steam_id":76561198296879897,"connected_time":1640000000000,"state":"active","ping":75},{"user_id":805,"name":"Popedesu","steam_id":76561198064206331,"connected_time":672000000000,"state":"active","ping":109},{"user_id":722,"name":"L + Ratio","steam_id":76561198263786953,"connected_time":10195000000000,"state":"active","ping":83},{"user_id":764,"name":"Jabawakai","steam_id":76561198088881254,"connected_time":6069000000000,"state":"active","ping":57},{"user_id":798,"name":"Big Smoke","steam_id":76561198278375987,"connected_time":1361000000000,"state":"active","ping":83},{"user_id":795,"name":"mr.edderkopper","steam_id":76561198152614478,"connected_time":2259000000000,"state":"active","ping":37},{"user_id":812,"name":"D","steam_id":76561198292908619,"connected_time":247000000000,"state":"active","ping":73},{"user_id":806,"name":"LITCH","steam_id":76561198033075871,"connected_time":645000000000,"state":"active","ping":82},{"user_id":783,"name":"jaundice","steam_id":76561198231965100,"connected_time":4524000000000,"state":"active","ping":52},{"user_id":808,"name":"papersamurai","steam_id":76561198313608698,"connected_time":604000000000,"state":"active","ping":50},{"user_id":771,"name":"Mixomin","steam_id":76561198295061570,"connected_time":5472000000000,"state":"active","ping":53},{"user_id":781,"name":"DinkleBerg","steam_id":76561198891626233,"connected_time":4599000000000,"state":"active","ping":64}]},{"server_id":106,"name":"Uncletopia | Chicago | 2 | All Maps","name_short":"chi-2","host":"chi-1.us.uncletopia.com","port":27025,"enabled":true,"region":"us-central","cc":"us","latitude":41.881832,"longitude":-87.62318,"reserved":0,"last_update":"0001-01-01T00:00:00Z","name_a2s":"Uncletopia | Chicago | 2 | All Maps","protocol":17,"map":"cp_sunshine","folder":"tf","game":"Team Fortress","app_id":440,"player_count":24,"max_players":24,"Bots":0,"server_type":"Dedicated","server_os":"Linux","password":true,"vac":true,"version":"7932396","steam_id":85568392924469985,"keywords":["cp","nocrits","nodmgspread","uncletopia"],"game_id":440,"stv_port":27026,"stv_name":"Uncletopia | Chicago | 2 | All Maps | STV","players":[{"user_id":545,"name":"Antwan","steam_id":76561198246200638,"connected_time":789000000000,"state":"active","ping":71},{"user_id":556,"name":"CheesyBeanDip","steam_id":76561198044007587,"connected_time":243000000000,"state":"active","ping":80},{"user_id":546,"name":"bur","steam_id":76561198004231658,"connected_time":789000000000,"state":"active","ping":81},{"user_id":524,"name":"Nigel","steam_id":76561198115574712,"connected_time":2767000000000,"state":"active","ping":50},{"user_id":519,"name":"Duncan Idaho","steam_id":76561197988963861,"connected_time":3345000000000,"state":"active","ping":70},{"user_id":496,"name":"eWVra2Vy","steam_id":76561198453565942,"connected_time":4602000000000,"state":"active","ping":104},{"user_id":554,"name":"Kopfjager","steam_id":76561198086397482,"connected_time":693000000000,"state":"active","ping":155},{"user_id":537,"name":"Red_Hatkins","steam_id":76561198214004105,"connected_time":1834000000000,"state":"active","ping":90},{"user_id":544,"name":"pump","steam_id":76561198071705442,"connected_time":799000000000,"state":"active","ping":76},{"user_id":547,"name":"k-nid mad","steam_id":76561198103496593,"connected_time":789000000000,"state":"active","ping":61},{"user_id":549,"name":"brood","steam_id":76561198013781700,"connected_time":765000000000,"state":"active","ping":152},{"user_id":506,"name":"Slogly","steam_id":76561198057242179,"connected_time":4311000000000,"state":"active","ping":92},{"user_id":548,"name":"TwoBit","steam_id":76561198062437559,"connected_time":782000000000,"state":"active","ping":87},{"user_id":533,"name":"Pasta","steam_id":76561198358320222,"connected_time":2004000000000,"state":"active","ping":73},{"user_id":550,"name":"FRANKIEonPCP","steam_id":76561198208451949,"connected_time":764000000000,"state":"active","ping":80},{"user_id":521,"name":"morsetime","steam_id":76561199116362348,"connected_time":3289000000000,"state":"active","ping":88},{"user_id":551,"name":"tien3","steam_id":76561199490115981,"connected_time":755000000000,"state":"active","ping":69},{"user_id":552,"name":"crayonnipple","steam_id":76561198070253331,"connected_time":748000000000,"state":"active","ping":70},{"user_id":523,"name":"peebs","steam_id":76561198261319753,"connected_time":3277000000000,"state":"active","ping":74},{"user_id":535,"name":"hashmap","steam_id":76561198043794014,"connected_time":1955000000000,"state":"active","ping":55},{"user_id":526,"name":"Dareka","steam_id":76561198371183174,"connected_time":2644000000000,"state":"active","ping":196},{"user_id":491,"name":"xdab","steam_id":76561198086904171,"connected_time":4982000000000,"state":"active","ping":60},{"user_id":558,"name":"rxea","steam_id":76561198868168910,"connected_time":86000000000,"state":"active","ping":111},{"user_id":454,"name":"Hugs","steam_id":76561198062726277,"connected_time":7543000000000,"state":"active","ping":63}]},{"server_id":402,"name":"Uncletopia | Chicago | 3 | All Maps","name_short":"chi-3","host":"chi-1.us.uncletopia.com","port":27035,"enabled":true,"region":"us-central","cc":"us","latitude":41.881832,"longitude":-87.62318,"reserved":0,"last_update":"0001-01-01T00:00:00Z","name_a2s":"Uncletopia | Chicago | 3 | All Maps","protocol":17,"map":"pl_barnblitz","folder":"tf","game":"Team Fortress","app_id":440,"player_count":23,"max_players":24,"Bots":0,"server_type":"Dedicated","server_os":"Linux","password":true,"vac":true,"version":"7932396","steam_id":85568392924515191,"keywords":["nocrits","nodmgspread","payload","uncletopia"],"game_id":440,"stv_port":27036,"stv_name":"Uncletopia | Chicago | 3 | All Maps | STV","players":[{"user_id":455,"name":"AlcoholicDad454","steam_id":76561198157414556,"connected_time":4384000000000,"state":"active","ping":82},{"user_id":546,"name":"Lightish Red","steam_id":76561198060879701,"connected_time":284000000000,"state":"active","ping":47},{"user_id":533,"name":"CyberZayne","steam_id":76561198002351356,"connected_time":1545000000000,"state":"active","ping":79},{"user_id":534,"name":"Thingy","steam_id":76561198140161202,"connected_time":1474000000000,"state":"active","ping":74},{"user_id":503,"name":"x3 ‚ô°","steam_id":76561198132011077,"connected_time":2612000000000,"state":"active","ping":71},{"user_id":453,"name":"Dr. Dick","steam_id":76561198138011922,"connected_time":4925000000000,"state":"active","ping":76},{"user_id":542,"name":"Amoxicilina","steam_id":76561198168486429,"connected_time":1350000000000,"state":"active","ping":162},{"user_id":550,"name":"bobletoob","steam_id":76561199184464900,"connected_time":130000000000,"state":"active","ping":113},{"user_id":547,"name":"D","steam_id":76561198292908619,"connected_time":260000000000,"state":"connecting","ping":0},{"user_id":465,"name":"Nephs","steam_id":76561198136763403,"connected_time":3727000000000,"state":"active","ping":71},{"user_id":540,"name":"grilled cheese enjoyer","steam_id":76561198882986104,"connected_time":1405000000000,"state":"active","ping":84},{"user_id":460,"name":"Jesse","steam_id":76561198157305426,"connected_time":4190000000000,"state":"active","ping":60},{"user_id":446,"name":"[GUT] RiDiK¬Æ","steam_id":76561197969756446,"connected_time":5317000000000,"state":"active","ping":57},{"user_id":536,"name":"Ziath","steam_id":76561198094009164,"connected_time":1467000000000,"state":"active","ping":66},{"user_id":538,"name":"Jarvis from Avengers","steam_id":76561198164035863,"connected_time":1456000000000,"state":"active","ping":59},{"user_id":548,"name":"Potato Cyph0n","steam_id":76561198031564577,"connected_time":200000000000,"state":"active","ping":87},{"user_id":539,"name":"SiltyStar85","steam_id":76561198309175923,"connected_time":1455000000000,"state":"active","ping":75},{"user_id":551,"name":"TheFriendlyPybro","steam_id":76561198119425604,"connected_time":51000000000,"state":"active","ping":76},{"user_id":469,"name":"Xraverz","steam_id":76561198008891628,"connected_time":3691000000000,"state":"active","ping":82},{"user_id":553,"name":"Luh G√´eky","steam_id":76561198053621664,"connected_time":7000000000,"state":"active","ping":65},{"user_id":442,"name":"TransSammie","steam_id":76561198046331930,"connected_time":5672000000000,"state":"active","ping":88},{"user_id":521,"name":"Sposeidon","steam_id":76561199044781490,"connected_time":2036000000000,"state":"active","ping":71},{"user_id":532,"name":"Walt","steam_id":76561198964107245,"connected_time":1610000000000,"state":"active","ping":123}]},{"server_id":403,"name":"Uncletopia | Chicago | 4 | All Maps","name_short":"chi-4","host":"chi-1.us.uncletopia.com","port":27045,"enabled":true,"region":"us-central","cc":"us","latitude":41.881832,"longitude":-87.62318,"reserved":0,"last_update":"0001-01-01T00:00:00Z","name_a2s":"Uncletopia | Chicago | 4 | All Maps","protocol":17,"map":"pl_upward","folder":"tf","game":"Team Fortress","app_id":440,"player_count":24,"max_players":24,"Bots":0,"server_type":"Dedicated","server_os":"Linux","password":true,"vac":true,"version":"7932396","steam_id":85568392924515193,"keywords":["nocrits","nodmgspread","payload","uncletopia"],"game_id":440,"stv_port":27046,"stv_name":"Uncletopia | Chicago | 4 | All Maps | STV","players":[{"user_id":667,"name":"BU Baggead","steam_id":76561198852902827,"connected_time":503000000000,"state":"active","ping":54},{"user_id":672,"name":"duster","steam_id":76561198148357768,"connected_time":221000000000,"state":"active","ping":67},{"user_id":669,"name":"Motreir","steam_id":76561198151717946,"connected_time":336000000000,"state":"active","ping":81},{"user_id":656,"name":"TheKyleB","steam_id":76561198202515104,"connected_time":910000000000,"state":"active","ping":44},{"user_id":628,"name":"C4K3","steam_id":76561197996963285,"connected_time":1991000000000,"state":"active","ping":76},{"user_id":668,"name":"Mythical Lag","steam_id":76561198347031281,"connected_time":349000000000,"state":"active","ping":77},{"user_id":661,"name":"Herr M√ºller","steam_id":76561198064876829,"connected_time":613000000000,"state":"active","ping":89},{"user_id":635,"name":"illious","steam_id":76561198169925494,"connected_time":1799000000000,"state":"active","ping":74},{"user_id":658,"name":"crashymicsplody","steam_id":76561198213916765,"connected_time":698000000000,"state":"active","ping":67},{"user_id":663,"name":"Jaramr","steam_id":76561197984387067,"connected_time":560000000000,"state":"active","ping":72},{"user_id":675,"name":"Emily50AE","steam_id":76561198088619665,"connected_time":144000000000,"state":"active","ping":82},{"user_id":602,"name":"exten-z","steam_id":76561198004359190,"connected_time":4006000000000,"state":"active","ping":52},{"user_id":670,"name":"dm_Thames enjoyer","steam_id":76561198129763115,"connected_time":331000000000,"state":"active","ping":110},{"user_id":649,"name":"leon fan,stan,enjoyer,lover LFB","steam_id":76561198041643833,"connected_time":1347000000000,"state":"active","ping":88},{"user_id":642,"name":"Tohubohu","steam_id":76561198077838448,"connected_time":1533000000000,"state":"active","ping":114},{"user_id":660,"name":"sunny","steam_id":76561198069380992,"connected_time":639000000000,"state":"active","ping":82},{"user_id":644,"name":"GreekGoat_Coffee","steam_id":76561198129331088,"connected_time":1505000000000,"state":"active","ping":46},{"user_id":645,"name":"-{SL}- Dr. Hoja","steam_id":76561198024601289,"connected_time":1491000000000,"state":"active","ping":66},{"user_id":674,"name":"moolkey","steam_id":76561198000895549,"connected_time":210000000000,"state":"active","ping":62},{"user_id":609,"name":"Smoke Stacks","steam_id":76561197999478769,"connected_time":3463000000000,"state":"active","ping":75},{"user_id":589,"name":"Donnie Blasto","steam_id":76561198043432005,"connected_time":4898000000000,"state":"active","ping":53},{"user_id":664,"name":"surrender to the void","steam_id":76561198055494039,"connected_time":556000000000,"state":"active","ping":87},{"user_id":647,"name":"Farm3rJh0nson","steam_id":76561199166153873,"connected_time":1471000000000,"state":"active","ping":77},{"user_id":620,"name":"Soju","steam_id":76561198044130442,"connected_time":2938000000000,"state":"active","ping":80}]},{"server_id":36,"name":"Uncletopia | Chicago | 5 | All Maps","name_short":"chi-5","host":"chi-2.us.uncletopia.com","port":27015,"enabled":true,"region":"us-central","cc":"us","latitude":41.881832,"longitude":-87.62318,"reserved":0,"last_update":"0001-01-01T00:00:00Z","name_a2s":"Uncletopia | Chicago | 5 | All Maps","protocol":17,"map":"pl_barnblitz","folder":"tf","game":"Team Fortress","app_id":440,"player_count":20,"max_players":24,"Bots":0,"server_type":"Dedicated","server_os":"Linux","password":true,"vac":true,"version":"7932396","steam_id":85568392924866362,"keywords":["nocrits","nodmgspread","payload","uncletopia"],"game_id":440,"stv_port":27016,"stv_name":"Uncletopia | Chicago | 5 | All Maps | STV","players":[{"user_id":409,"name":"HOTA","steam_id":76561199002778841,"connected_time":1638000000000,"state":"active","ping":69},{"user_id":376,"name":"Temm32","steam_id":76561198440657154,"connected_time":4680000000000,"state":"active","ping":78},{"user_id":413,"name":"Spooby","steam_id":76561198168114366,"connected_time":1280000000000,"state":"active","ping":54},{"user_id":445,"name":"drevott74","steam_id":76561199262592779,"connected_time":450000000000,"state":"active","ping":107},{"user_id":407,"name":"CHIEF_JUSTICE_FUCKASS","steam_id":76561199261675844,"connected_time":1675000000000,"state":"active","ping":105},{"user_id":414,"name":"rE_d0","steam_id":76561198975450630,"connected_time":1258000000000,"state":"active","ping":96},{"user_id":395,"name":"Jar Jar Kinks","steam_id":76561199087748803,"connected_time":2735000000000,"state":"active","ping":89},{"user_id":451,"name":"HardlyEthical","steam_id":76561198044535087,"connected_time":334000000000,"state":"active","ping":79},{"user_id":460,"name":"Rattle Bones","steam_id":76561198075736702,"connected_time":150000000000,"state":"active","ping":59},{"user_id":384,"name":"LerN","steam_id":76561198083463877,"connected_time":3764000000000,"state":"active","ping":47},{"user_id":382,"name":"Skellacat","steam_id":76561199090786845,"connected_time":3797000000000,"state":"active","ping":56},{"user_id":415,"name":"Elias","steam_id":76561198106431732,"connected_time":1240000000000,"state":"active","ping":52},{"user_id":390,"name":"Wet Deer","steam_id":76561198145045927,"connected_time":3287000000000,"state":"active","ping":74},{"user_id":447,"name":"Mog","steam_id":76561198025575870,"connected_time":376000000000,"state":"active","ping":57},{"user_id":408,"name":"MjrMovnTARGET","steam_id":76561199125908849,"connected_time":1664000000000,"state":"active","ping":74},{"user_id":368,"name":"A Cranky Cassowary","steam_id":76561198037372342,"connected_time":5506000000000,"state":"active","ping":73},{"user_id":418,"name":"Player","steam_id":76561199482290132,"connected_time":1180000000000,"state":"active","ping":61},{"user_id":433,"name":"Tax","steam_id":76561198335683534,"connected_time":855000000000,"state":"active","ping":60},{"user_id":422,"name":"Discourse","steam_id":76561198984286678,"connected_time":1134000000000,"state":"active","ping":56},{"user_id":454,"name":"Homosexual Warmachine","steam_id":76561198040425096,"connected_time":309000000000,"state":"active","ping":66}]},{"server_id":37,"name":"Uncletopia | Chicago | 6 | All Maps","name_short":"chi-6","host":"chi-2.us.uncletopia.com","port":27025,"enabled":true,"region":"us-central","cc":"us","latitude":41.881832,"longitude":-87.62318,"reserved":0,"last_update":"0001-01-01T00:00:00Z","name_a2s":"Uncletopia | Chicago | 6 | All Maps","protocol":17,"map":"koth_lakeside_final","folder":"tf","game":"Team Fortress","app_id":440,"player_count":24,"max_players":24,"Bots":0,"server_type":"Dedicated","server_os":"Linux","password":true,"vac":true,"version":"7932396","steam_id":85568392924866363,"keywords":["cp","nocrits","nodmgspread","uncletopia"],"game_id":440,"stv_port":27026,"stv_name":"Uncletopia | Chicago | 6 | All Maps | STV","players":[{"user_id":323,"name":"drift.ag21","steam_id":76561198093781093,"connected_time":4413000000000,"state":"active","ping":52},{"user_id":336,"name":"definitely (not) a twink","steam_id":76561199208833695,"connected_time":3358000000000,"state":"active","ping":82},{"user_id":268,"name":"helen keller","steam_id":76561197979870540,"connected_time":8259000000000,"state":"active","ping":49},{"user_id":351,"name":"SuppressedBarrel","steam_id":76561198032336504,"connected_time":1635000000000,"state":"active","ping":60},{"user_id":223,"name":"C Papi","steam_id":76561198027779564,"connected_time":11947000000000,"state":"active","ping":54},{"user_id":340,"name":"--_Cook_--","steam_id":76561198080855748,"connected_time":2784000000000,"state":"active","ping":48},{"user_id":358,"name":"Fiendish Frog","steam_id":76561198029478821,"connected_time":1149000000000,"state":"active","ping":74},{"user_id":361,"name":"reymundo","steam_id":76561197989412830,"connected_time":1081000000000,"state":"active","ping":117},{"user_id":352,"name":"reject drugs and embrace God","steam_id":76561198452519031,"connected_time":1621000000000,"state":"active","ping":89},{"user_id":364,"name":"realhedgehog2082","steam_id":76561198168931330,"connected_time":908000000000,"state":"active","ping":69},{"user_id":283,"name":"Krissy","steam_id":76561197960848174,"connected_time":7344000000000,"state":"active","ping":72},{"user_id":367,"name":"eryn üó∫","steam_id":76561198004433070,"connected_time":539000000000,"state":"active","ping":78},{"user_id":348,"name":"timmy fruitcups","steam_id":76561198170939290,"connected_time":2126000000000,"state":"active","ping":60},{"user_id":359,"name":"raw.dotdotdot","steam_id":76561198033033884,"connected_time":1137000000000,"state":"active","ping":74},{"user_id":360,"name":"Michaelpc1","steam_id":76561198088365519,"connected_time":1135000000000,"state":"active","ping":76},{"user_id":310,"name":"[NAME-REDACTED]","steam_id":76561198035682975,"connected_time":5381000000000,"state":"active","ping":74},{"user_id":320,"name":"the whale (2022)","steam_id":76561198095313463,"connected_time":4631000000000,"state":"active","ping":66},{"user_id":345,"name":"eggzy","steam_id":76561198085439508,"connected_time":2504000000000,"state":"active","ping":42},{"user_id":362,"name":"heehghrhahgaha","steam_id":76561199328301077,"connected_time":1070000000000,"state":"active","ping":108},{"user_id":356,"name":"Quebec","steam_id":76561198865760503,"connected_time":1212000000000,"state":"active","ping":64},{"user_id":369,"name":"kayoko","steam_id":76561198045144546,"connected_time":157000000000,"state":"active","ping":89},{"user_id":366,"name":"WitheringLeo","steam_id":76561198046722918,"connected_time":846000000000,"state":"active","ping":89},{"user_id":325,"name":"daemon","steam_id":76561198001541433,"connected_time":4271000000000,"state":"active","ping":60},{"user_id":343,"name":"Len","steam_id":76561198830451722,"connected_time":2722000000000,"state":"active","ping":72}]},{"server_id":38,"name":"Uncletopia | Chicago | 7 | Stopwatch Beta","name_short":"chi-7","host":"chi-2.us.uncletopia.com","port":27035,"enabled":true,"region":"us-central","cc":"us","latitude":41.881832,"longitude":-87.62318,"reserved":0,"last_update":"0001-01-01T00:00:00Z","name_a2s":"Uncletopia | Chicago | 7 | Stopwatch Beta","protocol":17,"map":"workshop/cp_process_f12.ugc2302948105","folder":"tf","game":"Team Fortress","app_id":440,"player_count":23,"max_players":24,"Bots":0,"server_type":"Dedicated","server_os":"Linux","password":true,"vac":true,"version":"7932396","steam_id":85568392924866364,"keywords":["cp","nocrits","nodmgspread","uncletopia"],"game_id":440,"stv_port":27036,"stv_name":"Uncletopia | Chicago | 7 | Stopwatch Beta | STV","players":[{"user_id":160,"name":"jsmith70","steam_id":76561197989298003,"connected_time":1235000000000,"state":"active","ping":105},{"user_id":177,"name":"Sir Richard Rose","steam_id":76561198121528858,"connected_time":10000000000,"state":"spawning","ping":129},{"user_id":161,"name":"Rat Brain Solar Probe","steam_id":76561197995191233,"connected_time":1222000000000,"state":"active","ping":101},{"user_id":142,"name":"ShellBug","steam_id":76561198144187527,"connected_time":2508000000000,"state":"active","ping":69},{"user_id":171,"name":"counterstrikefan1999","steam_id":76561198042444734,"connected_time":473000000000,"state":"active","ping":75},{"user_id":162,"name":"Rocky","steam_id":76561198048158539,"connected_time":1163000000000,"state":"active","ping":60},{"user_id":29,"name":"Nespreco","steam_id":76561198252035336,"connected_time":7418000000000,"state":"active","ping":113},{"user_id":143,"name":"Puppygirl4Hire","steam_id":76561198085813708,"connected_time":2471000000000,"state":"active","ping":70},{"user_id":167,"name":"NotNamedBob","steam_id":76561199482149729,"connected_time":807000000000,"state":"active","ping":67},{"user_id":158,"name":"Sploof","steam_id":76561198078577114,"connected_time":1425000000000,"state":"active","ping":92},{"user_id":122,"name":"neekap","steam_id":76561198165102867,"connected_time":3348000000000,"state":"active","ping":109},{"user_id":147,"name":"Prometheus Jones","steam_id":76561198059087964,"connected_time":2350000000000,"state":"active","ping":68},{"user_id":170,"name":"Amazingamerhawk","steam_id":76561199064935924,"connected_time":526000000000,"state":"active","ping":68},{"user_id":169,"name":"lanoc","steam_id":76561198055415367,"connected_time":529000000000,"state":"active","ping":60},{"user_id":138,"name":"Boomboombop","steam_id":76561198267531538,"connected_time":2650000000000,"state":"active","ping":66},{"user_id":175,"name":"sonikro","steam_id":76561197989428692,"connected_time":282000000000,"state":"active","ping":60},{"user_id":45,"name":"Op banana","steam_id":76561198303231451,"connected_time":6730000000000,"state":"active","ping":72},{"user_id":150,"name":"Raw Doginski","steam_id":76561198977262164,"connected_time":2312000000000,"state":"active","ping":57},{"user_id":168,"name":"checkswing","steam_id":76561198999816132,"connected_time":585000000000,"state":"active","ping":77},{"user_id":166,"name":"astroLC","steam_id":76561199040914098,"connected_time":863000000000,"state":"active","ping":115},{"user_id":145,"name":"A Very Confused Gentleman","steam_id":76561198051686391,"connected_time":2437000000000,"state":"active","ping":52},{"user_id":52,"name":"Cooldogjoe","steam_id":76561198105543698,"connected_time":6650000000000,"state":"active","ping":62},{"user_id":157,"name":"rad killl raccoon","steam_id":76561198980975595,"connected_time":1716000000000,"state":"active","ping":118}]},{"server_id":39,"name":"Uncletopia | Chicago | 8 | Community","name_short":"chi-8","host":"chi-2.us.uncletopia.com","port":27045,"enabled":true,"region":"us-central","cc":"us","latitude":41.881832,"longitude":-87.62318,"reserved":0,"last_update":"0001-01-01T00:00:00Z","name_a2s":"Uncletopia | Chicago | 8 | Community","protocol":17,"map":"workshop/koth_ashville_final.ugc2130459942","folder":"tf","game":"Team Fortress","app_id":440,"player_count":23,"max_players":24,"Bots":0,"server_type":"Dedicated","server_os":"Linux","password":true,"vac":true,"version":"7932396","steam_id":85568392924866365,"keywords":["cp","nocrits","nodmgspread","uncletopia"],"game_id":440,"stv_port":27046,"stv_name":"Uncletopia | Chicago | 8 | Community | STV","players":[{"user_id":620,"name":"charKYLE_","steam_id":76561198399417231,"connected_time":968000000000,"state":"active","ping":130},{"user_id":611,"name":"Big Oil","steam_id":76561199238964574,"connected_time":1412000000000,"state":"active","ping":69},{"user_id":637,"name":"*","steam_id":76561198173047169,"connected_time":26000000000,"state":"active","ping":49},{"user_id":583,"name":"hdee","steam_id":76561198288729718,"connected_time":3190000000000,"state":"active","ping":76},{"user_id":596,"name":"Captain S. Forrest","steam_id":76561198062463029,"connected_time":2535000000000,"state":"active","ping":72},{"user_id":635,"name":"Walrus King","steam_id":76561199112727345,"connected_time":60000000000,"state":"active","ping":107},{"user_id":597,"name":".mp3","steam_id":76561198070710025,"connected_time":2519000000000,"state":"active","ping":76},{"user_id":602,"name":"OneTrueCorvid","steam_id":76561199012953221,"connected_time":2029000000000,"state":"active","ping":93},{"user_id":612,"name":"jit trippin","steam_id":76561198118001354,"connected_time":1385000000000,"state":"active","ping":61},{"user_id":634,"name":"Arrythmia","steam_id":76561198093748123,"connected_time":93000000000,"state":"active","ping":75},{"user_id":627,"name":"Sleepytime Junction","steam_id":76561198046307677,"connected_time":415000000000,"state":"active","ping":61},{"user_id":553,"name":"Tom Cr√∫aich","steam_id":76561197999439911,"connected_time":5021000000000,"state":"active","ping":74},{"user_id":633,"name":"Mutilated Foreskin","steam_id":76561198257522261,"connected_time":271000000000,"state":"active","ping":36},{"user_id":628,"name":"Panic Opossum","steam_id":76561198043838227,"connected_time":346000000000,"state":"active","ping":47},{"user_id":626,"name":"fac_73","steam_id":76561198064692697,"connected_time":443000000000,"state":"active","ping":73},{"user_id":622,"name":"Freewave","steam_id":76561198156282541,"connected_time":859000000000,"state":"active","ping":50},{"user_id":574,"name":"Butters495","steam_id":76561197998689042,"connected_time":3759000000000,"state":"active","ping":87},{"user_id":619,"name":"AudaCD","steam_id":76561198202775853,"connected_time":1056000000000,"state":"active","ping":59},{"user_id":629,"name":"Z0mb01","steam_id":76561198840675301,"connected_time":338000000000,"state":"active","ping":143},{"user_id":609,"name":"Tick","steam_id":76561198184161214,"connected_time":1552000000000,"state":"active","ping":44},{"user_id":636,"name":"HawkkTM","steam_id":76561198061668276,"connected_time":45000000000,"state":"active","ping":77},{"user_id":630,"name":"GardenOfStone","steam_id":76561199069870534,"connected_time":331000000000,"state":"active","ping":90},{"user_id":623,"name":"Anomaly","steam_id":76561198058312481,"connected_time":793000000000,"state":"active","ping":107}]},{"server_id":8,"name":"Uncletopia | Dallas | 1 | All Maps","name_short":"dal-1","host":"dal-1.us.uncletopia.com","port":27015,"enabled":true,"region":"us-central","cc":"us","latitude":32.779167,"longitude":-96.80889,"reserved":0,"last_update":"0001-01-01T00:00:00Z","name_a2s":"Uncletopia | Dallas | 1 | All Maps","protocol":17,"map":"cp_mountainlab","folder":"tf","game":"Team Fortress","app_id":440,"player_count":19,"max_players":24,"Bots":0,"server_type":"Dedicated","server_os":"Linux","password":true,"vac":true,"version":"7932396","steam_id":85568392924469986,"keywords":["cp","nocrits","nodmgspread","uncletopia"],"game_id":440,"stv_port":27016,"stv_name":"Uncletopia | Dallas | 1 | All Maps | STV","players":[{"user_id":620,"name":"PiolaCat","steam_id":76561199100535345,"connected_time":284000000000,"state":"active","ping":110},{"user_id":615,"name":"fa√ßade","steam_id":76561199157009256,"connected_time":954000000000,"state":"active","ping":72},{"user_id":621,"name":"LtK","steam_id":76561197993180943,"connected_time":225000000000,"state":"active","ping":41},{"user_id":548,"name":"WrenLightsaber","steam_id":76561199054971009,"connected_time":4269000000000,"state":"active","ping":48},{"user_id":587,"name":"Bogey","steam_id":76561198096227944,"connected_time":2005000000000,"state":"active","ping":41},{"user_id":624,"name":"K.A.R.M.A.","steam_id":76561198240750142,"connected_time":14000000000,"state":"active","ping":72},{"user_id":600,"name":"Bonchiko","steam_id":76561198065133470,"connected_time":1252000000000,"state":"active","ping":71},{"user_id":614,"name":"Crescent","steam_id":76561198095124633,"connected_time":1052000000000,"state":"active","ping":68},{"user_id":616,"name":"Antonpirulero10","steam_id":76561198253036781,"connected_time":555000000000,"state":"active","ping":97},{"user_id":617,"name":"EvilPigglet","steam_id":76561197987243470,"connected_time":539000000000,"state":"active","ping":77},{"user_id":618,"name":"Qwerty","steam_id":76561198082874885,"connected_time":316000000000,"state":"active","ping":85},{"user_id":602,"name":"silk","steam_id":76561198238329996,"connected_time":1237000000000,"state":"active","ping":71},{"user_id":601,"name":"Skinny pete","steam_id":76561198801608576,"connected_time":1244000000000,"state":"active","ping":48},{"user_id":623,"name":"GPG scarfs","steam_id":76561198008264703,"connected_time":72000000000,"state":"active","ping":84},{"user_id":619,"name":"Ballista","steam_id":76561197983182562,"connected_time":298000000000,"state":"active","ping":60},{"user_id":561,"name":"Sahbi (she/they)","steam_id":76561199196292242,"connected_time":3602000000000,"state":"active","ping":61},{"user_id":566,"name":"fleepore (:","steam_id":76561199238295034,"connected_time":3420000000000,"state":"active","ping":71},{"user_id":578,"name":"ElZeto","steam_id":76561198252322622,"connected_time":2983000000000,"state":"active","ping":81},{"user_id":611,"name":"DiGiorno's Pizza","steam_id":76561198142244035,"connected_time":1073000000000,"state":"active","ping":77}]},{"server_id":108,"name":"Uncletopia | Dallas | 2 | All Maps","name_short":"dal-2","host":"dal-1.us.uncletopia.com","port":27025,"enabled":true,"region":"us-central","cc":"us","latitude":32.779167,"longitude":-96.80889,"reserved":0,"last_update":"0001-01-01T00:00:00Z","name_a2s":"Uncletopia | Dallas | 2 | All Maps","protocol":17,"map":"pl_borneo","folder":"tf","game":"Team Fortress","app_id":440,"player_count":24,"max_players":24,"Bots":0,"server_type":"Dedicated","server_os":"Linux","password":true,"vac":true,"version":"7932396","steam_id":85568392924469988,"keywords":["nocrits","nodmgspread","payload","uncletopia"],"game_id":440,"stv_port":27026,"stv_name":"Uncletopia | Dallas | 2 | All Maps | STV","players":[{"user_id":402,"name":"chaffy","steam_id":76561198021754567,"connected_time":2008000000000,"state":"active","ping":63},{"user_id":332,"name":"Viren","steam_id":76561198012636897,"connected_time":7386000000000,"state":"active","ping":44},{"user_id":388,"name":"Maid Knight","steam_id":76561198214370515,"connected_time":3626000000000,"state":"active","ping":82},{"user_id":416,"name":"Furious George","steam_id":76561198405111646,"connected_time":498000000000,"state":"active","ping":86},{"user_id":409,"name":"GLG.Liz","steam_id":76561198021957956,"connected_time":1572000000000,"state":"active","ping":47},{"user_id":395,"name":"chiswola","steam_id":76561198046920142,"connected_time":3103000000000,"state":"active","ping":102},{"user_id":410,"name":"Cerby","steam_id":76561198052696183,"connected_time":1508000000000,"state":"active","ping":73},{"user_id":383,"name":"tsz","steam_id":76561199246231090,"connected_time":3705000000000,"state":"active","ping":82},{"user_id":389,"name":"LatinRhythms - 5 ref","steam_id":76561198025110751,"connected_time":3620000000000,"state":"active","ping":147},{"user_id":359,"name":"Earl S","steam_id":76561198064273772,"connected_time":5529000000000,"state":"active","ping":87},{"user_id":390,"name":"Scoops M'Gooch","steam_id":76561198048423812,"connected_time":3602000000000,"state":"active","ping":92},{"user_id":412,"name":"Spicy","steam_id":76561198030185149,"connected_time":1409000000000,"state":"active","ping":57},{"user_id":398,"name":"DJ-Whatchya #rEtiReD","steam_id":76561198060355298,"connected_time":2565000000000,"state":"active","ping":86},{"user_id":400,"name":"Ms. Pipe Bomb","steam_id":76561198069308362,"connected_time":2178000000000,"state":"active","ping":80},{"user_id":355,"name":"Holly she/her","steam_id":76561198982631429,"connected_time":6086000000000,"state":"active","ping":63},{"user_id":413,"name":"a bucket of chicken","steam_id":76561198023710042,"connected_time":857000000000,"state":"active","ping":55},{"user_id":394,"name":"You Don't Nomi.","steam_id":76561197969137836,"connected_time":3109000000000,"state":"active","ping":86},{"user_id":374,"name":"Faraday","steam_id":76561198089928357,"connected_time":4946000000000,"state":"active","ping":53},{"user_id":407,"name":"Hindmost","steam_id":76561199081837220,"connected_time":1928000000000,"state":"active","ping":71},{"user_id":397,"name":"dog","steam_id":76561198263873491,"connected_time":2743000000000,"state":"active","ping":60},{"user_id":406,"name":"‚òÇBliffenstimmers‚òÇ","steam_id":76561198059984896,"connected_time":1985000000000,"state":"active","ping":64},{"user_id":411,"name":"Insizhen","steam_id":76561198051352605,"connected_time":1438000000000,"state":"active","ping":53},{"user_id":350,"name":"rawgust","steam_id":76561198004523887,"connected_time":6677000000000,"state":"active","ping":123},{"user_id":415,"name":"vacation skeleton","steam_id":76561198043732416,"connected_time":690000000000,"state":"active","ping":126}]},{"server_id":5,"name":"Uncletopia | Frankfurt | 1 | All Maps","name_short":"frk-1","host":"frk-1.de.uncletopia.com","port":27015,"enabled":true,"region":"eu","cc":"de","latitude":50.110924,"longitude":8.682127,"reserved":0,"last_update":"0001-01-01T00:00:00Z","name_a2s":"Uncletopia | Frankfurt | 1 | All Maps","protocol":17,"map":"pl_badwater","folder":"tf","game":"Team Fortress","app_id":440,"player_count":0,"max_players":24,"Bots":0,"server_type":"Dedicated","server_os":"Linux","password":true,"vac":true,"version":"7932396","steam_id":85568392924469989,"keywords":["nocrits","nodmgspread","payload","uncletopia"],"game_id":440,"stv_port":27016,"stv_name":"Uncletopia | Frankfurt | 1 | All Maps | STV","players":null},{"server_id":110,"name":"Uncletopia | Frankfurt | 2 | All Maps","name_short":"frk-2","host":"frk-1.de.uncletopia.com","port":27025,"enabled":true,"region":"eu","cc":"de","latitude":50.110924,"longitude":8.682127,"reserved":0,"last_update":"0001-01-01T00:00:00Z","name_a2s":"Uncletopia | Frankfurt | 2 | All Maps","protocol":17,"map":"pl_borneo","folder":"tf","game":"Team Fortress","app_id":440,"player_count":0,"max_players":24,"Bots":0,"server_type":"Dedicated","server_os":"Linux","password":true,"vac":true,"version":"7932396","steam_id":85568392924469990,"keywords":["nocrits","nodmgspread","payload","uncletopia"],"game_id":440,"stv_port":27026,"stv_name":"Uncletopia | Frankfurt | 2 | All Maps | STV","players":null},{"server_id":308,"name":"Uncletopia | Frankfurt | 3 | All Maps","name_short":"frk-3","host":"frk-1.de.uncletopia.com","port":27035,"enabled":true,"region":"eu","cc":"de","latitude":50.110924,"longitude":8.682127,"reserved":0,"last_update":"0001-01-01T00:00:00Z","name_a2s":"Uncletopia | Frankfurt | 3 | All Maps","protocol":17,"map":"pl_badwater","folder":"tf","game":"Team Fortress","app_id":440,"player_count":0,"max_players":24,"Bots":0,"server_type":"Dedicated","server_os":"Linux","password":true,"vac":true,"version":"7932396","steam_id":85568392924504274,"keywords":["nocrits","nodmgspread","payload","uncletopia"],"game_id":440,"stv_port":27036,"stv_name":"Uncletopia | Frankfurt | 3 | All Maps | STV","players":null},{"server_id":309,"name":"Uncletopia | Frankfurt | 4 | All Maps","name_short":"frk-4","host":"frk-1.de.uncletopia.com","port":27045,"enabled":true,"region":"eu","cc":"de","latitude":50.110924,"longitude":8.682127,"reserved":0,"last_update":"0001-01-01T00:00:00Z","name_a2s":"Uncletopia | Frankfurt | 4 | All Maps","protocol":17,"map":"pl_upward","folder":"tf","game":"Team Fortress","app_id":440,"player_count":0,"max_players":24,"Bots":0,"server_type":"Dedicated","server_os":"Linux","password":true,"vac":true,"version":"7932396","steam_id":85568392924504275,"keywords":["nocrits","nodmgspread","payload","uncletopia"],"game_id":440,"stv_port":27046,"stv_name":"Uncletopia | Frankfurt | 4 | All Maps | STV","players":null},{"server_id":310,"name":"Uncletopia | Frankfurt | 5 | All Maps","name_short":"frk-5","host":"frk-1.de.uncletopia.com","port":27055,"enabled":true,"region":"eu","cc":"de","latitude":50.110924,"longitude":8.682127,"reserved":0,"last_update":"0001-01-01T00:00:00Z","name_a2s":"Uncletopia | Frankfurt | 5 | All Maps","protocol":17,"map":"pl_badwater","folder":"tf","game":"Team Fortress","app_id":440,"player_count":0,"max_players":24,"Bots":0,"server_type":"Dedicated","server_os":"Linux","password":true,"vac":true,"version":"7932396","steam_id":85568392924504277,"keywords":["nocrits","nodmgspread","payload","uncletopia"],"game_id":440,"stv_port":27056,"stv_name":"Uncletopia | Frankfurt | 5 | All Maps | STV","players":null},{"server_id":311,"name":"Uncletopia | Frankfurt | 6 | All Maps","name_short":"frk-6","host":"frk-1.de.uncletopia.com","port":27065,"enabled":true,"region":"eu","cc":"de","latitude":50.110924,"longitude":8.682127,"reserved":0,"last_update":"0001-01-01T00:00:00Z","name_a2s":"Uncletopia | Frankfurt | 6 | All Maps","protocol":17,"map":"koth_viaduct","folder":"tf","game":"Team Fortress","app_id":440,"player_count":0,"max_players":24,"Bots":0,"server_type":"Dedicated","server_os":"Linux","password":true,"vac":true,"version":"7932396","steam_id":85568392924504278,"keywords":["cp","nocrits","nodmgspread","uncletopia"],"game_id":440,"stv_port":27066,"stv_name":"Uncletopia | Frankfurt | 6 | All Maps | STV","players":null},{"server_id":23,"name":"Uncletopia | Frankfurt | 7 | Stopwatch Beta","name_short":"frk-7","host":"frk-1.de.uncletopia.com","port":27075,"enabled":true,"region":"eu","cc":"de","latitude":50.110924,"longitude":8.682127,"reserved":0,"last_update":"0001-01-01T00:00:00Z","name_a2s":"Uncletopia | Frankfurt | 7 | Stopwatch Beta","protocol":17,"map":"pl_snowycoast","folder":"tf","game":"Team Fortress","app_id":440,"player_count":0,"max_players":24,"Bots":0,"server_type":"Dedicated","server_os":"Linux","password":true,"vac":true,"version":"7932396","steam_id":85568392924742827,"keywords":["nocrits","nodmgspread","payload","uncletopia"],"game_id":440,"stv_port":27076,"stv_name":"Uncletopia | Frankfurt | 7 | Stopwatch Beta | STV","players":null},{"server_id":24,"name":"Uncletopia | Frankfurt | 8 | Community","name_short":"frk-8","host":"frk-1.de.uncletopia.com","port":27085,"enabled":true,"region":"eu","cc":"de","latitude":50.110924,"longitude":8.682127,"reserved":0,"last_update":"0001-01-01T00:00:00Z","name_a2s":"Uncletopia | Frankfurt | 8 | Community","protocol":17,"map":"pl_barnblitz","folder":"tf","game":"Team Fortress","app_id":440,"player_count":0,"max_players":24,"Bots":0,"server_type":"Dedicated","server_os":"Linux","password":true,"vac":true,"version":"7932396","steam_id":85568392924742828,"keywords":["nocrits","nodmgspread","payload","uncletopia"],"game_id":440,"stv_port":27086,"stv_name":"Uncletopia | Frankfurt | 8 | Community | STV","players":null},{"server_id":202,"name":"Uncletopia | Hong Kong | 1 | All Maps","name_short":"hgk-1","host":"hgk-1.hk.uncletopia.com","port":27015,"enabled":true,"region":"asia","cc":"hk","latitude":22.302711,"longitude":114.177216,"reserved":0,"last_update":"0001-01-01T00:00:00Z","name_a2s":"Uncletopia | Hong Kong | 1 | All Maps","protocol":17,"map":"cp_mountainlab","folder":"tf","game":"Team Fortress","app_id":440,"player_count":0,"max_players":24,"Bots":0,"server_type":"Dedicated","server_os":"Linux","password":true,"vac":true,"version":"7932396","steam_id":85568392924494504,"keywords":["cp","nocrits","nodmgspread","uncletopia"],"game_id":440,"stv_port":27016,"stv_name":"Uncletopia | Hong Kong | 1 | All Maps | STV","players":null},{"server_id":1,"name":"Uncletopia | Los Angeles | 1 | All Maps","name_short":"lax-1","host":"lax-1.us.uncletopia.com","port":27015,"enabled":true,"region":"us-west","cc":"us","latitude":33.94279,"longitude":-118.41004,"reserved":0,"last_update":"0001-01-01T00:00:00Z","name_a2s":"Uncletopia | Los Angeles | 1 | All Maps","protocol":17,"map":"pl_badwater","folder":"tf","game":"Team Fortress","app_id":440,"player_count":19,"max_players":24,"Bots":0,"server_type":"Dedicated","server_os":"Linux","password":true,"vac":true,"version":"7932396","steam_id":85568392924469991,"keywords":["nocrits","nodmgspread","payload","uncletopia"],"game_id":440,"stv_port":27016,"stv_name":"Uncletopia | Los Angeles | 1 | All Maps | STV","players":[{"user_id":33,"name":"honeydabunny","steam_id":76561198808686969,"connected_time":4285000000000,"state":"active","ping":95},{"user_id":77,"name":"Walrus","steam_id":76561198001799905,"connected_time":155000000000,"state":"active","ping":49},{"user_id":80,"name":"ùíÜùíóùíäùíçArnoldGamingÔæ†","steam_id":76561198040140247,"connected_time":31000000000,"state":"active","ping":129},{"user_id":44,"name":"ScoutBox","steam_id":76561198111539895,"connected_time":2369000000000,"state":"active","ping":48},{"user_id":55,"name":"DoubleX2000","steam_id":76561198164134387,"connected_time":1639000000000,"state":"active","ping":83},{"user_id":35,"name":"meemees","steam_id":76561198098558585,"connected_time":4257000000000,"state":"active","ping":101},{"user_id":74,"name":"CPTforever","steam_id":76561198237767198,"connected_time":720000000000,"state":"active","ping":46},{"user_id":48,"name":"sleepy","steam_id":76561198255015060,"connected_time":2099000000000,"state":"active","ping":52},{"user_id":69,"name":"Taffy","steam_id":76561198276612538,"connected_time":1167000000000,"state":"active","ping":60},{"user_id":78,"name":"Fruity","steam_id":76561198999674564,"connected_time":135000000000,"state":"active","ping":102},{"user_id":50,"name":"Octo","steam_id":76561198024056355,"connected_time":1972000000000,"state":"active","ping":46},{"user_id":51,"name":"raw","steam_id":76561198451768609,"connected_time":1958000000000,"state":"active","ping":43},{"user_id":52,"name":"Christian Bonnie","steam_id":76561199194702127,"connected_time":1952000000000,"state":"active","ping":103},{"user_id":57,"name":"The Entire Population of Canada","steam_id":76561198090187112,"connected_time":1532000000000,"state":"active","ping":105},{"user_id":60,"name":"genaro salazar","steam_id":76561198085451776,"connected_time":1509000000000,"state":"active","ping":96},{"user_id":79,"name":"-The_Under_Miner-","steam_id":76561199195735972,"connected_time":100000000000,"state":"active","ping":57},{"user_id":65,"name":"superbad","steam_id":76561198065913973,"connected_time":1471000000000,"state":"active","ping":35},{"user_id":73,"name":"thedeadlyamoeba","steam_id":76561198040810178,"connected_time":812000000000,"state":"active","ping":87},{"user_id":67,"name":"jingle","steam_id":76561198065662025,"connected_time":1418000000000,"state":"active","ping":58}]},{"server_id":112,"name":"Uncletopia | Los Angeles | 2 | All Maps","name_short":"lax-2","host":"lax-1.us.uncletopia.com","port":27025,"enabled":true,"region":"us-west","cc":"us","latitude":33.94279,"longitude":-118.41004,"reserved":0,"last_update":"0001-01-01T00:00:00Z","name_a2s":"Uncletopia | Los Angeles | 2 | All Maps","protocol":17,"map":"cp_steel","folder":"tf","game":"Team Fortress","app_id":440,"player_count":12,"max_players":24,"Bots":0,"server_type":"Dedicated","server_os":"Linux","password":true,"vac":true,"version":"7932396","steam_id":85568392924469992,"keywords":["cp","nocrits","nodmgspread","uncletopia"],"game_id":440,"stv_port":27026,"stv_name":"Uncletopia | Los Angeles | 2 | All Maps | STV","players":[{"user_id":456,"name":"{Caulk-\u0026-Bawls Explorer}","steam_id":76561198025410898,"connected_time":683000000000,"state":"active","ping":61},{"user_id":457,"name":"Tenko","steam_id":76561198061282346,"connected_time":630000000000,"state":"active","ping":48},{"user_id":458,"name":"Griffin Potato","steam_id":76561198957533080,"connected_time":587000000000,"state":"active","ping":100},{"user_id":428,"name":"Space Tank","steam_id":76561198118794852,"connected_time":2870000000000,"state":"active","ping":43},{"user_id":459,"name":"DiegoHgamer YT","steam_id":76561199177674710,"connected_time":579000000000,"state":"active","ping":100},{"user_id":460,"name":"The premium licking experience","steam_id":76561199213456232,"connected_time":486000000000,"state":"active","ping":42},{"user_id":462,"name":"1tsR0B0T","steam_id":76561198324525822,"connected_time":446000000000,"state":"active","ping":98},{"user_id":464,"name":"MayoMateo","steam_id":76561198360809933,"connected_time":31000000000,"state":"active","ping":46},{"user_id":465,"name":"menta fresca","steam_id":76561198086666486,"connected_time":18000000000,"state":"active","ping":53},{"user_id":427,"name":"Moomin","steam_id":76561198072726213,"connected_time":2996000000000,"state":"active","ping":42},{"user_id":400,"name":"Techo","steam_id":76561199169405285,"connected_time":4469000000000,"state":"active","ping":87},{"user_id":449,"name":"wapzoopa","steam_id":76561198880272344,"connected_time":1464000000000,"state":"active","ping":131}]},{"server_id":324,"name":"Uncletopia | Los Angeles | 3 | All Maps","name_short":"lax-3","host":"lax-1.us.uncletopia.com","port":27035,"enabled":true,"region":"us-west","cc":"us","latitude":33.94279,"longitude":-118.41004,"reserved":0,"last_update":"0001-01-01T00:00:00Z","name_a2s":"Uncletopia | Los Angeles | 3 | All Maps","protocol":17,"map":"pl_pier","folder":"tf","game":"Team Fortress","app_id":440,"player_count":24,"max_players":24,"Bots":0,"server_type":"Dedicated","server_os":"Linux","password":true,"vac":true,"version":"7932396","steam_id":85568392924510198,"keywords":["nocrits","nodmgspread","payload","uncletopia"],"game_id":440,"stv_port":27036,"stv_name":"Uncletopia | Los Angeles | 3 | All Maps | STV","players":[{"user_id":717,"name":"Lumberjane37 (She/Her)","steam_id":76561198014841793,"connected_time":949000000000,"state":"active","ping":68},{"user_id":728,"name":"Lightning Bolt 1O1","steam_id":76561199099630600,"connected_time":543000000000,"state":"active","ping":104},{"user_id":742,"name":"T√ºCold","steam_id":76561198111278197,"connected_time":28000000000,"state":"active","ping":60},{"user_id":731,"name":"Kar‚ä•","steam_id":76561198269578048,"connected_time":463000000000,"state":"active","ping":99},{"user_id":725,"name":"nascarfan1966","steam_id":76561198046972750,"connected_time":631000000000,"state":"active","ping":58},{"user_id":726,"name":"stellarscrubjay","steam_id":76561198043648175,"connected_time":610000000000,"state":"active","ping":97},{"user_id":727,"name":"American freedom bird","steam_id":76561198366142388,"connected_time":588000000000,"state":"active","ping":56},{"user_id":715,"name":"Lemon","steam_id":76561198119362095,"connected_time":1456000000000,"state":"active","ping":100},{"user_id":719,"name":"NaeNaeChungusBozo","steam_id":76561199446407203,"connected_time":803000000000,"state":"active","ping":150},{"user_id":729,"name":"ËÖêË¥•ÂíåÊùÉÂäõÈ••Ê∏¥","steam_id":76561198068672882,"connected_time":509000000000,"state":"active","ping":53},{"user_id":732,"name":"ronald","steam_id":76561197960691622,"connected_time":442000000000,"state":"active","ping":72},{"user_id":721,"name":"Jooooooooooof","steam_id":76561198255563395,"connected_time":742000000000,"state":"active","ping":60},{"user_id":733,"name":"goopgrabber","steam_id":76561199029951083,"connected_time":429000000000,"state":"active","ping":58},{"user_id":734,"name":"Funky Kong Jr.","steam_id":76561199351137762,"connected_time":384000000000,"state":"active","ping":84},{"user_id":739,"name":"SorcererMinty","steam_id":76561199185659553,"connected_time":128000000000,"state":"active","ping":93},{"user_id":687,"name":"HAT-WEARING‚Ñ¢ Maggot Gamer Cat","steam_id":76561197973992705,"connected_time":2475000000000,"state":"active","ping":70},{"user_id":735,"name":"Reptile DysFunktion","steam_id":76561198018725250,"connected_time":379000000000,"state":"active","ping":59},{"user_id":706,"name":"Big Boobs","steam_id":76561198401455467,"connected_time":1784000000000,"state":"active","ping":54},{"user_id":736,"name":"nelly modelo","steam_id":76561198044875206,"connected_time":325000000000,"state":"active","ping":69},{"user_id":654,"name":"Killing_Moon","steam_id":76561198028185566,"connected_time":4994000000000,"state":"active","ping":45},{"user_id":737,"name":"Marz","steam_id":76561198799364911,"connected_time":187000000000,"state":"active","ping":72},{"user_id":712,"name":"zinnk","steam_id":76561198092081825,"connected_time":1633000000000,"state":"active","ping":53},{"user_id":740,"name":"corncakecoolcat","steam_id":76561198090716968,"connected_time":54000000000,"state":"active","ping":106},{"user_id":741,"name":"VicLoL","steam_id":76561198045580784,"connected_time":51000000000,"state":"active","ping":59}]},{"server_id":25,"name":"Uncletopia | Los Angeles | 4 | Stopwatch Beta","name_short":"lax-4","host":"lax-1.us.uncletopia.com","port":27045,"enabled":true,"region":"us-west","cc":"us","latitude":33.94279,"longitude":-118.41004,"reserved":0,"last_update":"0001-01-01T00:00:00Z","name_a2s":"Uncletopia | Los Angeles | 4 | Stopwatch Beta","protocol":17,"map":"cp_granary","folder":"tf","game":"Team Fortress","app_id":440,"player_count":0,"max_players":24,"Bots":0,"server_type":"Dedicated","server_os":"Linux","password":true,"vac":true,"version":"7932396","steam_id":85568392924510199,"keywords":["cp","nocrits","nodmgspread","uncletopia"],"game_id":440,"stv_port":27046,"stv_name":"Uncletopia | Los Angeles | 4 | Stopwatch Beta | STV","players":null},{"server_id":11,"name":"Uncletopia | London | 1 | All Maps","name_short":"lon-1","host":"lon-1.uk.uncletopia.com","port":27015,"enabled":true,"region":"eu","cc":"gb","latitude":51.509865,"longitude":-0.118092,"reserved":0,"last_update":"0001-01-01T00:00:00Z","name_a2s":"Uncletopia | London | 1 | All Maps","protocol":17,"map":"koth_lakeside_final","folder":"tf","game":"Team Fortress","app_id":440,"player_count":0,"max_players":24,"Bots":0,"server_type":"Dedicated","server_os":"Linux","password":true,"vac":true,"version":"7932396","steam_id":85568392924367362,"keywords":["cp","nocrits","nodmgspread","uncletopia"],"game_id":440,"stv_port":27016,"stv_name":"Uncletopia | London | 1 | All Maps | STV","players":null},{"server_id":114,"name":"Uncletopia | London | 2 | All Maps","name_short":"lon-2","host":"lon-1.uk.uncletopia.com","port":27025,"enabled":true,"region":"eu","cc":"gb","latitude":51.509865,"longitude":-0.118092,"reserved":0,"last_update":"0001-01-01T00:00:00Z","name_a2s":"Uncletopia | London | 2 | All Maps","protocol":17,"map":"koth_highpass","folder":"tf","game":"Team Fortress","app_id":440,"player_count":0,"max_players":24,"Bots":0,"server_type":"Dedicated","server_os":"Linux","password":true,"vac":true,"version":"7932396","steam_id":85568392924470941,"keywords":["cp","nocrits","nodmgspread","uncletopia"],"game_id":440,"stv_port":27026,"stv_name":"Uncletopia | London | 2 | All Maps | STV","players":null},{"server_id":320,"name":"Uncletopia | London | 3 | All Maps","name_short":"lon-3","host":"lon-1.uk.uncletopia.com","port":27035,"enabled":true,"region":"eu","cc":"gb","latitude":51.509865,"longitude":-0.118092,"reserved":0,"last_update":"0001-01-01T00:00:00Z","name_a2s":"Uncletopia | London | 3 | All Maps","protocol":17,"map":"koth_highpass","folder":"tf","game":"Team Fortress","app_id":440,"player_count":0,"max_players":24,"Bots":0,"server_type":"Dedicated","server_os":"Linux","password":true,"vac":true,"version":"7932396","steam_id":85568392924510192,"keywords":["cp","nocrits","nodmgspread","uncletopia"],"game_id":440,"stv_port":27036,"stv_name":"Uncletopia | London | 3 | All Maps | STV","players":null},{"server_id":321,"name":"Uncletopia | London | 4 | All Maps","name_short":"lon-4","host":"lon-1.uk.uncletopia.com","port":27045,"enabled":true,"region":"eu","cc":"gb","latitude":51.509865,"longitude":-0.118092,"reserved":0,"last_update":"0001-01-01T00:00:00Z","name_a2s":"Uncletopia | London | 4 | All Maps","protocol":17,"map":"cp_dustbowl","folder":"tf","game":"Team Fortress","app_id":440,"player_count":24,"max_players":24,"Bots":0,"server_type":"Dedicated","server_os":"Linux","password":true,"vac":true,"version":"7932396","steam_id":85568392924510193,"keywords":["cp","nocrits","nodmgspread","uncletopia"],"game_id":440,"stv_port":27046,"stv_name":"Uncletopia | London | 4 | All Maps | STV","players":[{"user_id":520,"name":"Glitch","steam_id":76561198081895538,"connected_time":3023000000000,"state":"active","ping":55},{"user_id":561,"name":"barnkalassoldat","steam_id":76561198025513190,"connected_time":377000000000,"state":"active","ping":60},{"user_id":511,"name":"yuno appreciator","steam_id":76561198083286511,"connected_time":5889000000000,"state":"active","ping":37},{"user_id":525,"name":"4x Cookie Clicker World Champio","steam_id":76561198064778124,"connected_time":1869000000000,"state":"active","ping":45},{"user_id":545,"name":"Moonkey","steam_id":76561199013741389,"connected_time":1144000000000,"state":"active","ping":109},{"user_id":517,"name":"–ú–ì–ï –ö–ê–†–ê–ü–£–ó","steam_id":76561198184235809,"connected_time":4153000000000,"state":"active","ping":134},{"user_id":518,"name":"Scacery","steam_id":76561198382668057,"connected_time":4121000000000,"state":"active","ping":71},{"user_id":560,"name":"CollDragon","steam_id":76561198067534450,"connected_time":406000000000,"state":"active","ping":122},{"user_id":527,"name":"going bananas","steam_id":76561199480942903,"connected_time":1860000000000,"state":"active","ping":65},{"user_id":528,"name":"Arkainiel Silver","steam_id":76561198188302519,"connected_time":1851000000000,"state":"active","ping":62},{"user_id":556,"name":"Cornmac","steam_id":76561198104780569,"connected_time":750000000000,"state":"active","ping":66},{"user_id":562,"name":"Nateflapjack","steam_id":76561198251085402,"connected_time":356000000000,"state":"active","ping":127},{"user_id":554,"name":"UglyTwinYgor","steam_id":76561198132718039,"connected_time":810000000000,"state":"active","ping":85},{"user_id":541,"name":"KiT","steam_id":76561198043770371,"connected_time":1297000000000,"state":"active","ping":75},{"user_id":540,"name":"swagmaster9000","steam_id":76561198232259356,"connected_time":1389000000000,"state":"active","ping":69},{"user_id":535,"name":"screen name","steam_id":76561199085984801,"connected_time":1688000000000,"state":"active","ping":57},{"user_id":542,"name":"nug","steam_id":76561198055396568,"connected_time":1249000000000,"state":"active","ping":47},{"user_id":537,"name":"Jafar's Fault","steam_id":76561198079835794,"connected_time":1660000000000,"state":"active","ping":133},{"user_id":543,"name":"9734211","steam_id":76561197989919767,"connected_time":1235000000000,"state":"active","ping":109},{"user_id":546,"name":"Perpetual Pub Push","steam_id":76561198256714846,"connected_time":1128000000000,"state":"active","ping":44},{"user_id":547,"name":"Son Goku","steam_id":76561199383437138,"connected_time":1068000000000,"state":"active","ping":128},{"user_id":563,"name":"Mr. Durian","steam_id":76561198093813212,"connected_time":325000000000,"state":"active","ping":129},{"user_id":564,"name":"xulera","steam_id":76561198080736030,"connected_time":286000000000,"state":"active","ping":61},{"user_id":565,"name":"Peep","steam_id":76561198132508552,"connected_time":249000000000,"state":"active","ping":45}]},{"server_id":21,"name":"Uncletopia | London | 5 | All Maps","name_short":"lon-5","host":"lon-1.uk.uncletopia.com","port":27055,"enabled":true,"region":"eu","cc":"gb","latitude":51.509865,"longitude":-0.118092,"reserved":0,"last_update":"0001-01-01T00:00:00Z","name_a2s":"Uncletopia | London | 5 | All Maps","protocol":17,"map":"pl_snowycoast","folder":"tf","game":"Team Fortress","app_id":440,"player_count":0,"max_players":24,"Bots":0,"server_type":"Dedicated","server_os":"Linux","password":true,"vac":true,"version":"7932396","steam_id":85568392924742829,"keywords":["nocrits","nodmgspread","payload","uncletopia"],"game_id":440,"stv_port":27056,"stv_name":"Uncletopia | London | 5 | All Maps | STV","players":null},{"server_id":22,"name":"Uncletopia | London | 6 | All Maps","name_short":"lon-6","host":"lon-1.uk.uncletopia.com","port":27065,"enabled":true,"region":"eu","cc":"gb","latitude":51.509865,"longitude":-0.118092,"reserved":0,"last_update":"0001-01-01T00:00:00Z","name_a2s":"Uncletopia | London | 6 | All Maps","protocol":17,"map":"cp_altitude","folder":"tf","game":"Team Fortress","app_id":440,"player_count":0,"max_players":24,"Bots":0,"server_type":"Dedicated","server_os":"Linux","password":true,"vac":true,"version":"7932396","steam_id":85568392924742830,"keywords":["cp","nocrits","nodmgspread","uncletopia"],"game_id":440,"stv_port":27066,"stv_name":"Uncletopia | London | 6 | All Maps | STV","players":null},{"server_id":40,"name":"Uncletopia | London | 7 | No Payload","name_short":"lon-7","host":"lon-1.uk.uncletopia.com","port":27075,"enabled":true,"region":"eu","cc":"gb","latitude":51.509865,"longitude":-0.118092,"reserved":0,"last_update":"0001-01-01T00:00:00Z","name_a2s":"Uncletopia | London | 7 | No Payload","protocol":17,"map":"plr_hightower","folder":"tf","game":"Team Fortress","app_id":440,"player_count":0,"max_players":24,"Bots":0,"server_type":"Dedicated","server_os":"Linux","password":true,"vac":true,"version":"7932396","steam_id":85568392924964314,"keywords":["nocrits","nodmgspread","payload","uncletopia"],"game_id":440,"stv_port":27076,"stv_name":"Uncletopia | London | 7 | No Payload | STV","players":null},{"server_id":41,"name":"Uncletopia | London | 8 | Community","name_short":"lon-8","host":"lon-1.uk.uncletopia.com","port":27085,"enabled":true,"region":"eu","cc":"gb","latitude":51.509865,"longitude":-0.118092,"reserved":0,"last_update":"0001-01-01T00:00:00Z","name_a2s":"Uncletopia | London | 8 | Community","protocol":17,"map":"workshop/cp_sulfur_rc2.ugc619869471","folder":"tf","game":"Team Fortress","app_id":440,"player_count":0,"max_players":24,"Bots":0,"server_type":"Dedicated","server_os":"Linux","password":true,"vac":true,"version":"7932396","steam_id":85568392924964315,"keywords":["cp","nocrits","nodmgspread","uncletopia"],"game_id":440,"stv_port":27086,"stv_name":"Uncletopia | London | 8 | Community | STV","players":null},{"server_id":300,"name":"Uncletopia | Montr√©al | 1 | All Maps","name_short":"mtl-1","host":"mtl-1.ca.uncletopia.com","port":27015,"enabled":true,"region":"us-east","cc":"ca","latitude":45.50889,"longitude":-73.56167,"reserved":0,"last_update":"0001-01-01T00:00:00Z","name_a2s":"Uncletopia | Montr√©al | 1 | All Maps","protocol":17,"map":"pl_swiftwater_final1","folder":"tf","game":"Team Fortress","app_id":440,"player_count":24,"max_players":24,"Bots":0,"server_type":"Dedicated","server_os":"Linux","password":true,"vac":true,"version":"7932396","steam_id":85568392924500087,"keywords":["nocrits","nodmgspread","payload","uncletopia"],"game_id":440,"stv_port":27016,"stv_name":"Uncletopia | Montr√©al | 1 | All Maps | STV","players":[{"user_id":115,"name":"geniusgo","steam_id":76561198025064008,"connected_time":703000000000,"state":"active","ping":120},{"user_id":84,"name":"meowfang","steam_id":76561198123056791,"connected_time":2839000000000,"state":"active","ping":60},{"user_id":113,"name":"Subby Trans GF","steam_id":76561198096221632,"connected_time":807000000000,"state":"active","ping":69},{"user_id":72,"name":"KingCrawful","steam_id":76561198104291657,"connected_time":3346000000000,"state":"active","ping":43},{"user_id":9,"name":"Ourple Guy","steam_id":76561198254206671,"connected_time":8042000000000,"state":"active","ping":89},{"user_id":10,"name":"Awkidoo1012","steam_id":76561198257391091,"connected_time":8034000000000,"state":"active","ping":101},{"user_id":11,"name":"[VIBES] The Wind Player","steam_id":76561198194563393,"connected_time":8008000000000,"state":"active","ping":88},{"user_id":110,"name":"wabermelom :) | Pizzabot.tf","steam_id":76561198373703835,"connected_time":974000000000,"state":"active","ping":152},{"user_id":117,"name":"Tax evader","steam_id":76561199062081467,"connected_time":232000000000,"state":"active","ping":105},{"user_id":91,"name":"Nosidda","steam_id":76561198881024502,"connected_time":2512000000000,"state":"active","ping":70},{"user_id":85,"name":"Scrappy","steam_id":76561198093789113,"connected_time":2811000000000,"state":"active","ping":57},{"user_id":114,"name":"XxGockHaver69xX  trade.tf","steam_id":76561198276385778,"connected_time":795000000000,"state":"active","ping":114},{"user_id":79,"name":"AveraGeo","steam_id":76561198216949631,"connected_time":3045000000000,"state":"active","ping":81},{"user_id":67,"name":"trobin120","steam_id":76561199122420273,"connected_time":3709000000000,"state":"active","ping":57},{"user_id":118,"name":"River","steam_id":76561198137529294,"connected_time":226000000000,"state":"active","ping":53},{"user_id":95,"name":"totally not a pile of beans","steam_id":76561198119851931,"connected_time":2346000000000,"state":"active","ping":77},{"user_id":107,"name":"Epha","steam_id":76561198079379951,"connected_time":1731000000000,"state":"active","ping":60},{"user_id":99,"name":"Thurricane","steam_id":76561198410724666,"connected_time":2037000000000,"state":"active","ping":62},{"user_id":88,"name":"Bee_Pirate","steam_id":76561199000599111,"connected_time":2733000000000,"state":"active","ping":59},{"user_id":29,"name":"King Sans","steam_id":76561198294198517,"connected_time":7599000000000,"state":"active","ping":48},{"user_id":111,"name":"Chin, Bruce Lee's Relative","steam_id":76561198240105522,"connected_time":960000000000,"state":"active","ping":110},{"user_id":106,"name":"rach9411","steam_id":76561198256535721,"connected_time":1837000000000,"state":"active","ping":156},{"user_id":101,"name":"HundchenTanque","steam_id":76561198122692754,"connected_time":2020000000000,"state":"active","ping":31},{"user_id":57,"name":"MamaLuigi","steam_id":76561199054368008,"connected_time":5716000000000,"state":"active","ping":74}]},{"server_id":301,"name":"Uncletopia | Montr√©al | 2 | All Maps","name_short":"mtl-2","host":"mtl-1.ca.uncletopia.com","port":27025,"enabled":true,"region":"us-east","cc":"ca","latitude":45.50889,"longitude":-73.56167,"reserved":0,"last_update":"0001-01-01T00:00:00Z","name_a2s":"Uncletopia | Montr√©al | 2 | All Maps","protocol":17,"map":"cp_altitude","folder":"tf","game":"Team Fortress","app_id":440,"player_count":0,"max_players":24,"Bots":0,"server_type":"Dedicated","server_os":"Linux","password":true,"vac":true,"version":"7932396","steam_id":85568392924500088,"keywords":["cp","nocrits","nodmgspread","uncletopia"],"game_id":440,"stv_port":27026,"stv_name":"Uncletopia | Montr√©al | 2 | All Maps | STV","players":null},{"server_id":302,"name":"Uncletopia | Montr√©al | 3 | All Maps","name_short":"mtl-3","host":"mtl-1.ca.uncletopia.com","port":27035,"enabled":true,"region":"us-east","cc":"ca","latitude":45.50889,"longitude":-73.56167,"reserved":0,"last_update":"0001-01-01T00:00:00Z","name_a2s":"Uncletopia | Montr√©al | 3 | All Maps","protocol":17,"map":"pl_snowycoast","folder":"tf","game":"Team Fortress","app_id":440,"player_count":0,"max_players":24,"Bots":0,"server_type":"Dedicated","server_os":"Linux","password":true,"vac":true,"version":"7932396","steam_id":85568392924500089,"keywords":["nocrits","nodmgspread","payload","uncletopia"],"game_id":440,"stv_port":27036,"stv_name":"Uncletopia | Montr√©al | 3 | All Maps | STV","players":null},{"server_id":303,"name":"Uncletopia | Montr√©al | 4 | No Payload","name_short":"mtl-4","host":"mtl-1.ca.uncletopia.com","port":27045,"enabled":true,"region":"us-east","cc":"ca","latitude":45.50889,"longitude":-73.56167,"reserved":0,"last_update":"0001-01-01T00:00:00Z","name_a2s":"Uncletopia | Montr√©al | 4 | No Payload","protocol":17,"map":"cp_fastlane","folder":"tf","game":"Team Fortress","app_id":440,"player_count":0,"max_players":24,"Bots":0,"server_type":"Dedicated","server_os":"Linux","password":true,"vac":true,"version":"7932396","steam_id":85568392924500090,"keywords":["cp","nocrits","nodmgspread","uncletopia"],"game_id":440,"stv_port":27046,"stv_name":"Uncletopia | Montr√©al | 4 | No Payload | STV","players":null},{"server_id":13,"name":"Uncletopia | New York City | 1 | All Maps","name_short":"nyc-1","host":"nyc-1.us.uncletopia.com","port":27015,"enabled":true,"region":"us-east","cc":"us","latitude":40.73061,"longitude":-73.93524,"reserved":0,"last_update":"0001-01-01T00:00:00Z","name_a2s":"Uncletopia | New York City | 1 | All Maps","protocol":17,"map":"pl_upward","folder":"tf","game":"Team Fortress","app_id":440,"player_count":24,"max_players":24,"Bots":0,"server_type":"Dedicated","server_os":"Linux","password":true,"vac":true,"version":"7932396","steam_id":85568392924469993,"keywords":["nocrits","nodmgspread","payload","uncletopia"],"game_id":440,"stv_port":27016,"stv_name":"Uncletopia | New York City | 1 | All Maps | STV","players":[{"user_id":182,"name":"Dusty Bucket","steam_id":76561198037064732,"connected_time":1471000000000,"state":"active","ping":50},{"user_id":185,"name":"Weary","steam_id":76561198145767546,"connected_time":943000000000,"state":"active","ping":76},{"user_id":188,"name":"Doctor Vegeta","steam_id":76561198353898356,"connected_time":492000000000,"state":"active","ping":87},{"user_id":176,"name":"Gabagool","steam_id":76561198365935179,"connected_time":1605000000000,"state":"active","ping":89},{"user_id":172,"name":"0of64","steam_id":76561198376708545,"connected_time":2005000000000,"state":"active","ping":105},{"user_id":130,"name":"l4d2 marshall","steam_id":76561198042570322,"connected_time":6277000000000,"state":"active","ping":72},{"user_id":177,"name":"wise","steam_id":76561198030066204,"connected_time":1597000000000,"state":"active","ping":33},{"user_id":194,"name":"brioche","steam_id":76561198111547419,"connected_time":137000000000,"state":"active","ping":75},{"user_id":141,"name":"farfalle","steam_id":76561198882758067,"connected_time":3938000000000,"state":"active","ping":77},{"user_id":190,"name":"SgtHotLead","steam_id":76561197995477998,"connected_time":425000000000,"state":"active","ping":113},{"user_id":133,"name":"Horrizan","steam_id":76561197965028480,"connected_time":5463000000000,"state":"active","ping":85},{"user_id":186,"name":"The One True Luke","steam_id":76561198180891187,"connected_time":932000000000,"state":"active","ping":60},{"user_id":131,"name":"Makina","steam_id":76561198057475567,"connected_time":6272000000000,"state":"active","ping":88},{"user_id":179,"name":"Qwerty","steam_id":76561198023525894,"connected_time":1580000000000,"state":"active","ping":159},{"user_id":164,"name":"Raisincineroar","steam_id":76561198116295334,"connected_time":2289000000000,"state":"active","ping":59},{"user_id":165,"name":"NYC APPA YIP YIP","steam_id":76561198112929942,"connected_time":2257000000000,"state":"active","ping":52},{"user_id":152,"name":"Bert.","steam_id":76561198140666346,"connected_time":3615000000000,"state":"active","ping":48},{"user_id":181,"name":"Bewen","steam_id":76561198325334261,"connected_time":1485000000000,"state":"active","ping":43},{"user_id":195,"name":"ŒõLIVŒ£","steam_id":76561198117342640,"connected_time":135000000000,"state":"active","ping":132},{"user_id":191,"name":"erf","steam_id":76561198078203677,"connected_time":391000000000,"state":"active","ping":53},{"user_id":193,"name":"Flashtasm","steam_id":76561198026635660,"connected_time":251000000000,"state":"active","ping":79},{"user_id":132,"name":"Pizza","steam_id":76561198118748364,"connected_time":6015000000000,"state":"active","ping":75},{"user_id":174,"name":"NoarBear","steam_id":76561198145929802,"connected_time":1860000000000,"state":"active","ping":65},{"user_id":150,"name":"Monkey D. Management","steam_id":76561198400603422,"connected_time":3719000000000,"state":"active","ping":84}]},{"server_id":14,"name":"Uncletopia | New York City | 2 | All Maps","name_short":"nyc-2","host":"nyc-1.us.uncletopia.com","port":27025,"enabled":true,"region":"us-east","cc":"us","latitude":40.73061,"longitude":-73.93524,"reserved":0,"last_update":"0001-01-01T00:00:00Z","name_a2s":"Uncletopia | New York City | 2 | All Maps","protocol":17,"map":"plr_bananabay","folder":"tf","game":"Team Fortress","app_id":440,"player_count":24,"max_players":24,"Bots":0,"server_type":"Dedicated","server_os":"Linux","password":true,"vac":true,"version":"7932396","steam_id":85568392924469994,"keywords":["nocrits","nodmgspread","payload","uncletopia"],"game_id":440,"stv_port":27026,"stv_name":"Uncletopia | New York City | 2 | All Maps | STV","players":[{"user_id":161,"name":"papa","steam_id":76561198109308860,"connected_time":2831000000000,"state":"active","ping":52},{"user_id":168,"name":"2framespersec","steam_id":76561198994004371,"connected_time":2600000000000,"state":"active","ping":73},{"user_id":200,"name":"poke_ravi","steam_id":76561198006619886,"connected_time":411000000000,"state":"active","ping":55},{"user_id":174,"name":"Punkin","steam_id":76561198334301755,"connected_time":2444000000000,"state":"active","ping":53},{"user_id":170,"name":"toastman","steam_id":76561198207073088,"connected_time":2569000000000,"state":"active","ping":93},{"user_id":165,"name":"KayleMyself","steam_id":76561198100177108,"connected_time":2767000000000,"state":"active","ping":60},{"user_id":181,"name":"GoRgE","steam_id":76561198276743333,"connected_time":2297000000000,"state":"active","ping":71},{"user_id":160,"name":"Bort","steam_id":76561198048992198,"connected_time":2841000000000,"state":"active","ping":72},{"user_id":197,"name":"Tokyo_Timeshift_","steam_id":76561198048677523,"connected_time":600000000000,"state":"active","ping":64},{"user_id":166,"name":"Starfy_99","steam_id":76561198083608302,"connected_time":2756000000000,"state":"active","ping":73},{"user_id":163,"name":"menonamed","steam_id":76561198199564382,"connected_time":2821000000000,"state":"active","ping":58},{"user_id":198,"name":"dongus","steam_id":76561198042774930,"connected_time":594000000000,"state":"active","ping":143},{"user_id":120,"name":"BradB","steam_id":76561199163905036,"connected_time":6639000000000,"state":"active","ping":113},{"user_id":187,"name":"StraySheep","steam_id":76561198256003811,"connected_time":1742000000000,"state":"active","ping":54},{"user_id":192,"name":"DerpFamous","steam_id":76561198046167888,"connected_time":1234000000000,"state":"active","ping":53},{"user_id":175,"name":"Video Game Andy Reid","steam_id":76561198202195792,"connected_time":2444000000000,"state":"active","ping":48},{"user_id":199,"name":"P.C. Baby","steam_id":76561198067011379,"connected_time":591000000000,"state":"active","ping":145},{"user_id":185,"name":"Gentoo Linux Gaming","steam_id":76561197999657118,"connected_time":2021000000000,"state":"active","ping":66},{"user_id":156,"name":"Trouser Snivy","steam_id":76561198073788829,"connected_time":3731000000000,"state":"active","ping":145},{"user_id":136,"name":"minihoog","steam_id":76561198102156780,"connected_time":5327000000000,"state":"active","ping":71},{"user_id":184,"name":"FishNachoz","steam_id":76561198026519426,"connected_time":2086000000000,"state":"active","ping":117},{"user_id":194,"name":"Squope","steam_id":76561198983129293,"connected_time":1204000000000,"state":"active","ping":54},{"user_id":140,"name":"Autumn Clover","steam_id":76561198012295314,"connected_time":5300000000000,"state":"active","ping":66},{"user_id":141,"name":"Fifthcrusade1","steam_id":76561198142136640,"connected_time":5299000000000,"state":"active","ping":92}]},{"server_id":15,"name":"Uncletopia | New York City | 3 | Stopwatch Beta","name_short":"nyc-3","host":"nyc-1.us.uncletopia.com","port":27035,"enabled":true,"region":"us-east","cc":"us","latitude":40.73061,"longitude":-73.93524,"reserved":0,"last_update":"0001-01-01T00:00:00Z","name_a2s":"Uncletopia | New York City | 3 | Stopwatch Beta","protocol":17,"map":"workshop/koth_ashville_final.ugc2130459942","folder":"tf","game":"Team Fortress","app_id":440,"player_count":0,"max_players":24,"Bots":0,"server_type":"Dedicated","server_os":"Linux","password":true,"vac":true,"version":"7932396","steam_id":85568392924742820,"keywords":["cp","nocrits","nodmgspread","uncletopia"],"game_id":440,"stv_port":27036,"stv_name":"Uncletopia | New York City | 3 | Stopwatch Beta | STV","players":null},{"server_id":16,"name":"Uncletopia | New York City | 4 | Community","name_short":"nyc-4","host":"nyc-1.us.uncletopia.com","port":27045,"enabled":true,"region":"us-east","cc":"us","latitude":40.73061,"longitude":-73.93524,"reserved":0,"last_update":"0001-01-01T00:00:00Z","name_a2s":"Uncletopia | New York City | 4 | Community","protocol":17,"map":"workshop/cp_logjam_rc12.ugc454812035","folder":"tf","game":"Team Fortress","app_id":440,"player_count":0,"max_players":24,"Bots":0,"server_type":"Dedicated","server_os":"Linux","password":true,"vac":true,"version":"7932396","steam_id":85568392924742821,"keywords":["cp","nocrits","nodmgspread","uncletopia"],"game_id":440,"stv_port":27046,"stv_name":"Uncletopia | New York City | 4 | Community | STV","players":null},{"server_id":142,"name":"Uncletopia | S√£o Paulo | 1 | All Maps","name_short":"sao-1","host":"sao-1.br.uncletopia.com","port":27015,"enabled":true,"region":"sa","cc":"br","latitude":-23.533773,"longitude":-46.62529,"reserved":0,"last_update":"0001-01-01T00:00:00Z","name_a2s":"Uncletopia | S√£o Paulo | 1 | All Maps","protocol":17,"map":"pl_pier","folder":"tf","game":"Team Fortress","app_id":440,"player_count":0,"max_players":24,"Bots":0,"server_type":"Dedicated","server_os":"Linux","password":true,"vac":true,"version":"7932396","steam_id":85568392924469996,"keywords":["nocrits","nodmgspread","payload","uncletopia"],"game_id":440,"stv_port":27016,"stv_name":"Uncletopia | S√£o Paulo | 1 | All Maps | STV","players":null},{"server_id":143,"name":"Uncletopia | S√£o Paulo | 2 | All Maps","name_short":"sao-2","host":"sao-2.br.uncletopia.com","port":27015,"enabled":true,"region":"sa","cc":"br","latitude":-23.533773,"longitude":-46.62529,"reserved":0,"last_update":"0001-01-01T00:00:00Z","name_a2s":"Uncletopia | S√£o Paulo | 2 | All Maps","protocol":17,"map":"pl_badwater","folder":"tf","game":"Team Fortress","app_id":440,"player_count":0,"max_players":24,"Bots":0,"server_type":"Dedicated","server_os":"Linux","password":true,"vac":true,"version":"7932396","steam_id":85568392924485349,"keywords":["nocrits","nodmgspread","payload","uncletopia"],"game_id":440,"stv_port":27016,"stv_name":"Uncletopia | S√£o Paulo | 2 | All Maps | STV","players":null},{"server_id":7,"name":"Uncletopia | Seattle | 1 | All Maps","name_short":"sea-1","host":"sea-1.us.uncletopia.com","port":27015,"enabled":true,"region":"us-west","cc":"us","latitude":47.608013,"longitude":-122.33517,"reserved":0,"last_update":"0001-01-01T00:00:00Z","name_a2s":"Uncletopia | Seattle | 1 | All Maps","protocol":17,"map":"pl_borneo","folder":"tf","game":"Team Fortress","app_id":440,"player_count":24,"max_players":24,"Bots":0,"server_type":"Dedicated","server_os":"Linux","password":true,"vac":true,"version":"7932396","steam_id":85568392924469997,"keywords":["nocrits","nodmgspread","payload","uncletopia"],"game_id":440,"stv_port":27016,"stv_name":"Uncletopia | Seattle | 1 | All Maps | STV","players":[{"user_id":716,"name":"ORANGE","steam_id":76561198000401769,"connected_time":4667000000000,"state":"active","ping":47},{"user_id":692,"name":"Taco+Taco=Burrito","steam_id":76561198063128663,"connected_time":6423000000000,"state":"active","ping":81},{"user_id":675,"name":"NeptuneÀñ‚Å∫ÔΩ°Àö‚ãÜÀô‚ô•","steam_id":76561199054203198,"connected_time":8058000000000,"state":"active","ping":154},{"user_id":717,"name":"L√© Mon","steam_id":76561198078626283,"connected_time":4553000000000,"state":"active","ping":121},{"user_id":745,"name":"Skabbety","steam_id":76561198168044257,"connected_time":505000000000,"state":"active","ping":40},{"user_id":730,"name":"Super Shia 2","steam_id":76561198271939793,"connected_time":3153000000000,"state":"active","ping":48},{"user_id":677,"name":"lasky","steam_id":76561198017030029,"connected_time":7701000000000,"state":"active","ping":101},{"user_id":741,"name":"Jacobzeba01","steam_id":76561198131808718,"connected_time":718000000000,"state":"active","ping":78},{"user_id":735,"name":"Skoad","steam_id":76561198104650528,"connected_time":2230000000000,"state":"active","ping":65},{"user_id":654,"name":"HaphazardHazel","steam_id":76561198316812693,"connected_time":9927000000000,"state":"active","ping":134},{"user_id":744,"name":"soup","steam_id":76561198043209046,"connected_time":629000000000,"state":"active","ping":81},{"user_id":724,"name":"Keamy","steam_id":76561199471434875,"connected_time":3907000000000,"state":"active","ping":44},{"user_id":740,"name":"Ayayayayayahuasca","steam_id":76561199002906056,"connected_time":728000000000,"state":"active","ping":53},{"user_id":589,"name":"The King of Piss World","steam_id":76561198082806956,"connected_time":12012000000000,"state":"active","ping":179},{"user_id":742,"name":"dust | she/it","steam_id":76561198045218909,"connected_time":715000000000,"state":"active","ping":44},{"user_id":739,"name":"GudeGuy","steam_id":76561198011801747,"connected_time":731000000000,"state":"active","ping":61},{"user_id":725,"name":"TheXayol","steam_id":76561199177408516,"connected_time":3904000000000,"state":"active","ping":138},{"user_id":748,"name":"zionheart","steam_id":76561198384048642,"connected_time":104000000000,"state":"active","ping":89},{"user_id":749,"name":"Cr0wD3r","steam_id":76561198153612764,"connected_time":65000000000,"state":"active","ping":100},{"user_id":738,"name":"NEBULA","steam_id":76561198086878595,"connected_time":1104000000000,"state":"active","ping":100},{"user_id":743,"name":"CykoCI","steam_id":76561199069161030,"connected_time":710000000000,"state":"active","ping":84},{"user_id":682,"name":"Nukenfutz","steam_id":76561198135666783,"connected_time":7473000000000,"state":"active","ping":47},{"user_id":729,"name":"hi","steam_id":76561198345528370,"connected_time":3206000000000,"state":"active","ping":90},{"user_id":727,"name":"Dr.LeatherPsycho","steam_id":76561198800480998,"connected_time":3900000000000,"state":"active","ping":84}]},{"server_id":119,"name":"Uncletopia | Seattle | 2 | All Maps","name_short":"sea-2","host":"sea-1.us.uncletopia.com","port":27025,"enabled":true,"region":"us-west","cc":"us","latitude":47.608013,"longitude":-122.33517,"reserved":0,"last_update":"0001-01-01T00:00:00Z","name_a2s":"Uncletopia | Seattle | 2 | All Maps","protocol":17,"map":"ctf_well","folder":"tf","game":"Team Fortress","app_id":440,"player_count":18,"max_players":24,"Bots":0,"server_type":"Dedicated","server_os":"Linux","password":true,"vac":true,"version":"7932396","steam_id":85568392924469998,"keywords":["ctf","nocrits","nodmgspread","uncletopia"],"game_id":440,"stv_port":27026,"stv_name":"Uncletopia | Seattle | 2 | All Maps | STV","players":[{"user_id":446,"name":"a cat plushie","steam_id":76561198080046542,"connected_time":6392000000000,"state":"active","ping":47},{"user_id":527,"name":"gunnarrevel","steam_id":76561198842854582,"connected_time":143000000000,"state":"active","ping":58},{"user_id":466,"name":"clooblert","steam_id":76561199199697406,"connected_time":4168000000000,"state":"active","ping":51},{"user_id":531,"name":"TGGHaze gaming","steam_id":76561199134730784,"connected_time":24000000000,"state":"active","ping":125},{"user_id":511,"name":"mooney","steam_id":76561199110622484,"connected_time":1490000000000,"state":"active","ping":56},{"user_id":519,"name":"NewGuy","steam_id":76561198968058652,"connected_time":414000000000,"state":"active","ping":47},{"user_id":521,"name":"Seriously Bruh","steam_id":76561198070408485,"connected_time":349000000000,"state":"active","ping":60},{"user_id":494,"name":"gardinmj20","steam_id":76561198371414096,"connected_time":2710000000000,"state":"active","ping":45},{"user_id":523,"name":"buddha","steam_id":76561198824691581,"connected_time":296000000000,"state":"active","ping":88},{"user_id":524,"name":"SvicidalBug","steam_id":76561198221390504,"connected_time":271000000000,"state":"active","ping":90},{"user_id":528,"name":"PokemzX","steam_id":76561198303574256,"connected_time":123000000000,"state":"active","ping":41},{"user_id":529,"name":"Johnny","steam_id":76561198863990329,"connected_time":89000000000,"state":"active","ping":91},{"user_id":532,"name":"RainboomCrash","steam_id":76561198065612273,"connected_time":20000000000,"state":"active","ping":45},{"user_id":395,"name":"ilun","steam_id":76561198042913843,"connected_time":9345000000000,"state":"active","ping":59},{"user_id":530,"name":"cataconik","steam_id":76561198145530829,"connected_time":46000000000,"state":"active","ping":116},{"user_id":533,"name":"Dr.Longmont","steam_id":76561198035566337,"connected_time":10000000000,"state":"spawning","ping":150},{"user_id":508,"name":"OpossumStyle","steam_id":76561199230107171,"connected_time":1663000000000,"state":"active","ping":99},{"user_id":497,"name":"J O S H¬≥¬≤","steam_id":76561198122603779,"connected_time":2364000000000,"state":"active","ping":67}]},{"server_id":406,"name":"Uncletopia | Seattle | 3 | Stopwatch Beta","name_short":"sea-3","host":"sea-1.us.uncletopia.com","port":27035,"enabled":true,"region":"us-west","cc":"us","latitude":47.608013,"longitude":-122.33517,"reserved":0,"last_update":"0001-01-01T00:00:00Z","name_a2s":"Uncletopia | Seattle | 3 | Stopwatch Beta","protocol":17,"map":"pl_borneo","folder":"tf","game":"Team Fortress","app_id":440,"player_count":0,"max_players":24,"Bots":0,"server_type":"Dedicated","server_os":"Linux","password":true,"vac":true,"version":"7932396","steam_id":85568392924515217,"keywords":["nocrits","nodmgspread","payload","uncletopia"],"game_id":440,"stv_port":27036,"stv_name":"Uncletopia | Seattle | 3 | Stopwatch Beta | STV","players":null},{"server_id":17,"name":"Uncletopia | San Francisco | 1 | All Maps","name_short":"sfo-1","host":"sfo-1.us.uncletopia.com","port":27015,"enabled":true,"region":"us-west","cc":"us","latitude":37.77397,"longitude":-122.4313,"reserved":0,"last_update":"0001-01-01T00:00:00Z","name_a2s":"Uncletopia | San Francisco | 1 | All Maps","protocol":17,"map":"pl_barnblitz","folder":"tf","game":"Team Fortress","app_id":440,"player_count":24,"max_players":24,"Bots":0,"server_type":"Dedicated","server_os":"Linux","password":true,"vac":true,"version":"7932396","steam_id":85568392924469999,"keywords":["nocrits","nodmgspread","payload","uncletopia"],"game_id":440,"stv_port":27016,"stv_name":"Uncletopia | San Francisco | 1 | All Maps | STV","players":[{"user_id":386,"name":"pwadvisor1","steam_id":76561199230039839,"connected_time":1013000000000,"state":"active","ping":71},{"user_id":377,"name":"Dan","steam_id":76561198205054883,"connected_time":2297000000000,"state":"active","ping":82},{"user_id":387,"name":"MelterMan","steam_id":76561198389802335,"connected_time":979000000000,"state":"active","ping":75},{"user_id":374,"name":"MrYadaization","steam_id":76561198050770818,"connected_time":2379000000000,"state":"active","ping":76},{"user_id":371,"name":"Doony","steam_id":76561198073472571,"connected_time":3025000000000,"state":"active","ping":62},{"user_id":350,"name":"LockHeart","steam_id":76561198868205853,"connected_time":4845000000000,"state":"active","ping":54},{"user_id":271,"name":"[DATS‚û°] Sugar Meowth","steam_id":76561197995251793,"connected_time":10069000000000,"state":"active","ping":60},{"user_id":388,"name":"Limbo","steam_id":76561198391827925,"connected_time":954000000000,"state":"active","ping":113},{"user_id":389,"name":"Rix FPV","steam_id":76561198299320893,"connected_time":940000000000,"state":"active","ping":116},{"user_id":368,"name":"lilixdust","steam_id":76561199391478575,"connected_time":3479000000000,"state":"active","ping":83},{"user_id":397,"name":"DrWilloughby","steam_id":76561198095260357,"connected_time":404000000000,"state":"active","ping":85},{"user_id":398,"name":"chilis baby back ribs","steam_id":76561198813516435,"connected_time":227000000000,"state":"active","ping":54},{"user_id":379,"name":"croissantcrusader","steam_id":76561198813533235,"connected_time":2123000000000,"state":"active","ping":108},{"user_id":380,"name":"no brain","steam_id":76561198451032322,"connected_time":2122000000000,"state":"active","ping":115},{"user_id":351,"name":"minerkid2004","steam_id":76561198044262827,"connected_time":4841000000000,"state":"active","ping":47},{"user_id":352,"name":"Argon","steam_id":76561199254804349,"connected_time":4835000000000,"state":"active","ping":145},{"user_id":382,"name":"Higuma","steam_id":76561198375229012,"connected_time":1918000000000,"state":"active","ping":62},{"user_id":391,"name":"TheTroller1Billion","steam_id":76561198328017774,"connected_time":923000000000,"state":"active","ping":66},{"user_id":395,"name":"HuntBunt","steam_id":76561199055381357,"connected_time":806000000000,"state":"active","ping":102},{"user_id":385,"name":"Alex","steam_id":76561198140423612,"connected_time":1381000000000,"state":"active","ping":72},{"user_id":384,"name":"MasterGeek.MX","steam_id":76561198063355220,"connected_time":1807000000000,"state":"active","ping":145},{"user_id":393,"name":"Snake Handler","steam_id":76561198027198306,"connected_time":889000000000,"state":"active","ping":114},{"user_id":309,"name":"Ian","steam_id":76561198159334435,"connected_time":7739000000000,"state":"active","ping":180},{"user_id":394,"name":"what da dog doin","steam_id":76561198090573639,"connected_time":860000000000,"state":"active","ping":59}]},{"server_id":18,"name":"Uncletopia | San Francisco | 2 | All Maps","name_short":"sfo-2","host":"sfo-1.us.uncletopia.com","port":27025,"enabled":true,"region":"us-west","cc":"us","latitude":37.77397,"longitude":-122.4313,"reserved":0,"last_update":"0001-01-01T00:00:00Z","name_a2s":"Uncletopia | San Francisco | 2 | All Maps","protocol":17,"map":"pl_barnblitz","folder":"tf","game":"Team Fortress","app_id":440,"player_count":20,"max_players":24,"Bots":0,"server_type":"Dedicated","server_os":"Linux","password":true,"vac":true,"version":"7932396","steam_id":85568392924470000,"keywords":["nocrits","nodmgspread","payload","uncletopia"],"game_id":440,"stv_port":27026,"stv_name":"Uncletopia | San Francisco | 2 | All Maps | STV","players":[{"user_id":28,"name":"LEE","steam_id":76561199127408846,"connected_time":8164000000000,"state":"active","ping":64},{"user_id":125,"name":"naturia","steam_id":76561198092317849,"connected_time":211000000000,"state":"active","ping":53},{"user_id":87,"name":"Aura","steam_id":76561198149941542,"connected_time":3146000000000,"state":"active","ping":83},{"user_id":115,"name":"Your Trans Maiden","steam_id":76561199035402139,"connected_time":762000000000,"state":"active","ping":65},{"user_id":88,"name":"Stick","steam_id":76561198001509374,"connected_time":3143000000000,"state":"active","ping":80},{"user_id":128,"name":"Florist","steam_id":76561198009121060,"connected_time":90000000000,"state":"active","ping":61},{"user_id":21,"name":"crack addict","steam_id":76561199338554815,"connected_time":8423000000000,"state":"active","ping":76},{"user_id":126,"name":"sams","steam_id":76561199093161260,"connected_time":198000000000,"state":"active","ping":56},{"user_id":114,"name":"Yogi Bear","steam_id":76561198250220746,"connected_time":847000000000,"state":"active","ping":57},{"user_id":67,"name":"sincerelymagicmeister","steam_id":76561198393923543,"connected_time":4741000000000,"state":"active","ping":70},{"user_id":120,"name":"Mr. Carfox","steam_id":76561198041664428,"connected_time":308000000000,"state":"active","ping":46},{"user_id":127,"name":"-_-","steam_id":76561198048754646,"connected_time":172000000000,"state":"active","ping":56},{"user_id":112,"name":"riSygneD","steam_id":76561198331618687,"connected_time":1143000000000,"state":"active","ping":45},{"user_id":116,"name":"H-keyLF","steam_id":76561198376014891,"connected_time":750000000000,"state":"active","ping":48},{"user_id":89,"name":"MoreRaptor360","steam_id":76561198318219638,"connected_time":3133000000000,"state":"active","ping":63},{"user_id":91,"name":"Rowdy Riot","steam_id":76561198037734418,"connected_time":2943000000000,"state":"active","ping":97},{"user_id":108,"name":"el wokismo","steam_id":76561198058617608,"connected_time":1740000000000,"state":"active","ping":61},{"user_id":118,"name":"Iadork","steam_id":76561198405128441,"connected_time":747000000000,"state":"active","ping":101},{"user_id":113,"name":"iamoctopii","steam_id":76561198876901076,"connected_time":988000000000,"state":"active","ping":160},{"user_id":96,"name":"superdupernoperscoper","steam_id":76561198146943449,"connected_time":2844000000000,"state":"active","ping":136}]},{"server_id":19,"name":"Uncletopia | San Francisco | 3 | Stopwatch Beta","name_short":"sfo-3","host":"sfo-1.us.uncletopia.com","port":27035,"enabled":true,"region":"us-west","cc":"us","latitude":37.77397,"longitude":-122.4313,"reserved":0,"last_update":"0001-01-01T00:00:00Z","name_a2s":"Uncletopia | San Francisco | 3 | Stopwatch Beta","protocol":17,"map":"workshop/koth_product_final.ugc454272353","folder":"tf","game":"Team Fortress","app_id":440,"player_count":6,"max_players":24,"Bots":0,"server_type":"Dedicated","server_os":"Linux","password":true,"vac":true,"version":"7932396","steam_id":85568392924742824,"keywords":["cp","nocrits","nodmgspread","uncletopia"],"game_id":440,"stv_port":27036,"stv_name":"Uncletopia | San Francisco | 3 | Stopwatch Beta | STV","players":[{"user_id":21,"name":"JC The Dumb","steam_id":76561199186185567,"connected_time":1572000000000,"state":"active","ping":54},{"user_id":22,"name":"HawkBlaze","steam_id":76561199000152914,"connected_time":1550000000000,"state":"active","ping":56},{"user_id":23,"name":"trevoratesta","steam_id":76561199070289877,"connected_time":1541000000000,"state":"active","ping":64},{"user_id":25,"name":"Varie","steam_id":76561199454930210,"connected_time":687000000000,"state":"active","ping":130},{"user_id":26,"name":"The_RainbowTrout","steam_id":76561199309554436,"connected_time":281000000000,"state":"active","ping":56},{"user_id":27,"name":"mewop","steam_id":76561198840465284,"connected_time":87000000000,"state":"active","ping":64}]},{"server_id":20,"name":"Uncletopia | San Francisco | 4 | Community","name_short":"sfo-4","host":"sfo-1.us.uncletopia.com","port":27045,"enabled":true,"region":"us-west","cc":"us","latitude":37.77397,"longitude":-122.4313,"reserved":0,"last_update":"0001-01-01T00:00:00Z","name_a2s":"Uncletopia | San Francisco | 4 | Community","protocol":17,"map":"workshop/koth_kemptown_rc1.ugc767410655","folder":"tf","game":"Team Fortress","app_id":440,"player_count":0,"max_players":24,"Bots":0,"server_type":"Dedicated","server_os":"Linux","password":true,"vac":true,"version":"7932396","steam_id":85568392924742826,"keywords":["cp","nocrits","nodmgspread","uncletopia"],"game_id":440,"stv_port":27046,"stv_name":"Uncletopia | San Francisco | 4 | Community | STV","players":null},{"server_id":141,"name":"Uncletopia | Sydney | 1 | All Maps","name_short":"syd-1","host":"syd-1.au.uncletopia.com","port":27015,"enabled":true,"region":"au","cc":"au","latitude":-33.865143,"longitude":151.2099,"reserved":0,"last_update":"0001-01-01T00:00:00Z","name_a2s":"Uncletopia | Sydney | 1 | All Maps","protocol":17,"map":"koth_cascade","folder":"tf","game":"Team Fortress","app_id":440,"player_count":0,"max_players":24,"Bots":0,"server_type":"Dedicated","server_os":"Linux","password":true,"vac":true,"version":"7932396","steam_id":85568392924470001,"keywords":["cp","nocrits","nodmgspread","uncletopia"],"game_id":440,"stv_port":27016,"stv_name":"Uncletopia | Sydney | 1 | All Maps | STV","players":null},{"server_id":123,"name":"Uncletopia | Sydney | 2 | All Maps","name_short":"syd-2","host":"syd-1.au.uncletopia.com","port":27025,"enabled":true,"region":"au","cc":"au","latitude":-33.865143,"longitude":151.2099,"reserved":0,"last_update":"0001-01-01T00:00:00Z","name_a2s":"Uncletopia | Sydney | 2 | All Maps","protocol":17,"map":"cp_sunshine","folder":"tf","game":"Team Fortress","app_id":440,"player_count":0,"max_players":24,"Bots":0,"server_type":"Dedicated","server_os":"Linux","password":true,"vac":true,"version":"7932396","steam_id":85568392924470002,"keywords":["cp","nocrits","nodmgspread","uncletopia"],"game_id":440,"stv_port":27026,"stv_name":"Uncletopia | Sydney | 2 | All Maps | STV","players":null},{"server_id":395,"name":"Uncletopia | Sydney | 3 | All Maps","name_short":"syd-3","host":"syd-1.au.uncletopia.com","port":27035,"enabled":true,"region":"au","cc":"au","latitude":-33.865143,"longitude":151.2099,"reserved":0,"last_update":"0001-01-01T00:00:00Z","name_a2s":"Uncletopia | Sydney | 3 | All Maps","protocol":17,"map":"cp_dustbowl","folder":"tf","game":"Team Fortress","app_id":440,"player_count":1,"max_players":24,"Bots":0,"server_type":"Dedicated","server_os":"Linux","password":true,"vac":true,"version":"7932396","steam_id":85568392925194467,"keywords":["cp","nocrits","nodmgspread","uncletopia"],"game_id":440,"stv_port":27036,"stv_name":"Uncletopia | Sydney | 3 | All Maps | STV","players":[{"user_id":29,"name":"oomper","steam_id":76561199189982701,"connected_time":518000000000,"state":"active","ping":237}]},{"server_id":396,"name":"Uncletopia | Sydney | 4 | All Maps","name_short":"syd-4","host":"syd-1.au.uncletopia.com","port":27045,"enabled":true,"region":"au","cc":"au","latitude":-33.865143,"longitude":151.2099,"reserved":0,"last_update":"0001-01-01T00:00:00Z","name_a2s":"Uncletopia | Sydney | 4 | All Maps","protocol":17,"map":"cp_sunshine","folder":"tf","game":"Team Fortress","app_id":440,"player_count":0,"max_players":24,"Bots":0,"server_type":"Dedicated","server_os":"Linux","password":true,"vac":true,"version":"7932396","steam_id":85568392925397958,"keywords":["cp","nocrits","nodmgspread","uncletopia"],"game_id":440,"stv_port":27046,"stv_name":"Uncletopia | Sydney | 4 | All Maps | STV","players":null},{"server_id":58,"name":"Uncletopia | Sydney | 5 | Stopwatch Beta","name_short":"syd-5","host":"syd-1.au.uncletopia.com","port":27055,"enabled":true,"region":"au","cc":"au","latitude":-33.865143,"longitude":151.2099,"reserved":0,"last_update":"0001-01-01T00:00:00Z","name_a2s":"Uncletopia | Sydney | 5 | Stopwatch Beta","protocol":17,"map":"pl_borneo","folder":"tf","game":"Team Fortress","app_id":440,"player_count":0,"max_players":24,"Bots":0,"server_type":"Dedicated","server_os":"Linux","password":true,"vac":true,"version":"7932396","steam_id":85568392925397959,"keywords":["nocrits","nodmgspread","payload","uncletopia"],"game_id":440,"stv_port":27056,"stv_name":"Uncletopia | Sydney | 5 | Stopwatch Beta | STV","players":null},{"server_id":59,"name":"Uncletopia | Sydney | 6 | Community","name_short":"syd-6","host":"syd-1.au.uncletopia.com","port":27065,"enabled":true,"region":"au","cc":"au","latitude":-33.865143,"longitude":151.2099,"reserved":0,"last_update":"0001-01-01T00:00:00Z","name_a2s":"Uncletopia | Sydney | 6 | Community","protocol":17,"map":"workshop/cp_glacier_rc6.ugc2905735376","folder":"tf","game":"Team Fortress","app_id":440,"player_count":0,"max_players":24,"Bots":0,"server_type":"Dedicated","server_os":"Linux","password":true,"vac":true,"version":"7932396","steam_id":85568392925397960,"keywords":["cp","nocrits","nodmgspread","uncletopia"],"game_id":440,"stv_port":27066,"stv_name":"Uncletopia | Sydney | 6 | Community | STV","players":null},{"server_id":49,"name":"Uncletopia | Warsaw | 1 | All Maps","name_short":"waw-1","host":"waw-1.pl.uncletopia.com","port":27015,"enabled":true,"region":"eu","cc":"pl","latitude":52.2297,"longitude":21.017532,"reserved":0,"last_update":"0001-01-01T00:00:00Z","name_a2s":"","protocol":0,"map":"","folder":"","game":"","app_id":0,"player_count":0,"max_players":0,"Bots":0,"server_type":"","server_os":"","password":false,"vac":false,"version":"","steam_id":0,"keywords":null,"game_id":0,"stv_port":0,"stv_name":"","players":null},{"server_id":50,"name":"Uncletopia | Warsaw | 2 | All Maps","name_short":"waw-2","host":"waw-1.pl.uncletopia.com","port":27025,"enabled":true,"region":"eu","cc":"pl","latitude":52.2297,"longitude":21.017532,"reserved":0,"last_update":"0001-01-01T00:00:00Z","name_a2s":"Uncletopia | Warsaw | 2 | All Maps","protocol":17,"map":"koth_highpass","folder":"tf","game":"Team Fortress","app_id":440,"player_count":0,"max_players":24,"Bots":0,"server_type":"Dedicated","server_os":"Linux","password":true,"vac":true,"version":"7932396","steam_id":85568392925397851,"keywords":["cp","nocrits","nodmgspread","uncletopia"],"game_id":440,"stv_port":27026,"stv_name":"Uncletopia | Warsaw | 2 | All Maps | STV","players":null},{"server_id":51,"name":"Uncletopia | Warsaw | 3 | All Maps","name_short":"waw-3","host":"waw-1.pl.uncletopia.com","port":27035,"enabled":true,"region":"eu","cc":"pl","latitude":52.2297,"longitude":21.017532,"reserved":0,"last_update":"0001-01-01T00:00:00Z","name_a2s":"Uncletopia | Warsaw | 3 | All Maps","protocol":17,"map":"koth_lakeside_final","folder":"tf","game":"Team Fortress","app_id":440,"player_count":0,"max_players":24,"Bots":0,"server_type":"Dedicated","server_os":"Linux","password":true,"vac":true,"version":"7932396","steam_id":85568392925397852,"keywords":["cp","nocrits","nodmgspread","uncletopia"],"game_id":440,"stv_port":27036,"stv_name":"Uncletopia | Warsaw | 3 | All Maps | STV","players":null},{"server_id":52,"name":"Uncletopia | Warsaw | 4 | All Maps","name_short":"waw-4","host":"waw-1.pl.uncletopia.com","port":27045,"enabled":true,"region":"eu","cc":"pl","latitude":52.2297,"longitude":21.017532,"reserved":0,"last_update":"0001-01-01T00:00:00Z","name_a2s":"Uncletopia | Warsaw | 4 | All Maps","protocol":17,"map":"koth_lakeside_final","folder":"tf","game":"Team Fortress","app_id":440,"player_count":0,"max_players":24,"Bots":0,"server_type":"Dedicated","server_os":"Linux","password":true,"vac":true,"version":"7932396","steam_id":85568392925397853,"keywords":["cp","nocrits","nodmgspread","uncletopia"],"game_id":440,"stv_port":27046,"stv_name":"Uncletopia | Warsaw | 4 | All Maps | STV","players":null},{"server_id":53,"name":"Uncletopia | Warsaw | 5 | Stopwatch Beta","name_short":"waw-5","host":"waw-1.pl.uncletopia.com","port":27055,"enabled":true,"region":"eu","cc":"pl","latitude":52.2297,"longitude":21.017532,"reserved":0,"last_update":"0001-01-01T00:00:00Z","name_a2s":"Uncletopia | Warsaw | 5 | Stopwatch Beta","protocol":17,"map":"workshop/koth_ramjam_rc1.ugc459778887","folder":"tf","game":"Team Fortress","app_id":440,"player_count":0,"max_players":24,"Bots":0,"server_type":"Dedicated","server_os":"Linux","password":true,"vac":true,"version":"7932396","steam_id":85568392925397854,"keywords":["cp","nocrits","nodmgspread","uncletopia"],"game_id":440,"stv_port":27056,"stv_name":"Uncletopia | Warsaw | 5 | Stopwatch Beta | STV","players":null},{"server_id":54,"name":"Uncletopia | Warsaw | 6 | Community","name_short":"waw-6","host":"waw-1.pl.uncletopia.com","port":27065,"enabled":true,"region":"eu","cc":"pl","latitude":52.2297,"longitude":21.017532,"reserved":0,"last_update":"0001-01-01T00:00:00Z","name_a2s":"Uncletopia | Warsaw | 6 | Community","protocol":17,"map":"workshop/koth_product_final.ugc454272353","folder":"tf","game":"Team Fortress","app_id":440,"player_count":0,"max_players":24,"Bots":0,"server_type":"Dedicated","server_os":"Linux","password":true,"vac":true,"version":"7932396","steam_id":85568392925397856,"keywords":["cp","nocrits","nodmgspread","uncletopia"],"game_id":440,"stv_port":27066,"stv_name":"Uncletopia | Warsaw | 6 | Community | STV","players":null}]}