{"status":true,"message":"","result":[{"server_id":9,"name":"Uncletopia | Atlanta | 1 | All Maps","name_short":"atl-1","host":"atl-1.us.uncletopia.com","port":27015,"enabled":true,"region":"us-east","cc":"us","latitude":33.753746,"longitude":-84.38633,"reserved":0,"last_update":"0001-01-01T00:00:00Z","name_a2s":"Uncletopia | Atlanta | 1 | All Maps","protocol":17,"map":"pl_snowycoast","folder":"tf","game":"Team Fortress","app_id":440,"player_count":24,"max_players":24,"Bots":0,"server_type":"Dedicated","server_os":"Linux","password":true,"vac":true,"version":"7742253","steam_id":85568392924469982,"keywords":["nocrits","nodmgspread","payload","uncletopia"],"game_id":440,"stv_port":27016,"stv_name":"Uncletopia | Atlanta | 1 | All Maps | STV","players":[{"user_id":770,"name":"A Man Named Pancho","steam_id":76561197984895522,"connected_time":713000000000,"state":"active","ping":118},{"user_id":710,"name":"ATL1 | Kramer","steam_id":76561198083595936,"connected_time":5852000000000,"state":"active","ping":82},{"user_id":734,"name":"ATL1 | MarrowMarauder","steam_id":76561198930350337,"connected_time":4241000000000,"state":"active","ping":60},{"user_id":747,"name":"snowi","steam_id":76561198006502679,"connected_time":2950000000000,"state":"active","ping":141},{"user_id":759,"name":"Singularity","steam_id":76561198000284742,"connected_time":1341000000000,"state":"active","ping":54},{"user_id":740,"name":"Young-OG","steam_id":76561198058800479,"connected_time":3503000000000,"state":"active","ping":67},{"user_id":771,"name":"Jeremy","steam_id":76561198352333793,"connected_time":634000000000,"state":"active","ping":86},{"user_id":767,"name":"Ostin","steam_id":76561197993726444,"connected_time":982000000000,"state":"active","ping":61},{"user_id":772,"name":"Bitt","steam_id":76561198286765318,"connected_time":630000000000,"state":"active","ping":63},{"user_id":757,"name":"SoyFlavouredPepsi‚òÖ","steam_id":76561198119505880,"connected_time":1393000000000,"state":"active","ping":65},{"user_id":762,"name":"Brass beast heavy","steam_id":76561198274197623,"connected_time":1245000000000,"state":"active","ping":148},{"user_id":773,"name":"Beggars' choices","steam_id":76561199013246048,"connected_time":543000000000,"state":"active","ping":64},{"user_id":688,"name":"Limbo_Darkness","steam_id":76561198127411819,"connected_time":8243000000000,"state":"active","ping":62},{"user_id":739,"name":"ATL1 | vid_","steam_id":76561198065159053,"connected_time":3560000000000,"state":"active","ping":47},{"user_id":769,"name":"ScoobyBlue","steam_id":76561198054656885,"connected_time":747000000000,"state":"active","ping":60},{"user_id":749,"name":"ShiYor","steam_id":76561199117260032,"connected_time":2140000000000,"state":"active","ping":123},{"user_id":768,"name":"(penis reference)","steam_id":76561198135452478,"connected_time":975000000000,"state":"active","ping":68},{"user_id":764,"name":"enlite","steam_id":76561198884284647,"connected_time":1132000000000,"state":"active","ping":64},{"user_id":696,"name":"ATL1 | on my hunting trip","steam_id":76561198315341646,"connected_time":7701000000000,"state":"active","ping":87},{"user_id":765,"name":"Number 1 Ken Marino fan","steam_id":76561199215811448,"connected_time":1128000000000,"state":"active","ping":112},{"user_id":766,"name":"Pine","steam_id":76561198217320784,"connected_time":1126000000000,"state":"active","ping":62},{"user_id":752,"name":"Hey","steam_id":76561198447517893,"connected_time":1974000000000,"state":"active","ping":59},{"user_id":746,"name":"Im High","steam_id":76561198049954886,"connected_time":3134000000000,"state":"active","ping":73}]},{"server_id":400,"name":"Uncletopia | Atlanta | 3 | Stopwatch Beta","name_short":"atl-3","host":"atl-1.us.uncletopia.com","port":27035,"enabled":true,"region":"us-east","cc":"us","latitude":33.753746,"longitude":-84.38633,"reserved":0,"last_update":"0001-01-01T00:00:00Z","name_a2s":"Uncletopia | Atlanta | 3 | Stopwatch Beta","protocol":17,"map":"pl_borneo","folder":"tf","game":"Team Fortress","app_id":440,"player_count":0,"max_players":24,"Bots":0,"server_type":"Dedicated","server_os":"Linux","password":true,"vac":true,"version":"7742253","steam_id":85568392924515187,"keywords":["nocrits","nodmgspread","payload","uncletopia"],"game_id":440,"stv_port":27036,"stv_name":"Uncletopia | Atlanta | 3 | Stopwatch Beta | STV","players":null},{"server_id":401,"name":"Uncletopia | Atlanta | 4 | No Payload","name_short":"atl-4","host":"atl-1.us.uncletopia.com","port":27045,"enabled":true,"region":"us-east","cc":"us","latitude":33.753746,"longitude":-84.38633,"reserved":0,"last_update":"0001-01-01T00:00:00Z","name_a2s":"Uncletopia | Atlanta | 4 | No Payload","protocol":17,"map":"pl_pier","folder":"tf","game":"Team Fortress","app_id":440,"player_count":0,"max_players":24,"Bots":0,"server_type":"Dedicated","server_os":"Linux","password":true,"vac":true,"version":"7723704","steam_id":85568392924515188,"keywords":["nocrits","nodmgspread","payload","uncletopia"],"game_id":440,"stv_port":27046,"stv_name":"Uncletopia | Atlanta | 4 | No Payload | STV","players":null},{"server_id":2,"name":"Uncletopia | Chicago | 1 | All Maps","name_short":"chi-1","host":"chi-1.us.uncletopia.com","port":27015,"enabled":true,"region":"us-central","cc":"us","latitude":41.881832,"longitude":-87.62318,"reserved":0,"last_update":"0001-01-01T00:00:00Z","name_a2s":"Uncletopia | Chicago | 1 | All Maps","protocol":17,"map":"pl_upward","folder":"tf","game":"Team Fortress","app_id":440,"player_count":24,"max_players":24,"Bots":0,"server_type":"Dedicated","server_os":"Linux","password":true,"vac":true,"version":"7742253","steam_id":85568392924469984,"keywords":["nocrits","nodmgspread","payload","uncletopia"],"game_id":440,"stv_port":27016,"stv_name":"Uncletopia | Chicago | 1 | All Maps | STV","players":[{"user_id":531,"name":"BooshBuster","steam_id":76561198237192090,"connected_time":1014000000000,"state":"active","ping":46},{"user_id":534,"name":"girlboss","steam_id":76561198039758987,"connected_time":608000000000,"state":"active","ping":90},{"user_id":504,"name":"CAdaverOusPRophet","steam_id":76561198045304110,"connected_time":3221000000000,"state":"active","ping":45},{"user_id":522,"name":"ChickenCrusade","steam_id":76561198067004494,"connected_time":1769000000000,"state":"active","ping":67},{"user_id":413,"name":"jingle.JIFF","steam_id":76561198045181760,"connected_time":10750000000000,"state":"active","ping":58},{"user_id":512,"name":"leumas","steam_id":76561198240408540,"connected_time":2534000000000,"state":"active","ping":76},{"user_id":536,"name":"Dwaggy","steam_id":76561198027369555,"connected_time":372000000000,"state":"active","ping":73},{"user_id":527,"name":"Howster002","steam_id":76561198323965902,"connected_time":1130000000000,"state":"active","ping":90},{"user_id":537,"name":"‚àÄ…ê","steam_id":76561198139718219,"connected_time":341000000000,"state":"active","ping":64},{"user_id":538,"name":"frank","steam_id":76561198045436159,"connected_time":313000000000,"state":"active","ping":83},{"user_id":539,"name":"SteeredAxe","steam_id":76561198081309492,"connected_time":311000000000,"state":"active","ping":57},{"user_id":549,"name":"EmeraldCola","steam_id":76561198066663687,"connected_time":92000000000,"state":"active","ping":75},{"user_id":547,"name":"Scout Cuomo","steam_id":76561198345950408,"connected_time":159000000000,"state":"active","ping":69},{"user_id":533,"name":"CampinCarl","steam_id":76561197997373624,"connected_time":925000000000,"state":"active","ping":90},{"user_id":508,"name":"‚Ä∫ snow","steam_id":76561198109783729,"connected_time":3051000000000,"state":"active","ping":50},{"user_id":540,"name":"Lawnmower","steam_id":76561198186680197,"connected_time":302000000000,"state":"active","ping":86},{"user_id":510,"name":"Susan","steam_id":76561198045705049,"connected_time":2687000000000,"state":"active","ping":106},{"user_id":548,"name":"Ace Chromatica","steam_id":76561198042211131,"connected_time":154000000000,"state":"active","ping":61},{"user_id":542,"name":"Rudy","steam_id":76561198013456828,"connected_time":279000000000,"state":"active","ping":59},{"user_id":499,"name":"ScreamCram","steam_id":76561199114068524,"connected_time":3694000000000,"state":"active","ping":55},{"user_id":543,"name":"yvngbvshvvookie","steam_id":76561198054354674,"connected_time":229000000000,"state":"active","ping":65},{"user_id":544,"name":"Mycelion","steam_id":76561198024999530,"connected_time":226000000000,"state":"active","ping":77},{"user_id":550,"name":"FiveHoursLater...","steam_id":76561198092608339,"connected_time":3000000000,"state":"spawning","ping":78},{"user_id":546,"name":"carloseolartec","steam_id":76561198396648023,"connected_time":216000000000,"state":"active","ping":64}]},{"server_id":106,"name":"Uncletopia | Chicago | 2 | All Maps","name_short":"chi-2","host":"chi-1.us.uncletopia.com","port":27025,"enabled":true,"region":"us-central","cc":"us","latitude":41.881832,"longitude":-87.62318,"reserved":0,"last_update":"0001-01-01T00:00:00Z","name_a2s":"Uncletopia | Chicago | 2 | All Maps","protocol":17,"map":"pl_goldrush","folder":"tf","game":"Team Fortress","app_id":440,"player_count":24,"max_players":24,"Bots":0,"server_type":"Dedicated","server_os":"Linux","password":true,"vac":true,"version":"7742253","steam_id":85568392924469985,"keywords":["nocrits","nodmgspread","payload","uncletopia"],"game_id":440,"stv_port":27026,"stv_name":"Uncletopia | Chicago | 2 | All Maps | STV","players":[{"user_id":302,"name":"Minion Bob","steam_id":76561198023938170,"connected_time":955000000000,"state":"active","ping":97},{"user_id":283,"name":"a crazy hobo","steam_id":76561198289650060,"connected_time":2382000000000,"state":"active","ping":81},{"user_id":196,"name":"Sunvaar","steam_id":76561198852679851,"connected_time":8710000000000,"state":"active","ping":65},{"user_id":291,"name":"Adam (Cursed Confetti Creature)","steam_id":76561198317690197,"connected_time":1892000000000,"state":"active","ping":42},{"user_id":303,"name":"United Bank of M O N E Y","steam_id":76561198251647556,"connected_time":943000000000,"state":"active","ping":93},{"user_id":254,"name":"kairOs.fk","steam_id":76561197972421260,"connected_time":3608000000000,"state":"active","ping":67},{"user_id":275,"name":"Big G","steam_id":76561198067496197,"connected_time":2671000000000,"state":"active","ping":45},{"user_id":256,"name":"you are loved","steam_id":76561198108524571,"connected_time":3591000000000,"state":"active","ping":75},{"user_id":287,"name":"Typical Gentleman","steam_id":76561199229771413,"connected_time":2157000000000,"state":"active","ping":79},{"user_id":282,"name":"ToughGuy311","steam_id":76561198131458027,"connected_time":2417000000000,"state":"active","ping":72},{"user_id":277,"name":"Cursed.jpg","steam_id":76561198164146325,"connected_time":2539000000000,"state":"active","ping":79},{"user_id":304,"name":"goatz","steam_id":76561198163662622,"connected_time":934000000000,"state":"active","ping":109},{"user_id":295,"name":"sasharudzik","steam_id":76561199126617781,"connected_time":1869000000000,"state":"active","ping":65},{"user_id":285,"name":"drift.r2","steam_id":76561198093781093,"connected_time":2368000000000,"state":"active","ping":58},{"user_id":292,"name":"[S]Mr. X [No Monitor]","steam_id":76561197963746035,"connected_time":1887000000000,"state":"active","ping":156},{"user_id":309,"name":"penguinlord","steam_id":76561198305192692,"connected_time":109000000000,"state":"active","ping":47},{"user_id":307,"name":"Michael Jordan","steam_id":76561198306393090,"connected_time":629000000000,"state":"active","ping":45},{"user_id":296,"name":"PzVIIIMaus","steam_id":76561198346559365,"connected_time":1868000000000,"state":"active","ping":51},{"user_id":270,"name":"Soap Man","steam_id":76561198000490235,"connected_time":3226000000000,"state":"active","ping":109},{"user_id":308,"name":"BernardBull","steam_id":76561198036138813,"connected_time":211000000000,"state":"active","ping":89},{"user_id":305,"name":"Mr. Cakes","steam_id":76561198007400043,"connected_time":904000000000,"state":"active","ping":52},{"user_id":306,"name":"Aerox","steam_id":76561198871081935,"connected_time":838000000000,"state":"active","ping":64},{"user_id":288,"name":"Shawn","steam_id":76561199199772083,"connected_time":2152000000000,"state":"active","ping":114},{"user_id":286,"name":"Fiji„ÉÉ","steam_id":76561198181234706,"connected_time":2361000000000,"state":"active","ping":106}]},{"server_id":402,"name":"Uncletopia | Chicago | 3 | All Maps","name_short":"chi-3","host":"chi-1.us.uncletopia.com","port":27035,"enabled":true,"region":"us-central","cc":"us","latitude":41.881832,"longitude":-87.62318,"reserved":0,"last_update":"0001-01-01T00:00:00Z","name_a2s":"Uncletopia | Chicago | 3 | All Maps","protocol":17,"map":"pl_pier","folder":"tf","game":"Team Fortress","app_id":440,"player_count":23,"max_players":24,"Bots":0,"server_type":"Dedicated","server_os":"Linux","password":true,"vac":true,"version":"7742253","steam_id":85568392924515191,"keywords":["nocrits","nodmgspread","payload","uncletopia"],"game_id":440,"stv_port":27036,"stv_name":"Uncletopia | Chicago | 3 | All Maps | STV","players":[{"user_id":906,"name":"JDizzle","steam_id":76561199122696841,"connected_time":1777000000000,"state":"active","ping":97},{"user_id":913,"name":"DeadErebus","steam_id":76561198286117045,"connected_time":1104000000000,"state":"active","ping":30},{"user_id":822,"name":"peachy","steam_id":76561198026664629,"connected_time":7273000000000,"state":"active","ping":53},{"user_id":914,"name":"CrazyMetic","steam_id":76561198451448294,"connected_time":1092000000000,"state":"active","ping":98},{"user_id":924,"name":"SpyShark","steam_id":76561198064973839,"connected_time":101000000000,"state":"spawning","ping":78},{"user_id":915,"name":"i will unheal your scars","steam_id":76561198067994868,"connected_time":1080000000000,"state":"active","ping":73},{"user_id":908,"name":"-Enter Name Here-","steam_id":76561198040358938,"connected_time":1747000000000,"state":"active","ping":73},{"user_id":927,"name":"HellRaiser","steam_id":76561199051660033,"connected_time":17000000000,"state":"active","ping":76},{"user_id":925,"name":"tokemaster69","steam_id":76561198083996924,"connected_time":78000000000,"state":"active","ping":57},{"user_id":909,"name":"Space-E","steam_id":76561198799417313,"connected_time":1557000000000,"state":"active","ping":64},{"user_id":891,"name":"Elite_Friendly","steam_id":76561198819972127,"connected_time":2634000000000,"state":"active","ping":94},{"user_id":928,"name":"SirDigbyChickenCaesar","steam_id":76561197998612788,"connected_time":4000000000,"state":"spawning","ping":59},{"user_id":922,"name":"Medic","steam_id":76561198067869016,"connected_time":719000000000,"state":"active","ping":46},{"user_id":919,"name":"Raniel Dicciardo","steam_id":76561198053859538,"connected_time":880000000000,"state":"active","ping":67},{"user_id":849,"name":"miles","steam_id":76561199029019040,"connected_time":6032000000000,"state":"active","ping":67},{"user_id":884,"name":"ratboy","steam_id":76561198087649133,"connected_time":2880000000000,"state":"active","ping":66},{"user_id":877,"name":"-flagellum","steam_id":76561198006297974,"connected_time":3308000000000,"state":"active","ping":54},{"user_id":917,"name":"muffinm565","steam_id":76561199135226250,"connected_time":955000000000,"state":"active","ping":104},{"user_id":923,"name":"FireQuiz","steam_id":76561198107357249,"connected_time":641000000000,"state":"active","ping":107},{"user_id":905,"name":"Sho","steam_id":76561198267918585,"connected_time":2071000000000,"state":"active","ping":74},{"user_id":874,"name":"qiulongtao","steam_id":76561198977558717,"connected_time":3742000000000,"state":"active","ping":65},{"user_id":920,"name":"Martian","steam_id":76561198017964028,"connected_time":845000000000,"state":"active","ping":55},{"user_id":889,"name":"Doc Romie","steam_id":76561198953778878,"connected_time":2754000000000,"state":"active","ping":52}]},{"server_id":403,"name":"Uncletopia | Chicago | 4 | All Maps","name_short":"chi-4","host":"chi-1.us.uncletopia.com","port":27045,"enabled":true,"region":"us-central","cc":"us","latitude":41.881832,"longitude":-87.62318,"reserved":0,"last_update":"0001-01-01T00:00:00Z","name_a2s":"Uncletopia | Chicago | 4 | All Maps","protocol":17,"map":"cp_sunshine","folder":"tf","game":"Team Fortress","app_id":440,"player_count":24,"max_players":24,"Bots":0,"server_type":"Dedicated","server_os":"Linux","password":true,"vac":true,"version":"7742253","steam_id":85568392924515193,"keywords":["cp","nocrits","nodmgspread","uncletopia"],"game_id":440,"stv_port":27046,"stv_name":"Uncletopia | Chicago | 4 | All Maps | STV","players":[{"user_id":338,"name":"derdds","steam_id":76561198034339940,"connected_time":455000000000,"state":"active","ping":55},{"user_id":276,"name":"JGatsby","steam_id":76561198023307584,"connected_time":4012000000000,"state":"active","ping":46},{"user_id":300,"name":"Dill","steam_id":76561197985091914,"connected_time":3212000000000,"state":"active","ping":64},{"user_id":295,"name":"Neil Degrassy","steam_id":76561198132980934,"connected_time":3402000000000,"state":"active","ping":61},{"user_id":291,"name":"Colin102004","steam_id":76561198202384334,"connected_time":3833000000000,"state":"active","ping":56},{"user_id":325,"name":"BrendenMad","steam_id":76561198031250581,"connected_time":1087000000000,"state":"active","ping":57},{"user_id":171,"name":"SuperJagops","steam_id":76561198034689716,"connected_time":13849000000000,"state":"active","ping":58},{"user_id":302,"name":"Darghul the Skeleton Lord","steam_id":76561198004140161,"connected_time":2619000000000,"state":"active","ping":47},{"user_id":326,"name":"Winter the Witchie","steam_id":76561198151971178,"connected_time":1055000000000,"state":"active","ping":78},{"user_id":318,"name":"hooley","steam_id":76561198041923067,"connected_time":1697000000000,"state":"active","ping":71},{"user_id":334,"name":"King","steam_id":76561198010019214,"connected_time":743000000000,"state":"active","ping":49},{"user_id":303,"name":"little man","steam_id":76561198865971290,"connected_time":2615000000000,"state":"active","ping":81},{"user_id":323,"name":"Poopnutz","steam_id":76561198407577922,"connected_time":1134000000000,"state":"active","ping":58},{"user_id":344,"name":"Assassin","steam_id":76561199129374922,"connected_time":29000000000,"state":"spawning","ping":85},{"user_id":287,"name":"Zeora","steam_id":76561198799145251,"connected_time":3891000000000,"state":"active","ping":64},{"user_id":327,"name":"MR. MODE","steam_id":76561198046775352,"connected_time":1045000000000,"state":"active","ping":97},{"user_id":328,"name":"jnv1013","steam_id":76561198965549228,"connected_time":1016000000000,"state":"active","ping":63},{"user_id":329,"name":"Cafe Alpha","steam_id":76561197965022076,"connected_time":991000000000,"state":"active","ping":58},{"user_id":340,"name":"Katzenwerfer","steam_id":76561198345464748,"connected_time":411000000000,"state":"active","ping":115},{"user_id":343,"name":"bubbles","steam_id":76561198054693706,"connected_time":44000000000,"state":"active","ping":63},{"user_id":341,"name":"The Beast Within","steam_id":76561198298416058,"connected_time":172000000000,"state":"active","ping":76},{"user_id":331,"name":"All Tomorrow's Parties","steam_id":76561197995936212,"connected_time":930000000000,"state":"active","ping":45},{"user_id":332,"name":"Spyr0ll","steam_id":76561198382292973,"connected_time":916000000000,"state":"active","ping":59},{"user_id":342,"name":"YoshaBoss","steam_id":76561198449656454,"connected_time":55000000000,"state":"active","ping":74}]},{"server_id":36,"name":"Uncletopia | Chicago | 5 | All Maps","name_short":"chi-5","host":"chi-2.us.uncletopia.com","port":27015,"enabled":true,"region":"us-central","cc":"us","latitude":41.881832,"longitude":-87.62318,"reserved":0,"last_update":"0001-01-01T00:00:00Z","name_a2s":"Uncletopia | Chicago | 5 | All Maps","protocol":17,"map":"pl_snowycoast","folder":"tf","game":"Team Fortress","app_id":440,"player_count":24,"max_players":24,"Bots":0,"server_type":"Dedicated","server_os":"Linux","password":true,"vac":true,"version":"7742253","steam_id":85568392924866362,"keywords":["nocrits","nodmgspread","payload","uncletopia"],"game_id":440,"stv_port":27016,"stv_name":"Uncletopia | Chicago | 5 | All Maps | STV","players":[{"user_id":86,"name":"Crabbymic","steam_id":76561197979418745,"connected_time":2534000000000,"state":"active","ping":65},{"user_id":108,"name":"madturtle3","steam_id":76561198146953474,"connected_time":308000000000,"state":"active","ping":94},{"user_id":107,"name":"Gyroic","steam_id":76561198063556027,"connected_time":346000000000,"state":"active","ping":53},{"user_id":66,"name":"eis","steam_id":76561198830293087,"connected_time":3974000000000,"state":"active","ping":45},{"user_id":61,"name":"Money Collector","steam_id":76561198046249467,"connected_time":4206000000000,"state":"active","ping":71},{"user_id":97,"name":"atserc","steam_id":76561197997570349,"connected_time":1062000000000,"state":"active","ping":88},{"user_id":91,"name":"Curdledwizard","steam_id":76561198020051289,"connected_time":2258000000000,"state":"active","ping":65},{"user_id":109,"name":"SquirrelAway‚Ñ¢","steam_id":76561197998828619,"connected_time":294000000000,"state":"active","ping":76},{"user_id":84,"name":"gtec229","steam_id":76561198026589960,"connected_time":3153000000000,"state":"active","ping":46},{"user_id":89,"name":"task","steam_id":76561198284992433,"connected_time":2482000000000,"state":"active","ping":49},{"user_id":100,"name":"Alt","steam_id":76561197992591984,"connected_time":845000000000,"state":"active","ping":62},{"user_id":112,"name":"Consuo","steam_id":76561198868720856,"connected_time":206000000000,"state":"active","ping":74},{"user_id":39,"name":"FogBod","steam_id":76561199361399489,"connected_time":5361000000000,"state":"active","ping":61},{"user_id":73,"name":"RokkitFrog","steam_id":76561198046465850,"connected_time":3814000000000,"state":"active","ping":79},{"user_id":44,"name":"OhHellmo","steam_id":76561198348442193,"connected_time":5082000000000,"state":"active","ping":60},{"user_id":111,"name":"faxxy","steam_id":76561198079621240,"connected_time":243000000000,"state":"active","ping":48},{"user_id":85,"name":"Ford Truck Gaming","steam_id":76561199042674833,"connected_time":2549000000000,"state":"active","ping":84},{"user_id":48,"name":"BodFog","steam_id":76561198209305727,"connected_time":5030000000000,"state":"active","ping":60},{"user_id":75,"name":"JohnGodfrey","steam_id":76561198271652253,"connected_time":3806000000000,"state":"active","ping":76},{"user_id":81,"name":"Tom","steam_id":76561198070630154,"connected_time":3664000000000,"state":"active","ping":92},{"user_id":63,"name":"Bringer of Gibbs","steam_id":76561198035700041,"connected_time":4171000000000,"state":"active","ping":92},{"user_id":114,"name":"toast","steam_id":76561197996321118,"connected_time":58000000000,"state":"spawning","ping":59},{"user_id":92,"name":"Bee","steam_id":76561198074681324,"connected_time":2011000000000,"state":"active","ping":61},{"user_id":103,"name":"Room","steam_id":76561199174579733,"connected_time":655000000000,"state":"active","ping":89}]},{"server_id":37,"name":"Uncletopia | Chicago | 6 | All Maps","name_short":"chi-6","host":"chi-2.us.uncletopia.com","port":27025,"enabled":true,"region":"us-central","cc":"us","latitude":41.881832,"longitude":-87.62318,"reserved":0,"last_update":"0001-01-01T00:00:00Z","name_a2s":"Uncletopia | Chicago | 6 | All Maps","protocol":17,"map":"pl_frontier_final","folder":"tf","game":"Team Fortress","app_id":440,"player_count":24,"max_players":24,"Bots":0,"server_type":"Dedicated","server_os":"Linux","password":true,"vac":true,"version":"7742253","steam_id":85568392924866363,"keywords":["nocrits","nodmgspread","payload","uncletopia"],"game_id":440,"stv_port":27026,"stv_name":"Uncletopia | Chicago | 6 | All Maps | STV","players":[{"user_id":211,"name":"TheFlyingTortis","steam_id":76561198071576016,"connected_time":1145000000000,"state":"active","ping":57},{"user_id":184,"name":"nox","steam_id":76561198054390505,"connected_time":3313000000000,"state":"active","ping":46},{"user_id":177,"name":"Mattron1","steam_id":76561198012270524,"connected_time":4248000000000,"state":"active","ping":62},{"user_id":171,"name":"ham gaming","steam_id":76561198072592880,"connected_time":4557000000000,"state":"active","ping":45},{"user_id":215,"name":"crankshaft","steam_id":76561197992798282,"connected_time":834000000000,"state":"active","ping":105},{"user_id":221,"name":"Ghettomunchies‚Ñ¢","steam_id":76561198070261020,"connected_time":420000000000,"state":"active","ping":62},{"user_id":209,"name":"callum","steam_id":76561198070918366,"connected_time":1554000000000,"state":"active","ping":67},{"user_id":212,"name":"CBTgaeming","steam_id":76561199089290128,"connected_time":1125000000000,"state":"active","ping":132},{"user_id":208,"name":"Worml1ps","steam_id":76561198108185717,"connected_time":1578000000000,"state":"active","ping":79},{"user_id":157,"name":"Dio Brando","steam_id":76561198321485249,"connected_time":4746000000000,"state":"active","ping":39},{"user_id":187,"name":"Fudgely","steam_id":76561198039425862,"connected_time":3280000000000,"state":"active","ping":77},{"user_id":188,"name":"Totouri","steam_id":76561198004229789,"connected_time":3273000000000,"state":"active","ping":61},{"user_id":219,"name":"¬øskitt1eS?","steam_id":76561198330093211,"connected_time":758000000000,"state":"active","ping":67},{"user_id":189,"name":"dj_Beanland","steam_id":76561198047500009,"connected_time":3271000000000,"state":"active","ping":93},{"user_id":222,"name":"travisoscotoso","steam_id":76561198041168780,"connected_time":270000000000,"state":"active","ping":190},{"user_id":205,"name":"Sharper Spoon","steam_id":76561198877130687,"connected_time":1840000000000,"state":"active","ping":64},{"user_id":201,"name":"ElectronX","steam_id":76561198116034988,"connected_time":2317000000000,"state":"active","ping":101},{"user_id":213,"name":"Boter","steam_id":76561198066994093,"connected_time":1113000000000,"state":"active","ping":62},{"user_id":203,"name":"LivinInTheMyst","steam_id":76561199109119765,"connected_time":2182000000000,"state":"active","ping":59},{"user_id":214,"name":"Sicko Mode (Chris Pratt Cover)","steam_id":76561198315786174,"connected_time":1096000000000,"state":"active","ping":81},{"user_id":218,"name":"dandy","steam_id":76561197967362217,"connected_time":769000000000,"state":"active","ping":103},{"user_id":164,"name":"Enrico Pucci","steam_id":76561199227946025,"connected_time":4713000000000,"state":"active","ping":72},{"user_id":220,"name":"Lord of the Moon","steam_id":76561198014115769,"connected_time":717000000000,"state":"active","ping":60},{"user_id":223,"name":"Drool","steam_id":76561199045901994,"connected_time":32000000000,"state":"spawning","ping":154}]},{"server_id":38,"name":"Uncletopia | Chicago | 7 | Stopwatch Beta","name_short":"chi-7","host":"chi-2.us.uncletopia.com","port":27035,"enabled":true,"region":"us-central","cc":"us","latitude":41.881832,"longitude":-87.62318,"reserved":0,"last_update":"0001-01-01T00:00:00Z","name_a2s":"Uncletopia | Chicago | 7 | Stopwatch Beta","protocol":17,"map":"cp_metalworks","folder":"tf","game":"Team Fortress","app_id":440,"player_count":1,"max_players":24,"Bots":0,"server_type":"Dedicated","server_os":"Linux","password":true,"vac":true,"version":"7742253","steam_id":85568392924866364,"keywords":["cp","nocrits","nodmgspread","uncletopia"],"game_id":440,"stv_port":27036,"stv_name":"Uncletopia | Chicago | 7 | Stopwatch Beta | STV","players":[{"user_id":35,"name":"scoot","steam_id":76561198281278725,"connected_time":34000000000,"state":"active","ping":32}]},{"server_id":39,"name":"Uncletopia | Chicago | 8 | Community","name_short":"chi-8","host":"chi-2.us.uncletopia.com","port":27045,"enabled":true,"region":"us-central","cc":"us","latitude":41.881832,"longitude":-87.62318,"reserved":0,"last_update":"0001-01-01T00:00:00Z","name_a2s":"Uncletopia | Chicago | 8 | Community","protocol":17,"map":"workshop/pl_barnblitz_pro7.ugc582280235","folder":"tf","game":"Team Fortress","app_id":440,"player_count":10,"max_players":24,"Bots":0,"server_type":"Dedicated","server_os":"Linux","password":true,"vac":true,"version":"7742253","steam_id":85568392924866365,"keywords":["nocrits","nodmgspread","payload","uncletopia"],"game_id":440,"stv_port":27046,"stv_name":"Uncletopia | Chicago | 8 | Community | STV","players":[{"user_id":37,"name":"feeple murphy","steam_id":76561199069482101,"connected_time":1148000000000,"state":"active","ping":109},{"user_id":38,"name":"WDG 1-S","steam_id":76561199057827299,"connected_time":824000000000,"state":"active","ping":87},{"user_id":39,"name":"vinny6","steam_id":76561198386735728,"connected_time":643000000000,"state":"active","ping":59},{"user_id":40,"name":"walking__man","steam_id":76561199012480620,"connected_time":339000000000,"state":"active","ping":78},{"user_id":41,"name":"Aidan R","steam_id":76561198089848273,"connected_time":304000000000,"state":"active","ping":158},{"user_id":42,"name":"SoupBoyBlue","steam_id":76561198118836350,"connected_time":277000000000,"state":"active","ping":91},{"user_id":43,"name":"Vacillator9000","steam_id":76561198208127059,"connected_time":267000000000,"state":"active","ping":66},{"user_id":44,"name":"toof","steam_id":76561198074917043,"connected_time":266000000000,"state":"active","ping":66},{"user_id":45,"name":"Data","steam_id":76561197996329548,"connected_time":240000000000,"state":"active","ping":63},{"user_id":46,"name":"scaup","steam_id":76561198349283519,"connected_time":230000000000,"state":"active","ping":100}]},{"server_id":8,"name":"Uncletopia | Dallas | 1 | All Maps","name_short":"dal-1","host":"dal-1.us.uncletopia.com","port":27015,"enabled":true,"region":"us-central","cc":"us","latitude":32.779167,"longitude":-96.80889,"reserved":0,"last_update":"0001-01-01T00:00:00Z","name_a2s":"Uncletopia | Dallas | 1 | All Maps","protocol":17,"map":"pl_badwater","folder":"tf","game":"Team Fortress","app_id":440,"player_count":24,"max_players":24,"Bots":0,"server_type":"Dedicated","server_os":"Linux","password":true,"vac":true,"version":"7742253","steam_id":85568392924469986,"keywords":["nocrits","nodmgspread","payload","uncletopia"],"game_id":440,"stv_port":27016,"stv_name":"Uncletopia | Dallas | 1 | All Maps | STV","players":[{"user_id":598,"name":"rumes","steam_id":76561198349219467,"connected_time":1018000000000,"state":"active","ping":68},{"user_id":603,"name":"Fostrel","steam_id":76561198152160601,"connected_time":599000000000,"state":"active","ping":50},{"user_id":604,"name":"remedu","steam_id":76561198005152587,"connected_time":599000000000,"state":"active","ping":40},{"user_id":596,"name":"grambee","steam_id":76561198256572518,"connected_time":1271000000000,"state":"active","ping":45},{"user_id":539,"name":"Dr. Louisers","steam_id":76561198155531390,"connected_time":4568000000000,"state":"active","ping":72},{"user_id":572,"name":"Smiles","steam_id":76561198107197973,"connected_time":1952000000000,"state":"active","ping":104},{"user_id":577,"name":"Rock Kickass","steam_id":76561198450510841,"connected_time":1818000000000,"state":"active","ping":80},{"user_id":574,"name":"The Gremlin","steam_id":76561198419066993,"connected_time":1900000000000,"state":"active","ping":102},{"user_id":605,"name":"asian","steam_id":76561198082561695,"connected_time":587000000000,"state":"active","ping":77},{"user_id":576,"name":"Ascendance","steam_id":76561198065357068,"connected_time":1822000000000,"state":"active","ping":107},{"user_id":594,"name":"sex defender","steam_id":76561199122152458,"connected_time":1389000000000,"state":"active","ping":62},{"user_id":600,"name":"SuaveFrenchman","steam_id":76561198043762683,"connected_time":746000000000,"state":"active","ping":87},{"user_id":597,"name":"FallHole","steam_id":76561198402856408,"connected_time":1269000000000,"state":"active","ping":71},{"user_id":601,"name":"The Clown","steam_id":76561199085524751,"connected_time":738000000000,"state":"active","ping":76},{"user_id":606,"name":"viscodolante","steam_id":76561198013650292,"connected_time":574000000000,"state":"active","ping":106},{"user_id":583,"name":"Fierian","steam_id":76561198132771619,"connected_time":1684000000000,"state":"active","ping":84},{"user_id":584,"name":"Godfinger","steam_id":76561198426346549,"connected_time":1645000000000,"state":"active","ping":77},{"user_id":602,"name":"Xmas Xtar","steam_id":76561198301774048,"connected_time":709000000000,"state":"active","ping":109},{"user_id":613,"name":"William P. Ennis","steam_id":76561198073464877,"connected_time":25000000000,"state":"active","ping":89},{"user_id":586,"name":"captainspatklz","steam_id":76561198432167270,"connected_time":1644000000000,"state":"active","ping":78},{"user_id":588,"name":"hot twinks","steam_id":76561198004541426,"connected_time":1538000000000,"state":"active","ping":75},{"user_id":609,"name":"I am not a cheater","steam_id":76561198354523202,"connected_time":561000000000,"state":"active","ping":82},{"user_id":608,"name":"am","steam_id":76561198345528370,"connected_time":569000000000,"state":"active","ping":77},{"user_id":612,"name":"[LINUX] F2P=S*(M/B)+H || Spy!","steam_id":76561198093538786,"connected_time":202000000000,"state":"active","ping":48}]},{"server_id":108,"name":"Uncletopia | Dallas | 2 | All Maps","name_short":"dal-2","host":"dal-1.us.uncletopia.com","port":27025,"enabled":true,"region":"us-central","cc":"us","latitude":32.779167,"longitude":-96.80889,"reserved":0,"last_update":"0001-01-01T00:00:00Z","name_a2s":"Uncletopia | Dallas | 2 | All Maps","protocol":17,"map":"pl_swiftwater_final1","folder":"tf","game":"Team Fortress","app_id":440,"player_count":24,"max_players":24,"Bots":0,"server_type":"Dedicated","server_os":"Linux","password":true,"vac":true,"version":"7742253","steam_id":85568392924469988,"keywords":["nocrits","nodmgspread","payload","uncletopia"],"game_id":440,"stv_port":27026,"stv_name":"Uncletopia | Dallas | 2 | All Maps | STV","players":[{"user_id":590,"name":"Wso1123","steam_id":76561198048040111,"connected_time":2764000000000,"state":"active","ping":61},{"user_id":556,"name":"Polaco","steam_id":76561198176326523,"connected_time":4611000000000,"state":"active","ping":51},{"user_id":598,"name":"plink","steam_id":76561198057829889,"connected_time":1672000000000,"state":"active","ping":106},{"user_id":604,"name":"Glad","steam_id":76561199388372220,"connected_time":1189000000000,"state":"active","ping":110},{"user_id":564,"name":"Bonesala","steam_id":76561199052450127,"connected_time":4198000000000,"state":"active","ping":69},{"user_id":486,"name":"45 Cent","steam_id":76561198048690188,"connected_time":10086000000000,"state":"active","ping":96},{"user_id":550,"name":"Marc Antony","steam_id":76561198011366517,"connected_time":5608000000000,"state":"active","ping":75},{"user_id":569,"name":"iluvtoust","steam_id":76561198869269207,"connected_time":4075000000000,"state":"active","ping":56},{"user_id":600,"name":"‚ú©BONGO‚ú©","steam_id":76561198018040930,"connected_time":1664000000000,"state":"active","ping":37},{"user_id":555,"name":"doing my best","steam_id":76561198323491654,"connected_time":5061000000000,"state":"active","ping":45},{"user_id":566,"name":"Magneto","steam_id":76561199151206130,"connected_time":4129000000000,"state":"active","ping":75},{"user_id":487,"name":"üê∫-Iwky-ü¶ä","steam_id":76561198185616311,"connected_time":10050000000000,"state":"active","ping":69},{"user_id":586,"name":"Soney29","steam_id":76561198955863943,"connected_time":2865000000000,"state":"active","ping":99},{"user_id":597,"name":"???","steam_id":76561198200155343,"connected_time":1676000000000,"state":"active","ping":55},{"user_id":601,"name":"Ko - „Åì - ÏΩî","steam_id":76561198035726982,"connected_time":1636000000000,"state":"active","ping":63},{"user_id":557,"name":"‚ù§ Ashley ‚ù§","steam_id":76561198056428303,"connected_time":4610000000000,"state":"active","ping":75},{"user_id":584,"name":"FG7","steam_id":76561198381197197,"connected_time":2976000000000,"state":"active","ping":103},{"user_id":593,"name":"George Washington","steam_id":76561197993295656,"connected_time":2700000000000,"state":"active","ping":75},{"user_id":595,"name":"bigboimarven","steam_id":76561198844778810,"connected_time":2163000000000,"state":"active","ping":64},{"user_id":533,"name":"mommy hog","steam_id":76561199230929836,"connected_time":6536000000000,"state":"active","ping":74},{"user_id":571,"name":"Wicket","steam_id":76561198044023036,"connected_time":4052000000000,"state":"active","ping":75},{"user_id":602,"name":"SpinetinglingToast","steam_id":76561198099470670,"connected_time":1613000000000,"state":"active","ping":92},{"user_id":552,"name":"GIGANTIC HOG","steam_id":76561198079923652,"connected_time":5508000000000,"state":"active","ping":61},{"user_id":603,"name":"ED","steam_id":76561198441715445,"connected_time":1600000000000,"state":"active","ping":94}]},{"server_id":5,"name":"Uncletopia | Frankfurt | 1 | All Maps","name_short":"frk-1","host":"frk-1.de.uncletopia.com","port":27015,"enabled":true,"region":"eu","cc":"de","latitude":50.110924,"longitude":8.682127,"reserved":0,"last_update":"0001-01-01T00:00:00Z","name_a2s":"Uncletopia | Frankfurt | 1 | All Maps","protocol":17,"map":"cp_snakewater_final1","folder":"tf","game":"Team Fortress","app_id":440,"player_count":0,"max_players":24,"Bots":0,"server_type":"Dedicated","server_os":"Linux","password":true,"vac":true,"version":"7742253","steam_id":85568392924469989,"keywords":["cp","nocrits","nodmgspread","uncletopia"],"game_id":440,"stv_port":27016,"stv_name":"Uncletopia | Frankfurt | 1 | All Maps | STV","players":null},{"server_id":110,"name":"Uncletopia | Frankfurt | 2 | All Maps","name_short":"frk-2","host":"frk-1.de.uncletopia.com","port":27025,"enabled":true,"region":"eu","cc":"de","latitude":50.110924,"longitude":8.682127,"reserved":0,"last_update":"0001-01-01T00:00:00Z","name_a2s":"Uncletopia | Frankfurt | 2 | All Maps","protocol":17,"map":"cp_mountainlab","folder":"tf","game":"Team Fortress","app_id":440,"player_count":0,"max_players":24,"Bots":0,"server_type":"Dedicated","server_os":"Linux","password":true,"vac":true,"version":"7742253","steam_id":85568392924469990,"keywords":["cp","nocrits","nodmgspread","uncletopia"],"game_id":440,"stv_port":27026,"stv_name":"Uncletopia | Frankfurt | 2 | All Maps | STV","players":null},{"server_id":308,"name":"Uncletopia | Frankfurt | 3 | All Maps","name_short":"frk-3","host":"frk-1.de.uncletopia.com","port":27035,"enabled":true,"region":"eu","cc":"de","latitude":50.110924,"longitude":8.682127,"reserved":0,"last_update":"0001-01-01T00:00:00Z","name_a2s":"Uncletopia | Frankfurt | 3 | All Maps","protocol":17,"map":"cp_sunshine","folder":"tf","game":"Team Fortress","app_id":440,"player_count":0,"max_players":24,"Bots":0,"server_type":"Dedicated","server_os":"Linux","password":true,"vac":true,"version":"7742253","steam_id":85568392924504274,"keywords":["cp","nocrits","nodmgspread","uncletopia"],"game_id":440,"stv_port":27036,"stv_name":"Uncletopia | Frankfurt | 3 | All Maps | STV","players":null},{"server_id":309,"name":"Uncletopia | Frankfurt | 4 | All Maps","name_short":"frk-4","host":"frk-1.de.uncletopia.com","port":27045,"enabled":true,"region":"eu","cc":"de","latitude":50.110924,"longitude":8.682127,"reserved":0,"last_update":"0001-01-01T00:00:00Z","name_a2s":"Uncletopia | Frankfurt | 4 | All Maps","protocol":17,"map":"pl_enclosure_final","folder":"tf","game":"Team Fortress","app_id":440,"player_count":12,"max_players":24,"Bots":0,"server_type":"Dedicated","server_os":"Linux","password":true,"vac":true,"version":"7742253","steam_id":85568392924504275,"keywords":["nocrits","nodmgspread","payload","uncletopia"],"game_id":440,"stv_port":27046,"stv_name":"Uncletopia | Frankfurt | 4 | All Maps | STV","players":[{"user_id":566,"name":"it's raining again...","steam_id":76561198159593026,"connected_time":171000000000,"state":"active","ping":66},{"user_id":519,"name":"Flabberson Gilbert Dooberqavier","steam_id":76561199244829558,"connected_time":4308000000000,"state":"active","ping":61},{"user_id":561,"name":"Kanny","steam_id":76561198058810184,"connected_time":749000000000,"state":"active","ping":108},{"user_id":537,"name":"–≥–æ–ª—É–±","steam_id":76561198209101861,"connected_time":3035000000000,"state":"active","ping":68},{"user_id":427,"name":"Samus","steam_id":76561198045943019,"connected_time":11230000000000,"state":"active","ping":46},{"user_id":562,"name":"r0la","steam_id":76561198128315340,"connected_time":581000000000,"state":"active","ping":81},{"user_id":567,"name":"dorak","steam_id":76561198818037965,"connected_time":60000000000,"state":"active","ping":105},{"user_id":539,"name":"pezza","steam_id":76561197995173247,"connected_time":2946000000000,"state":"active","ping":60},{"user_id":518,"name":"bean","steam_id":76561198347365909,"connected_time":4339000000000,"state":"active","ping":52},{"user_id":405,"name":"TurboTabs","steam_id":76561198009785131,"connected_time":13579000000000,"state":"active","ping":60},{"user_id":556,"name":"Pvt. Grichmann","steam_id":76561197977589522,"connected_time":1761000000000,"state":"active","ping":75},{"user_id":557,"name":"Grand Wizard","steam_id":76561199414716848,"connected_time":1669000000000,"state":"active","ping":73}]},{"server_id":310,"name":"Uncletopia | Frankfurt | 5 | All Maps","name_short":"frk-5","host":"frk-1.de.uncletopia.com","port":27055,"enabled":true,"region":"eu","cc":"de","latitude":50.110924,"longitude":8.682127,"reserved":0,"last_update":"0001-01-01T00:00:00Z","name_a2s":"Uncletopia | Frankfurt | 5 | All Maps","protocol":17,"map":"cp_mountainlab","folder":"tf","game":"Team Fortress","app_id":440,"player_count":0,"max_players":24,"Bots":0,"server_type":"Dedicated","server_os":"Linux","password":true,"vac":true,"version":"7742253","steam_id":85568392924504277,"keywords":["cp","nocrits","nodmgspread","uncletopia"],"game_id":440,"stv_port":27056,"stv_name":"Uncletopia | Frankfurt | 5 | All Maps | STV","players":null},{"server_id":311,"name":"Uncletopia | Frankfurt | 6 | All Maps","name_short":"frk-6","host":"frk-1.de.uncletopia.com","port":27065,"enabled":true,"region":"eu","cc":"de","latitude":50.110924,"longitude":8.682127,"reserved":0,"last_update":"0001-01-01T00:00:00Z","name_a2s":"Uncletopia | Frankfurt | 6 | All Maps","protocol":17,"map":"koth_harvest_final","folder":"tf","game":"Team Fortress","app_id":440,"player_count":0,"max_players":24,"Bots":0,"server_type":"Dedicated","server_os":"Linux","password":true,"vac":true,"version":"7742253","steam_id":85568392924504278,"keywords":["cp","nocrits","nodmgspread","uncletopia"],"game_id":440,"stv_port":27066,"stv_name":"Uncletopia | Frankfurt | 6 | All Maps | STV","players":null},{"server_id":23,"name":"Uncletopia | Frankfurt | 7 | Stopwatch Beta","name_short":"frk-7","host":"frk-1.de.uncletopia.com","port":27075,"enabled":true,"region":"eu","cc":"de","latitude":50.110924,"longitude":8.682127,"reserved":0,"last_update":"0001-01-01T00:00:00Z","name_a2s":"Uncletopia | Frankfurt | 7 | Stopwatch Beta","protocol":17,"map":"koth_lakeside_final","folder":"tf","game":"Team Fortress","app_id":440,"player_count":0,"max_players":24,"Bots":0,"server_type":"Dedicated","server_os":"Linux","password":true,"vac":true,"version":"7742253","steam_id":85568392924742827,"keywords":["cp","nocrits","nodmgspread","uncletopia"],"game_id":440,"stv_port":27076,"stv_name":"Uncletopia | Frankfurt | 7 | Stopwatch Beta | STV","players":null},{"server_id":24,"name":"Uncletopia | Frankfurt | 8 | Community","name_short":"frk-8","host":"frk-1.de.uncletopia.com","port":27085,"enabled":true,"region":"eu","cc":"de","latitude":50.110924,"longitude":8.682127,"reserved":0,"last_update":"0001-01-01T00:00:00Z","name_a2s":"Uncletopia | Frankfurt | 8 | Community","protocol":17,"map":"workshop/koth_slaughter_rc1.ugc1712845210","folder":"tf","game":"Team Fortress","app_id":440,"player_count":0,"max_players":24,"Bots":0,"server_type":"Dedicated","server_os":"Linux","password":true,"vac":true,"version":"7742253","steam_id":85568392924742828,"keywords":["cp","nocrits","nodmgspread","uncletopia"],"game_id":440,"stv_port":27086,"stv_name":"Uncletopia | Frankfurt | 8 | Community | STV","players":null},{"server_id":202,"name":"Uncletopia | Hong Kong | 1 | All Maps","name_short":"hgk-1","host":"hgk-1.hk.uncletopia.com","port":27015,"enabled":true,"region":"asia","cc":"hk","latitude":22.302711,"longitude":114.177216,"reserved":0,"last_update":"0001-01-01T00:00:00Z","name_a2s":"Uncletopia | Hong Kong | 1 | All Maps","protocol":17,"map":"pl_swiftwater_final1","folder":"tf","game":"Team Fortress","app_id":440,"player_count":24,"max_players":24,"Bots":0,"server_type":"Dedicated","server_os":"Linux","password":true,"vac":true,"version":"7742253","steam_id":85568392924494504,"keywords":["nocrits","nodmgspread","payload","uncletopia"],"game_id":440,"stv_port":27016,"stv_name":"Uncletopia | Hong Kong | 1 | All Maps | STV","players":[{"user_id":45,"name":"Pillboi","steam_id":76561198011172886,"connected_time":4568000000000,"state":"active","ping":43},{"user_id":112,"name":"r/leroy","steam_id":76561199137927625,"connected_time":282000000000,"state":"active","ping":117},{"user_id":95,"name":"saglim8","steam_id":76561198811024417,"connected_time":1580000000000,"state":"active","ping":74},{"user_id":111,"name":"Rudolph","steam_id":76561199012678702,"connected_time":334000000000,"state":"active","ping":82},{"user_id":82,"name":"…îu·ó°‡∂û …ü∆®u·íê","steam_id":76561199031283970,"connected_time":2547000000000,"state":"active","ping":132},{"user_id":99,"name":"The Cake is a lie","steam_id":76561198190738610,"connected_time":884000000000,"state":"active","ping":76},{"user_id":64,"name":"Windmill","steam_id":76561199230997986,"connected_time":3175000000000,"state":"active","ping":74},{"user_id":57,"name":"killman47","steam_id":76561198348487408,"connected_time":3308000000000,"state":"active","ping":43},{"user_id":58,"name":"ZeniaPY (Playing on Wacom)","steam_id":76561198404352831,"connected_time":3306000000000,"state":"active","ping":71},{"user_id":62,"name":"whippyman","steam_id":76561198137069257,"connected_time":3220000000000,"state":"active","ping":105},{"user_id":114,"name":"Rubricae","steam_id":76561198045596316,"connected_time":202000000000,"state":"active","ping":96},{"user_id":110,"name":"gob lin","steam_id":76561198379597982,"connected_time":336000000000,"state":"active","ping":139},{"user_id":113,"name":"Ayakayayaya","steam_id":76561198239125304,"connected_time":262000000000,"state":"active","ping":93},{"user_id":104,"name":"heronthebird","steam_id":76561198964411581,"connected_time":652000000000,"state":"active","ping":75},{"user_id":108,"name":"bookman","steam_id":76561198989168133,"connected_time":490000000000,"state":"active","ping":90},{"user_id":92,"name":"qballs","steam_id":76561198412329672,"connected_time":1744000000000,"state":"active","ping":89},{"user_id":75,"name":"o2","steam_id":76561199262570913,"connected_time":2649000000000,"state":"active","ping":83},{"user_id":98,"name":"P","steam_id":76561198304514505,"connected_time":905000000000,"state":"active","ping":77},{"user_id":103,"name":"Water Weed Dune Hair","steam_id":76561198090087072,"connected_time":796000000000,"state":"active","ping":110},{"user_id":89,"name":"Kall","steam_id":76561197993608660,"connected_time":2367000000000,"state":"active","ping":93},{"user_id":106,"name":"RandomGuy1085","steam_id":76561199053910995,"connected_time":584000000000,"state":"active","ping":80},{"user_id":109,"name":"lilla laxum","steam_id":76561198230213828,"connected_time":460000000000,"state":"active","ping":70},{"user_id":90,"name":"Cloud","steam_id":76561198272454184,"connected_time":2332000000000,"state":"active","ping":94},{"user_id":91,"name":"SissyFemboy‚ô°","steam_id":76561198841376347,"connected_time":2226000000000,"state":"active","ping":62}]},{"server_id":1,"name":"Uncletopia | Los Angeles | 1 | All Maps","name_short":"lax-1","host":"lax-1.us.uncletopia.com","port":27015,"enabled":true,"region":"us-west","cc":"us","latitude":33.94279,"longitude":-118.41004,"reserved":0,"last_update":"0001-01-01T00:00:00Z","name_a2s":"Uncletopia | Los Angeles | 1 | All Maps","protocol":17,"map":"ctf_2fort","folder":"tf","game":"Team Fortress","app_id":440,"player_count":24,"max_players":24,"Bots":0,"server_type":"Dedicated","server_os":"Linux","password":true,"vac":true,"version":"7742253","steam_id":85568392924469991,"keywords":["ctf","nocrits","nodmgspread","uncletopia"],"game_id":440,"stv_port":27016,"stv_name":"Uncletopia | Los Angeles | 1 | All Maps | STV","players":[{"user_id":155,"name":"¬¶{‚àí‚àíD@t Sc√ú‚ãÇ‚ä§‚àí‚àí}\ufffd","steam_id":76561199218110014,"connected_time":1381000000000,"state":"active","ping":103},{"user_id":153,"name":"D_Doxxed","steam_id":76561198276498805,"connected_time":1911000000000,"state":"active","ping":100},{"user_id":127,"name":"Papa-Mintnet","steam_id":76561198085800487,"connected_time":4063000000000,"state":"active","ping":125},{"user_id":172,"name":"CoherentCarpet („Éé‡≤†Áõä‡≤†)\ufffd\ufffd","steam_id":76561198045625360,"connected_time":380000000000,"state":"active","ping":106},{"user_id":177,"name":"jawnymac","steam_id":76561198179529599,"connected_time":98000000000,"state":"active","ping":60},{"user_id":141,"name":"Y'all are Garage","steam_id":76561198012829324,"connected_time":2586000000000,"state":"active","ping":63},{"user_id":175,"name":"Seriously Bruh","steam_id":76561198070408485,"connected_time":277000000000,"state":"active","ping":77},{"user_id":174,"name":"bappo del taco","steam_id":76561199068510270,"connected_time":321000000000,"state":"active","ping":60},{"user_id":157,"name":"Tacobell_nugget","steam_id":76561199248567851,"connected_time":1291000000000,"state":"active","ping":204},{"user_id":176,"name":"Ashley H√©lo√Øse","steam_id":76561198103653429,"connected_time":185000000000,"state":"active","ping":48},{"user_id":144,"name":"meow_the_cat","steam_id":76561198294347721,"connected_time":2470000000000,"state":"active","ping":51},{"user_id":145,"name":"kr1tsurf3r","steam_id":76561198076402476,"connected_time":2443000000000,"state":"active","ping":54},{"user_id":158,"name":"Teh Lemon","steam_id":76561199223429767,"connected_time":1192000000000,"state":"active","ping":60},{"user_id":146,"name":"chucknut","steam_id":76561199329553584,"connected_time":2424000000000,"state":"active","ping":85},{"user_id":163,"name":"Manx","steam_id":76561197977134062,"connected_time":873000000000,"state":"active","ping":70},{"user_id":164,"name":"Owl_eyes","steam_id":76561198066199203,"connected_time":869000000000,"state":"active","ping":55},{"user_id":173,"name":"feet whiffer (normal guy)","steam_id":76561198062712676,"connected_time":362000000000,"state":"active","ping":60},{"user_id":166,"name":"Cuno Doesn't Care!","steam_id":76561198007372782,"connected_time":840000000000,"state":"active","ping":63},{"user_id":169,"name":"lilSpooky","steam_id":76561198210815879,"connected_time":724000000000,"state":"active","ping":69},{"user_id":80,"name":"Beeveelution","steam_id":76561198331526301,"connected_time":7074000000000,"state":"active","ping":62},{"user_id":81,"name":"tingle shitmouth","steam_id":76561198055109192,"connected_time":6992000000000,"state":"active","ping":123},{"user_id":168,"name":"Lennie Longfinger","steam_id":76561198276959460,"connected_time":785000000000,"state":"active","ping":61},{"user_id":134,"name":"(TTV) The_Astrum_Guardian","steam_id":76561198130134103,"connected_time":3413000000000,"state":"active","ping":93},{"user_id":148,"name":"darkhelmet2202","steam_id":76561199143168398,"connected_time":2397000000000,"state":"active","ping":109}]},{"server_id":112,"name":"Uncletopia | Los Angeles | 2 | All Maps","name_short":"lax-2","host":"lax-1.us.uncletopia.com","port":27025,"enabled":true,"region":"us-west","cc":"us","latitude":33.94279,"longitude":-118.41004,"reserved":0,"last_update":"0001-01-01T00:00:00Z","name_a2s":"Uncletopia | Los Angeles | 2 | All Maps","protocol":17,"map":"pl_frontier_final","folder":"tf","game":"Team Fortress","app_id":440,"player_count":0,"max_players":24,"Bots":0,"server_type":"Dedicated","server_os":"Linux","password":true,"vac":true,"version":"7742253","steam_id":85568392924469992,"keywords":["nocrits","nodmgspread","payload","uncletopia"],"game_id":440,"stv_port":27026,"stv_name":"Uncletopia | Los Angeles | 2 | All Maps | STV","players":null},{"server_id":324,"name":"Uncletopia | Los Angeles | 3 | All Maps","name_short":"lax-3","host":"lax-1.us.uncletopia.com","port":27035,"enabled":true,"region":"us-west","cc":"us","latitude":33.94279,"longitude":-118.41004,"reserved":0,"last_update":"0001-01-01T00:00:00Z","name_a2s":"Uncletopia | Los Angeles | 3 | All Maps","protocol":17,"map":"pl_pier","folder":"tf","game":"Team Fortress","app_id":440,"player_count":0,"max_players":24,"Bots":0,"server_type":"Dedicated","server_os":"Linux","password":true,"vac":true,"version":"7742253","steam_id":85568392924510198,"keywords":["nocrits","nodmgspread","payload","uncletopia"],"game_id":440,"stv_port":27036,"stv_name":"Uncletopia | Los Angeles | 3 | All Maps | STV","players":null},{"server_id":25,"name":"Uncletopia | Los Angeles | 4 | Stopwatch Beta","name_short":"lax-4","host":"lax-1.us.uncletopia.com","port":27045,"enabled":true,"region":"us-west","cc":"us","latitude":33.94279,"longitude":-118.41004,"reserved":0,"last_update":"0001-01-01T00:00:00Z","name_a2s":"Uncletopia | Los Angeles | 4 | Stopwatch Beta","protocol":17,"map":"koth_lakeside_final","folder":"tf","game":"Team Fortress","app_id":440,"player_count":4,"max_players":24,"Bots":0,"server_type":"Dedicated","server_os":"Linux","password":true,"vac":true,"version":"7742253","steam_id":85568392924510199,"keywords":["cp","nocrits","nodmgspread","uncletopia"],"game_id":440,"stv_port":27046,"stv_name":"Uncletopia | Los Angeles | 4 | Stopwatch Beta | STV","players":[{"user_id":13,"name":"FROYO doug","steam_id":76561198041849544,"connected_time":167000000000,"state":"active","ping":76},{"user_id":12,"name":"Sanctius","steam_id":76561198082048768,"connected_time":176000000000,"state":"active","ping":179},{"user_id":15,"name":"Mr.Beast","steam_id":76561198021514044,"connected_time":113000000000,"state":"active","ping":105},{"user_id":16,"name":"Dosario","steam_id":76561198298095535,"connected_time":37000000000,"state":"spawning","ping":80}]},{"server_id":11,"name":"Uncletopia | London | 1 | All Maps","name_short":"lon-1","host":"lon-1.uk.uncletopia.com","port":27015,"enabled":true,"region":"eu","cc":"gb","latitude":51.509865,"longitude":-0.118092,"reserved":0,"last_update":"0001-01-01T00:00:00Z","name_a2s":"Uncletopia | London | 1 | All Maps","protocol":17,"map":"koth_lakeside_final","folder":"tf","game":"Team Fortress","app_id":440,"player_count":0,"max_players":24,"Bots":0,"server_type":"Dedicated","server_os":"Linux","password":true,"vac":true,"version":"7742253","steam_id":85568392924367362,"keywords":["cp","nocrits","nodmgspread","uncletopia"],"game_id":440,"stv_port":27016,"stv_name":"Uncletopia | London | 1 | All Maps | STV","players":null},{"server_id":114,"name":"Uncletopia | London | 2 | All Maps","name_short":"lon-2","host":"lon-1.uk.uncletopia.com","port":27025,"enabled":true,"region":"eu","cc":"gb","latitude":51.509865,"longitude":-0.118092,"reserved":0,"last_update":"0001-01-01T00:00:00Z","name_a2s":"Uncletopia | London | 2 | All Maps","protocol":17,"map":"koth_highpass","folder":"tf","game":"Team Fortress","app_id":440,"player_count":0,"max_players":24,"Bots":0,"server_type":"Dedicated","server_os":"Linux","password":true,"vac":true,"version":"7742253","steam_id":85568392924470941,"keywords":["cp","nocrits","nodmgspread","uncletopia"],"game_id":440,"stv_port":27026,"stv_name":"Uncletopia | London | 2 | All Maps | STV","players":null},{"server_id":320,"name":"Uncletopia | London | 3 | All Maps","name_short":"lon-3","host":"lon-1.uk.uncletopia.com","port":27035,"enabled":true,"region":"eu","cc":"gb","latitude":51.509865,"longitude":-0.118092,"reserved":0,"last_update":"0001-01-01T00:00:00Z","name_a2s":"Uncletopia | London | 3 | All Maps","protocol":17,"map":"koth_viaduct","folder":"tf","game":"Team Fortress","app_id":440,"player_count":0,"max_players":24,"Bots":0,"server_type":"Dedicated","server_os":"Linux","password":true,"vac":true,"version":"7742253","steam_id":85568392924510192,"keywords":["cp","nocrits","nodmgspread","uncletopia"],"game_id":440,"stv_port":27036,"stv_name":"Uncletopia | London | 3 | All Maps | STV","players":null},{"server_id":321,"name":"Uncletopia | London | 4 | All Maps","name_short":"lon-4","host":"lon-1.uk.uncletopia.com","port":27045,"enabled":true,"region":"eu","cc":"gb","latitude":51.509865,"longitude":-0.118092,"reserved":0,"last_update":"0001-01-01T00:00:00Z","name_a2s":"Uncletopia | London | 4 | All Maps","protocol":17,"map":"pl_borneo","folder":"tf","game":"Team Fortress","app_id":440,"player_count":0,"max_players":24,"Bots":0,"server_type":"Dedicated","server_os":"Linux","password":true,"vac":true,"version":"7742253","steam_id":85568392924510193,"keywords":["nocrits","nodmgspread","payload","uncletopia"],"game_id":440,"stv_port":27046,"stv_name":"Uncletopia | London | 4 | All Maps | STV","players":null},{"server_id":21,"name":"Uncletopia | London | 5 | All Maps","name_short":"lon-5","host":"lon-1.uk.uncletopia.com","port":27055,"enabled":true,"region":"eu","cc":"gb","latitude":51.509865,"longitude":-0.118092,"reserved":0,"last_update":"0001-01-01T00:00:00Z","name_a2s":"Uncletopia | London | 5 | All Maps","protocol":17,"map":"pl_pier","folder":"tf","game":"Team Fortress","app_id":440,"player_count":0,"max_players":24,"Bots":0,"server_type":"Dedicated","server_os":"Linux","password":true,"vac":true,"version":"7742253","steam_id":85568392924742829,"keywords":["nocrits","nodmgspread","payload","uncletopia"],"game_id":440,"stv_port":27056,"stv_name":"Uncletopia | London | 5 | All Maps | STV","players":null},{"server_id":22,"name":"Uncletopia | London | 6 | All Maps","name_short":"lon-6","host":"lon-1.uk.uncletopia.com","port":27065,"enabled":true,"region":"eu","cc":"gb","latitude":51.509865,"longitude":-0.118092,"reserved":0,"last_update":"0001-01-01T00:00:00Z","name_a2s":"Uncletopia | London | 6 | All Maps","protocol":17,"map":"cp_dustbowl","folder":"tf","game":"Team Fortress","app_id":440,"player_count":0,"max_players":24,"Bots":0,"server_type":"Dedicated","server_os":"Linux","password":true,"vac":true,"version":"7742253","steam_id":85568392924742830,"keywords":["cp","nocrits","nodmgspread","uncletopia"],"game_id":440,"stv_port":27066,"stv_name":"Uncletopia | London | 6 | All Maps | STV","players":null},{"server_id":40,"name":"Uncletopia | London | 7 | No Payload","name_short":"lon-7","host":"lon-1.uk.uncletopia.com","port":27075,"enabled":true,"region":"eu","cc":"gb","latitude":51.509865,"longitude":-0.118092,"reserved":0,"last_update":"0001-01-01T00:00:00Z","name_a2s":"Uncletopia | London | 7 | No Payload","protocol":17,"map":"cp_dustbowl","folder":"tf","game":"Team Fortress","app_id":440,"player_count":0,"max_players":24,"Bots":0,"server_type":"Dedicated","server_os":"Linux","password":true,"vac":true,"version":"7742253","steam_id":85568392924964314,"keywords":["cp","nocrits","nodmgspread","uncletopia"],"game_id":440,"stv_port":27076,"stv_name":"Uncletopia | London | 7 | No Payload | STV","players":null},{"server_id":41,"name":"Uncletopia | London | 8 | Community","name_short":"lon-8","host":"lon-1.uk.uncletopia.com","port":27085,"enabled":true,"region":"eu","cc":"gb","latitude":51.509865,"longitude":-0.118092,"reserved":0,"last_update":"0001-01-01T00:00:00Z","name_a2s":"Uncletopia | London | 8 | Community","protocol":17,"map":"workshop/koth_bagel_rc5.ugc2514036946","folder":"tf","game":"Team Fortress","app_id":440,"player_count":0,"max_players":24,"Bots":0,"server_type":"Dedicated","server_os":"Linux","password":true,"vac":true,"version":"7742253","steam_id":85568392924964315,"keywords":["cp","nocrits","nodmgspread","uncletopia"],"game_id":440,"stv_port":27086,"stv_name":"Uncletopia | London | 8 | Community | STV","players":null},{"server_id":300,"name":"Uncletopia | Montr√©al | 1 | All Maps","name_short":"mtl-1","host":"mtl-1.ca.uncletopia.com","port":27015,"enabled":true,"region":"us-east","cc":"ca","latitude":45.50889,"longitude":-73.56167,"reserved":0,"last_update":"0001-01-01T00:00:00Z","name_a2s":"Uncletopia | Montr√©al | 1 | All Maps","protocol":17,"map":"koth_lakeside_final","folder":"tf","game":"Team Fortress","app_id":440,"player_count":0,"max_players":24,"Bots":0,"server_type":"Dedicated","server_os":"Linux","password":true,"vac":true,"version":"7742253","steam_id":85568392924500087,"keywords":["cp","nocrits","nodmgspread","uncletopia"],"game_id":440,"stv_port":27016,"stv_name":"Uncletopia | Montr√©al | 1 | All Maps | STV","players":null},{"server_id":301,"name":"Uncletopia | Montr√©al | 2 | All Maps","name_short":"mtl-2","host":"mtl-1.ca.uncletopia.com","port":27025,"enabled":true,"region":"us-east","cc":"ca","latitude":45.50889,"longitude":-73.56167,"reserved":0,"last_update":"0001-01-01T00:00:00Z","name_a2s":"Uncletopia | Montr√©al | 2 | All Maps","protocol":17,"map":"koth_lakeside_final","folder":"tf","game":"Team Fortress","app_id":440,"player_count":0,"max_players":24,"Bots":0,"server_type":"Dedicated","server_os":"Linux","password":true,"vac":true,"version":"7742253","steam_id":85568392924500088,"keywords":["cp","nocrits","nodmgspread","uncletopia"],"game_id":440,"stv_port":27026,"stv_name":"Uncletopia | Montr√©al | 2 | All Maps | STV","players":null},{"server_id":302,"name":"Uncletopia | Montr√©al | 3 | All Maps","name_short":"mtl-3","host":"mtl-1.ca.uncletopia.com","port":27035,"enabled":true,"region":"us-east","cc":"ca","latitude":45.50889,"longitude":-73.56167,"reserved":0,"last_update":"0001-01-01T00:00:00Z","name_a2s":"Uncletopia | Montr√©al | 3 | All Maps","protocol":17,"map":"koth_cascade","folder":"tf","game":"Team Fortress","app_id":440,"player_count":0,"max_players":24,"Bots":0,"server_type":"Dedicated","server_os":"Linux","password":true,"vac":true,"version":"7742253","steam_id":85568392924500089,"keywords":["cp","nocrits","nodmgspread","uncletopia"],"game_id":440,"stv_port":27036,"stv_name":"Uncletopia | Montr√©al | 3 | All Maps | STV","players":null},{"server_id":303,"name":"Uncletopia | Montr√©al | 4 | No Payload","name_short":"mtl-4","host":"mtl-1.ca.uncletopia.com","port":27045,"enabled":true,"region":"us-east","cc":"ca","latitude":45.50889,"longitude":-73.56167,"reserved":0,"last_update":"0001-01-01T00:00:00Z","name_a2s":"Uncletopia | Montr√©al | 4 | No Payload","protocol":17,"map":"koth_harvest_final","folder":"tf","game":"Team Fortress","app_id":440,"player_count":0,"max_players":24,"Bots":0,"server_type":"Dedicated","server_os":"Linux","password":true,"vac":true,"version":"7742253","steam_id":85568392924500090,"keywords":["cp","nocrits","nodmgspread","uncletopia"],"game_id":440,"stv_port":27046,"stv_name":"Uncletopia | Montr√©al | 4 | No Payload | STV","players":null},{"server_id":13,"name":"Uncletopia | New York City | 1 | All Maps","name_short":"nyc-1","host":"nyc-1.us.uncletopia.com","port":27015,"enabled":true,"region":"us-east","cc":"us","latitude":40.73061,"longitude":-73.93524,"reserved":0,"last_update":"0001-01-01T00:00:00Z","name_a2s":"Uncletopia | New York City | 1 | All Maps","protocol":17,"map":"pl_swiftwater_final1","folder":"tf","game":"Team Fortress","app_id":440,"player_count":23,"max_players":24,"Bots":0,"server_type":"Dedicated","server_os":"Linux","password":true,"vac":true,"version":"7742253","steam_id":85568392924469993,"keywords":["nocrits","nodmgspread","payload","uncletopia"],"game_id":440,"stv_port":27016,"stv_name":"Uncletopia | New York City | 1 | All Maps | STV","players":[{"user_id":474,"name":"Chechens Spotted","steam_id":76561199028910893,"connected_time":5318000000000,"state":"active","ping":88},{"user_id":534,"name":"reptilia","steam_id":76561198075858067,"connected_time":104000000000,"state":"active","ping":45},{"user_id":507,"name":"Cthulwho?","steam_id":76561198165550810,"connected_time":1462000000000,"state":"active","ping":76},{"user_id":529,"name":"Florist","steam_id":76561198009121060,"connected_time":519000000000,"state":"active","ping":115},{"user_id":519,"name":"xd Clover","steam_id":76561198038905361,"connected_time":988000000000,"state":"active","ping":49},{"user_id":505,"name":"Mucho Grassy Ass","steam_id":76561198171708237,"connected_time":1473000000000,"state":"active","ping":57},{"user_id":381,"name":"layabout","steam_id":76561198130892117,"connected_time":10470000000000,"state":"active","ping":54},{"user_id":511,"name":"theancientnut","steam_id":76561199396708880,"connected_time":1340000000000,"state":"active","ping":73},{"user_id":508,"name":"TurkeyBoy36","steam_id":76561198066371399,"connected_time":1458000000000,"state":"active","ping":69},{"user_id":533,"name":"coal","steam_id":76561198027252280,"connected_time":182000000000,"state":"active","ping":66},{"user_id":509,"name":"TheConchinator","steam_id":76561199388149092,"connected_time":1437000000000,"state":"active","ping":79},{"user_id":473,"name":"CrispyToes","steam_id":76561198173624978,"connected_time":5338000000000,"state":"active","ping":93},{"user_id":535,"name":"Uncle Majic the Hip Hop Magicia","steam_id":76561198107924303,"connected_time":30000000000,"state":"active","ping":52},{"user_id":518,"name":"CheeseCake488","steam_id":76561199407617942,"connected_time":1076000000000,"state":"active","ping":137},{"user_id":523,"name":"Diamond Jack","steam_id":76561198321304762,"connected_time":784000000000,"state":"active","ping":41},{"user_id":482,"name":"matchstick","steam_id":76561198190100027,"connected_time":4505000000000,"state":"active","ping":45},{"user_id":524,"name":"carrion goat","steam_id":76561198262064871,"connected_time":769000000000,"state":"active","ping":46},{"user_id":501,"name":"buggymouse","steam_id":76561199251829030,"connected_time":1593000000000,"state":"active","ping":85},{"user_id":467,"name":"he's angry","steam_id":76561198069065342,"connected_time":5494000000000,"state":"active","ping":62},{"user_id":530,"name":"bauxoffdagloop","steam_id":76561199196442823,"connected_time":516000000000,"state":"active","ping":167},{"user_id":470,"name":"TheChickenChuck","steam_id":76561199192686708,"connected_time":5430000000000,"state":"active","ping":114},{"user_id":525,"name":"Bear bird","steam_id":76561198166769479,"connected_time":754000000000,"state":"active","ping":72},{"user_id":531,"name":"al.vasiglev","steam_id":76561198307359545,"connected_time":508000000000,"state":"active","ping":131}]},{"server_id":14,"name":"Uncletopia | New York City | 2 | All Maps","name_short":"nyc-2","host":"nyc-1.us.uncletopia.com","port":27025,"enabled":true,"region":"us-east","cc":"us","latitude":40.73061,"longitude":-73.93524,"reserved":0,"last_update":"0001-01-01T00:00:00Z","name_a2s":"Uncletopia | New York City | 2 | All Maps","protocol":17,"map":"cp_dustbowl","folder":"tf","game":"Team Fortress","app_id":440,"player_count":24,"max_players":24,"Bots":0,"server_type":"Dedicated","server_os":"Linux","password":true,"vac":true,"version":"7742253","steam_id":85568392924469994,"keywords":["cp","nocrits","nodmgspread","uncletopia"],"game_id":440,"stv_port":27026,"stv_name":"Uncletopia | New York City | 2 | All Maps | STV","players":[{"user_id":355,"name":"Lumpy","steam_id":76561198058840585,"connected_time":2442000000000,"state":"active","ping":60},{"user_id":352,"name":"comet sooicidy","steam_id":76561198025173479,"connected_time":2594000000000,"state":"active","ping":82},{"user_id":339,"name":"CreeperCatBengal","steam_id":76561198213193221,"connected_time":3797000000000,"state":"active","ping":57},{"user_id":378,"name":"Stupid_Cake","steam_id":76561198079566684,"connected_time":683000000000,"state":"active","ping":68},{"user_id":384,"name":"the deadliest pyroshark","steam_id":76561198374227766,"connected_time":642000000000,"state":"active","ping":52},{"user_id":376,"name":"harry","steam_id":76561198365118514,"connected_time":801000000000,"state":"active","ping":57},{"user_id":377,"name":"Liguy owo","steam_id":76561199013763755,"connected_time":758000000000,"state":"active","ping":46},{"user_id":386,"name":"canerom","steam_id":76561199037536878,"connected_time":597000000000,"state":"active","ping":69},{"user_id":372,"name":"VerSaKa","steam_id":76561198052392540,"connected_time":1338000000000,"state":"active","ping":64},{"user_id":354,"name":"CheesyPotato","steam_id":76561198098788416,"connected_time":2496000000000,"state":"active","ping":117},{"user_id":379,"name":"Cass256","steam_id":76561198061188829,"connected_time":673000000000,"state":"active","ping":75},{"user_id":380,"name":"SSJB FunkyBoy","steam_id":76561198098327555,"connected_time":666000000000,"state":"active","ping":103},{"user_id":381,"name":"Menachem","steam_id":76561198041226420,"connected_time":653000000000,"state":"active","ping":71},{"user_id":385,"name":"HitBox","steam_id":76561199244578398,"connected_time":642000000000,"state":"active","ping":82},{"user_id":383,"name":"N1CC","steam_id":76561198045177406,"connected_time":647000000000,"state":"active","ping":63},{"user_id":395,"name":"Bonzo_isSpy1227","steam_id":76561199400877959,"connected_time":244000000000,"state":"active","ping":116},{"user_id":285,"name":"Shhh Whisper","steam_id":76561198046027406,"connected_time":6869000000000,"state":"active","ping":56},{"user_id":359,"name":"Nakedkoops(#RemasterTTYD)","steam_id":76561199197961413,"connected_time":2361000000000,"state":"active","ping":45},{"user_id":388,"name":"The Lonely Croc","steam_id":76561198123241396,"connected_time":527000000000,"state":"active","ping":100},{"user_id":396,"name":"violetcassette","steam_id":76561199028224555,"connected_time":55000000000,"state":"spawning","ping":99},{"user_id":390,"name":"SL1T","steam_id":76561198069380992,"connected_time":503000000000,"state":"active","ping":91},{"user_id":391,"name":"Mr. Soupman","steam_id":76561198021649598,"connected_time":499000000000,"state":"active","ping":45},{"user_id":392,"name":"ADHDking","steam_id":76561198116099017,"connected_time":462000000000,"state":"active","ping":48},{"user_id":393,"name":"Piss Goblin","steam_id":76561198091394431,"connected_time":458000000000,"state":"active","ping":63}]},{"server_id":15,"name":"Uncletopia | New York City | 3 | Stopwatch Beta","name_short":"nyc-3","host":"nyc-1.us.uncletopia.com","port":27035,"enabled":true,"region":"us-east","cc":"us","latitude":40.73061,"longitude":-73.93524,"reserved":0,"last_update":"0001-01-01T00:00:00Z","name_a2s":"Uncletopia | New York City | 3 | Stopwatch Beta","protocol":17,"map":"cp_altitude","folder":"tf","game":"Team Fortress","app_id":440,"player_count":0,"max_players":24,"Bots":0,"server_type":"Dedicated","server_os":"Linux","password":true,"vac":true,"version":"7742253","steam_id":85568392924742820,"keywords":["cp","nocrits","nodmgspread","uncletopia"],"game_id":440,"stv_port":27036,"stv_name":"Uncletopia | New York City | 3 | Stopwatch Beta | STV","players":null},{"server_id":16,"name":"Uncletopia | New York City | 4 | Community","name_short":"nyc-4","host":"nyc-1.us.uncletopia.com","port":27045,"enabled":true,"region":"us-east","cc":"us","latitude":40.73061,"longitude":-73.93524,"reserved":0,"last_update":"0001-01-01T00:00:00Z","name_a2s":"Uncletopia | New York City | 4 | Community","protocol":17,"map":"workshop/koth_synthetic_rc6a.ugc1549817316","folder":"tf","game":"Team Fortress","app_id":440,"player_count":0,"max_players":24,"Bots":0,"server_type":"Dedicated","server_os":"Linux","password":true,"vac":true,"version":"7742253","steam_id":85568392924742821,"keywords":["cp","nocrits","nodmgspread","uncletopia"],"game_id":440,"stv_port":27046,"stv_name":"Uncletopia | New York City | 4 | Community | STV","players":null},{"server_id":142,"name":"Uncletopia | S√£o Paulo | 1 | All Maps","name_short":"sao-1","host":"sao-1.br.uncletopia.com","port":27015,"enabled":true,"region":"sa","cc":"br","latitude":-23.533773,"longitude":-46.62529,"reserved":0,"last_update":"0001-01-01T00:00:00Z","name_a2s":"Uncletopia | S√£o Paulo | 1 | All Maps","protocol":17,"map":"koth_cascade","folder":"tf","game":"Team Fortress","app_id":440,"player_count":0,"max_players":24,"Bots":0,"server_type":"Dedicated","server_os":"Linux","password":true,"vac":true,"version":"7742253","steam_id":85568392924469996,"keywords":["cp","nocrits","nodmgspread","uncletopia"],"game_id":440,"stv_port":27016,"stv_name":"Uncletopia | S√£o Paulo | 1 | All Maps | STV","players":null},{"server_id":143,"name":"Uncletopia | S√£o Paulo | 2 | All Maps","name_short":"sao-2","host":"sao-2.br.uncletopia.com","port":27015,"enabled":true,"region":"sa","cc":"br","latitude":-23.533773,"longitude":-46.62529,"reserved":0,"last_update":"0001-01-01T00:00:00Z","name_a2s":"Uncletopia | S√£o Paulo | 2 | All Maps","protocol":17,"map":"koth_viaduct","folder":"tf","game":"Team Fortress","app_id":440,"player_count":0,"max_players":24,"Bots":0,"server_type":"Dedicated","server_os":"Linux","password":true,"vac":true,"version":"7742253","steam_id":85568392924485349,"keywords":["cp","nocrits","nodmgspread","uncletopia"],"game_id":440,"stv_port":27016,"stv_name":"Uncletopia | S√£o Paulo | 2 | All Maps | STV","players":null},{"server_id":7,"name":"Uncletopia | Seattle | 1 | All Maps","name_short":"sea-1","host":"sea-1.us.uncletopia.com","port":27015,"enabled":true,"region":"us-west","cc":"us","latitude":47.608013,"longitude":-122.33517,"reserved":0,"last_update":"0001-01-01T00:00:00Z","name_a2s":"Uncletopia | Seattle | 1 | All Maps","protocol":17,"map":"pl_borneo","folder":"tf","game":"Team Fortress","app_id":440,"player_count":24,"max_players":24,"Bots":0,"server_type":"Dedicated","server_os":"Linux","password":true,"vac":true,"version":"7742253","steam_id":85568392924469997,"keywords":["nocrits","nodmgspread","payload","uncletopia"],"game_id":440,"stv_port":27016,"stv_name":"Uncletopia | Seattle | 1 | All Maps | STV","players":[{"user_id":356,"name":"rat gets the cheese","steam_id":76561198031234032,"connected_time":5221000000000,"state":"active","ping":98},{"user_id":403,"name":"SHADOW (he/him)","steam_id":76561198207768148,"connected_time":477000000000,"state":"active","ping":80},{"user_id":362,"name":"Level 99 Mudcrab","steam_id":76561198077452771,"connected_time":4970000000000,"state":"active","ping":60},{"user_id":397,"name":"Skabbety","steam_id":76561198168044257,"connected_time":1031000000000,"state":"active","ping":44},{"user_id":342,"name":"lavender","steam_id":76561199069518286,"connected_time":6759000000000,"state":"active","ping":71},{"user_id":408,"name":"resh","steam_id":76561198239598834,"connected_time":282000000000,"state":"active","ping":129},{"user_id":279,"name":"BolognaWithOlives","steam_id":76561198101262668,"connected_time":12379000000000,"state":"active","ping":95},{"user_id":373,"name":"dust","steam_id":76561198045218909,"connected_time":3014000000000,"state":"active","ping":41},{"user_id":366,"name":"Klone","steam_id":76561198854485605,"connected_time":3532000000000,"state":"active","ping":74},{"user_id":311,"name":"Luca","steam_id":76561198125087140,"connected_time":9830000000000,"state":"active","ping":45},{"user_id":394,"name":"kab789","steam_id":76561198069842202,"connected_time":1757000000000,"state":"active","ping":105},{"user_id":396,"name":"Robert E.T.","steam_id":76561197986439371,"connected_time":1364000000000,"state":"active","ping":52},{"user_id":340,"name":"Ducks","steam_id":76561198130038345,"connected_time":6873000000000,"state":"active","ping":45},{"user_id":379,"name":"Bagaboned","steam_id":76561198043761335,"connected_time":2539000000000,"state":"active","ping":53},{"user_id":378,"name":"Dimple","steam_id":76561198980324190,"connected_time":2550000000000,"state":"active","ping":62},{"user_id":374,"name":"trashboat","steam_id":76561199067882406,"connected_time":2997000000000,"state":"active","ping":96},{"user_id":406,"name":"PorgyPork","steam_id":76561198824399078,"connected_time":310000000000,"state":"active","ping":59},{"user_id":354,"name":"whimmu","steam_id":76561198370839794,"connected_time":5561000000000,"state":"active","ping":102},{"user_id":388,"name":"Dad Rock Deluxe","steam_id":76561198051224819,"connected_time":2192000000000,"state":"active","ping":89},{"user_id":402,"name":"k","steam_id":76561198835242836,"connected_time":510000000000,"state":"active","ping":54},{"user_id":401,"name":"Zee‚ù§","steam_id":76561198274550638,"connected_time":890000000000,"state":"active","ping":108},{"user_id":395,"name":"Biggest Dude In Town 4U","steam_id":76561198070281464,"connected_time":1685000000000,"state":"active","ping":106},{"user_id":392,"name":"WindWielder","steam_id":76561199118942369,"connected_time":1889000000000,"state":"active","ping":72},{"user_id":405,"name":"big car","steam_id":76561198067082350,"connected_time":427000000000,"state":"active","ping":62}]},{"server_id":119,"name":"Uncletopia | Seattle | 2 | All Maps","name_short":"sea-2","host":"sea-1.us.uncletopia.com","port":27025,"enabled":true,"region":"us-west","cc":"us","latitude":47.608013,"longitude":-122.33517,"reserved":0,"last_update":"0001-01-01T00:00:00Z","name_a2s":"Uncletopia | Seattle | 2 | All Maps","protocol":17,"map":"pl_upward","folder":"tf","game":"Team Fortress","app_id":440,"player_count":24,"max_players":24,"Bots":0,"server_type":"Dedicated","server_os":"Linux","password":true,"vac":true,"version":"7742253","steam_id":85568392924469998,"keywords":["nocrits","nodmgspread","payload","uncletopia"],"game_id":440,"stv_port":27026,"stv_name":"Uncletopia | Seattle | 2 | All Maps | STV","players":[{"user_id":484,"name":"timmy","steam_id":76561198063322988,"connected_time":932000000000,"state":"active","ping":48},{"user_id":492,"name":"thunderous prophet","steam_id":76561198131166135,"connected_time":647000000000,"state":"active","ping":41},{"user_id":477,"name":"brobtlcehc","steam_id":76561198043558709,"connected_time":1694000000000,"state":"active","ping":52},{"user_id":486,"name":"Mom","steam_id":76561198207936000,"connected_time":888000000000,"state":"active","ping":77},{"user_id":478,"name":"YourBoiCoy330","steam_id":76561199123709099,"connected_time":1688000000000,"state":"active","ping":166},{"user_id":476,"name":"Tom Skirrett","steam_id":76561198014600788,"connected_time":1757000000000,"state":"active","ping":63},{"user_id":487,"name":"TheCowledWiz","steam_id":76561198016735868,"connected_time":873000000000,"state":"active","ping":70},{"user_id":480,"name":"Rurigade Towers","steam_id":76561198148598905,"connected_time":1550000000000,"state":"active","ping":94},{"user_id":463,"name":"Court Wizard, Sir Dr. Clydesdal","steam_id":76561198149267697,"connected_time":2548000000000,"state":"active","ping":63},{"user_id":440,"name":"UneditedAndy","steam_id":76561198982544947,"connected_time":4348000000000,"state":"active","ping":77},{"user_id":488,"name":"The Arm","steam_id":76561197983066285,"connected_time":865000000000,"state":"active","ping":73},{"user_id":379,"name":"Miner2495","steam_id":76561198445904523,"connected_time":8130000000000,"state":"active","ping":114},{"user_id":493,"name":"General Fisticuffs","steam_id":76561198255721392,"connected_time":474000000000,"state":"active","ping":104},{"user_id":496,"name":"enderantics","steam_id":76561198388495246,"connected_time":312000000000,"state":"active","ping":49},{"user_id":469,"name":"Pyrotek‚Å¥","steam_id":76561198072747672,"connected_time":2488000000000,"state":"active","ping":76},{"user_id":464,"name":"Noxus","steam_id":76561199009820852,"connected_time":2547000000000,"state":"active","ping":85},{"user_id":468,"name":"EatSomeBEES","steam_id":76561198047334307,"connected_time":2519000000000,"state":"active","ping":79},{"user_id":470,"name":"Nibotshooter","steam_id":76561199284825579,"connected_time":2465000000000,"state":"active","ping":91},{"user_id":466,"name":"TROY","steam_id":76561197983852176,"connected_time":2540000000000,"state":"active","ping":80},{"user_id":495,"name":"squash","steam_id":76561198150281353,"connected_time":336000000000,"state":"active","ping":54},{"user_id":483,"name":"Azaheth","steam_id":76561198253616898,"connected_time":1111000000000,"state":"active","ping":73},{"user_id":490,"name":"Farseer Ulwithy","steam_id":76561197965179245,"connected_time":842000000000,"state":"active","ping":98},{"user_id":497,"name":"Dali","steam_id":76561198077593486,"connected_time":281000000000,"state":"active","ping":89},{"user_id":475,"name":"MCman","steam_id":76561198412110305,"connected_time":2064000000000,"state":"active","ping":78}]},{"server_id":406,"name":"Uncletopia | Seattle | 3 | Stopwatch Beta","name_short":"sea-3","host":"sea-1.us.uncletopia.com","port":27035,"enabled":true,"region":"us-west","cc":"us","latitude":47.608013,"longitude":-122.33517,"reserved":0,"last_update":"0001-01-01T00:00:00Z","name_a2s":"Uncletopia | Seattle | 3 | Stopwatch Beta","protocol":17,"map":"cp_gullywash_final1","folder":"tf","game":"Team Fortress","app_id":440,"player_count":4,"max_players":24,"Bots":0,"server_type":"Dedicated","server_os":"Linux","password":true,"vac":false,"version":"7742253","steam_id":0,"keywords":["cp","nocrits","nodmgspread","uncletopia"],"game_id":440,"stv_port":27036,"stv_name":"Uncletopia | Seattle | 3 | Stopwatch Beta | STV","players":[{"user_id":12,"name":"Elite_Friendly","steam_id":76561198819972127,"connected_time":346000000000,"state":"active","ping":50},{"user_id":9,"name":"Anti-Buffer","steam_id":76561198202023350,"connected_time":1288000000000,"state":"active","ping":145},{"user_id":10,"name":"WELCOME TO WARIO WORLD!!!","steam_id":76561199118711243,"connected_time":1216000000000,"state":"active","ping":80},{"user_id":11,"name":"Your Local Festive Furry","steam_id":76561199030190462,"connected_time":572000000000,"state":"active","ping":96}]},{"server_id":17,"name":"Uncletopia | San Francisco | 1 | All Maps","name_short":"sfo-1","host":"sfo-1.us.uncletopia.com","port":27015,"enabled":true,"region":"us-west","cc":"us","latitude":37.77397,"longitude":-122.4313,"reserved":0,"last_update":"0001-01-01T00:00:00Z","name_a2s":"Uncletopia | San Francisco | 1 | All Maps","protocol":17,"map":"koth_lakeside_final","folder":"tf","game":"Team Fortress","app_id":440,"player_count":0,"max_players":24,"Bots":0,"server_type":"Dedicated","server_os":"Linux","password":true,"vac":true,"version":"7742253","steam_id":85568392924469999,"keywords":["cp","nocrits","nodmgspread","uncletopia"],"game_id":440,"stv_port":27016,"stv_name":"Uncletopia | San Francisco | 1 | All Maps | STV","players":null},{"server_id":18,"name":"Uncletopia | San Francisco | 2 | All Maps","name_short":"sfo-2","host":"sfo-1.us.uncletopia.com","port":27025,"enabled":true,"region":"us-west","cc":"us","latitude":37.77397,"longitude":-122.4313,"reserved":0,"last_update":"0001-01-01T00:00:00Z","name_a2s":"Uncletopia | San Francisco | 2 | All Maps","protocol":17,"map":"pl_pier","folder":"tf","game":"Team Fortress","app_id":440,"player_count":4,"max_players":24,"Bots":0,"server_type":"Dedicated","server_os":"Linux","password":true,"vac":true,"version":"7742253","steam_id":85568392924470000,"keywords":["nocrits","nodmgspread","payload","uncletopia"],"game_id":440,"stv_port":27026,"stv_name":"Uncletopia | San Francisco | 2 | All Maps | STV","players":[{"user_id":9,"name":"Danielgaming22604","steam_id":76561198802374223,"connected_time":1784000000000,"state":"active","ping":94},{"user_id":8,"name":"ThatOneGuy","steam_id":76561198146164845,"connected_time":2356000000000,"state":"active","ping":106},{"user_id":11,"name":"johnman gooberguy","steam_id":76561199014859764,"connected_time":1451000000000,"state":"active","ping":54},{"user_id":14,"name":"Noe97663","steam_id":76561198111468690,"connected_time":227000000000,"state":"active","ping":98}]},{"server_id":19,"name":"Uncletopia | San Francisco | 3 | Stopwatch Beta","name_short":"sfo-3","host":"sfo-1.us.uncletopia.com","port":27035,"enabled":true,"region":"us-west","cc":"us","latitude":37.77397,"longitude":-122.4313,"reserved":0,"last_update":"0001-01-01T00:00:00Z","name_a2s":"Uncletopia | San Francisco | 3 | Stopwatch Beta","protocol":17,"map":"cp_snakewater_final1","folder":"tf","game":"Team Fortress","app_id":440,"player_count":0,"max_players":24,"Bots":0,"server_type":"Dedicated","server_os":"Linux","password":true,"vac":true,"version":"7742253","steam_id":85568392924742824,"keywords":["cp","nocrits","nodmgspread","uncletopia"],"game_id":440,"stv_port":27036,"stv_name":"Uncletopia | San Francisco | 3 | Stopwatch Beta | STV","players":null},{"server_id":20,"name":"Uncletopia | San Francisco | 4 | Community","name_short":"sfo-4","host":"sfo-1.us.uncletopia.com","port":27045,"enabled":true,"region":"us-west","cc":"us","latitude":37.77397,"longitude":-122.4313,"reserved":0,"last_update":"0001-01-01T00:00:00Z","name_a2s":"Uncletopia | San Francisco | 4 | Community","protocol":17,"map":"workshop/koth_ramjam_v2_b2.ugc2865676487","folder":"tf","game":"Team Fortress","app_id":440,"player_count":0,"max_players":24,"Bots":0,"server_type":"Dedicated","server_os":"Linux","password":true,"vac":true,"version":"7742253","steam_id":85568392924742826,"keywords":["cp","nocrits","nodmgspread","uncletopia"],"game_id":440,"stv_port":27046,"stv_name":"Uncletopia | San Francisco | 4 | Community | STV","players":null},{"server_id":141,"name":"Uncletopia | Sydney | 1 | All Maps","name_short":"syd-1","host":"syd-1.au.uncletopia.com","port":27015,"enabled":true,"region":"au","cc":"au","latitude":-33.865143,"longitude":151.2099,"reserved":0,"last_update":"0001-01-01T00:00:00Z","name_a2s":"Uncletopia | Sydney | 1 | All Maps","protocol":17,"map":"pl_badwater","folder":"tf","game":"Team Fortress","app_id":440,"player_count":24,"max_players":24,"Bots":0,"server_type":"Dedicated","server_os":"Linux","password":true,"vac":true,"version":"7742253","steam_id":85568392924470001,"keywords":["nocrits","nodmgspread","payload","uncletopia"],"game_id":440,"stv_port":27016,"stv_name":"Uncletopia | Sydney | 1 | All Maps | STV","players":[{"user_id":151,"name":"Owlenstein‚Ñ¢","steam_id":76561198093983826,"connected_time":967000000000,"state":"active","ping":108},{"user_id":28,"name":"Nyda","steam_id":76561198152311904,"connected_time":10838000000000,"state":"active","ping":65},{"user_id":91,"name":"‡∏∏bifcheg","steam_id":76561198319806610,"connected_time":6092000000000,"state":"active","ping":58},{"user_id":129,"name":"Dusk ·òõ‚ÅêÃ§·ïê·ê∑","steam_id":76561198061998379,"connected_time":2381000000000,"state":"active","ping":48},{"user_id":40,"name":"Maxamus","steam_id":76561198343953317,"connected_time":9297000000000,"state":"active","ping":63},{"user_id":152,"name":"TW_light2022","steam_id":76561199393566784,"connected_time":881000000000,"state":"active","ping":68},{"user_id":136,"name":"Yeehaw","steam_id":76561198039684922,"connected_time":1672000000000,"state":"active","ping":38},{"user_id":148,"name":"coolpatrickleahy","steam_id":76561199442994540,"connected_time":1127000000000,"state":"active","ping":98},{"user_id":116,"name":"Linkazoid","steam_id":76561198107915685,"connected_time":3449000000000,"state":"active","ping":82},{"user_id":155,"name":"SinisterMagnus","steam_id":76561198133867907,"connected_time":366000000000,"state":"active","ping":71},{"user_id":145,"name":"malrina","steam_id":76561198110654535,"connected_time":1236000000000,"state":"active","ping":56},{"user_id":140,"name":"Darren","steam_id":76561198988128327,"connected_time":1496000000000,"state":"active","ping":39},{"user_id":125,"name":"Happy Feet (A Tarantino Film)","steam_id":76561198055318716,"connected_time":3024000000000,"state":"active","ping":46},{"user_id":146,"name":"Peasantry","steam_id":76561198031293430,"connected_time":1205000000000,"state":"active","ping":86},{"user_id":128,"name":"lightcookie","steam_id":76561198272077879,"connected_time":2581000000000,"state":"active","ping":69},{"user_id":153,"name":"Im too cooked","steam_id":76561199006814024,"connected_time":846000000000,"state":"active","ping":69},{"user_id":134,"name":"suitdummy22","steam_id":76561198042198744,"connected_time":1867000000000,"state":"active","ping":46},{"user_id":154,"name":"adrarto","steam_id":76561198128516475,"connected_time":844000000000,"state":"active","ping":68},{"user_id":144,"name":"terrablade_master","steam_id":76561198997249192,"connected_time":1247000000000,"state":"active","ping":63},{"user_id":138,"name":"twitch.tv/realcuyt","steam_id":76561198184926846,"connected_time":1617000000000,"state":"active","ping":60},{"user_id":131,"name":"bweegus wagoogus glumbus","steam_id":76561198063481761,"connected_time":2154000000000,"state":"active","ping":44},{"user_id":98,"name":"J_Willem","steam_id":76561199123676616,"connected_time":5403000000000,"state":"active","ping":45},{"user_id":157,"name":"Z","steam_id":76561198302670452,"connected_time":220000000000,"state":"active","ping":60},{"user_id":149,"name":"Bosic012","steam_id":76561199084821580,"connected_time":1101000000000,"state":"active","ping":52}]},{"server_id":123,"name":"Uncletopia | Sydney | 2 | All Maps","name_short":"syd-2","host":"syd-1.au.uncletopia.com","port":27025,"enabled":true,"region":"au","cc":"au","latitude":-33.865143,"longitude":151.2099,"reserved":0,"last_update":"0001-01-01T00:00:00Z","name_a2s":"Uncletopia | Sydney | 2 | All Maps","protocol":17,"map":"pl_pier","folder":"tf","game":"Team Fortress","app_id":440,"player_count":17,"max_players":24,"Bots":0,"server_type":"Dedicated","server_os":"Linux","password":true,"vac":true,"version":"7742253","steam_id":85568392924470002,"keywords":["nocrits","nodmgspread","payload","uncletopia"],"game_id":440,"stv_port":27026,"stv_name":"Uncletopia | Sydney | 2 | All Maps | STV","players":[{"user_id":31,"name":"void","steam_id":76561198241303512,"connected_time":3310000000000,"state":"active","ping":54},{"user_id":76,"name":"Rizeo","steam_id":76561198147901488,"connected_time":105000000000,"state":"active","ping":59},{"user_id":47,"name":"CuzzyCuz","steam_id":76561198069054697,"connected_time":1854000000000,"state":"active","ping":67},{"user_id":49,"name":"john","steam_id":76561199222027878,"connected_time":1801000000000,"state":"active","ping":62},{"user_id":37,"name":"Branko","steam_id":76561199262196710,"connected_time":2564000000000,"state":"active","ping":41},{"user_id":16,"name":"random.","steam_id":76561198848689967,"connected_time":4704000000000,"state":"active","ping":45},{"user_id":66,"name":"decent","steam_id":76561198337510700,"connected_time":631000000000,"state":"active","ping":91},{"user_id":77,"name":"Angel Sherling","steam_id":76561198374293303,"connected_time":87000000000,"state":"active","ping":50},{"user_id":78,"name":"Google Chrome","steam_id":76561198042064910,"connected_time":28000000000,"state":"active","ping":39},{"user_id":42,"name":"Jambi","steam_id":76561198310550094,"connected_time":2124000000000,"state":"active","ping":56},{"user_id":62,"name":"Dingo","steam_id":76561198315774295,"connected_time":996000000000,"state":"active","ping":55},{"user_id":48,"name":"Courage","steam_id":76561198051379740,"connected_time":1823000000000,"state":"active","ping":49},{"user_id":72,"name":"ZaEpicScout205","steam_id":76561198170693338,"connected_time":184000000000,"state":"active","ping":75},{"user_id":73,"name":"Batboy","steam_id":76561198152618612,"connected_time":175000000000,"state":"active","ping":68},{"user_id":69,"name":"Michaelsoft Binbows","steam_id":76561198422847304,"connected_time":489000000000,"state":"active","ping":58},{"user_id":57,"name":"Teamfighting","steam_id":76561198160135508,"connected_time":1434000000000,"state":"active","ping":48},{"user_id":70,"name":"Kanga Bangas","steam_id":76561198162187264,"connected_time":387000000000,"state":"active","ping":67}]},{"server_id":395,"name":"Uncletopia | Sydney | 3 | All Maps","name_short":"syd-3","host":"syd-1.au.uncletopia.com","port":27035,"enabled":true,"region":"au","cc":"au","latitude":-33.865143,"longitude":151.2099,"reserved":0,"last_update":"0001-01-01T00:00:00Z","name_a2s":"Uncletopia | Sydney | 3 | All Maps","protocol":17,"map":"cp_snakewater_final1","folder":"tf","game":"Team Fortress","app_id":440,"player_count":0,"max_players":24,"Bots":0,"server_type":"Dedicated","server_os":"Linux","password":true,"vac":true,"version":"7742253","steam_id":85568392925194467,"keywords":["cp","nocrits","nodmgspread","uncletopia"],"game_id":440,"stv_port":27036,"stv_name":"Uncletopia | Sydney | 3 | All Maps | STV","players":null},{"server_id":396,"name":"Uncletopia | Sydney | 4 | All Maps","name_short":"syd-4","host":"syd-1.au.uncletopia.com","port":27045,"enabled":true,"region":"au","cc":"au","latitude":-33.865143,"longitude":151.2099,"reserved":0,"last_update":"0001-01-01T00:00:00Z","name_a2s":"Uncletopia | Sydney | 4 | All Maps","protocol":17,"map":"pl_borneo","folder":"tf","game":"Team Fortress","app_id":440,"player_count":0,"max_players":24,"Bots":0,"server_type":"Dedicated","server_os":"Linux","password":true,"vac":true,"version":"7742253","steam_id":85568392925397958,"keywords":["nocrits","nodmgspread","payload","uncletopia"],"game_id":440,"stv_port":27046,"stv_name":"Uncletopia | Sydney | 4 | All Maps | STV","players":null},{"server_id":58,"name":"Uncletopia | Sydney | 5 | Stopwatch Beta","name_short":"syd-5","host":"syd-1.au.uncletopia.com","port":27055,"enabled":true,"region":"au","cc":"au","latitude":-33.865143,"longitude":151.2099,"reserved":0,"last_update":"0001-01-01T00:00:00Z","name_a2s":"Uncletopia | Sydney | 5 | Stopwatch Beta","protocol":17,"map":"cp_snakewater_final1","folder":"tf","game":"Team Fortress","app_id":440,"player_count":0,"max_players":24,"Bots":0,"server_type":"Dedicated","server_os":"Linux","password":true,"vac":true,"version":"7742253","steam_id":85568392925397959,"keywords":["cp","nocrits","nodmgspread","uncletopia"],"game_id":440,"stv_port":27056,"stv_name":"Uncletopia | Sydney | 5 | Stopwatch Beta | STV","players":null},{"server_id":59,"name":"Uncletopia | Sydney | 6 | Community","name_short":"syd-6","host":"syd-1.au.uncletopia.com","port":27065,"enabled":true,"region":"au","cc":"au","latitude":-33.865143,"longitude":151.2099,"reserved":0,"last_update":"0001-01-01T00:00:00Z","name_a2s":"Uncletopia | Sydney | 6 | Community","protocol":17,"map":"workshop/koth_product_final.ugc454272353","folder":"tf","game":"Team Fortress","app_id":440,"player_count":0,"max_players":24,"Bots":0,"server_type":"Dedicated","server_os":"Linux","password":true,"vac":true,"version":"7742253","steam_id":85568392925397960,"keywords":["cp","nocrits","nodmgspread","uncletopia"],"game_id":440,"stv_port":27066,"stv_name":"Uncletopia | Sydney | 6 | Community | STV","players":null},{"server_id":49,"name":"Uncletopia | Warsaw | 1 | All Maps","name_short":"waw-1","host":"waw-1.pl.uncletopia.com","port":27015,"enabled":true,"region":"eu","cc":"pl","latitude":52.2297,"longitude":21.017532,"reserved":0,"last_update":"0001-01-01T00:00:00Z","name_a2s":"Uncletopia | Warsaw | 1 | All Maps","protocol":17,"map":"koth_lakeside_final","folder":"tf","game":"Team Fortress","app_id":440,"player_count":0,"max_players":24,"Bots":0,"server_type":"Dedicated","server_os":"Linux","password":true,"vac":true,"version":"7723704","steam_id":85568392925397850,"keywords":["cp","nocrits","nodmgspread","uncletopia"],"game_id":440,"stv_port":27016,"stv_name":"Uncletopia | Warsaw | 1 | All Maps | STV","players":null},{"server_id":50,"name":"Uncletopia | Warsaw | 2 | All Maps","name_short":"waw-2","host":"waw-1.pl.uncletopia.com","port":27025,"enabled":true,"region":"eu","cc":"pl","latitude":52.2297,"longitude":21.017532,"reserved":0,"last_update":"0001-01-01T00:00:00Z","name_a2s":"Uncletopia | Warsaw | 2 | All Maps","protocol":17,"map":"koth_cascade","folder":"tf","game":"Team Fortress","app_id":440,"player_count":0,"max_players":24,"Bots":0,"server_type":"Dedicated","server_os":"Linux","password":true,"vac":true,"version":"7742253","steam_id":85568392925397851,"keywords":["cp","nocrits","nodmgspread","uncletopia"],"game_id":440,"stv_port":27026,"stv_name":"Uncletopia | Warsaw | 2 | All Maps | STV","players":null},{"server_id":51,"name":"Uncletopia | Warsaw | 3 | All Maps","name_short":"waw-3","host":"waw-1.pl.uncletopia.com","port":27035,"enabled":true,"region":"eu","cc":"pl","latitude":52.2297,"longitude":21.017532,"reserved":0,"last_update":"0001-01-01T00:00:00Z","name_a2s":"Uncletopia | Warsaw | 3 | All Maps","protocol":17,"map":"koth_cascade","folder":"tf","game":"Team Fortress","app_id":440,"player_count":0,"max_players":24,"Bots":0,"server_type":"Dedicated","server_os":"Linux","password":true,"vac":true,"version":"7742253","steam_id":85568392925397852,"keywords":["cp","nocrits","nodmgspread","uncletopia"],"game_id":440,"stv_port":27036,"stv_name":"Uncletopia | Warsaw | 3 | All Maps | STV","players":null},{"server_id":52,"name":"Uncletopia | Warsaw | 4 | All Maps","name_short":"waw-4","host":"waw-1.pl.uncletopia.com","port":27045,"enabled":true,"region":"eu","cc":"pl","latitude":52.2297,"longitude":21.017532,"reserved":0,"last_update":"0001-01-01T00:00:00Z","name_a2s":"Uncletopia | Warsaw | 4 | All Maps","protocol":17,"map":"pl_swiftwater_final1","folder":"tf","game":"Team Fortress","app_id":440,"player_count":0,"max_players":24,"Bots":0,"server_type":"Dedicated","server_os":"Linux","password":true,"vac":true,"version":"7742253","steam_id":85568392925397853,"keywords":["nocrits","nodmgspread","payload","uncletopia"],"game_id":440,"stv_port":27046,"stv_name":"Uncletopia | Warsaw | 4 | All Maps | STV","players":null},{"server_id":53,"name":"Uncletopia | Warsaw | 5 | Stopwatch Beta","name_short":"waw-5","host":"waw-1.pl.uncletopia.com","port":27055,"enabled":true,"region":"eu","cc":"pl","latitude":52.2297,"longitude":21.017532,"reserved":0,"last_update":"0001-01-01T00:00:00Z","name_a2s":"Uncletopia | Warsaw | 5 | Stopwatch Beta","protocol":17,"map":"pl_pier","folder":"tf","game":"Team Fortress","app_id":440,"player_count":0,"max_players":24,"Bots":0,"server_type":"Dedicated","server_os":"Linux","password":true,"vac":true,"version":"7742253","steam_id":85568392925397854,"keywords":["nocrits","nodmgspread","payload","uncletopia"],"game_id":440,"stv_port":27056,"stv_name":"Uncletopia | Warsaw | 5 | Stopwatch Beta | STV","players":null},{"server_id":54,"name":"Uncletopia | Warsaw | 6 | Community","name_short":"waw-6","host":"waw-1.pl.uncletopia.com","port":27065,"enabled":true,"region":"eu","cc":"pl","latitude":52.2297,"longitude":21.017532,"reserved":0,"last_update":"0001-01-01T00:00:00Z","name_a2s":"Uncletopia | Warsaw | 6 | Community","protocol":17,"map":"workshop/rd_asteroid_redux_rc9.ugc2154902912","folder":"tf","game":"Team Fortress","app_id":440,"player_count":0,"max_players":24,"Bots":0,"server_type":"Dedicated","server_os":"Linux","password":true,"vac":true,"version":"7742253","steam_id":85568392925397856,"keywords":["beta","nocrits","nodmgspread","rd","uncletopia"],"game_id":440,"stv_port":27066,"stv_name":"Uncletopia | Warsaw | 6 | Community | STV","players":null}]}