{"status":true,"message":"","result":[{"server_id":9,"name":"Uncletopia | Atlanta | 1 | All Maps","name_short":"atl-1","host":"atl-1.us.uncletopia.com","port":27015,"enabled":true,"region":"us-east","cc":"us","latitude":33.753746,"longitude":-84.38633,"reserved":0,"last_update":"0001-01-01T00:00:00Z","name_a2s":"Uncletopia | Atlanta | 1 | All Maps","protocol":17,"map":"cp_process_final","folder":"tf","game":"Team Fortress","app_id":440,"player_count":0,"max_players":24,"Bots":0,"server_type":"Dedicated","server_os":"Linux","password":true,"vac":true,"version":"7882260","steam_id":85568392924469982,"keywords":["cp","nocrits","nodmgspread","uncletopia"],"game_id":440,"stv_port":27016,"stv_name":"Uncletopia | Atlanta | 1 | All Maps | STV","players":null},{"server_id":104,"name":"Uncletopia | Atlanta | 2 | All Maps","name_short":"atl-2","host":"atl-1.us.uncletopia.com","port":27025,"enabled":true,"region":"us-east","cc":"us","latitude":33.753746,"longitude":-84.38633,"reserved":0,"last_update":"0001-01-01T00:00:00Z","name_a2s":"Uncletopia | Atlanta | 2 | All Maps","protocol":17,"map":"cp_process_final","folder":"tf","game":"Team Fortress","app_id":440,"player_count":0,"max_players":24,"Bots":0,"server_type":"Dedicated","server_os":"Linux","password":true,"vac":true,"version":"7882260","steam_id":85568392924469983,"keywords":["cp","nocrits","nodmgspread","uncletopia"],"game_id":440,"stv_port":27026,"stv_name":"Uncletopia | Atlanta | 2 | All Maps | STV","players":null},{"server_id":400,"name":"Uncletopia | Atlanta | 3 | Community","name_short":"atl-3","host":"atl-1.us.uncletopia.com","port":27035,"enabled":true,"region":"us-east","cc":"us","latitude":33.753746,"longitude":-84.38633,"reserved":0,"last_update":"0001-01-01T00:00:00Z","name_a2s":"Uncletopia | Atlanta | 3 | Community","protocol":17,"map":"cp_sunshine","folder":"tf","game":"Team Fortress","app_id":440,"player_count":0,"max_players":24,"Bots":0,"server_type":"Dedicated","server_os":"Linux","password":true,"vac":true,"version":"7882260","steam_id":85568392924515187,"keywords":["cp","nocrits","nodmgspread","uncletopia"],"game_id":440,"stv_port":27036,"stv_name":"Uncletopia | Atlanta | 3 | Community | STV","players":null},{"server_id":401,"name":"Uncletopia | Atlanta | 4 | No Payload","name_short":"atl-4","host":"atl-1.us.uncletopia.com","port":27045,"enabled":true,"region":"us-east","cc":"us","latitude":33.753746,"longitude":-84.38633,"reserved":0,"last_update":"0001-01-01T00:00:00Z","name_a2s":"","protocol":0,"map":"","folder":"","game":"","app_id":0,"player_count":0,"max_players":0,"Bots":0,"server_type":"","server_os":"","password":false,"vac":false,"version":"","steam_id":0,"keywords":null,"game_id":0,"stv_port":0,"stv_name":"","players":null},{"server_id":2,"name":"Uncletopia | Chicago | 1 | All Maps","name_short":"chi-1","host":"chi-1.us.uncletopia.com","port":27015,"enabled":true,"region":"us-central","cc":"us","latitude":41.881832,"longitude":-87.62318,"reserved":0,"last_update":"0001-01-01T00:00:00Z","name_a2s":"Uncletopia | Chicago | 1 | All Maps","protocol":17,"map":"cp_altitude","folder":"tf","game":"Team Fortress","app_id":440,"player_count":13,"max_players":24,"Bots":0,"server_type":"Dedicated","server_os":"Linux","password":true,"vac":true,"version":"7882260","steam_id":85568392924469984,"keywords":["cp","nocrits","nodmgspread","uncletopia"],"game_id":440,"stv_port":27016,"stv_name":"Uncletopia | Chicago | 1 | All Maps | STV","players":[{"user_id":22,"name":"motherfucker 2.0","steam_id":76561198141189209,"connected_time":85000000000,"state":"active","ping":47},{"user_id":7,"name":"Carlos Spartan","steam_id":76561198362047478,"connected_time":845000000000,"state":"active","ping":106},{"user_id":9,"name":"Cwiishe","steam_id":76561199482943969,"connected_time":719000000000,"state":"active","ping":63},{"user_id":10,"name":"Joe","steam_id":76561199389283507,"connected_time":607000000000,"state":"active","ping":69},{"user_id":19,"name":"RileyNiko","steam_id":76561198162093639,"connected_time":276000000000,"state":"active","ping":84},{"user_id":14,"name":"3ggsalad3","steam_id":76561199386969191,"connected_time":428000000000,"state":"active","ping":45},{"user_id":15,"name":"Winter the Witchie","steam_id":76561198151971178,"connected_time":373000000000,"state":"active","ping":54},{"user_id":16,"name":"Honest Tunnel Salesman","steam_id":76561198059071100,"connected_time":362000000000,"state":"active","ping":63},{"user_id":17,"name":"AIDS","steam_id":76561198210775943,"connected_time":343000000000,"state":"active","ping":84},{"user_id":21,"name":"hunt3r","steam_id":76561199063850272,"connected_time":158000000000,"state":"active","ping":64},{"user_id":20,"name":"Sentry","steam_id":76561198324974063,"connected_time":208000000000,"state":"active","ping":78},{"user_id":23,"name":"noblewolf16","steam_id":76561198085885383,"connected_time":50000000000,"state":"active","ping":56},{"user_id":24,"name":"bobletoob","steam_id":76561199184464900,"connected_time":34000000000,"state":"active","ping":106}]},{"server_id":106,"name":"Uncletopia | Chicago | 2 | All Maps","name_short":"chi-2","host":"chi-1.us.uncletopia.com","port":27025,"enabled":true,"region":"us-central","cc":"us","latitude":41.881832,"longitude":-87.62318,"reserved":0,"last_update":"0001-01-01T00:00:00Z","name_a2s":"Uncletopia | Chicago | 2 | All Maps","protocol":17,"map":"pl_rumford_event","folder":"tf","game":"Team Fortress","app_id":440,"player_count":22,"max_players":24,"Bots":0,"server_type":"Dedicated","server_os":"Linux","password":true,"vac":true,"version":"7882260","steam_id":85568392924469985,"keywords":["nocrits","nodmgspread","payload","uncletopia"],"game_id":440,"stv_port":27026,"stv_name":"Uncletopia | Chicago | 2 | All Maps | STV","players":[{"user_id":108,"name":"yitz","steam_id":76561198375575841,"connected_time":241000000000,"state":"active","ping":47},{"user_id":115,"name":"ObsessedNerd505","steam_id":76561199045531456,"connected_time":48000000000,"state":"active","ping":58},{"user_id":96,"name":"Furarc","steam_id":76561198078781020,"connected_time":1587000000000,"state":"active","ping":68},{"user_id":110,"name":"ScandinavianRice","steam_id":76561198125059181,"connected_time":206000000000,"state":"active","ping":77},{"user_id":104,"name":"IceRunner","steam_id":76561198999311013,"connected_time":523000000000,"state":"active","ping":63},{"user_id":116,"name":"DVD Copy of Men in Black II","steam_id":76561198080067715,"connected_time":10000000000,"state":"spawning","ping":70},{"user_id":107,"name":"Shiro","steam_id":76561197979915878,"connected_time":406000000000,"state":"active","ping":133},{"user_id":72,"name":"Roguefluff","steam_id":76561198169269105,"connected_time":4215000000000,"state":"active","ping":60},{"user_id":111,"name":"LVL 4 Dispenser Gaming","steam_id":76561198044244547,"connected_time":180000000000,"state":"active","ping":78},{"user_id":64,"name":"Zelith","steam_id":76561198234980480,"connected_time":4612000000000,"state":"active","ping":50},{"user_id":87,"name":"MagicMuffinman","steam_id":76561198149255313,"connected_time":2902000000000,"state":"active","ping":65},{"user_id":14,"name":"spider_murphy","steam_id":76561198079057101,"connected_time":9048000000000,"state":"active","ping":73},{"user_id":105,"name":"Ġ1 ♦ Synth","steam_id":76561198058660228,"connected_time":511000000000,"state":"active","ping":54},{"user_id":101,"name":"yarn","steam_id":76561197999666480,"connected_time":903000000000,"state":"active","ping":111},{"user_id":92,"name":"99RM","steam_id":76561198107382571,"connected_time":2549000000000,"state":"active","ping":132},{"user_id":98,"name":"4th era standards","steam_id":76561198083345384,"connected_time":1105000000000,"state":"active","ping":86},{"user_id":93,"name":"you forgot the sauce","steam_id":76561198387016713,"connected_time":2537000000000,"state":"active","ping":63},{"user_id":114,"name":"Elflocky","steam_id":76561199096852639,"connected_time":141000000000,"state":"active","ping":83},{"user_id":103,"name":"Kurt Biscuitmaker","steam_id":76561198331701823,"connected_time":547000000000,"state":"active","ping":79},{"user_id":53,"name":"TrainerAbu","steam_id":76561197995479203,"connected_time":5498000000000,"state":"active","ping":82},{"user_id":113,"name":"Propane Salesman","steam_id":76561198114505347,"connected_time":146000000000,"state":"active","ping":96},{"user_id":102,"name":"∰","steam_id":76561198064424202,"connected_time":855000000000,"state":"active","ping":59}]},{"server_id":402,"name":"Uncletopia | Chicago | 3 | All Maps","name_short":"chi-3","host":"chi-1.us.uncletopia.com","port":27035,"enabled":true,"region":"us-central","cc":"us","latitude":41.881832,"longitude":-87.62318,"reserved":0,"last_update":"0001-01-01T00:00:00Z","name_a2s":"Uncletopia | Chicago | 3 | All Maps","protocol":17,"map":"pl_snowycoast","folder":"tf","game":"Team Fortress","app_id":440,"player_count":2,"max_players":24,"Bots":0,"server_type":"Dedicated","server_os":"Linux","password":true,"vac":true,"version":"7882260","steam_id":85568392924515191,"keywords":["nocrits","nodmgspread","payload","uncletopia"],"game_id":440,"stv_port":27036,"stv_name":"Uncletopia | Chicago | 3 | All Maps | STV","players":[{"user_id":4,"name":"top 0 controller player","steam_id":76561198188742162,"connected_time":599000000000,"state":"active","ping":88},{"user_id":6,"name":"Tomfoolery","steam_id":76561198280188717,"connected_time":269000000000,"state":"active","ping":282}]},{"server_id":403,"name":"Uncletopia | Chicago | 4 | All Maps","name_short":"chi-4","host":"chi-1.us.uncletopia.com","port":27045,"enabled":true,"region":"us-central","cc":"us","latitude":41.881832,"longitude":-87.62318,"reserved":0,"last_update":"0001-01-01T00:00:00Z","name_a2s":"Uncletopia | Chicago | 4 | All Maps","protocol":17,"map":"koth_cascade","folder":"tf","game":"Team Fortress","app_id":440,"player_count":0,"max_players":24,"Bots":0,"server_type":"Dedicated","server_os":"Linux","password":true,"vac":true,"version":"7882260","steam_id":85568392924515193,"keywords":["cp","nocrits","nodmgspread","uncletopia"],"game_id":440,"stv_port":27046,"stv_name":"Uncletopia | Chicago | 4 | All Maps | STV","players":null},{"server_id":36,"name":"Uncletopia | Chicago | 5 | All Maps","name_short":"chi-5","host":"chi-2.us.uncletopia.com","port":27015,"enabled":true,"region":"us-central","cc":"us","latitude":41.881832,"longitude":-87.62318,"reserved":0,"last_update":"0001-01-01T00:00:00Z","name_a2s":"Uncletopia | Chicago | 5 | All Maps","protocol":17,"map":"pl_badwater","folder":"tf","game":"Team Fortress","app_id":440,"player_count":0,"max_players":24,"Bots":0,"server_type":"Dedicated","server_os":"Linux","password":true,"vac":true,"version":"7882260","steam_id":85568392924866362,"keywords":["nocrits","nodmgspread","payload","uncletopia"],"game_id":440,"stv_port":27016,"stv_name":"Uncletopia | Chicago | 5 | All Maps | STV","players":null},{"server_id":37,"name":"Uncletopia | Chicago | 6 | All Maps","name_short":"chi-6","host":"chi-2.us.uncletopia.com","port":27025,"enabled":true,"region":"us-central","cc":"us","latitude":41.881832,"longitude":-87.62318,"reserved":0,"last_update":"0001-01-01T00:00:00Z","name_a2s":"Uncletopia | Chicago | 6 | All Maps","protocol":17,"map":"koth_cascade","folder":"tf","game":"Team Fortress","app_id":440,"player_count":0,"max_players":24,"Bots":0,"server_type":"Dedicated","server_os":"Linux","password":true,"vac":true,"version":"7882260","steam_id":85568392924866363,"keywords":["cp","nocrits","nodmgspread","uncletopia"],"game_id":440,"stv_port":27026,"stv_name":"Uncletopia | Chicago | 6 | All Maps | STV","players":null},{"server_id":38,"name":"Uncletopia | Chicago | 7 | Stopwatch Beta","name_short":"chi-7","host":"chi-2.us.uncletopia.com","port":27035,"enabled":true,"region":"us-central","cc":"us","latitude":41.881832,"longitude":-87.62318,"reserved":0,"last_update":"0001-01-01T00:00:00Z","name_a2s":"Uncletopia | Chicago | 7 | Stopwatch Beta","protocol":17,"map":"pl_borneo","folder":"tf","game":"Team Fortress","app_id":440,"player_count":0,"max_players":24,"Bots":0,"server_type":"Dedicated","server_os":"Linux","password":true,"vac":true,"version":"7882260","steam_id":85568392924866364,"keywords":["nocrits","nodmgspread","payload","uncletopia"],"game_id":440,"stv_port":27036,"stv_name":"Uncletopia | Chicago | 7 | Stopwatch Beta | STV","players":null},{"server_id":39,"name":"Uncletopia | Chicago | 8 | Community","name_short":"chi-8","host":"chi-2.us.uncletopia.com","port":27045,"enabled":true,"region":"us-central","cc":"us","latitude":41.881832,"longitude":-87.62318,"reserved":0,"last_update":"0001-01-01T00:00:00Z","name_a2s":"Uncletopia | Chicago | 8 | Community","protocol":17,"map":"workshop/pl_eruption_b9a.ugc2807898013","folder":"tf","game":"Team Fortress","app_id":440,"player_count":0,"max_players":24,"Bots":0,"server_type":"Dedicated","server_os":"Linux","password":true,"vac":true,"version":"7882260","steam_id":85568392924866365,"keywords":["nocrits","nodmgspread","payload","uncletopia"],"game_id":440,"stv_port":27046,"stv_name":"Uncletopia | Chicago | 8 | Community | STV","players":null},{"server_id":8,"name":"Uncletopia | Dallas | 1 | All Maps","name_short":"dal-1","host":"dal-1.us.uncletopia.com","port":27015,"enabled":true,"region":"us-central","cc":"us","latitude":32.779167,"longitude":-96.80889,"reserved":0,"last_update":"0001-01-01T00:00:00Z","name_a2s":"Uncletopia | Dallas | 1 | All Maps","protocol":17,"map":"pl_upward","folder":"tf","game":"Team Fortress","app_id":440,"player_count":2,"max_players":24,"Bots":0,"server_type":"Dedicated","server_os":"Linux","password":true,"vac":true,"version":"7882260","steam_id":85568392924469986,"keywords":["nocrits","nodmgspread","payload","uncletopia"],"game_id":440,"stv_port":27016,"stv_name":"Uncletopia | Dallas | 1 | All Maps | STV","players":[{"user_id":5,"name":"- K.K.-","steam_id":76561198825567047,"connected_time":491000000000,"state":"active","ping":81},{"user_id":6,"name":"BOT Positronic♥June","steam_id":76561198042556857,"connected_time":485000000000,"state":"active","ping":69}]},{"server_id":108,"name":"Uncletopia | Dallas | 2 | All Maps","name_short":"dal-2","host":"dal-1.us.uncletopia.com","port":27025,"enabled":true,"region":"us-central","cc":"us","latitude":32.779167,"longitude":-96.80889,"reserved":0,"last_update":"0001-01-01T00:00:00Z","name_a2s":"Uncletopia | Dallas | 2 | All Maps","protocol":17,"map":"pl_badwater","folder":"tf","game":"Team Fortress","app_id":440,"player_count":23,"max_players":24,"Bots":0,"server_type":"Dedicated","server_os":"Linux","password":true,"vac":true,"version":"7882260","steam_id":85568392924469988,"keywords":["nocrits","nodmgspread","payload","uncletopia"],"game_id":440,"stv_port":27026,"stv_name":"Uncletopia | Dallas | 2 | All Maps | STV","players":[{"user_id":69,"name":"Talis7","steam_id":76561198021008185,"connected_time":2649000000000,"state":"active","ping":137},{"user_id":94,"name":"Mr.Frundles","steam_id":76561198134559026,"connected_time":232000000000,"state":"active","ping":109},{"user_id":75,"name":"Fizz","steam_id":76561197985230931,"connected_time":1350000000000,"state":"active","ping":94},{"user_id":95,"name":"Grease Monkey","steam_id":76561199073112578,"connected_time":138000000000,"state":"active","ping":92},{"user_id":65,"name":"IIILeeSamuralIII","steam_id":76561198368337136,"connected_time":3243000000000,"state":"active","ping":116},{"user_id":84,"name":"nmd","steam_id":76561198843502174,"connected_time":735000000000,"state":"active","ping":193},{"user_id":80,"name":"Goat","steam_id":76561198068447650,"connected_time":840000000000,"state":"active","ping":62},{"user_id":54,"name":"chief s.","steam_id":76561198011460632,"connected_time":4331000000000,"state":"active","ping":77},{"user_id":85,"name":"SmokeyGalaxy","steam_id":76561198118780516,"connected_time":607000000000,"state":"active","ping":57},{"user_id":90,"name":"match1stick","steam_id":76561199103743083,"connected_time":497000000000,"state":"active","ping":87},{"user_id":28,"name":"TJGSASQUATCH","steam_id":76561198077806921,"connected_time":5442000000000,"state":"active","ping":94},{"user_id":83,"name":"[N³]TransparentCat","steam_id":76561197985872964,"connected_time":799000000000,"state":"active","ping":120},{"user_id":58,"name":"Joe Swanson","steam_id":76561199089907740,"connected_time":3698000000000,"state":"active","ping":82},{"user_id":88,"name":"Crunchy","steam_id":76561198240523882,"connected_time":527000000000,"state":"active","ping":77},{"user_id":74,"name":"Zetta","steam_id":76561198045710113,"connected_time":1809000000000,"state":"active","ping":80},{"user_id":33,"name":"N00ne","steam_id":76561198135767749,"connected_time":5347000000000,"state":"active","ping":105},{"user_id":92,"name":"M4 SOPMOD II Enjoyer","steam_id":76561198155176802,"connected_time":425000000000,"state":"active","ping":119},{"user_id":63,"name":"Smiley Face","steam_id":76561198008710622,"connected_time":3261000000000,"state":"active","ping":59},{"user_id":96,"name":"Demoman With One Joke","steam_id":76561197993467034,"connected_time":74000000000,"state":"active","ping":76},{"user_id":38,"name":"PulledPork","steam_id":76561198182077258,"connected_time":5259000000000,"state":"active","ping":96},{"user_id":68,"name":"pumquinn","steam_id":76561198066386940,"connected_time":2787000000000,"state":"active","ping":46},{"user_id":82,"name":"McSmitten","steam_id":76561198022358379,"connected_time":831000000000,"state":"active","ping":71},{"user_id":87,"name":"Romo","steam_id":76561198243101572,"connected_time":546000000000,"state":"active","ping":76}]},{"server_id":5,"name":"Uncletopia | Frankfurt | 1 | All Maps","name_short":"frk-1","host":"frk-1.de.uncletopia.com","port":27015,"enabled":true,"region":"eu","cc":"de","latitude":50.110924,"longitude":8.682127,"reserved":0,"last_update":"0001-01-01T00:00:00Z","name_a2s":"Uncletopia | Frankfurt | 1 | All Maps","protocol":17,"map":"koth_viaduct","folder":"tf","game":"Team Fortress","app_id":440,"player_count":0,"max_players":24,"Bots":0,"server_type":"Dedicated","server_os":"Linux","password":true,"vac":true,"version":"7882260","steam_id":85568392924469989,"keywords":["cp","nocrits","nodmgspread","uncletopia"],"game_id":440,"stv_port":27016,"stv_name":"Uncletopia | Frankfurt | 1 | All Maps | STV","players":null},{"server_id":110,"name":"Uncletopia | Frankfurt | 2 | All Maps","name_short":"frk-2","host":"frk-1.de.uncletopia.com","port":27025,"enabled":true,"region":"eu","cc":"de","latitude":50.110924,"longitude":8.682127,"reserved":0,"last_update":"0001-01-01T00:00:00Z","name_a2s":"Uncletopia | Frankfurt | 2 | All Maps","protocol":17,"map":"koth_lakeside_final","folder":"tf","game":"Team Fortress","app_id":440,"player_count":0,"max_players":24,"Bots":0,"server_type":"Dedicated","server_os":"Linux","password":true,"vac":true,"version":"7882260","steam_id":85568392924469990,"keywords":["cp","nocrits","nodmgspread","uncletopia"],"game_id":440,"stv_port":27026,"stv_name":"Uncletopia | Frankfurt | 2 | All Maps | STV","players":null},{"server_id":308,"name":"Uncletopia | Frankfurt | 3 | All Maps","name_short":"frk-3","host":"frk-1.de.uncletopia.com","port":27035,"enabled":true,"region":"eu","cc":"de","latitude":50.110924,"longitude":8.682127,"reserved":0,"last_update":"0001-01-01T00:00:00Z","name_a2s":"Uncletopia | Frankfurt | 3 | All Maps","protocol":17,"map":"koth_highpass","folder":"tf","game":"Team Fortress","app_id":440,"player_count":0,"max_players":24,"Bots":0,"server_type":"Dedicated","server_os":"Linux","password":true,"vac":true,"version":"7882260","steam_id":85568392924504274,"keywords":["cp","nocrits","nodmgspread","uncletopia"],"game_id":440,"stv_port":27036,"stv_name":"Uncletopia | Frankfurt | 3 | All Maps | STV","players":null},{"server_id":309,"name":"Uncletopia | Frankfurt | 4 | All Maps","name_short":"frk-4","host":"frk-1.de.uncletopia.com","port":27045,"enabled":true,"region":"eu","cc":"de","latitude":50.110924,"longitude":8.682127,"reserved":0,"last_update":"0001-01-01T00:00:00Z","name_a2s":"Uncletopia | Frankfurt | 4 | All Maps","protocol":17,"map":"pl_borneo","folder":"tf","game":"Team Fortress","app_id":440,"player_count":25,"max_players":24,"Bots":0,"server_type":"Dedicated","server_os":"Linux","password":true,"vac":true,"version":"7882260","steam_id":85568392924504275,"keywords":["nocrits","nodmgspread","payload","uncletopia"],"game_id":440,"stv_port":27046,"stv_name":"Uncletopia | Frankfurt | 4 | All Maps | STV","players":[{"user_id":187,"name":"Irme","steam_id":76561198161590299,"connected_time":1049000000000,"state":"active","ping":73},{"user_id":172,"name":"Douse","steam_id":76561198023702779,"connected_time":2934000000000,"state":"active","ping":102},{"user_id":165,"name":"Skeletros","steam_id":76561198130969152,"connected_time":3566000000000,"state":"active","ping":136},{"user_id":158,"name":"the goon","steam_id":76561199024865713,"connected_time":4181000000000,"state":"active","ping":55},{"user_id":183,"name":"S.Scary","steam_id":76561198248602386,"connected_time":1524000000000,"state":"active","ping":65},{"user_id":161,"name":"Lowy","steam_id":76561198031470048,"connected_time":3910000000000,"state":"active","ping":62},{"user_id":200,"name":"ðjlëññgøðx","steam_id":76561198028713119,"connected_time":114000000000,"state":"active","ping":71},{"user_id":176,"name":"dogs_drink_water","steam_id":76561198296630670,"connected_time":2740000000000,"state":"active","ping":81},{"user_id":157,"name":"Carrot","steam_id":76561198119340863,"connected_time":4529000000000,"state":"active","ping":53},{"user_id":191,"name":"Ratatatatatatouille","steam_id":76561198182267098,"connected_time":442000000000,"state":"active","ping":88},{"user_id":198,"name":"tea girl","steam_id":76561198068054530,"connected_time":144000000000,"state":"active","ping":81},{"user_id":202,"name":"RIFT","steam_id":76561198991622379,"connected_time":92000000000,"state":"active","ping":53},{"user_id":204,"name":"Gordon","steam_id":76561198303652059,"connected_time":46000000000,"state":"active","ping":72},{"user_id":193,"name":"trans werewolf","steam_id":76561198107235989,"connected_time":296000000000,"state":"active","ping":60},{"user_id":181,"name":"glorbus","steam_id":76561198969544894,"connected_time":1980000000000,"state":"active","ping":48},{"user_id":151,"name":"VanillaWoof","steam_id":76561198158343951,"connected_time":5114000000000,"state":"active","ping":47},{"user_id":179,"name":"night.s","steam_id":76561198326287823,"connected_time":2508000000000,"state":"active","ping":77},{"user_id":203,"name":"Rasbatu","steam_id":76561198119364896,"connected_time":51000000000,"state":"spawning","ping":79},{"user_id":194,"name":"yeldad","steam_id":76561198447264153,"connected_time":295000000000,"state":"active","ping":117},{"user_id":185,"name":"waluigi","steam_id":76561198215809251,"connected_time":1208000000000,"state":"active","ping":53},{"user_id":207,"name":"Art","steam_id":76561198823514629,"connected_time":15000000000,"state":"spawning","ping":117},{"user_id":138,"name":"Carter","steam_id":76561198005243938,"connected_time":5538000000000,"state":"active","ping":65},{"user_id":186,"name":"Prole","steam_id":76561198049837199,"connected_time":1052000000000,"state":"active","ping":130},{"user_id":143,"name":"Tre3","steam_id":76561198054795379,"connected_time":5456000000000,"state":"active","ping":46},{"user_id":206,"name":"kilikia","steam_id":76561198350261670,"connected_time":37000000000,"state":"active","ping":91}]},{"server_id":310,"name":"Uncletopia | Frankfurt | 5 | All Maps","name_short":"frk-5","host":"frk-1.de.uncletopia.com","port":27055,"enabled":true,"region":"eu","cc":"de","latitude":50.110924,"longitude":8.682127,"reserved":0,"last_update":"0001-01-01T00:00:00Z","name_a2s":"Uncletopia | Frankfurt | 5 | All Maps","protocol":17,"map":"cp_mountainlab","folder":"tf","game":"Team Fortress","app_id":440,"player_count":0,"max_players":24,"Bots":0,"server_type":"Dedicated","server_os":"Linux","password":true,"vac":true,"version":"7882260","steam_id":85568392924504277,"keywords":["cp","nocrits","nodmgspread","uncletopia"],"game_id":440,"stv_port":27056,"stv_name":"Uncletopia | Frankfurt | 5 | All Maps | STV","players":null},{"server_id":311,"name":"Uncletopia | Frankfurt | 6 | All Maps","name_short":"frk-6","host":"frk-1.de.uncletopia.com","port":27065,"enabled":true,"region":"eu","cc":"de","latitude":50.110924,"longitude":8.682127,"reserved":0,"last_update":"0001-01-01T00:00:00Z","name_a2s":"Uncletopia | Frankfurt | 6 | All Maps","protocol":17,"map":"pl_borneo","folder":"tf","game":"Team Fortress","app_id":440,"player_count":24,"max_players":24,"Bots":0,"server_type":"Dedicated","server_os":"Linux","password":true,"vac":true,"version":"7882260","steam_id":85568392924504278,"keywords":["nocrits","nodmgspread","payload","uncletopia"],"game_id":440,"stv_port":27066,"stv_name":"Uncletopia | Frankfurt | 6 | All Maps | STV","players":[{"user_id":228,"name":"Uncle Ryo","steam_id":76561198008733234,"connected_time":2246000000000,"state":"active","ping":65},{"user_id":235,"name":"DanteVeliki","steam_id":76561198159403183,"connected_time":2145000000000,"state":"active","ping":72},{"user_id":236,"name":"$nØw","steam_id":76561198238781028,"connected_time":2141000000000,"state":"active","ping":104},{"user_id":272,"name":"goblin (real)","steam_id":76561198868286775,"connected_time":283000000000,"state":"active","ping":90},{"user_id":254,"name":"Remizer","steam_id":76561198799755616,"connected_time":1442000000000,"state":"active","ping":61},{"user_id":271,"name":"fmdi","steam_id":76561199433879329,"connected_time":307000000000,"state":"active","ping":60},{"user_id":243,"name":"SkyNet-","steam_id":76561199048059547,"connected_time":1952000000000,"state":"active","ping":58},{"user_id":232,"name":"Ketich","steam_id":76561198021772703,"connected_time":2239000000000,"state":"active","ping":72},{"user_id":238,"name":"Bounter","steam_id":76561198072614188,"connected_time":2110000000000,"state":"active","ping":71},{"user_id":244,"name":"♥ Cirno ♥","steam_id":76561198834982738,"connected_time":1934000000000,"state":"active","ping":69},{"user_id":226,"name":"Saiyd","steam_id":76561199414289814,"connected_time":2680000000000,"state":"active","ping":59},{"user_id":214,"name":"modavak","steam_id":76561198946290908,"connected_time":3977000000000,"state":"active","ping":89},{"user_id":270,"name":"I Bleed Butter","steam_id":76561198130814770,"connected_time":378000000000,"state":"active","ping":74},{"user_id":248,"name":"robotiq","steam_id":76561198084218622,"connected_time":1675000000000,"state":"active","ping":150},{"user_id":259,"name":"Miss Bari","steam_id":76561198365286092,"connected_time":1216000000000,"state":"active","ping":49},{"user_id":264,"name":"bigboi_potato","steam_id":76561199136341471,"connected_time":1051000000000,"state":"active","ping":73},{"user_id":260,"name":"SCRAMMMBLED","steam_id":76561197998307746,"connected_time":1191000000000,"state":"active","ping":70},{"user_id":269,"name":"ToniGAM3S","steam_id":76561198128605351,"connected_time":549000000000,"state":"active","ping":60},{"user_id":246,"name":"Arget","steam_id":76561198084121867,"connected_time":1834000000000,"state":"active","ping":78},{"user_id":252,"name":"bigmazi","steam_id":76561198133276643,"connected_time":1515000000000,"state":"active","ping":89},{"user_id":219,"name":"idc","steam_id":76561198322087870,"connected_time":3053000000000,"state":"active","ping":108},{"user_id":265,"name":"Renolox","steam_id":76561198036590182,"connected_time":960000000000,"state":"active","ping":74},{"user_id":209,"name":"Gorogaz","steam_id":76561198207157679,"connected_time":4560000000000,"state":"active","ping":65}]},{"server_id":23,"name":"Uncletopia | Frankfurt | 7 | Stopwatch Beta","name_short":"frk-7","host":"frk-1.de.uncletopia.com","port":27075,"enabled":true,"region":"eu","cc":"de","latitude":50.110924,"longitude":8.682127,"reserved":0,"last_update":"0001-01-01T00:00:00Z","name_a2s":"Uncletopia | Frankfurt | 7 | Stopwatch Beta","protocol":17,"map":"cp_dustbowl","folder":"tf","game":"Team Fortress","app_id":440,"player_count":0,"max_players":24,"Bots":0,"server_type":"Dedicated","server_os":"Linux","password":true,"vac":true,"version":"7882260","steam_id":85568392924742827,"keywords":["cp","nocrits","nodmgspread","uncletopia"],"game_id":440,"stv_port":27076,"stv_name":"Uncletopia | Frankfurt | 7 | Stopwatch Beta | STV","players":null},{"server_id":24,"name":"Uncletopia | Frankfurt | 8 | Community","name_short":"frk-8","host":"frk-1.de.uncletopia.com","port":27085,"enabled":true,"region":"eu","cc":"de","latitude":50.110924,"longitude":8.682127,"reserved":0,"last_update":"0001-01-01T00:00:00Z","name_a2s":"Uncletopia | Frankfurt | 8 | Community","protocol":17,"map":"workshop/cp_croissant_final.ugc458840209","folder":"tf","game":"Team Fortress","app_id":440,"player_count":19,"max_players":24,"Bots":0,"server_type":"Dedicated","server_os":"Linux","password":true,"vac":true,"version":"7882260","steam_id":85568392924742828,"keywords":["cp","nocrits","nodmgspread","uncletopia"],"game_id":440,"stv_port":27086,"stv_name":"Uncletopia | Frankfurt | 8 | Community | STV","players":[{"user_id":5,"name":"Drybooones","steam_id":76561198834232656,"connected_time":1855000000000,"state":"active","ping":67},{"user_id":11,"name":"Batouuu","steam_id":76561199031212822,"connected_time":912000000000,"state":"active","ping":55},{"user_id":39,"name":"☆MiNTERRRRR☆","steam_id":76561198799866156,"connected_time":157000000000,"state":"active","ping":100},{"user_id":31,"name":"Volmari","steam_id":76561198054253542,"connected_time":279000000000,"state":"active","ping":74},{"user_id":12,"name":"Slippy","steam_id":76561198129524257,"connected_time":834000000000,"state":"active","ping":73},{"user_id":13,"name":"burger","steam_id":76561198094756765,"connected_time":803000000000,"state":"active","ping":52},{"user_id":19,"name":"Great recession of 2008","steam_id":76561198881151562,"connected_time":524000000000,"state":"active","ping":91},{"user_id":41,"name":"DANLESPOIR","steam_id":76561198812735013,"connected_time":65000000000,"state":"active","ping":226},{"user_id":34,"name":"Alice can't hit pipes","steam_id":76561198052410860,"connected_time":215000000000,"state":"active","ping":143},{"user_id":22,"name":"MM Murda OFFICIAL","steam_id":76561198076871529,"connected_time":506000000000,"state":"active","ping":54},{"user_id":23,"name":"raxyls","steam_id":76561199240109950,"connected_time":485000000000,"state":"active","ping":164},{"user_id":33,"name":"jakob-hejn","steam_id":76561198134513477,"connected_time":260000000000,"state":"active","ping":62},{"user_id":26,"name":"RedFog","steam_id":76561198284713081,"connected_time":460000000000,"state":"active","ping":44},{"user_id":35,"name":"Neimon","steam_id":76561198343485710,"connected_time":207000000000,"state":"active","ping":115},{"user_id":36,"name":"bad 2 za bona","steam_id":76561199065919134,"connected_time":175000000000,"state":"active","ping":49},{"user_id":30,"name":"Baromde","steam_id":76561199076666831,"connected_time":368000000000,"state":"active","ping":76},{"user_id":37,"name":"HentaiEnjoyer","steam_id":76561198148361982,"connected_time":168000000000,"state":"active","ping":47},{"user_id":38,"name":"Klokov","steam_id":76561198240633534,"connected_time":161000000000,"state":"active","ping":60},{"user_id":40,"name":"KurkanzeL","steam_id":76561198061731425,"connected_time":131000000000,"state":"active","ping":83}]},{"server_id":202,"name":"Uncletopia | Hong Kong | 1 | All Maps","name_short":"hgk-1","host":"hgk-1.hk.uncletopia.com","port":27015,"enabled":true,"region":"asia","cc":"hk","latitude":22.302711,"longitude":114.177216,"reserved":0,"last_update":"0001-01-01T00:00:00Z","name_a2s":"Uncletopia | Hong Kong | 1 | All Maps","protocol":17,"map":"pl_swiftwater_final1","folder":"tf","game":"Team Fortress","app_id":440,"player_count":22,"max_players":24,"Bots":0,"server_type":"Dedicated","server_os":"Linux","password":true,"vac":true,"version":"7882260","steam_id":85568392924494504,"keywords":["nocrits","nodmgspread","payload","uncletopia"],"game_id":440,"stv_port":27016,"stv_name":"Uncletopia | Hong Kong | 1 | All Maps | STV","players":[{"user_id":274,"name":"screaming sniper","steam_id":76561199085568674,"connected_time":274000000000,"state":"active","ping":74},{"user_id":272,"name":"Stupid B","steam_id":76561198131423270,"connected_time":341000000000,"state":"active","ping":118},{"user_id":277,"name":"PocoLoco","steam_id":76561198834044246,"connected_time":36000000000,"state":"spawning","ping":95},{"user_id":181,"name":"bodacious bogey","steam_id":76561198055553140,"connected_time":6143000000000,"state":"active","ping":74},{"user_id":271,"name":"ღJun.","steam_id":76561198275846469,"connected_time":920000000000,"state":"active","ping":78},{"user_id":236,"name":":)","steam_id":76561198437941450,"connected_time":4286000000000,"state":"active","ping":111},{"user_id":247,"name":"Shterman","steam_id":76561198074411229,"connected_time":3933000000000,"state":"active","ping":79},{"user_id":124,"name":"PINOY PRIDE PUTANGINA!","steam_id":76561198412329672,"connected_time":7725000000000,"state":"active","ping":95},{"user_id":275,"name":"Aug","steam_id":76561199212711900,"connected_time":213000000000,"state":"active","ping":106},{"user_id":59,"name":"光头强","steam_id":76561198045255591,"connected_time":13779000000000,"state":"active","ping":106},{"user_id":239,"name":"7853","steam_id":76561199390507975,"connected_time":4173000000000,"state":"active","ping":49},{"user_id":266,"name":"Nonexistent","steam_id":76561198980563251,"connected_time":2171000000000,"state":"active","ping":91},{"user_id":261,"name":"Spark037","steam_id":76561198804499872,"connected_time":2790000000000,"state":"active","ping":40},{"user_id":248,"name":"23rd","steam_id":76561199014675406,"connected_time":3888000000000,"state":"active","ping":127},{"user_id":276,"name":"UZ","steam_id":76561198179320563,"connected_time":150000000000,"state":"active","ping":80},{"user_id":250,"name":"tiden2000","steam_id":76561198092969425,"connected_time":3820000000000,"state":"active","ping":117},{"user_id":251,"name":"FragmantizedLemon","steam_id":76561198313580674,"connected_time":3782000000000,"state":"active","ping":74},{"user_id":234,"name":"P","steam_id":76561198304514505,"connected_time":4464000000000,"state":"active","ping":71},{"user_id":269,"name":"Tyxant","steam_id":76561198091066056,"connected_time":2097000000000,"state":"active","ping":94},{"user_id":257,"name":"Uber S S R","steam_id":76561198073752902,"connected_time":3433000000000,"state":"active","ping":84},{"user_id":226,"name":"쿠키","steam_id":76561197997220367,"connected_time":4846000000000,"state":"active","ping":55},{"user_id":273,"name":"WhereAmai","steam_id":76561199122491157,"connected_time":326000000000,"state":"active","ping":126}]},{"server_id":1,"name":"Uncletopia | Los Angeles | 1 | All Maps","name_short":"lax-1","host":"lax-1.us.uncletopia.com","port":27015,"enabled":true,"region":"us-west","cc":"us","latitude":33.94279,"longitude":-118.41004,"reserved":0,"last_update":"0001-01-01T00:00:00Z","name_a2s":"Uncletopia | Los Angeles | 1 | All Maps","protocol":17,"map":"cp_dustbowl","folder":"tf","game":"Team Fortress","app_id":440,"player_count":23,"max_players":24,"Bots":0,"server_type":"Dedicated","server_os":"Linux","password":true,"vac":true,"version":"7882260","steam_id":85568392924469991,"keywords":["cp","nocrits","nodmgspread","uncletopia"],"game_id":440,"stv_port":27016,"stv_name":"Uncletopia | Los Angeles | 1 | All Maps | STV","players":[{"user_id":47,"name":"Missical","steam_id":76561198261007627,"connected_time":399000000000,"state":"active","ping":93},{"user_id":43,"name":"Joe69420","steam_id":76561198351489663,"connected_time":557000000000,"state":"active","ping":161},{"user_id":53,"name":"The Announcer's Feet","steam_id":76561199443456893,"connected_time":198000000000,"state":"active","ping":75},{"user_id":6,"name":"JeruPi@ジェルピ","steam_id":76561198116046221,"connected_time":2014000000000,"state":"active","ping":166},{"user_id":56,"name":"UncleGingy","steam_id":76561198007149535,"connected_time":25000000000,"state":"active","ping":93},{"user_id":8,"name":"SAD MOSCOVIA","steam_id":76561198101081520,"connected_time":2011000000000,"state":"active","ping":87},{"user_id":9,"name":"\u003cNULL\u003e","steam_id":76561198079489150,"connected_time":2001000000000,"state":"active","ping":112},{"user_id":10,"name":"AirMan121","steam_id":76561198042951349,"connected_time":1987000000000,"state":"active","ping":55},{"user_id":11,"name":"Goodra Is The Best Dragon Type","steam_id":76561199194702127,"connected_time":1976000000000,"state":"active","ping":90},{"user_id":37,"name":"ATATDRIVER","steam_id":76561198262816771,"connected_time":740000000000,"state":"active","ping":86},{"user_id":13,"name":"TimeForHype","steam_id":76561197996714494,"connected_time":1956000000000,"state":"active","ping":75},{"user_id":54,"name":"Diegocider","steam_id":76561198062655119,"connected_time":94000000000,"state":"active","ping":206},{"user_id":49,"name":"Capitan Shyguy","steam_id":76561199224215610,"connected_time":383000000000,"state":"active","ping":113},{"user_id":50,"name":"Lieutenant Lazybones","steam_id":76561198317647978,"connected_time":358000000000,"state":"active","ping":138},{"user_id":39,"name":"Krinkus","steam_id":76561198861579279,"connected_time":684000000000,"state":"active","ping":104},{"user_id":18,"name":"Pylori","steam_id":76561197993858197,"connected_time":1804000000000,"state":"active","ping":183},{"user_id":52,"name":"TrafficViolation","steam_id":76561198131207161,"connected_time":321000000000,"state":"active","ping":117},{"user_id":57,"name":"Horizontally Spinning Rat(Real)","steam_id":76561199083035892,"connected_time":12000000000,"state":"active","ping":186},{"user_id":29,"name":"gallowsCalibrator","steam_id":76561198297961039,"connected_time":1431000000000,"state":"active","ping":150},{"user_id":27,"name":"Dean Martin","steam_id":76561198846529984,"connected_time":1487000000000,"state":"active","ping":105},{"user_id":55,"name":"RocketofPanda(It/They)","steam_id":76561198133133187,"connected_time":91000000000,"state":"active","ping":71},{"user_id":28,"name":"DualiTea","steam_id":76561198081733870,"connected_time":1484000000000,"state":"active","ping":105},{"user_id":34,"name":"PersonWhoJustDiedMaybeIDontKnow","steam_id":76561199109564855,"connected_time":859000000000,"state":"active","ping":55}]},{"server_id":112,"name":"Uncletopia | Los Angeles | 2 | All Maps","name_short":"lax-2","host":"lax-1.us.uncletopia.com","port":27025,"enabled":true,"region":"us-west","cc":"us","latitude":33.94279,"longitude":-118.41004,"reserved":0,"last_update":"0001-01-01T00:00:00Z","name_a2s":"Uncletopia | Los Angeles | 2 | All Maps","protocol":17,"map":"koth_lakeside_final","folder":"tf","game":"Team Fortress","app_id":440,"player_count":0,"max_players":24,"Bots":0,"server_type":"Dedicated","server_os":"Linux","password":true,"vac":true,"version":"7882260","steam_id":85568392924469992,"keywords":["cp","nocrits","nodmgspread","uncletopia"],"game_id":440,"stv_port":27026,"stv_name":"Uncletopia | Los Angeles | 2 | All Maps | STV","players":null},{"server_id":324,"name":"Uncletopia | Los Angeles | 3 | All Maps","name_short":"lax-3","host":"lax-1.us.uncletopia.com","port":27035,"enabled":true,"region":"us-west","cc":"us","latitude":33.94279,"longitude":-118.41004,"reserved":0,"last_update":"0001-01-01T00:00:00Z","name_a2s":"Uncletopia | Los Angeles | 3 | All Maps","protocol":17,"map":"cp_sunshine","folder":"tf","game":"Team Fortress","app_id":440,"player_count":0,"max_players":24,"Bots":0,"server_type":"Dedicated","server_os":"Linux","password":true,"vac":true,"version":"7882260","steam_id":85568392924510198,"keywords":["cp","nocrits","nodmgspread","uncletopia"],"game_id":440,"stv_port":27036,"stv_name":"Uncletopia | Los Angeles | 3 | All Maps | STV","players":null},{"server_id":25,"name":"Uncletopia | Los Angeles | 4 | Stopwatch Beta","name_short":"lax-4","host":"lax-1.us.uncletopia.com","port":27045,"enabled":true,"region":"us-west","cc":"us","latitude":33.94279,"longitude":-118.41004,"reserved":0,"last_update":"0001-01-01T00:00:00Z","name_a2s":"Uncletopia | Los Angeles | 4 | Stopwatch Beta","protocol":17,"map":"cp_snakewater_final1","folder":"tf","game":"Team Fortress","app_id":440,"player_count":0,"max_players":24,"Bots":0,"server_type":"Dedicated","server_os":"Linux","password":true,"vac":true,"version":"7882260","steam_id":85568392924510199,"keywords":["cp","nocrits","nodmgspread","uncletopia"],"game_id":440,"stv_port":27046,"stv_name":"Uncletopia | Los Angeles | 4 | Stopwatch Beta | STV","players":null},{"server_id":11,"name":"Uncletopia | London | 1 | All Maps","name_short":"lon-1","host":"lon-1.uk.uncletopia.com","port":27015,"enabled":true,"region":"eu","cc":"gb","latitude":51.509865,"longitude":-0.118092,"reserved":0,"last_update":"0001-01-01T00:00:00Z","name_a2s":"Uncletopia | London | 1 | All Maps","protocol":17,"map":"pl_badwater","folder":"tf","game":"Team Fortress","app_id":440,"player_count":24,"max_players":24,"Bots":0,"server_type":"Dedicated","server_os":"Linux","password":true,"vac":true,"version":"7882260","steam_id":85568392924367362,"keywords":["nocrits","nodmgspread","payload","uncletopia"],"game_id":440,"stv_port":27016,"stv_name":"Uncletopia | London | 1 | All Maps | STV","players":[{"user_id":183,"name":"disc0rd","steam_id":76561197985965776,"connected_time":1593000000000,"state":"active","ping":51},{"user_id":190,"name":"Nifi","steam_id":76561198102682566,"connected_time":1031000000000,"state":"active","ping":74},{"user_id":181,"name":"Sloneczku","steam_id":76561198032886890,"connected_time":1964000000000,"state":"active","ping":90},{"user_id":151,"name":"Jiipeeze","steam_id":76561198316154333,"connected_time":3455000000000,"state":"active","ping":84},{"user_id":203,"name":"quickfast","steam_id":76561199438900919,"connected_time":192000000000,"state":"active","ping":45},{"user_id":204,"name":"Yuzu","steam_id":76561198121694613,"connected_time":190000000000,"state":"active","ping":48},{"user_id":55,"name":"Mr. Shadow | Folfie","steam_id":76561198037028507,"connected_time":8707000000000,"state":"active","ping":64},{"user_id":193,"name":"axalotly-gaming","steam_id":76561199131971501,"connected_time":920000000000,"state":"active","ping":87},{"user_id":161,"name":"Woman Collector","steam_id":76561199019473299,"connected_time":3226000000000,"state":"active","ping":65},{"user_id":198,"name":"After8","steam_id":76561198090750865,"connected_time":557000000000,"state":"active","ping":64},{"user_id":141,"name":"✪ qua ✪","steam_id":76561198066408333,"connected_time":4937000000000,"state":"active","ping":86},{"user_id":90,"name":"JeanCorben","steam_id":76561197965133561,"connected_time":6656000000000,"state":"active","ping":43},{"user_id":184,"name":"cat","steam_id":76561198832231975,"connected_time":1580000000000,"state":"active","ping":86},{"user_id":153,"name":"Mitä Sipsejä?","steam_id":76561197963545568,"connected_time":3446000000000,"state":"active","ping":93},{"user_id":186,"name":"OutOfRage","steam_id":76561198211205791,"connected_time":1321000000000,"state":"active","ping":45},{"user_id":200,"name":"Mr.O #deletesniper","steam_id":76561198039567498,"connected_time":533000000000,"state":"active","ping":55},{"user_id":202,"name":"Cupcake","steam_id":76561198017604608,"connected_time":396000000000,"state":"active","ping":57},{"user_id":194,"name":"Bajas","steam_id":76561198179339326,"connected_time":917000000000,"state":"active","ping":75},{"user_id":167,"name":"goff","steam_id":76561198118989010,"connected_time":2828000000000,"state":"active","ping":46},{"user_id":192,"name":"BlobsOfWax","steam_id":76561198041752402,"connected_time":959000000000,"state":"active","ping":43},{"user_id":165,"name":"transgender e-girl","steam_id":76561198168589809,"connected_time":3036000000000,"state":"active","ping":64},{"user_id":195,"name":"Tegnerud","steam_id":76561198214185612,"connected_time":913000000000,"state":"active","ping":83},{"user_id":189,"name":"Eyy_Cucasi","steam_id":76561198271767632,"connected_time":1259000000000,"state":"active","ping":91},{"user_id":180,"name":"aminoxsos1230987","steam_id":76561198839741609,"connected_time":2039000000000,"state":"active","ping":88}]},{"server_id":114,"name":"Uncletopia | London | 2 | All Maps","name_short":"lon-2","host":"lon-1.uk.uncletopia.com","port":27025,"enabled":true,"region":"eu","cc":"gb","latitude":51.509865,"longitude":-0.118092,"reserved":0,"last_update":"0001-01-01T00:00:00Z","name_a2s":"Uncletopia | London | 2 | All Maps","protocol":17,"map":"koth_viaduct","folder":"tf","game":"Team Fortress","app_id":440,"player_count":0,"max_players":24,"Bots":0,"server_type":"Dedicated","server_os":"Linux","password":true,"vac":true,"version":"7882260","steam_id":85568392924470941,"keywords":["cp","nocrits","nodmgspread","uncletopia"],"game_id":440,"stv_port":27026,"stv_name":"Uncletopia | London | 2 | All Maps | STV","players":null},{"server_id":320,"name":"Uncletopia | London | 3 | All Maps","name_short":"lon-3","host":"lon-1.uk.uncletopia.com","port":27035,"enabled":true,"region":"eu","cc":"gb","latitude":51.509865,"longitude":-0.118092,"reserved":0,"last_update":"0001-01-01T00:00:00Z","name_a2s":"Uncletopia | London | 3 | All Maps","protocol":17,"map":"koth_highpass","folder":"tf","game":"Team Fortress","app_id":440,"player_count":0,"max_players":24,"Bots":0,"server_type":"Dedicated","server_os":"Linux","password":true,"vac":true,"version":"7882260","steam_id":85568392924510192,"keywords":["cp","nocrits","nodmgspread","uncletopia"],"game_id":440,"stv_port":27036,"stv_name":"Uncletopia | London | 3 | All Maps | STV","players":null},{"server_id":321,"name":"Uncletopia | London | 4 | All Maps","name_short":"lon-4","host":"lon-1.uk.uncletopia.com","port":27045,"enabled":true,"region":"eu","cc":"gb","latitude":51.509865,"longitude":-0.118092,"reserved":0,"last_update":"0001-01-01T00:00:00Z","name_a2s":"Uncletopia | London | 4 | All Maps","protocol":17,"map":"pl_borneo","folder":"tf","game":"Team Fortress","app_id":440,"player_count":24,"max_players":24,"Bots":0,"server_type":"Dedicated","server_os":"Linux","password":true,"vac":true,"version":"7882260","steam_id":85568392924510193,"keywords":["nocrits","nodmgspread","payload","uncletopia"],"game_id":440,"stv_port":27046,"stv_name":"Uncletopia | London | 4 | All Maps | STV","players":[{"user_id":412,"name":"Jesus Enjoyer","steam_id":76561198840259819,"connected_time":1412000000000,"state":"active","ping":59},{"user_id":416,"name":"Ryter","steam_id":76561198396279597,"connected_time":1199000000000,"state":"active","ping":91},{"user_id":425,"name":"Castellan","steam_id":76561197994861142,"connected_time":260000000000,"state":"active","ping":67},{"user_id":423,"name":"gibb (official)","steam_id":76561198074097655,"connected_time":292000000000,"state":"active","ping":39},{"user_id":354,"name":"Sylvanas","steam_id":76561198154904165,"connected_time":5621000000000,"state":"active","ping":114},{"user_id":342,"name":"Astolfo","steam_id":76561198354584982,"connected_time":6882000000000,"state":"active","ping":67},{"user_id":420,"name":"chicken","steam_id":76561199090424127,"connected_time":578000000000,"state":"active","ping":143},{"user_id":408,"name":"z\\","steam_id":76561198235739036,"connected_time":1993000000000,"state":"active","ping":89},{"user_id":409,"name":"dunduu","steam_id":76561198875240717,"connected_time":1890000000000,"state":"active","ping":79},{"user_id":394,"name":"Kamikrazy","steam_id":76561198044254918,"connected_time":2891000000000,"state":"active","ping":64},{"user_id":426,"name":"Flint","steam_id":76561197995920776,"connected_time":258000000000,"state":"active","ping":45},{"user_id":422,"name":"TruffleLFT","steam_id":76561199030114889,"connected_time":306000000000,"state":"active","ping":156},{"user_id":395,"name":"b ull","steam_id":76561199233979726,"connected_time":2881000000000,"state":"active","ping":95},{"user_id":432,"name":"kinimon","steam_id":76561198178453270,"connected_time":36000000000,"state":"active","ping":44},{"user_id":427,"name":"Uncle Moomin","steam_id":76561198011628656,"connected_time":244000000000,"state":"active","ping":82},{"user_id":411,"name":"Soerlssoelssöen","steam_id":76561197993060585,"connected_time":1454000000000,"state":"active","ping":77},{"user_id":424,"name":"Cass","steam_id":76561198934205195,"connected_time":289000000000,"state":"active","ping":48},{"user_id":431,"name":"Kemalismus","steam_id":76561198394441106,"connected_time":108000000000,"state":"active","ping":123},{"user_id":385,"name":"Breizbuc","steam_id":76561198118220633,"connected_time":3560000000000,"state":"active","ping":56},{"user_id":421,"name":"Makłowicz","steam_id":76561198281831506,"connected_time":306000000000,"state":"active","ping":88},{"user_id":401,"name":"Narvhalø","steam_id":76561198147495474,"connected_time":2619000000000,"state":"active","ping":51},{"user_id":397,"name":"waitrose gaming","steam_id":76561198011450253,"connected_time":2820000000000,"state":"active","ping":40},{"user_id":402,"name":"Mr. Luigi","steam_id":76561198167312951,"connected_time":2600000000000,"state":"active","ping":39},{"user_id":429,"name":"Lekke","steam_id":76561197994951062,"connected_time":230000000000,"state":"active","ping":86}]},{"server_id":21,"name":"Uncletopia | London | 5 | All Maps","name_short":"lon-5","host":"lon-1.uk.uncletopia.com","port":27055,"enabled":true,"region":"eu","cc":"gb","latitude":51.509865,"longitude":-0.118092,"reserved":0,"last_update":"0001-01-01T00:00:00Z","name_a2s":"Uncletopia | London | 5 | All Maps","protocol":17,"map":"koth_lakeside_final","folder":"tf","game":"Team Fortress","app_id":440,"player_count":0,"max_players":24,"Bots":0,"server_type":"Dedicated","server_os":"Linux","password":true,"vac":true,"version":"7882260","steam_id":85568392924742829,"keywords":["cp","nocrits","nodmgspread","uncletopia"],"game_id":440,"stv_port":27056,"stv_name":"Uncletopia | London | 5 | All Maps | STV","players":null},{"server_id":22,"name":"Uncletopia | London | 6 | All Maps","name_short":"lon-6","host":"lon-1.uk.uncletopia.com","port":27065,"enabled":true,"region":"eu","cc":"gb","latitude":51.509865,"longitude":-0.118092,"reserved":0,"last_update":"0001-01-01T00:00:00Z","name_a2s":"Uncletopia | London | 6 | All Maps","protocol":17,"map":"pl_snowycoast","folder":"tf","game":"Team Fortress","app_id":440,"player_count":0,"max_players":24,"Bots":0,"server_type":"Dedicated","server_os":"Linux","password":true,"vac":true,"version":"7882260","steam_id":85568392924742830,"keywords":["nocrits","nodmgspread","payload","uncletopia"],"game_id":440,"stv_port":27066,"stv_name":"Uncletopia | London | 6 | All Maps | STV","players":null},{"server_id":40,"name":"Uncletopia | London | 7 | No Payload","name_short":"lon-7","host":"lon-1.uk.uncletopia.com","port":27075,"enabled":true,"region":"eu","cc":"gb","latitude":51.509865,"longitude":-0.118092,"reserved":0,"last_update":"0001-01-01T00:00:00Z","name_a2s":"Uncletopia | London | 7 | No Payload","protocol":17,"map":"cp_mercenarypark","folder":"tf","game":"Team Fortress","app_id":440,"player_count":24,"max_players":24,"Bots":0,"server_type":"Dedicated","server_os":"Linux","password":true,"vac":true,"version":"7882260","steam_id":85568392924964314,"keywords":["cp","nocrits","nodmgspread","uncletopia"],"game_id":440,"stv_port":27076,"stv_name":"Uncletopia | London | 7 | No Payload | STV","players":[{"user_id":29,"name":"joachym","steam_id":76561198428579761,"connected_time":2938000000000,"state":"active","ping":69},{"user_id":62,"name":"schmick h_stt 0","steam_id":76561198039537958,"connected_time":438000000000,"state":"active","ping":40},{"user_id":5,"name":"Jackie Chan","steam_id":76561199378865926,"connected_time":4785000000000,"state":"active","ping":77},{"user_id":57,"name":"Cursed.","steam_id":76561198381491880,"connected_time":802000000000,"state":"active","ping":95},{"user_id":58,"name":"lard","steam_id":76561198327199795,"connected_time":742000000000,"state":"active","ping":186},{"user_id":11,"name":"Shimass","steam_id":76561198867546842,"connected_time":3773000000000,"state":"active","ping":72},{"user_id":12,"name":"MILKY","steam_id":76561199261620682,"connected_time":3688000000000,"state":"active","ping":59},{"user_id":55,"name":"Paul Allen's Business Card","steam_id":76561198013959716,"connected_time":953000000000,"state":"active","ping":49},{"user_id":64,"name":"greg's mom","steam_id":76561198050525471,"connected_time":325000000000,"state":"active","ping":73},{"user_id":61,"name":"piss™","steam_id":76561198108098760,"connected_time":486000000000,"state":"active","ping":43},{"user_id":40,"name":"Flare","steam_id":76561198039098320,"connected_time":2542000000000,"state":"active","ping":46},{"user_id":56,"name":"Floris Kakadoris","steam_id":76561198258458741,"connected_time":874000000000,"state":"active","ping":62},{"user_id":65,"name":"xqill | trade.tf","steam_id":76561198196258434,"connected_time":318000000000,"state":"active","ping":54},{"user_id":49,"name":"presidentialAIDS","steam_id":76561199257284077,"connected_time":1478000000000,"state":"active","ping":147},{"user_id":51,"name":"Maximus","steam_id":76561198032472655,"connected_time":1056000000000,"state":"active","ping":61},{"user_id":21,"name":"skille","steam_id":76561198005794325,"connected_time":3238000000000,"state":"active","ping":70},{"user_id":50,"name":"Dark Wizart","steam_id":76561198377689439,"connected_time":1065000000000,"state":"active","ping":72},{"user_id":54,"name":"void","steam_id":76561199483781768,"connected_time":1030000000000,"state":"active","ping":61},{"user_id":34,"name":"Jonathan","steam_id":76561198087988880,"connected_time":2739000000000,"state":"active","ping":48},{"user_id":35,"name":"Garry_G","steam_id":76561198362834902,"connected_time":2723000000000,"state":"active","ping":74},{"user_id":36,"name":"Sham!","steam_id":76561198050434275,"connected_time":2723000000000,"state":"active","ping":60},{"user_id":37,"name":"I let my sentry shoot","steam_id":76561198112535604,"connected_time":2716000000000,"state":"active","ping":74},{"user_id":39,"name":"Charles Darwin","steam_id":76561197973496139,"connected_time":2636000000000,"state":"active","ping":67},{"user_id":60,"name":"𐂃","steam_id":76561198874987906,"connected_time":635000000000,"state":"active","ping":80}]},{"server_id":41,"name":"Uncletopia | London | 8 | Community","name_short":"lon-8","host":"lon-1.uk.uncletopia.com","port":27085,"enabled":true,"region":"eu","cc":"gb","latitude":51.509865,"longitude":-0.118092,"reserved":0,"last_update":"0001-01-01T00:00:00Z","name_a2s":"Uncletopia | London | 8 | Community","protocol":17,"map":"workshop/koth_ramjam_rc1.ugc459778887","folder":"tf","game":"Team Fortress","app_id":440,"player_count":0,"max_players":24,"Bots":0,"server_type":"Dedicated","server_os":"Linux","password":true,"vac":true,"version":"7882260","steam_id":85568392924964315,"keywords":["cp","nocrits","nodmgspread","uncletopia"],"game_id":440,"stv_port":27086,"stv_name":"Uncletopia | London | 8 | Community | STV","players":null},{"server_id":300,"name":"Uncletopia | Montréal | 1 | All Maps","name_short":"mtl-1","host":"mtl-1.ca.uncletopia.com","port":27015,"enabled":true,"region":"us-east","cc":"ca","latitude":45.50889,"longitude":-73.56167,"reserved":0,"last_update":"0001-01-01T00:00:00Z","name_a2s":"Uncletopia | Montréal | 1 | All Maps","protocol":17,"map":"pl_snowycoast","folder":"tf","game":"Team Fortress","app_id":440,"player_count":0,"max_players":24,"Bots":0,"server_type":"Dedicated","server_os":"Linux","password":true,"vac":true,"version":"7882260","steam_id":85568392924500087,"keywords":["nocrits","nodmgspread","payload","uncletopia"],"game_id":440,"stv_port":27016,"stv_name":"Uncletopia | Montréal | 1 | All Maps | STV","players":null},{"server_id":301,"name":"Uncletopia | Montréal | 2 | All Maps","name_short":"mtl-2","host":"mtl-1.ca.uncletopia.com","port":27025,"enabled":true,"region":"us-east","cc":"ca","latitude":45.50889,"longitude":-73.56167,"reserved":0,"last_update":"0001-01-01T00:00:00Z","name_a2s":"Uncletopia | Montréal | 2 | All Maps","protocol":17,"map":"cp_sunshine","folder":"tf","game":"Team Fortress","app_id":440,"player_count":0,"max_players":24,"Bots":0,"server_type":"Dedicated","server_os":"Linux","password":true,"vac":true,"version":"7882260","steam_id":85568392924500088,"keywords":["cp","nocrits","nodmgspread","uncletopia"],"game_id":440,"stv_port":27026,"stv_name":"Uncletopia | Montréal | 2 | All Maps | STV","players":null},{"server_id":302,"name":"Uncletopia | Montréal | 3 | All Maps","name_short":"mtl-3","host":"mtl-1.ca.uncletopia.com","port":27035,"enabled":true,"region":"us-east","cc":"ca","latitude":45.50889,"longitude":-73.56167,"reserved":0,"last_update":"0001-01-01T00:00:00Z","name_a2s":"Uncletopia | Montréal | 3 | All Maps","protocol":17,"map":"cp_altitude","folder":"tf","game":"Team Fortress","app_id":440,"player_count":0,"max_players":24,"Bots":0,"server_type":"Dedicated","server_os":"Linux","password":true,"vac":true,"version":"7882260","steam_id":85568392924500089,"keywords":["cp","nocrits","nodmgspread","uncletopia"],"game_id":440,"stv_port":27036,"stv_name":"Uncletopia | Montréal | 3 | All Maps | STV","players":null},{"server_id":303,"name":"Uncletopia | Montréal | 4 | No Payload","name_short":"mtl-4","host":"mtl-1.ca.uncletopia.com","port":27045,"enabled":true,"region":"us-east","cc":"ca","latitude":45.50889,"longitude":-73.56167,"reserved":0,"last_update":"0001-01-01T00:00:00Z","name_a2s":"Uncletopia | Montréal | 4 | No Payload","protocol":17,"map":"cp_altitude","folder":"tf","game":"Team Fortress","app_id":440,"player_count":0,"max_players":24,"Bots":0,"server_type":"Dedicated","server_os":"Linux","password":true,"vac":true,"version":"7882260","steam_id":85568392924500090,"keywords":["cp","nocrits","nodmgspread","uncletopia"],"game_id":440,"stv_port":27046,"stv_name":"Uncletopia | Montréal | 4 | No Payload | STV","players":null},{"server_id":13,"name":"Uncletopia | New York City | 1 | All Maps","name_short":"nyc-1","host":"nyc-1.us.uncletopia.com","port":27015,"enabled":true,"region":"us-east","cc":"us","latitude":40.73061,"longitude":-73.93524,"reserved":0,"last_update":"0001-01-01T00:00:00Z","name_a2s":"Uncletopia | New York City | 1 | All Maps","protocol":17,"map":"pl_pier","folder":"tf","game":"Team Fortress","app_id":440,"player_count":0,"max_players":24,"Bots":0,"server_type":"Dedicated","server_os":"Linux","password":true,"vac":true,"version":"7882260","steam_id":85568392924469993,"keywords":["nocrits","nodmgspread","payload","uncletopia"],"game_id":440,"stv_port":27016,"stv_name":"Uncletopia | New York City | 1 | All Maps | STV","players":null},{"server_id":14,"name":"Uncletopia | New York City | 2 | All Maps","name_short":"nyc-2","host":"nyc-1.us.uncletopia.com","port":27025,"enabled":true,"region":"us-east","cc":"us","latitude":40.73061,"longitude":-73.93524,"reserved":0,"last_update":"0001-01-01T00:00:00Z","name_a2s":"Uncletopia | New York City | 2 | All Maps","protocol":17,"map":"pl_barnblitz","folder":"tf","game":"Team Fortress","app_id":440,"player_count":0,"max_players":24,"Bots":0,"server_type":"Dedicated","server_os":"Linux","password":true,"vac":true,"version":"7882260","steam_id":85568392924469994,"keywords":["nocrits","nodmgspread","payload","uncletopia"],"game_id":440,"stv_port":27026,"stv_name":"Uncletopia | New York City | 2 | All Maps | STV","players":null},{"server_id":15,"name":"Uncletopia | New York City | 3 | Stopwatch Beta","name_short":"nyc-3","host":"nyc-1.us.uncletopia.com","port":27035,"enabled":true,"region":"us-east","cc":"us","latitude":40.73061,"longitude":-73.93524,"reserved":0,"last_update":"0001-01-01T00:00:00Z","name_a2s":"Uncletopia | New York City | 3 | Stopwatch Beta","protocol":17,"map":"koth_lakeside_final","folder":"tf","game":"Team Fortress","app_id":440,"player_count":0,"max_players":24,"Bots":0,"server_type":"Dedicated","server_os":"Linux","password":true,"vac":true,"version":"7882260","steam_id":85568392924742820,"keywords":["cp","nocrits","nodmgspread","uncletopia"],"game_id":440,"stv_port":27036,"stv_name":"Uncletopia | New York City | 3 | Stopwatch Beta | STV","players":null},{"server_id":16,"name":"Uncletopia | New York City | 4 | Community","name_short":"nyc-4","host":"nyc-1.us.uncletopia.com","port":27045,"enabled":true,"region":"us-east","cc":"us","latitude":40.73061,"longitude":-73.93524,"reserved":0,"last_update":"0001-01-01T00:00:00Z","name_a2s":"Uncletopia | New York City | 4 | Community","protocol":17,"map":"pl_badwater","folder":"tf","game":"Team Fortress","app_id":440,"player_count":0,"max_players":24,"Bots":0,"server_type":"Dedicated","server_os":"Linux","password":true,"vac":true,"version":"7882260","steam_id":85568392924742821,"keywords":["nocrits","nodmgspread","payload","uncletopia"],"game_id":440,"stv_port":27046,"stv_name":"Uncletopia | New York City | 4 | Community | STV","players":null},{"server_id":142,"name":"Uncletopia | São Paulo | 1 | All Maps","name_short":"sao-1","host":"sao-1.br.uncletopia.com","port":27015,"enabled":true,"region":"sa","cc":"br","latitude":-23.533773,"longitude":-46.62529,"reserved":0,"last_update":"0001-01-01T00:00:00Z","name_a2s":"Uncletopia | São Paulo | 1 | All Maps","protocol":17,"map":"cp_process_final","folder":"tf","game":"Team Fortress","app_id":440,"player_count":0,"max_players":24,"Bots":0,"server_type":"Dedicated","server_os":"Linux","password":true,"vac":true,"version":"7882260","steam_id":85568392924469996,"keywords":["cp","nocrits","nodmgspread","uncletopia"],"game_id":440,"stv_port":27016,"stv_name":"Uncletopia | São Paulo | 1 | All Maps | STV","players":null},{"server_id":143,"name":"Uncletopia | São Paulo | 2 | All Maps","name_short":"sao-2","host":"sao-2.br.uncletopia.com","port":27015,"enabled":true,"region":"sa","cc":"br","latitude":-23.533773,"longitude":-46.62529,"reserved":0,"last_update":"0001-01-01T00:00:00Z","name_a2s":"Uncletopia | São Paulo | 2 | All Maps","protocol":17,"map":"pl_pier","folder":"tf","game":"Team Fortress","app_id":440,"player_count":0,"max_players":24,"Bots":0,"server_type":"Dedicated","server_os":"Linux","password":true,"vac":true,"version":"7882260","steam_id":85568392924485349,"keywords":["nocrits","nodmgspread","payload","uncletopia"],"game_id":440,"stv_port":27016,"stv_name":"Uncletopia | São Paulo | 2 | All Maps | STV","players":null},{"server_id":7,"name":"Uncletopia | Seattle | 1 | All Maps","name_short":"sea-1","host":"sea-1.us.uncletopia.com","port":27015,"enabled":true,"region":"us-west","cc":"us","latitude":47.608013,"longitude":-122.33517,"reserved":0,"last_update":"0001-01-01T00:00:00Z","name_a2s":"Uncletopia | Seattle | 1 | All Maps","protocol":17,"map":"koth_viaduct","folder":"tf","game":"Team Fortress","app_id":440,"player_count":0,"max_players":24,"Bots":0,"server_type":"Dedicated","server_os":"Linux","password":true,"vac":true,"version":"7882260","steam_id":85568392924469997,"keywords":["cp","nocrits","nodmgspread","uncletopia"],"game_id":440,"stv_port":27016,"stv_name":"Uncletopia | Seattle | 1 | All Maps | STV","players":null},{"server_id":119,"name":"Uncletopia | Seattle | 2 | All Maps","name_short":"sea-2","host":"sea-1.us.uncletopia.com","port":27025,"enabled":true,"region":"us-west","cc":"us","latitude":47.608013,"longitude":-122.33517,"reserved":0,"last_update":"0001-01-01T00:00:00Z","name_a2s":"Uncletopia | Seattle | 2 | All Maps","protocol":17,"map":"koth_highpass","folder":"tf","game":"Team Fortress","app_id":440,"player_count":0,"max_players":24,"Bots":0,"server_type":"Dedicated","server_os":"Linux","password":true,"vac":true,"version":"7882260","steam_id":85568392924469998,"keywords":["cp","nocrits","nodmgspread","uncletopia"],"game_id":440,"stv_port":27026,"stv_name":"Uncletopia | Seattle | 2 | All Maps | STV","players":null},{"server_id":406,"name":"Uncletopia | Seattle | 3 | Stopwatch Beta","name_short":"sea-3","host":"sea-1.us.uncletopia.com","port":27035,"enabled":true,"region":"us-west","cc":"us","latitude":47.608013,"longitude":-122.33517,"reserved":0,"last_update":"0001-01-01T00:00:00Z","name_a2s":"Uncletopia | Seattle | 3 | Stopwatch Beta","protocol":17,"map":"cp_mountainlab","folder":"tf","game":"Team Fortress","app_id":440,"player_count":0,"max_players":24,"Bots":0,"server_type":"Dedicated","server_os":"Linux","password":true,"vac":true,"version":"7882260","steam_id":85568392924515217,"keywords":["cp","nocrits","nodmgspread","uncletopia"],"game_id":440,"stv_port":27036,"stv_name":"Uncletopia | Seattle | 3 | Stopwatch Beta | STV","players":null},{"server_id":17,"name":"Uncletopia | San Francisco | 1 | All Maps","name_short":"sfo-1","host":"sfo-1.us.uncletopia.com","port":27015,"enabled":true,"region":"us-west","cc":"us","latitude":37.77397,"longitude":-122.4313,"reserved":0,"last_update":"0001-01-01T00:00:00Z","name_a2s":"Uncletopia | San Francisco | 1 | All Maps","protocol":17,"map":"cp_process_final","folder":"tf","game":"Team Fortress","app_id":440,"player_count":0,"max_players":24,"Bots":0,"server_type":"Dedicated","server_os":"Linux","password":true,"vac":true,"version":"7757534","steam_id":85568392924469999,"keywords":["cp","nocrits","nodmgspread","uncletopia"],"game_id":440,"stv_port":27016,"stv_name":"Uncletopia | San Francisco | 1 | All Maps | STV","players":null},{"server_id":18,"name":"Uncletopia | San Francisco | 2 | All Maps","name_short":"sfo-2","host":"sfo-1.us.uncletopia.com","port":27025,"enabled":true,"region":"us-west","cc":"us","latitude":37.77397,"longitude":-122.4313,"reserved":0,"last_update":"0001-01-01T00:00:00Z","name_a2s":"Uncletopia | San Francisco | 2 | All Maps","protocol":17,"map":"koth_highpass","folder":"tf","game":"Team Fortress","app_id":440,"player_count":0,"max_players":24,"Bots":0,"server_type":"Dedicated","server_os":"Linux","password":true,"vac":true,"version":"7757534","steam_id":85568392924470000,"keywords":["cp","nocrits","nodmgspread","uncletopia"],"game_id":440,"stv_port":27026,"stv_name":"Uncletopia | San Francisco | 2 | All Maps | STV","players":null},{"server_id":19,"name":"Uncletopia | San Francisco | 3 | Stopwatch Beta","name_short":"sfo-3","host":"sfo-1.us.uncletopia.com","port":27035,"enabled":true,"region":"us-west","cc":"us","latitude":37.77397,"longitude":-122.4313,"reserved":0,"last_update":"0001-01-01T00:00:00Z","name_a2s":"Uncletopia | San Francisco | 3 | Stopwatch Beta","protocol":17,"map":"koth_lakeside_final","folder":"tf","game":"Team Fortress","app_id":440,"player_count":0,"max_players":24,"Bots":0,"server_type":"Dedicated","server_os":"Linux","password":true,"vac":true,"version":"7757534","steam_id":85568392924742824,"keywords":["cp","nocrits","nodmgspread","uncletopia"],"game_id":440,"stv_port":27036,"stv_name":"Uncletopia | San Francisco | 3 | Stopwatch Beta | STV","players":null},{"server_id":20,"name":"Uncletopia | San Francisco | 4 | Community","name_short":"sfo-4","host":"sfo-1.us.uncletopia.com","port":27045,"enabled":true,"region":"us-west","cc":"us","latitude":37.77397,"longitude":-122.4313,"reserved":0,"last_update":"0001-01-01T00:00:00Z","name_a2s":"Uncletopia | San Francisco | 4 | Community","protocol":17,"map":"cp_altitude","folder":"tf","game":"Team Fortress","app_id":440,"player_count":0,"max_players":24,"Bots":0,"server_type":"Dedicated","server_os":"Linux","password":true,"vac":true,"version":"7757534","steam_id":85568392924742826,"keywords":["cp","nocrits","nodmgspread","uncletopia"],"game_id":440,"stv_port":27046,"stv_name":"Uncletopia | San Francisco | 4 | Community | STV","players":null},{"server_id":141,"name":"Uncletopia | Sydney | 1 | All Maps","name_short":"syd-1","host":"syd-1.au.uncletopia.com","port":27015,"enabled":true,"region":"au","cc":"au","latitude":-33.865143,"longitude":151.2099,"reserved":0,"last_update":"0001-01-01T00:00:00Z","name_a2s":"Uncletopia | Sydney | 1 | All Maps","protocol":17,"map":"pl_upward","folder":"tf","game":"Team Fortress","app_id":440,"player_count":3,"max_players":24,"Bots":0,"server_type":"Dedicated","server_os":"Linux","password":true,"vac":true,"version":"7882260","steam_id":85568392924470001,"keywords":["nocrits","nodmgspread","payload","uncletopia"],"game_id":440,"stv_port":27016,"stv_name":"Uncletopia | Sydney | 1 | All Maps | STV","players":[{"user_id":635,"name":"Branko","steam_id":76561199262196710,"connected_time":713000000000,"state":"active","ping":45},{"user_id":636,"name":"AzureFox","steam_id":76561198108179408,"connected_time":106000000000,"state":"active","ping":149},{"user_id":623,"name":"Dude","steam_id":76561199405996990,"connected_time":2422000000000,"state":"active","ping":338}]},{"server_id":123,"name":"Uncletopia | Sydney | 2 | All Maps","name_short":"syd-2","host":"syd-1.au.uncletopia.com","port":27025,"enabled":true,"region":"au","cc":"au","latitude":-33.865143,"longitude":151.2099,"reserved":0,"last_update":"0001-01-01T00:00:00Z","name_a2s":"Uncletopia | Sydney | 2 | All Maps","protocol":17,"map":"pl_badwater","folder":"tf","game":"Team Fortress","app_id":440,"player_count":0,"max_players":24,"Bots":0,"server_type":"Dedicated","server_os":"Linux","password":true,"vac":true,"version":"7882260","steam_id":85568392924470002,"keywords":["nocrits","nodmgspread","payload","uncletopia"],"game_id":440,"stv_port":27026,"stv_name":"Uncletopia | Sydney | 2 | All Maps | STV","players":null},{"server_id":395,"name":"Uncletopia | Sydney | 3 | All Maps","name_short":"syd-3","host":"syd-1.au.uncletopia.com","port":27035,"enabled":true,"region":"au","cc":"au","latitude":-33.865143,"longitude":151.2099,"reserved":0,"last_update":"0001-01-01T00:00:00Z","name_a2s":"Uncletopia | Sydney | 3 | All Maps","protocol":17,"map":"koth_viaduct","folder":"tf","game":"Team Fortress","app_id":440,"player_count":0,"max_players":24,"Bots":0,"server_type":"Dedicated","server_os":"Linux","password":true,"vac":true,"version":"7882260","steam_id":85568392925194467,"keywords":["cp","nocrits","nodmgspread","uncletopia"],"game_id":440,"stv_port":27036,"stv_name":"Uncletopia | Sydney | 3 | All Maps | STV","players":null},{"server_id":396,"name":"Uncletopia | Sydney | 4 | All Maps","name_short":"syd-4","host":"syd-1.au.uncletopia.com","port":27045,"enabled":true,"region":"au","cc":"au","latitude":-33.865143,"longitude":151.2099,"reserved":0,"last_update":"0001-01-01T00:00:00Z","name_a2s":"Uncletopia | Sydney | 4 | All Maps","protocol":17,"map":"koth_lakeside_final","folder":"tf","game":"Team Fortress","app_id":440,"player_count":0,"max_players":24,"Bots":0,"server_type":"Dedicated","server_os":"Linux","password":true,"vac":true,"version":"7882260","steam_id":85568392925397958,"keywords":["cp","nocrits","nodmgspread","uncletopia"],"game_id":440,"stv_port":27046,"stv_name":"Uncletopia | Sydney | 4 | All Maps | STV","players":null},{"server_id":58,"name":"Uncletopia | Sydney | 5 | Stopwatch Beta","name_short":"syd-5","host":"syd-1.au.uncletopia.com","port":27055,"enabled":true,"region":"au","cc":"au","latitude":-33.865143,"longitude":151.2099,"reserved":0,"last_update":"0001-01-01T00:00:00Z","name_a2s":"Uncletopia | Sydney | 5 | Stopwatch Beta","protocol":17,"map":"workshop/pl_vigil_rc9.ugc1266210012","folder":"tf","game":"Team Fortress","app_id":440,"player_count":0,"max_players":24,"Bots":0,"server_type":"Dedicated","server_os":"Linux","password":true,"vac":true,"version":"7882260","steam_id":85568392925397959,"keywords":["nocrits","nodmgspread","payload","uncletopia"],"game_id":440,"stv_port":27056,"stv_name":"Uncletopia | Sydney | 5 | Stopwatch Beta | STV","players":null},{"server_id":59,"name":"Uncletopia | Sydney | 6 | Community","name_short":"syd-6","host":"syd-1.au.uncletopia.com","port":27065,"enabled":true,"region":"au","cc":"au","latitude":-33.865143,"longitude":151.2099,"reserved":0,"last_update":"0001-01-01T00:00:00Z","name_a2s":"Uncletopia | Sydney | 6 | Community","protocol":17,"map":"workshop/pl_divulgence_b4b.ugc2884808746","folder":"tf","game":"Team Fortress","app_id":440,"player_count":0,"max_players":24,"Bots":0,"server_type":"Dedicated","server_os":"Linux","password":true,"vac":true,"version":"7882260","steam_id":85568392925397960,"keywords":["nocrits","nodmgspread","payload","uncletopia"],"game_id":440,"stv_port":27066,"stv_name":"Uncletopia | Sydney | 6 | Community | STV","players":null},{"server_id":49,"name":"Uncletopia | Warsaw | 1 | All Maps","name_short":"waw-1","host":"waw-1.pl.uncletopia.com","port":27015,"enabled":true,"region":"eu","cc":"pl","latitude":52.2297,"longitude":21.017532,"reserved":0,"last_update":"0001-01-01T00:00:00Z","name_a2s":"","protocol":0,"map":"","folder":"","game":"","app_id":0,"player_count":0,"max_players":0,"Bots":0,"server_type":"","server_os":"","password":false,"vac":false,"version":"","steam_id":0,"keywords":null,"game_id":0,"stv_port":0,"stv_name":"","players":null},{"server_id":50,"name":"Uncletopia | Warsaw | 2 | All Maps","name_short":"waw-2","host":"waw-1.pl.uncletopia.com","port":27025,"enabled":true,"region":"eu","cc":"pl","latitude":52.2297,"longitude":21.017532,"reserved":0,"last_update":"0001-01-01T00:00:00Z","name_a2s":"Uncletopia | Warsaw | 2 | All Maps","protocol":17,"map":"koth_viaduct","folder":"tf","game":"Team Fortress","app_id":440,"player_count":0,"max_players":24,"Bots":0,"server_type":"Dedicated","server_os":"Linux","password":true,"vac":true,"version":"7882260","steam_id":85568392925397851,"keywords":["cp","nocrits","nodmgspread","uncletopia"],"game_id":440,"stv_port":27026,"stv_name":"Uncletopia | Warsaw | 2 | All Maps | STV","players":null},{"server_id":51,"name":"Uncletopia | Warsaw | 3 | All Maps","name_short":"waw-3","host":"waw-1.pl.uncletopia.com","port":27035,"enabled":true,"region":"eu","cc":"pl","latitude":52.2297,"longitude":21.017532,"reserved":0,"last_update":"0001-01-01T00:00:00Z","name_a2s":"Uncletopia | Warsaw | 3 | All Maps","protocol":17,"map":"koth_viaduct","folder":"tf","game":"Team Fortress","app_id":440,"player_count":0,"max_players":24,"Bots":0,"server_type":"Dedicated","server_os":"Linux","password":true,"vac":true,"version":"7882260","steam_id":85568392925397852,"keywords":["cp","nocrits","nodmgspread","uncletopia"],"game_id":440,"stv_port":27036,"stv_name":"Uncletopia | Warsaw | 3 | All Maps | STV","players":null},{"server_id":52,"name":"Uncletopia | Warsaw | 4 | All Maps","name_short":"waw-4","host":"waw-1.pl.uncletopia.com","port":27045,"enabled":true,"region":"eu","cc":"pl","latitude":52.2297,"longitude":21.017532,"reserved":0,"last_update":"0001-01-01T00:00:00Z","name_a2s":"Uncletopia | Warsaw | 4 | All Maps","protocol":17,"map":"koth_highpass","folder":"tf","game":"Team Fortress","app_id":440,"player_count":0,"max_players":24,"Bots":0,"server_type":"Dedicated","server_os":"Linux","password":true,"vac":true,"version":"7882260","steam_id":85568392925397853,"keywords":["cp","nocrits","nodmgspread","uncletopia"],"game_id":440,"stv_port":27046,"stv_name":"Uncletopia | Warsaw | 4 | All Maps | STV","players":null},{"server_id":53,"name":"Uncletopia | Warsaw | 5 | Stopwatch Beta","name_short":"waw-5","host":"waw-1.pl.uncletopia.com","port":27055,"enabled":true,"region":"eu","cc":"pl","latitude":52.2297,"longitude":21.017532,"reserved":0,"last_update":"0001-01-01T00:00:00Z","name_a2s":"Uncletopia | Warsaw | 5 | Stopwatch Beta","protocol":17,"map":"pl_upward","folder":"tf","game":"Team Fortress","app_id":440,"player_count":0,"max_players":24,"Bots":0,"server_type":"Dedicated","server_os":"Linux","password":true,"vac":true,"version":"7882260","steam_id":85568392925397854,"keywords":["nocrits","nodmgspread","payload","uncletopia"],"game_id":440,"stv_port":27056,"stv_name":"Uncletopia | Warsaw | 5 | Stopwatch Beta | STV","players":null},{"server_id":54,"name":"Uncletopia | Warsaw | 6 | Community","name_short":"waw-6","host":"waw-1.pl.uncletopia.com","port":27065,"enabled":true,"region":"eu","cc":"pl","latitude":52.2297,"longitude":21.017532,"reserved":0,"last_update":"0001-01-01T00:00:00Z","name_a2s":"Uncletopia | Warsaw | 6 | Community","protocol":17,"map":"koth_viaduct","folder":"tf","game":"Team Fortress","app_id":440,"player_count":0,"max_players":24,"Bots":0,"server_type":"Dedicated","server_os":"Linux","password":true,"vac":true,"version":"7882260","steam_id":85568392925397856,"keywords":["cp","nocrits","nodmgspread","uncletopia"],"game_id":440,"stv_port":27066,"stv_name":"Uncletopia | Warsaw | 6 | Community | STV","players":null}]}