{"status":true,"message":"","result":[{"server_id":9,"name":"Uncletopia | Atlanta | 1 | All Maps","name_short":"atl-1","host":"atl-1.us.uncletopia.com","port":27015,"enabled":true,"region":"us-east","cc":"us","latitude":33.753746,"longitude":-84.38633,"reserved":0,"last_update":"0001-01-01T00:00:00Z","name_a2s":"Uncletopia | Atlanta | 1 | All Maps","protocol":17,"map":"pl_swiftwater_final1","folder":"tf","game":"Team Fortress","app_id":440,"player_count":23,"max_players":24,"Bots":0,"server_type":"Dedicated","server_os":"Linux","password":true,"vac":true,"version":"7742253","steam_id":85568392924469982,"keywords":["nocrits","nodmgspread","payload","uncletopia"],"game_id":440,"stv_port":27016,"stv_name":"Uncletopia | Atlanta | 1 | All Maps | STV","players":[{"user_id":3,"name":"basil","steam_id":76561198075758026,"connected_time":4816000000000,"state":"active","ping":80},{"user_id":42,"name":"Dr Frasier Crane","steam_id":76561198071790583,"connected_time":2186000000000,"state":"active","ping":44},{"user_id":38,"name":"VidzCMC","steam_id":76561198848142973,"connected_time":2741000000000,"state":"active","ping":77},{"user_id":68,"name":"Urbanzpinapple","steam_id":76561198115426938,"connected_time":655000000000,"state":"active","ping":99},{"user_id":35,"name":"Trusty","steam_id":76561198035444237,"connected_time":3292000000000,"state":"active","ping":72},{"user_id":56,"name":"Awildrock","steam_id":76561198040401086,"connected_time":1117000000000,"state":"active","ping":67},{"user_id":45,"name":"Catspeare","steam_id":76561198832357258,"connected_time":1803000000000,"state":"active","ping":92},{"user_id":39,"name":"lafredricson","steam_id":76561198300270056,"connected_time":2480000000000,"state":"active","ping":74},{"user_id":69,"name":"Santa (real)","steam_id":76561199016285746,"connected_time":487000000000,"state":"active","ping":76},{"user_id":12,"name":"hoopla","steam_id":76561198014920568,"connected_time":4784000000000,"state":"active","ping":59},{"user_id":13,"name":"Batman Grant Williams","steam_id":76561198115458307,"connected_time":4765000000000,"state":"active","ping":105},{"user_id":36,"name":"Daz","steam_id":76561198041431938,"connected_time":3087000000000,"state":"active","ping":72},{"user_id":73,"name":"Yoki","steam_id":76561198879989800,"connected_time":172000000000,"state":"active","ping":103},{"user_id":75,"name":"skidzz","steam_id":76561198257068611,"connected_time":116000000000,"state":"active","ping":73},{"user_id":17,"name":"kek36","steam_id":76561198407056645,"connected_time":4667000000000,"state":"active","ping":71},{"user_id":66,"name":"TÖZI","steam_id":76561198045268695,"connected_time":799000000000,"state":"active","ping":78},{"user_id":48,"name":"Jesus Of Suburbia","steam_id":76561198941700660,"connected_time":1738000000000,"state":"active","ping":73},{"user_id":22,"name":"r0ck","steam_id":76561198141716764,"connected_time":4519000000000,"state":"active","ping":72},{"user_id":53,"name":"kametro4","steam_id":76561198835430429,"connected_time":1351000000000,"state":"active","ping":102},{"user_id":51,"name":"LennyClan","steam_id":76561198182959074,"connected_time":1364000000000,"state":"active","ping":114},{"user_id":33,"name":"Xylemon","steam_id":76561197965297420,"connected_time":4042000000000,"state":"active","ping":113},{"user_id":60,"name":"Ranch Style Beans","steam_id":76561198126791566,"connected_time":952000000000,"state":"active","ping":81}]},{"server_id":400,"name":"Uncletopia | Atlanta | 3 | Stopwatch Beta","name_short":"atl-3","host":"atl-1.us.uncletopia.com","port":27035,"enabled":true,"region":"us-east","cc":"us","latitude":33.753746,"longitude":-84.38633,"reserved":0,"last_update":"0001-01-01T00:00:00Z","name_a2s":"Uncletopia | Atlanta | 3 | Stopwatch Beta","protocol":17,"map":"pl_upward","folder":"tf","game":"Team Fortress","app_id":440,"player_count":0,"max_players":24,"Bots":0,"server_type":"Dedicated","server_os":"Linux","password":true,"vac":true,"version":"7742253","steam_id":85568392924515187,"keywords":["nocrits","nodmgspread","payload","uncletopia"],"game_id":440,"stv_port":27036,"stv_name":"Uncletopia | Atlanta | 3 | Stopwatch Beta | STV","players":null},{"server_id":401,"name":"Uncletopia | Atlanta | 4 | No Payload","name_short":"atl-4","host":"atl-1.us.uncletopia.com","port":27045,"enabled":true,"region":"us-east","cc":"us","latitude":33.753746,"longitude":-84.38633,"reserved":0,"last_update":"0001-01-01T00:00:00Z","name_a2s":"Uncletopia | Atlanta | 4 | No Payload","protocol":17,"map":"pl_pier","folder":"tf","game":"Team Fortress","app_id":440,"player_count":0,"max_players":24,"Bots":0,"server_type":"Dedicated","server_os":"Linux","password":true,"vac":true,"version":"7723704","steam_id":85568392924515188,"keywords":["nocrits","nodmgspread","payload","uncletopia"],"game_id":440,"stv_port":27046,"stv_name":"Uncletopia | Atlanta | 4 | No Payload | STV","players":null},{"server_id":2,"name":"Uncletopia | Chicago | 1 | All Maps","name_short":"chi-1","host":"chi-1.us.uncletopia.com","port":27015,"enabled":true,"region":"us-central","cc":"us","latitude":41.881832,"longitude":-87.62318,"reserved":0,"last_update":"0001-01-01T00:00:00Z","name_a2s":"Uncletopia | Chicago | 1 | All Maps","protocol":17,"map":"cp_snakewater_final1","folder":"tf","game":"Team Fortress","app_id":440,"player_count":0,"max_players":24,"Bots":0,"server_type":"Dedicated","server_os":"Linux","password":true,"vac":true,"version":"7742253","steam_id":85568392924469984,"keywords":["cp","nocrits","nodmgspread","uncletopia"],"game_id":440,"stv_port":27016,"stv_name":"Uncletopia | Chicago | 1 | All Maps | STV","players":null},{"server_id":106,"name":"Uncletopia | Chicago | 2 | All Maps","name_short":"chi-2","host":"chi-1.us.uncletopia.com","port":27025,"enabled":true,"region":"us-central","cc":"us","latitude":41.881832,"longitude":-87.62318,"reserved":0,"last_update":"0001-01-01T00:00:00Z","name_a2s":"Uncletopia | Chicago | 2 | All Maps","protocol":17,"map":"cp_altitude","folder":"tf","game":"Team Fortress","app_id":440,"player_count":0,"max_players":24,"Bots":0,"server_type":"Dedicated","server_os":"Linux","password":true,"vac":true,"version":"7742253","steam_id":85568392924469985,"keywords":["cp","nocrits","nodmgspread","uncletopia"],"game_id":440,"stv_port":27026,"stv_name":"Uncletopia | Chicago | 2 | All Maps | STV","players":null},{"server_id":402,"name":"Uncletopia | Chicago | 3 | All Maps","name_short":"chi-3","host":"chi-1.us.uncletopia.com","port":27035,"enabled":true,"region":"us-central","cc":"us","latitude":41.881832,"longitude":-87.62318,"reserved":0,"last_update":"0001-01-01T00:00:00Z","name_a2s":"Uncletopia | Chicago | 3 | All Maps","protocol":17,"map":"pl_upward","folder":"tf","game":"Team Fortress","app_id":440,"player_count":0,"max_players":24,"Bots":0,"server_type":"Dedicated","server_os":"Linux","password":true,"vac":true,"version":"7742253","steam_id":85568392924515191,"keywords":["nocrits","nodmgspread","payload","uncletopia"],"game_id":440,"stv_port":27036,"stv_name":"Uncletopia | Chicago | 3 | All Maps | STV","players":null},{"server_id":403,"name":"Uncletopia | Chicago | 4 | All Maps","name_short":"chi-4","host":"chi-1.us.uncletopia.com","port":27045,"enabled":true,"region":"us-central","cc":"us","latitude":41.881832,"longitude":-87.62318,"reserved":0,"last_update":"0001-01-01T00:00:00Z","name_a2s":"Uncletopia | Chicago | 4 | All Maps","protocol":17,"map":"cp_process_final","folder":"tf","game":"Team Fortress","app_id":440,"player_count":0,"max_players":24,"Bots":0,"server_type":"Dedicated","server_os":"Linux","password":true,"vac":true,"version":"7742253","steam_id":85568392924515193,"keywords":["cp","nocrits","nodmgspread","uncletopia"],"game_id":440,"stv_port":27046,"stv_name":"Uncletopia | Chicago | 4 | All Maps | STV","players":null},{"server_id":36,"name":"Uncletopia | Chicago | 5 | All Maps","name_short":"chi-5","host":"chi-2.us.uncletopia.com","port":27015,"enabled":true,"region":"us-central","cc":"us","latitude":41.881832,"longitude":-87.62318,"reserved":0,"last_update":"0001-01-01T00:00:00Z","name_a2s":"Uncletopia | Chicago | 5 | All Maps","protocol":17,"map":"koth_highpass","folder":"tf","game":"Team Fortress","app_id":440,"player_count":0,"max_players":24,"Bots":0,"server_type":"Dedicated","server_os":"Linux","password":true,"vac":true,"version":"7742253","steam_id":85568392924866362,"keywords":["cp","nocrits","nodmgspread","uncletopia"],"game_id":440,"stv_port":27016,"stv_name":"Uncletopia | Chicago | 5 | All Maps | STV","players":null},{"server_id":37,"name":"Uncletopia | Chicago | 6 | All Maps","name_short":"chi-6","host":"chi-2.us.uncletopia.com","port":27025,"enabled":true,"region":"us-central","cc":"us","latitude":41.881832,"longitude":-87.62318,"reserved":0,"last_update":"0001-01-01T00:00:00Z","name_a2s":"Uncletopia | Chicago | 6 | All Maps","protocol":17,"map":"pl_frontier_final","folder":"tf","game":"Team Fortress","app_id":440,"player_count":0,"max_players":24,"Bots":0,"server_type":"Dedicated","server_os":"Linux","password":true,"vac":true,"version":"7742253","steam_id":85568392924866363,"keywords":["nocrits","nodmgspread","payload","uncletopia"],"game_id":440,"stv_port":27026,"stv_name":"Uncletopia | Chicago | 6 | All Maps | STV","players":null},{"server_id":38,"name":"Uncletopia | Chicago | 7 | Stopwatch Beta","name_short":"chi-7","host":"chi-2.us.uncletopia.com","port":27035,"enabled":true,"region":"us-central","cc":"us","latitude":41.881832,"longitude":-87.62318,"reserved":0,"last_update":"0001-01-01T00:00:00Z","name_a2s":"Uncletopia | Chicago | 7 | Stopwatch Beta","protocol":17,"map":"cp_altitude","folder":"tf","game":"Team Fortress","app_id":440,"player_count":0,"max_players":24,"Bots":0,"server_type":"Dedicated","server_os":"Linux","password":true,"vac":true,"version":"7742253","steam_id":85568392924866364,"keywords":["cp","nocrits","nodmgspread","uncletopia"],"game_id":440,"stv_port":27036,"stv_name":"Uncletopia | Chicago | 7 | Stopwatch Beta | STV","players":null},{"server_id":39,"name":"Uncletopia | Chicago | 8 | Community","name_short":"chi-8","host":"chi-2.us.uncletopia.com","port":27045,"enabled":true,"region":"us-central","cc":"us","latitude":41.881832,"longitude":-87.62318,"reserved":0,"last_update":"0001-01-01T00:00:00Z","name_a2s":"Uncletopia | Chicago | 8 | Community","protocol":17,"map":"koth_cascade","folder":"tf","game":"Team Fortress","app_id":440,"player_count":0,"max_players":24,"Bots":0,"server_type":"Dedicated","server_os":"Linux","password":true,"vac":true,"version":"7742253","steam_id":85568392924866365,"keywords":["cp","nocrits","nodmgspread","uncletopia"],"game_id":440,"stv_port":27046,"stv_name":"Uncletopia | Chicago | 8 | Community | STV","players":null},{"server_id":8,"name":"Uncletopia | Dallas | 1 | All Maps","name_short":"dal-1","host":"dal-1.us.uncletopia.com","port":27015,"enabled":true,"region":"us-central","cc":"us","latitude":32.779167,"longitude":-96.80889,"reserved":0,"last_update":"0001-01-01T00:00:00Z","name_a2s":"Uncletopia | Dallas | 1 | All Maps","protocol":17,"map":"koth_viaduct","folder":"tf","game":"Team Fortress","app_id":440,"player_count":4,"max_players":24,"Bots":0,"server_type":"Dedicated","server_os":"Linux","password":true,"vac":true,"version":"7742253","steam_id":85568392924469986,"keywords":["cp","nocrits","nodmgspread","uncletopia"],"game_id":440,"stv_port":27016,"stv_name":"Uncletopia | Dallas | 1 | All Maps | STV","players":[{"user_id":3,"name":"Jesus Loves You57","steam_id":76561199058833769,"connected_time":1244000000000,"state":"active","ping":83},{"user_id":9,"name":"A Rhino with Coronavirus","steam_id":76561197999451366,"connected_time":155000000000,"state":"active","ping":84},{"user_id":5,"name":"GW4D","steam_id":76561198268791283,"connected_time":1171000000000,"state":"active","ping":82},{"user_id":8,"name":"fearlessbot","steam_id":76561199002587064,"connected_time":805000000000,"state":"active","ping":161}]},{"server_id":108,"name":"Uncletopia | Dallas | 2 | All Maps","name_short":"dal-2","host":"dal-1.us.uncletopia.com","port":27025,"enabled":true,"region":"us-central","cc":"us","latitude":32.779167,"longitude":-96.80889,"reserved":0,"last_update":"0001-01-01T00:00:00Z","name_a2s":"Uncletopia | Dallas | 2 | All Maps","protocol":17,"map":"pl_barnblitz","folder":"tf","game":"Team Fortress","app_id":440,"player_count":0,"max_players":24,"Bots":0,"server_type":"Dedicated","server_os":"Linux","password":true,"vac":true,"version":"7742253","steam_id":85568392924469988,"keywords":["nocrits","nodmgspread","payload","uncletopia"],"game_id":440,"stv_port":27026,"stv_name":"Uncletopia | Dallas | 2 | All Maps | STV","players":null},{"server_id":5,"name":"Uncletopia | Frankfurt | 1 | All Maps","name_short":"frk-1","host":"frk-1.de.uncletopia.com","port":27015,"enabled":true,"region":"eu","cc":"de","latitude":50.110924,"longitude":8.682127,"reserved":0,"last_update":"0001-01-01T00:00:00Z","name_a2s":"Uncletopia | Frankfurt | 1 | All Maps","protocol":17,"map":"pl_snowycoast","folder":"tf","game":"Team Fortress","app_id":440,"player_count":23,"max_players":24,"Bots":0,"server_type":"Dedicated","server_os":"Linux","password":true,"vac":true,"version":"7742253","steam_id":85568392924469989,"keywords":["nocrits","nodmgspread","payload","uncletopia"],"game_id":440,"stv_port":27016,"stv_name":"Uncletopia | Frankfurt | 1 | All Maps | STV","players":[{"user_id":158,"name":"Flatsal","steam_id":76561198087386923,"connected_time":94000000000,"state":"active","ping":105},{"user_id":156,"name":"DeCypher","steam_id":76561198171992619,"connected_time":170000000000,"state":"active","ping":65},{"user_id":117,"name":"Virgil","steam_id":76561198248786778,"connected_time":2608000000000,"state":"active","ping":110},{"user_id":139,"name":"SODA!!!!!!!","steam_id":76561198107362485,"connected_time":876000000000,"state":"active","ping":54},{"user_id":142,"name":"lolimsogreat21","steam_id":76561199052033788,"connected_time":786000000000,"state":"active","ping":61},{"user_id":124,"name":"FUWA FUWA!","steam_id":76561198295305088,"connected_time":1733000000000,"state":"active","ping":49},{"user_id":125,"name":"Dzieciol","steam_id":76561198160237556,"connected_time":1719000000000,"state":"active","ping":70},{"user_id":143,"name":"holykyckling","steam_id":76561198040661615,"connected_time":777000000000,"state":"active","ping":75},{"user_id":152,"name":"[31LB] Alex","steam_id":76561198133006440,"connected_time":327000000000,"state":"active","ping":37},{"user_id":126,"name":"Taktikfuchs","steam_id":76561198055326196,"connected_time":1698000000000,"state":"active","ping":66},{"user_id":127,"name":"wasabi bobby","steam_id":76561199235435358,"connected_time":1634000000000,"state":"active","ping":80},{"user_id":157,"name":"I jazzed myself","steam_id":76561198203016603,"connected_time":116000000000,"state":"active","ping":59},{"user_id":147,"name":"CGI_Lantern","steam_id":76561198055191196,"connected_time":564000000000,"state":"active","ping":77},{"user_id":120,"name":"Johnny","steam_id":76561198880265246,"connected_time":1832000000000,"state":"active","ping":78},{"user_id":149,"name":"stun","steam_id":76561198276681691,"connected_time":421000000000,"state":"active","ping":57},{"user_id":130,"name":"Codename 50","steam_id":76561198024454833,"connected_time":1553000000000,"state":"active","ping":154},{"user_id":148,"name":"Alich","steam_id":76561198054110232,"connected_time":485000000000,"state":"active","ping":91},{"user_id":144,"name":"guarda-chuva","steam_id":76561198078694330,"connected_time":771000000000,"state":"active","ping":53},{"user_id":145,"name":"kavun","steam_id":76561198023461869,"connected_time":694000000000,"state":"active","ping":78},{"user_id":159,"name":"Nero Claudius","steam_id":76561198173936397,"connected_time":84000000000,"state":"active","ping":76},{"user_id":154,"name":"OmR","steam_id":76561198015792609,"connected_time":308000000000,"state":"active","ping":53},{"user_id":111,"name":"Deacon Dracul","steam_id":76561198046880663,"connected_time":3380000000000,"state":"active","ping":115},{"user_id":160,"name":"Boo Bitch","steam_id":76561198039155957,"connected_time":74000000000,"state":"active","ping":148}]},{"server_id":110,"name":"Uncletopia | Frankfurt | 2 | All Maps","name_short":"frk-2","host":"frk-1.de.uncletopia.com","port":27025,"enabled":true,"region":"eu","cc":"de","latitude":50.110924,"longitude":8.682127,"reserved":0,"last_update":"0001-01-01T00:00:00Z","name_a2s":"Uncletopia | Frankfurt | 2 | All Maps","protocol":17,"map":"pl_borneo","folder":"tf","game":"Team Fortress","app_id":440,"player_count":24,"max_players":24,"Bots":0,"server_type":"Dedicated","server_os":"Linux","password":true,"vac":true,"version":"7742253","steam_id":85568392924469990,"keywords":["nocrits","nodmgspread","payload","uncletopia"],"game_id":440,"stv_port":27026,"stv_name":"Uncletopia | Frankfurt | 2 | All Maps | STV","players":[{"user_id":72,"name":"tristan","steam_id":76561198096097448,"connected_time":1858000000000,"state":"active","ping":54},{"user_id":82,"name":"Dominus.","steam_id":76561199065917088,"connected_time":793000000000,"state":"active","ping":66},{"user_id":69,"name":"ARYZON","steam_id":76561198070705087,"connected_time":2001000000000,"state":"active","ping":59},{"user_id":89,"name":"yyny","steam_id":76561198066287297,"connected_time":299000000000,"state":"active","ping":44},{"user_id":18,"name":"Seeker","steam_id":76561198873052772,"connected_time":4764000000000,"state":"active","ping":96},{"user_id":73,"name":"EastmoreRandoms.","steam_id":76561198048921203,"connected_time":1746000000000,"state":"active","ping":64},{"user_id":92,"name":"handsome steve","steam_id":76561198388750592,"connected_time":152000000000,"state":"active","ping":53},{"user_id":22,"name":"Españaa","steam_id":76561198879587832,"connected_time":4308000000000,"state":"active","ping":81},{"user_id":85,"name":"markus","steam_id":76561198186791643,"connected_time":632000000000,"state":"active","ping":75},{"user_id":90,"name":"UltimateAura","steam_id":76561198338361324,"connected_time":243000000000,"state":"active","ping":44},{"user_id":80,"name":"Löysä Masa","steam_id":76561198343396172,"connected_time":1037000000000,"state":"active","ping":92},{"user_id":81,"name":"Glue Scent Enjoyer","steam_id":76561198120949216,"connected_time":1024000000000,"state":"active","ping":55},{"user_id":91,"name":"LOBZIK","steam_id":76561198114830120,"connected_time":185000000000,"state":"active","ping":75},{"user_id":93,"name":"Ixsus\u003c3","steam_id":76561198094756869,"connected_time":29000000000,"state":"active","ping":58},{"user_id":56,"name":"MagicTITIKAKA","steam_id":76561198129509548,"connected_time":2914000000000,"state":"active","ping":94},{"user_id":78,"name":"ALARM","steam_id":76561198120686521,"connected_time":1228000000000,"state":"active","ping":60},{"user_id":86,"name":"Dellroy","steam_id":76561198161222252,"connected_time":387000000000,"state":"active","ping":75},{"user_id":94,"name":"lolwhat","steam_id":76561199387628765,"connected_time":26000000000,"state":"spawning","ping":335},{"user_id":95,"name":".::[SerafeTTiN]::.","steam_id":76561198009471724,"connected_time":24000000000,"state":"active","ping":87},{"user_id":96,"name":"The","steam_id":76561198359311605,"connected_time":23000000000,"state":"active","ping":99},{"user_id":97,"name":"big man","steam_id":76561198349062110,"connected_time":19000000000,"state":"active","ping":69},{"user_id":98,"name":"inst @sexcoachrus","steam_id":76561197999921676,"connected_time":11000000000,"state":"spawning","ping":120},{"user_id":99,"name":"Michael","steam_id":76561198003146906,"connected_time":8000000000,"state":"active","ping":107},{"user_id":55,"name":"Elon Ma cs.deals","steam_id":76561199018053264,"connected_time":3045000000000,"state":"active","ping":65}]},{"server_id":308,"name":"Uncletopia | Frankfurt | 3 | All Maps","name_short":"frk-3","host":"frk-1.de.uncletopia.com","port":27035,"enabled":true,"region":"eu","cc":"de","latitude":50.110924,"longitude":8.682127,"reserved":0,"last_update":"0001-01-01T00:00:00Z","name_a2s":"Uncletopia | Frankfurt | 3 | All Maps","protocol":17,"map":"koth_viaduct","folder":"tf","game":"Team Fortress","app_id":440,"player_count":0,"max_players":24,"Bots":0,"server_type":"Dedicated","server_os":"Linux","password":true,"vac":true,"version":"7742253","steam_id":85568392924504274,"keywords":["cp","nocrits","nodmgspread","uncletopia"],"game_id":440,"stv_port":27036,"stv_name":"Uncletopia | Frankfurt | 3 | All Maps | STV","players":null},{"server_id":309,"name":"Uncletopia | Frankfurt | 4 | All Maps","name_short":"frk-4","host":"frk-1.de.uncletopia.com","port":27045,"enabled":true,"region":"eu","cc":"de","latitude":50.110924,"longitude":8.682127,"reserved":0,"last_update":"0001-01-01T00:00:00Z","name_a2s":"Uncletopia | Frankfurt | 4 | All Maps","protocol":17,"map":"pl_frontier_final","folder":"tf","game":"Team Fortress","app_id":440,"player_count":0,"max_players":24,"Bots":0,"server_type":"Dedicated","server_os":"Linux","password":true,"vac":true,"version":"7742253","steam_id":85568392924504275,"keywords":["nocrits","nodmgspread","payload","uncletopia"],"game_id":440,"stv_port":27046,"stv_name":"Uncletopia | Frankfurt | 4 | All Maps | STV","players":null},{"server_id":310,"name":"Uncletopia | Frankfurt | 5 | All Maps","name_short":"frk-5","host":"frk-1.de.uncletopia.com","port":27055,"enabled":true,"region":"eu","cc":"de","latitude":50.110924,"longitude":8.682127,"reserved":0,"last_update":"0001-01-01T00:00:00Z","name_a2s":"Uncletopia | Frankfurt | 5 | All Maps","protocol":17,"map":"cp_sunshine","folder":"tf","game":"Team Fortress","app_id":440,"player_count":0,"max_players":24,"Bots":0,"server_type":"Dedicated","server_os":"Linux","password":true,"vac":true,"version":"7742253","steam_id":85568392924504277,"keywords":["cp","nocrits","nodmgspread","uncletopia"],"game_id":440,"stv_port":27056,"stv_name":"Uncletopia | Frankfurt | 5 | All Maps | STV","players":null},{"server_id":311,"name":"Uncletopia | Frankfurt | 6 | All Maps","name_short":"frk-6","host":"frk-1.de.uncletopia.com","port":27065,"enabled":true,"region":"eu","cc":"de","latitude":50.110924,"longitude":8.682127,"reserved":0,"last_update":"0001-01-01T00:00:00Z","name_a2s":"Uncletopia | Frankfurt | 6 | All Maps","protocol":17,"map":"pl_frontier_final","folder":"tf","game":"Team Fortress","app_id":440,"player_count":0,"max_players":24,"Bots":0,"server_type":"Dedicated","server_os":"Linux","password":true,"vac":true,"version":"7742253","steam_id":85568392924504278,"keywords":["nocrits","nodmgspread","payload","uncletopia"],"game_id":440,"stv_port":27066,"stv_name":"Uncletopia | Frankfurt | 6 | All Maps | STV","players":null},{"server_id":23,"name":"Uncletopia | Frankfurt | 7 | Stopwatch Beta","name_short":"frk-7","host":"frk-1.de.uncletopia.com","port":27075,"enabled":true,"region":"eu","cc":"de","latitude":50.110924,"longitude":8.682127,"reserved":0,"last_update":"0001-01-01T00:00:00Z","name_a2s":"Uncletopia | Frankfurt | 7 | Stopwatch Beta","protocol":17,"map":"koth_lakeside_final","folder":"tf","game":"Team Fortress","app_id":440,"player_count":0,"max_players":24,"Bots":0,"server_type":"Dedicated","server_os":"Linux","password":true,"vac":true,"version":"7742253","steam_id":85568392924742827,"keywords":["cp","nocrits","nodmgspread","uncletopia"],"game_id":440,"stv_port":27076,"stv_name":"Uncletopia | Frankfurt | 7 | Stopwatch Beta | STV","players":null},{"server_id":24,"name":"Uncletopia | Frankfurt | 8 | Community","name_short":"frk-8","host":"frk-1.de.uncletopia.com","port":27085,"enabled":true,"region":"eu","cc":"de","latitude":50.110924,"longitude":8.682127,"reserved":0,"last_update":"0001-01-01T00:00:00Z","name_a2s":"Uncletopia | Frankfurt | 8 | Community","protocol":17,"map":"workshop/koth_bagel_rc5.ugc2514036946","folder":"tf","game":"Team Fortress","app_id":440,"player_count":19,"max_players":24,"Bots":0,"server_type":"Dedicated","server_os":"Linux","password":true,"vac":true,"version":"7742253","steam_id":85568392924742828,"keywords":["cp","nocrits","nodmgspread","uncletopia"],"game_id":440,"stv_port":27086,"stv_name":"Uncletopia | Frankfurt | 8 | Community | STV","players":[{"user_id":28,"name":"fried","steam_id":76561198307522022,"connected_time":4666000000000,"state":"active","ping":46},{"user_id":58,"name":"アイエムミ","steam_id":76561198014821052,"connected_time":789000000000,"state":"active","ping":69},{"user_id":32,"name":"Pan W","steam_id":76561198384111099,"connected_time":2864000000000,"state":"active","ping":64},{"user_id":61,"name":"Gaii Cheeeseey","steam_id":76561198196336311,"connected_time":565000000000,"state":"active","ping":56},{"user_id":56,"name":"WUNNA","steam_id":76561198999848273,"connected_time":902000000000,"state":"active","ping":90},{"user_id":37,"name":"engie?","steam_id":76561198331852832,"connected_time":2491000000000,"state":"active","ping":90},{"user_id":51,"name":"BIG BROTHER","steam_id":76561199239967393,"connected_time":1233000000000,"state":"active","ping":112},{"user_id":39,"name":"gus","steam_id":76561198876303958,"connected_time":2284000000000,"state":"active","ping":118},{"user_id":52,"name":"waZywoo","steam_id":76561198313253111,"connected_time":1181000000000,"state":"active","ping":62},{"user_id":63,"name":"mightyvolts","steam_id":76561198404172173,"connected_time":523000000000,"state":"active","ping":182},{"user_id":64,"name":"Yata","steam_id":76561198195284171,"connected_time":471000000000,"state":"active","ping":128},{"user_id":45,"name":"DemoPanMan69","steam_id":76561199030759504,"connected_time":1886000000000,"state":"active","ping":69},{"user_id":59,"name":"K.V. #RemoveRandomCrits","steam_id":76561197994832993,"connected_time":774000000000,"state":"active","ping":71},{"user_id":60,"name":"TobyIn3D","steam_id":76561198799334595,"connected_time":723000000000,"state":"active","ping":154},{"user_id":65,"name":"Hydro","steam_id":76561199081791855,"connected_time":405000000000,"state":"active","ping":73},{"user_id":66,"name":"DoctorTopLeL","steam_id":76561198088533595,"connected_time":374000000000,"state":"active","ping":114},{"user_id":67,"name":"Nyreen Nebula","steam_id":76561199437842841,"connected_time":316000000000,"state":"active","ping":88},{"user_id":69,"name":"Panzerwaffle","steam_id":76561198030382800,"connected_time":245000000000,"state":"active","ping":43},{"user_id":70,"name":"SKoPro","steam_id":76561198013382306,"connected_time":83000000000,"state":"active","ping":104}]},{"server_id":202,"name":"Uncletopia | Hong Kong | 1 | All Maps","name_short":"hgk-1","host":"hgk-1.hk.uncletopia.com","port":27015,"enabled":true,"region":"asia","cc":"hk","latitude":22.302711,"longitude":114.177216,"reserved":0,"last_update":"0001-01-01T00:00:00Z","name_a2s":"Uncletopia | Hong Kong | 1 | All Maps","protocol":17,"map":"cp_mossrock","folder":"tf","game":"Team Fortress","app_id":440,"player_count":24,"max_players":24,"Bots":0,"server_type":"Dedicated","server_os":"Linux","password":true,"vac":true,"version":"7742253","steam_id":85568392924494504,"keywords":["cp","nocrits","nodmgspread","uncletopia"],"game_id":440,"stv_port":27016,"stv_name":"Uncletopia | Hong Kong | 1 | All Maps | STV","players":[{"user_id":365,"name":"tybrl","steam_id":76561198055553140,"connected_time":1917000000000,"state":"active","ping":77},{"user_id":396,"name":"rudolph","steam_id":76561199012678702,"connected_time":456000000000,"state":"active","ping":97},{"user_id":316,"name":"TomCat","steam_id":76561198133744053,"connected_time":6186000000000,"state":"active","ping":109},{"user_id":397,"name":"⋛⊱Naheya⊰⋚","steam_id":76561198003229109,"connected_time":419000000000,"state":"active","ping":81},{"user_id":379,"name":"Steve","steam_id":76561198429235506,"connected_time":1346000000000,"state":"active","ping":78},{"user_id":394,"name":"Petals","steam_id":76561198363194110,"connected_time":561000000000,"state":"active","ping":91},{"user_id":315,"name":"no vc no c","steam_id":76561197989503095,"connected_time":6282000000000,"state":"active","ping":104},{"user_id":391,"name":"I LOVE SZA","steam_id":76561198400698408,"connected_time":621000000000,"state":"active","ping":85},{"user_id":357,"name":"Mr.乳牛喬巴肯","steam_id":76561197968309936,"connected_time":2372000000000,"state":"active","ping":70},{"user_id":376,"name":"bitch","steam_id":76561198324008555,"connected_time":1424000000000,"state":"active","ping":60},{"user_id":382,"name":"ѕησωу-єνєιє","steam_id":76561198334099003,"connected_time":1085000000000,"state":"active","ping":145},{"user_id":368,"name":"Wx","steam_id":76561199217780897,"connected_time":1906000000000,"state":"active","ping":133},{"user_id":385,"name":"Talkk More","steam_id":76561198305424433,"connected_time":802000000000,"state":"active","ping":117},{"user_id":366,"name":"Vladimir Spencer Pootis","steam_id":76561198144686119,"connected_time":1916000000000,"state":"active","ping":64},{"user_id":395,"name":"Silver bars","steam_id":76561198273312659,"connected_time":523000000000,"state":"active","ping":79},{"user_id":392,"name":"Bertengkar","steam_id":76561198213031155,"connected_time":613000000000,"state":"active","ping":100},{"user_id":343,"name":"elite anarchest","steam_id":76561198411982822,"connected_time":3648000000000,"state":"active","ping":86},{"user_id":400,"name":"haruki","steam_id":76561198031621342,"connected_time":189000000000,"state":"active","ping":71},{"user_id":378,"name":"LOLGAL","steam_id":76561198347418251,"connected_time":1377000000000,"state":"active","ping":127},{"user_id":360,"name":"m1ko-  ❀❆","steam_id":76561198337154745,"connected_time":2105000000000,"state":"active","ping":94},{"user_id":370,"name":"Jack Of All Trades","steam_id":76561199273837625,"connected_time":1782000000000,"state":"active","ping":109},{"user_id":297,"name":"PocoLoco","steam_id":76561198834044246,"connected_time":7617000000000,"state":"active","ping":105},{"user_id":398,"name":"Spskza","steam_id":76561199385504837,"connected_time":407000000000,"state":"active","ping":96},{"user_id":399,"name":"Sel","steam_id":76561198190923207,"connected_time":367000000000,"state":"active","ping":57}]},{"server_id":1,"name":"Uncletopia | Los Angeles | 1 | All Maps","name_short":"lax-1","host":"lax-1.us.uncletopia.com","port":27015,"enabled":true,"region":"us-west","cc":"us","latitude":33.94279,"longitude":-118.41004,"reserved":0,"last_update":"0001-01-01T00:00:00Z","name_a2s":"Uncletopia | Los Angeles | 1 | All Maps","protocol":17,"map":"pl_swiftwater_final1","folder":"tf","game":"Team Fortress","app_id":440,"player_count":0,"max_players":24,"Bots":0,"server_type":"Dedicated","server_os":"Linux","password":true,"vac":true,"version":"7742253","steam_id":85568392924469991,"keywords":["nocrits","nodmgspread","payload","uncletopia"],"game_id":440,"stv_port":27016,"stv_name":"Uncletopia | Los Angeles | 1 | All Maps | STV","players":null},{"server_id":112,"name":"Uncletopia | Los Angeles | 2 | All Maps","name_short":"lax-2","host":"lax-1.us.uncletopia.com","port":27025,"enabled":true,"region":"us-west","cc":"us","latitude":33.94279,"longitude":-118.41004,"reserved":0,"last_update":"0001-01-01T00:00:00Z","name_a2s":"Uncletopia | Los Angeles | 2 | All Maps","protocol":17,"map":"pl_snowycoast","folder":"tf","game":"Team Fortress","app_id":440,"player_count":0,"max_players":24,"Bots":0,"server_type":"Dedicated","server_os":"Linux","password":true,"vac":true,"version":"7742253","steam_id":85568392924469992,"keywords":["nocrits","nodmgspread","payload","uncletopia"],"game_id":440,"stv_port":27026,"stv_name":"Uncletopia | Los Angeles | 2 | All Maps | STV","players":null},{"server_id":324,"name":"Uncletopia | Los Angeles | 3 | All Maps","name_short":"lax-3","host":"lax-1.us.uncletopia.com","port":27035,"enabled":true,"region":"us-west","cc":"us","latitude":33.94279,"longitude":-118.41004,"reserved":0,"last_update":"0001-01-01T00:00:00Z","name_a2s":"Uncletopia | Los Angeles | 3 | All Maps","protocol":17,"map":"cp_mountainlab","folder":"tf","game":"Team Fortress","app_id":440,"player_count":0,"max_players":24,"Bots":0,"server_type":"Dedicated","server_os":"Linux","password":true,"vac":true,"version":"7742253","steam_id":85568392924510198,"keywords":["cp","nocrits","nodmgspread","uncletopia"],"game_id":440,"stv_port":27036,"stv_name":"Uncletopia | Los Angeles | 3 | All Maps | STV","players":null},{"server_id":25,"name":"Uncletopia | Los Angeles | 4 | Stopwatch Beta","name_short":"lax-4","host":"lax-1.us.uncletopia.com","port":27045,"enabled":true,"region":"us-west","cc":"us","latitude":33.94279,"longitude":-118.41004,"reserved":0,"last_update":"0001-01-01T00:00:00Z","name_a2s":"Uncletopia | Los Angeles | 4 | Stopwatch Beta","protocol":17,"map":"cp_process_final","folder":"tf","game":"Team Fortress","app_id":440,"player_count":0,"max_players":24,"Bots":0,"server_type":"Dedicated","server_os":"Linux","password":true,"vac":true,"version":"7742253","steam_id":85568392924510199,"keywords":["cp","nocrits","nodmgspread","uncletopia"],"game_id":440,"stv_port":27046,"stv_name":"Uncletopia | Los Angeles | 4 | Stopwatch Beta | STV","players":null},{"server_id":11,"name":"Uncletopia | London | 1 | All Maps","name_short":"lon-1","host":"lon-1.uk.uncletopia.com","port":27015,"enabled":true,"region":"eu","cc":"gb","latitude":51.509865,"longitude":-0.118092,"reserved":0,"last_update":"0001-01-01T00:00:00Z","name_a2s":"Uncletopia | London | 1 | All Maps","protocol":17,"map":"cp_steel","folder":"tf","game":"Team Fortress","app_id":440,"player_count":24,"max_players":24,"Bots":0,"server_type":"Dedicated","server_os":"Linux","password":true,"vac":true,"version":"7742253","steam_id":85568392924367362,"keywords":["cp","nocrits","nodmgspread","uncletopia"],"game_id":440,"stv_port":27016,"stv_name":"Uncletopia | London | 1 | All Maps | STV","players":[{"user_id":294,"name":"lant420","steam_id":76561198206673920,"connected_time":859000000000,"state":"active","ping":88},{"user_id":284,"name":"Taska","steam_id":76561198807325888,"connected_time":1456000000000,"state":"active","ping":93},{"user_id":290,"name":"E","steam_id":76561198166340115,"connected_time":1016000000000,"state":"active","ping":50},{"user_id":302,"name":"MAKENTAKEN","steam_id":76561199127359587,"connected_time":129000000000,"state":"active","ping":95},{"user_id":293,"name":"P-47 Thunderbolt","steam_id":76561198153197815,"connected_time":988000000000,"state":"active","ping":54},{"user_id":288,"name":"Kerch","steam_id":76561198002061739,"connected_time":1043000000000,"state":"active","ping":41},{"user_id":239,"name":"waffle toaster","steam_id":76561198799089628,"connected_time":4898000000000,"state":"active","ping":51},{"user_id":301,"name":"ghost","steam_id":76561198189940229,"connected_time":215000000000,"state":"active","ping":58},{"user_id":295,"name":"Sjenker","steam_id":76561199076368871,"connected_time":841000000000,"state":"active","ping":53},{"user_id":286,"name":"Fritz","steam_id":76561198000259300,"connected_time":1058000000000,"state":"active","ping":51},{"user_id":259,"name":"torn","steam_id":76561198223003236,"connected_time":3314000000000,"state":"active","ping":53},{"user_id":252,"name":"Spootnak","steam_id":76561198049052518,"connected_time":3652000000000,"state":"active","ping":54},{"user_id":287,"name":"When Life gives you Lemons","steam_id":76561198318290663,"connected_time":1044000000000,"state":"active","ping":61},{"user_id":291,"name":"ValentineHU","steam_id":76561198165061845,"connected_time":1007000000000,"state":"active","ping":86},{"user_id":118,"name":"bombing barry","steam_id":76561198076219289,"connected_time":11892000000000,"state":"active","ping":47},{"user_id":304,"name":"hulluheppu1","steam_id":76561198093458326,"connected_time":0,"state":"connecting","ping":0},{"user_id":273,"name":"pyromaniac","steam_id":76561198292781255,"connected_time":2424000000000,"state":"active","ping":74},{"user_id":296,"name":"Father Piss","steam_id":76561198152576682,"connected_time":794000000000,"state":"active","ping":79},{"user_id":297,"name":"nynon","steam_id":76561197998432126,"connected_time":786000000000,"state":"active","ping":93},{"user_id":298,"name":"alvinulv","steam_id":76561198024487177,"connected_time":756000000000,"state":"active","ping":61},{"user_id":300,"name":"Julez","steam_id":76561198045505082,"connected_time":504000000000,"state":"active","ping":77},{"user_id":278,"name":"TheHacker-","steam_id":76561198091867843,"connected_time":2250000000000,"state":"active","ping":127},{"user_id":217,"name":"...","steam_id":76561198969234594,"connected_time":6652000000000,"state":"active","ping":60},{"user_id":281,"name":"Phantom_Boy","steam_id":76561199085103320,"connected_time":2058000000000,"state":"active","ping":135}]},{"server_id":114,"name":"Uncletopia | London | 2 | All Maps","name_short":"lon-2","host":"lon-1.uk.uncletopia.com","port":27025,"enabled":true,"region":"eu","cc":"gb","latitude":51.509865,"longitude":-0.118092,"reserved":0,"last_update":"0001-01-01T00:00:00Z","name_a2s":"Uncletopia | London | 2 | All Maps","protocol":17,"map":"pl_badwater","folder":"tf","game":"Team Fortress","app_id":440,"player_count":0,"max_players":24,"Bots":0,"server_type":"Dedicated","server_os":"Linux","password":true,"vac":true,"version":"7742253","steam_id":85568392924470941,"keywords":["nocrits","nodmgspread","payload","uncletopia"],"game_id":440,"stv_port":27026,"stv_name":"Uncletopia | London | 2 | All Maps | STV","players":null},{"server_id":320,"name":"Uncletopia | London | 3 | All Maps","name_short":"lon-3","host":"lon-1.uk.uncletopia.com","port":27035,"enabled":true,"region":"eu","cc":"gb","latitude":51.509865,"longitude":-0.118092,"reserved":0,"last_update":"0001-01-01T00:00:00Z","name_a2s":"Uncletopia | London | 3 | All Maps","protocol":17,"map":"pl_rumford_event","folder":"tf","game":"Team Fortress","app_id":440,"player_count":3,"max_players":24,"Bots":0,"server_type":"Dedicated","server_os":"Linux","password":true,"vac":true,"version":"7742253","steam_id":85568392924510192,"keywords":["nocrits","nodmgspread","payload","uncletopia"],"game_id":440,"stv_port":27036,"stv_name":"Uncletopia | London | 3 | All Maps | STV","players":[{"user_id":14,"name":"still the best 1973 #savetf2","steam_id":76561199221139822,"connected_time":1883000000000,"state":"active","ping":93},{"user_id":19,"name":"AforeKingDwarf","steam_id":76561198043562926,"connected_time":1037000000000,"state":"active","ping":36},{"user_id":13,"name":"Jombus_The_Rhombus","steam_id":76561199273619268,"connected_time":2391000000000,"state":"active","ping":42}]},{"server_id":321,"name":"Uncletopia | London | 4 | All Maps","name_short":"lon-4","host":"lon-1.uk.uncletopia.com","port":27045,"enabled":true,"region":"eu","cc":"gb","latitude":51.509865,"longitude":-0.118092,"reserved":0,"last_update":"0001-01-01T00:00:00Z","name_a2s":"Uncletopia | London | 4 | All Maps","protocol":17,"map":"pl_barnblitz","folder":"tf","game":"Team Fortress","app_id":440,"player_count":23,"max_players":24,"Bots":0,"server_type":"Dedicated","server_os":"Linux","password":true,"vac":true,"version":"7742253","steam_id":85568392924510193,"keywords":["nocrits","nodmgspread","payload","uncletopia"],"game_id":440,"stv_port":27046,"stv_name":"Uncletopia | London | 4 | All Maps | STV","players":[{"user_id":141,"name":"\" ;unbindall ;say \"","steam_id":76561199232442508,"connected_time":359000000000,"state":"active","ping":84},{"user_id":113,"name":"tugcan3021","steam_id":76561198236015392,"connected_time":1852000000000,"state":"active","ping":127},{"user_id":124,"name":"cantsniff","steam_id":76561198259668029,"connected_time":839000000000,"state":"active","ping":44},{"user_id":134,"name":"♥ Cirno ♥","steam_id":76561198834982738,"connected_time":464000000000,"state":"active","ping":64},{"user_id":99,"name":"Blink","steam_id":76561198144033005,"connected_time":3050000000000,"state":"active","ping":45},{"user_id":126,"name":"sHIFTINGvORTEX","steam_id":76561198231648332,"connected_time":767000000000,"state":"active","ping":56},{"user_id":146,"name":"your dads bald spot","steam_id":76561199383437138,"connected_time":282000000000,"state":"active","ping":120},{"user_id":127,"name":"Sputnik1","steam_id":76561199059003709,"connected_time":759000000000,"state":"active","ping":117},{"user_id":91,"name":"Paranoob","steam_id":76561199093369711,"connected_time":3377000000000,"state":"active","ping":103},{"user_id":135,"name":"poliakov.noam","steam_id":76561199259322961,"connected_time":444000000000,"state":"active","ping":98},{"user_id":136,"name":"Squire Trelawney","steam_id":76561198318860192,"connected_time":432000000000,"state":"active","ping":55},{"user_id":130,"name":"guyinahat","steam_id":76561198367203640,"connected_time":657000000000,"state":"active","ping":57},{"user_id":142,"name":"Thunderfrog","steam_id":76561198954243759,"connected_time":358000000000,"state":"active","ping":64},{"user_id":132,"name":"tralalaOuiOui","steam_id":76561197963471507,"connected_time":534000000000,"state":"active","ping":45},{"user_id":133,"name":"FutureCal","steam_id":76561198880307586,"connected_time":506000000000,"state":"active","ping":62},{"user_id":118,"name":"vahas","steam_id":76561198173818374,"connected_time":1410000000000,"state":"active","ping":88},{"user_id":105,"name":"♣Бредовый Месяц","steam_id":76561198796404149,"connected_time":2428000000000,"state":"active","ping":111},{"user_id":137,"name":"skavennugget","steam_id":76561198073349457,"connected_time":426000000000,"state":"active","ping":61},{"user_id":94,"name":"Piteras","steam_id":76561198858532207,"connected_time":3327000000000,"state":"active","ping":79},{"user_id":148,"name":"PavGav(f2p)","steam_id":76561199322919173,"connected_time":140000000000,"state":"active","ping":45},{"user_id":143,"name":"Dan","steam_id":76561198314800357,"connected_time":346000000000,"state":"active","ping":106},{"user_id":144,"name":"Uncle Lame","steam_id":76561198089003514,"connected_time":328000000000,"state":"active","ping":59},{"user_id":119,"name":"LAMC","steam_id":76561199066888917,"connected_time":1398000000000,"state":"active","ping":70}]},{"server_id":21,"name":"Uncletopia | London | 5 | All Maps","name_short":"lon-5","host":"lon-1.uk.uncletopia.com","port":27055,"enabled":true,"region":"eu","cc":"gb","latitude":51.509865,"longitude":-0.118092,"reserved":0,"last_update":"0001-01-01T00:00:00Z","name_a2s":"Uncletopia | London | 5 | All Maps","protocol":17,"map":"koth_cascade","folder":"tf","game":"Team Fortress","app_id":440,"player_count":0,"max_players":24,"Bots":0,"server_type":"Dedicated","server_os":"Linux","password":true,"vac":true,"version":"7742253","steam_id":85568392924742829,"keywords":["cp","nocrits","nodmgspread","uncletopia"],"game_id":440,"stv_port":27056,"stv_name":"Uncletopia | London | 5 | All Maps | STV","players":null},{"server_id":22,"name":"Uncletopia | London | 6 | All Maps","name_short":"lon-6","host":"lon-1.uk.uncletopia.com","port":27065,"enabled":true,"region":"eu","cc":"gb","latitude":51.509865,"longitude":-0.118092,"reserved":0,"last_update":"0001-01-01T00:00:00Z","name_a2s":"Uncletopia | London | 6 | All Maps","protocol":17,"map":"pl_badwater","folder":"tf","game":"Team Fortress","app_id":440,"player_count":0,"max_players":24,"Bots":0,"server_type":"Dedicated","server_os":"Linux","password":true,"vac":true,"version":"7742253","steam_id":85568392924742830,"keywords":["nocrits","nodmgspread","payload","uncletopia"],"game_id":440,"stv_port":27066,"stv_name":"Uncletopia | London | 6 | All Maps | STV","players":null},{"server_id":40,"name":"Uncletopia | London | 7 | No Payload","name_short":"lon-7","host":"lon-1.uk.uncletopia.com","port":27075,"enabled":true,"region":"eu","cc":"gb","latitude":51.509865,"longitude":-0.118092,"reserved":0,"last_update":"0001-01-01T00:00:00Z","name_a2s":"Uncletopia | London | 7 | No Payload","protocol":17,"map":"pl_borneo","folder":"tf","game":"Team Fortress","app_id":440,"player_count":0,"max_players":24,"Bots":0,"server_type":"Dedicated","server_os":"Linux","password":true,"vac":true,"version":"7742253","steam_id":85568392924964314,"keywords":["nocrits","nodmgspread","payload","uncletopia"],"game_id":440,"stv_port":27076,"stv_name":"Uncletopia | London | 7 | No Payload | STV","players":null},{"server_id":41,"name":"Uncletopia | London | 8 | Community","name_short":"lon-8","host":"lon-1.uk.uncletopia.com","port":27085,"enabled":true,"region":"eu","cc":"gb","latitude":51.509865,"longitude":-0.118092,"reserved":0,"last_update":"0001-01-01T00:00:00Z","name_a2s":"Uncletopia | London | 8 | Community","protocol":17,"map":"cp_process_final","folder":"tf","game":"Team Fortress","app_id":440,"player_count":0,"max_players":24,"Bots":0,"server_type":"Dedicated","server_os":"Linux","password":true,"vac":true,"version":"7742253","steam_id":85568392924964315,"keywords":["cp","nocrits","nodmgspread","uncletopia"],"game_id":440,"stv_port":27086,"stv_name":"Uncletopia | London | 8 | Community | STV","players":null},{"server_id":300,"name":"Uncletopia | Montréal | 1 | All Maps","name_short":"mtl-1","host":"mtl-1.ca.uncletopia.com","port":27015,"enabled":true,"region":"us-east","cc":"ca","latitude":45.50889,"longitude":-73.56167,"reserved":0,"last_update":"0001-01-01T00:00:00Z","name_a2s":"Uncletopia | Montréal | 1 | All Maps","protocol":17,"map":"koth_lakeside_final","folder":"tf","game":"Team Fortress","app_id":440,"player_count":0,"max_players":24,"Bots":0,"server_type":"Dedicated","server_os":"Linux","password":true,"vac":true,"version":"7742253","steam_id":85568392924500087,"keywords":["cp","nocrits","nodmgspread","uncletopia"],"game_id":440,"stv_port":27016,"stv_name":"Uncletopia | Montréal | 1 | All Maps | STV","players":null},{"server_id":301,"name":"Uncletopia | Montréal | 2 | All Maps","name_short":"mtl-2","host":"mtl-1.ca.uncletopia.com","port":27025,"enabled":true,"region":"us-east","cc":"ca","latitude":45.50889,"longitude":-73.56167,"reserved":0,"last_update":"0001-01-01T00:00:00Z","name_a2s":"Uncletopia | Montréal | 2 | All Maps","protocol":17,"map":"koth_lakeside_final","folder":"tf","game":"Team Fortress","app_id":440,"player_count":0,"max_players":24,"Bots":0,"server_type":"Dedicated","server_os":"Linux","password":true,"vac":true,"version":"7742253","steam_id":85568392924500088,"keywords":["cp","nocrits","nodmgspread","uncletopia"],"game_id":440,"stv_port":27026,"stv_name":"Uncletopia | Montréal | 2 | All Maps | STV","players":null},{"server_id":302,"name":"Uncletopia | Montréal | 3 | All Maps","name_short":"mtl-3","host":"mtl-1.ca.uncletopia.com","port":27035,"enabled":true,"region":"us-east","cc":"ca","latitude":45.50889,"longitude":-73.56167,"reserved":0,"last_update":"0001-01-01T00:00:00Z","name_a2s":"Uncletopia | Montréal | 3 | All Maps","protocol":17,"map":"pl_badwater","folder":"tf","game":"Team Fortress","app_id":440,"player_count":0,"max_players":24,"Bots":0,"server_type":"Dedicated","server_os":"Linux","password":true,"vac":true,"version":"7742253","steam_id":85568392924500089,"keywords":["nocrits","nodmgspread","payload","uncletopia"],"game_id":440,"stv_port":27036,"stv_name":"Uncletopia | Montréal | 3 | All Maps | STV","players":null},{"server_id":303,"name":"Uncletopia | Montréal | 4 | No Payload","name_short":"mtl-4","host":"mtl-1.ca.uncletopia.com","port":27045,"enabled":true,"region":"us-east","cc":"ca","latitude":45.50889,"longitude":-73.56167,"reserved":0,"last_update":"0001-01-01T00:00:00Z","name_a2s":"Uncletopia | Montréal | 4 | No Payload","protocol":17,"map":"koth_highpass","folder":"tf","game":"Team Fortress","app_id":440,"player_count":0,"max_players":24,"Bots":0,"server_type":"Dedicated","server_os":"Linux","password":true,"vac":true,"version":"7742253","steam_id":85568392924500090,"keywords":["cp","nocrits","nodmgspread","uncletopia"],"game_id":440,"stv_port":27046,"stv_name":"Uncletopia | Montréal | 4 | No Payload | STV","players":null},{"server_id":13,"name":"Uncletopia | New York City | 1 | All Maps","name_short":"nyc-1","host":"nyc-1.us.uncletopia.com","port":27015,"enabled":true,"region":"us-east","cc":"us","latitude":40.73061,"longitude":-73.93524,"reserved":0,"last_update":"0001-01-01T00:00:00Z","name_a2s":"Uncletopia | New York City | 1 | All Maps","protocol":17,"map":"cp_process_final","folder":"tf","game":"Team Fortress","app_id":440,"player_count":0,"max_players":24,"Bots":0,"server_type":"Dedicated","server_os":"Linux","password":true,"vac":true,"version":"7742253","steam_id":85568392924469993,"keywords":["cp","nocrits","nodmgspread","uncletopia"],"game_id":440,"stv_port":27016,"stv_name":"Uncletopia | New York City | 1 | All Maps | STV","players":null},{"server_id":14,"name":"Uncletopia | New York City | 2 | All Maps","name_short":"nyc-2","host":"nyc-1.us.uncletopia.com","port":27025,"enabled":true,"region":"us-east","cc":"us","latitude":40.73061,"longitude":-73.93524,"reserved":0,"last_update":"0001-01-01T00:00:00Z","name_a2s":"Uncletopia | New York City | 2 | All Maps","protocol":17,"map":"pl_borneo","folder":"tf","game":"Team Fortress","app_id":440,"player_count":0,"max_players":24,"Bots":0,"server_type":"Dedicated","server_os":"Linux","password":true,"vac":true,"version":"7742253","steam_id":85568392924469994,"keywords":["nocrits","nodmgspread","payload","uncletopia"],"game_id":440,"stv_port":27026,"stv_name":"Uncletopia | New York City | 2 | All Maps | STV","players":null},{"server_id":15,"name":"Uncletopia | New York City | 3 | Stopwatch Beta","name_short":"nyc-3","host":"nyc-1.us.uncletopia.com","port":27035,"enabled":true,"region":"us-east","cc":"us","latitude":40.73061,"longitude":-73.93524,"reserved":0,"last_update":"0001-01-01T00:00:00Z","name_a2s":"Uncletopia | New York City | 3 | Stopwatch Beta","protocol":17,"map":"cp_altitude","folder":"tf","game":"Team Fortress","app_id":440,"player_count":0,"max_players":24,"Bots":0,"server_type":"Dedicated","server_os":"Linux","password":true,"vac":true,"version":"7742253","steam_id":85568392924742820,"keywords":["cp","nocrits","nodmgspread","uncletopia"],"game_id":440,"stv_port":27036,"stv_name":"Uncletopia | New York City | 3 | Stopwatch Beta | STV","players":null},{"server_id":16,"name":"Uncletopia | New York City | 4 | Community","name_short":"nyc-4","host":"nyc-1.us.uncletopia.com","port":27045,"enabled":true,"region":"us-east","cc":"us","latitude":40.73061,"longitude":-73.93524,"reserved":0,"last_update":"0001-01-01T00:00:00Z","name_a2s":"Uncletopia | New York City | 4 | Community","protocol":17,"map":"pl_barnblitz","folder":"tf","game":"Team Fortress","app_id":440,"player_count":0,"max_players":24,"Bots":0,"server_type":"Dedicated","server_os":"Linux","password":true,"vac":true,"version":"7742253","steam_id":85568392924742821,"keywords":["nocrits","nodmgspread","payload","uncletopia"],"game_id":440,"stv_port":27046,"stv_name":"Uncletopia | New York City | 4 | Community | STV","players":null},{"server_id":142,"name":"Uncletopia | São Paulo | 1 | All Maps","name_short":"sao-1","host":"sao-1.br.uncletopia.com","port":27015,"enabled":true,"region":"sa","cc":"br","latitude":-23.533773,"longitude":-46.62529,"reserved":0,"last_update":"0001-01-01T00:00:00Z","name_a2s":"Uncletopia | São Paulo | 1 | All Maps","protocol":17,"map":"koth_highpass","folder":"tf","game":"Team Fortress","app_id":440,"player_count":0,"max_players":24,"Bots":0,"server_type":"Dedicated","server_os":"Linux","password":true,"vac":true,"version":"7742253","steam_id":85568392924469996,"keywords":["cp","nocrits","nodmgspread","uncletopia"],"game_id":440,"stv_port":27016,"stv_name":"Uncletopia | São Paulo | 1 | All Maps | STV","players":null},{"server_id":143,"name":"Uncletopia | São Paulo | 2 | All Maps","name_short":"sao-2","host":"sao-2.br.uncletopia.com","port":27015,"enabled":true,"region":"sa","cc":"br","latitude":-23.533773,"longitude":-46.62529,"reserved":0,"last_update":"0001-01-01T00:00:00Z","name_a2s":"Uncletopia | São Paulo | 2 | All Maps","protocol":17,"map":"pl_upward","folder":"tf","game":"Team Fortress","app_id":440,"player_count":0,"max_players":24,"Bots":0,"server_type":"Dedicated","server_os":"Linux","password":true,"vac":true,"version":"7742253","steam_id":85568392924485349,"keywords":["nocrits","nodmgspread","payload","uncletopia"],"game_id":440,"stv_port":27016,"stv_name":"Uncletopia | São Paulo | 2 | All Maps | STV","players":null},{"server_id":7,"name":"Uncletopia | Seattle | 1 | All Maps","name_short":"sea-1","host":"sea-1.us.uncletopia.com","port":27015,"enabled":true,"region":"us-west","cc":"us","latitude":47.608013,"longitude":-122.33517,"reserved":0,"last_update":"0001-01-01T00:00:00Z","name_a2s":"Uncletopia | Seattle | 1 | All Maps","protocol":17,"map":"koth_highpass","folder":"tf","game":"Team Fortress","app_id":440,"player_count":0,"max_players":24,"Bots":0,"server_type":"Dedicated","server_os":"Linux","password":true,"vac":true,"version":"7742253","steam_id":85568392924469997,"keywords":["cp","nocrits","nodmgspread","uncletopia"],"game_id":440,"stv_port":27016,"stv_name":"Uncletopia | Seattle | 1 | All Maps | STV","players":null},{"server_id":119,"name":"Uncletopia | Seattle | 2 | All Maps","name_short":"sea-2","host":"sea-1.us.uncletopia.com","port":27025,"enabled":true,"region":"us-west","cc":"us","latitude":47.608013,"longitude":-122.33517,"reserved":0,"last_update":"0001-01-01T00:00:00Z","name_a2s":"Uncletopia | Seattle | 2 | All Maps","protocol":17,"map":"koth_cascade","folder":"tf","game":"Team Fortress","app_id":440,"player_count":0,"max_players":24,"Bots":0,"server_type":"Dedicated","server_os":"Linux","password":true,"vac":true,"version":"7742253","steam_id":85568392924469998,"keywords":["cp","nocrits","nodmgspread","uncletopia"],"game_id":440,"stv_port":27026,"stv_name":"Uncletopia | Seattle | 2 | All Maps | STV","players":null},{"server_id":406,"name":"Uncletopia | Seattle | 3 | Stopwatch Beta","name_short":"sea-3","host":"sea-1.us.uncletopia.com","port":27035,"enabled":true,"region":"us-west","cc":"us","latitude":47.608013,"longitude":-122.33517,"reserved":0,"last_update":"0001-01-01T00:00:00Z","name_a2s":"Uncletopia | Seattle | 3 | Stopwatch Beta","protocol":17,"map":"pl_upward","folder":"tf","game":"Team Fortress","app_id":440,"player_count":0,"max_players":24,"Bots":0,"server_type":"Dedicated","server_os":"Linux","password":true,"vac":false,"version":"7742253","steam_id":0,"keywords":["nocrits","nodmgspread","payload","uncletopia"],"game_id":440,"stv_port":27036,"stv_name":"Uncletopia | Seattle | 3 | Stopwatch Beta | STV","players":null},{"server_id":17,"name":"Uncletopia | San Francisco | 1 | All Maps","name_short":"sfo-1","host":"sfo-1.us.uncletopia.com","port":27015,"enabled":true,"region":"us-west","cc":"us","latitude":37.77397,"longitude":-122.4313,"reserved":0,"last_update":"0001-01-01T00:00:00Z","name_a2s":"Uncletopia | San Francisco | 1 | All Maps","protocol":17,"map":"koth_highpass","folder":"tf","game":"Team Fortress","app_id":440,"player_count":0,"max_players":24,"Bots":0,"server_type":"Dedicated","server_os":"Linux","password":true,"vac":true,"version":"7742253","steam_id":85568392924469999,"keywords":["cp","nocrits","nodmgspread","uncletopia"],"game_id":440,"stv_port":27016,"stv_name":"Uncletopia | San Francisco | 1 | All Maps | STV","players":null},{"server_id":18,"name":"Uncletopia | San Francisco | 2 | All Maps","name_short":"sfo-2","host":"sfo-1.us.uncletopia.com","port":27025,"enabled":true,"region":"us-west","cc":"us","latitude":37.77397,"longitude":-122.4313,"reserved":0,"last_update":"0001-01-01T00:00:00Z","name_a2s":"Uncletopia | San Francisco | 2 | All Maps","protocol":17,"map":"koth_viaduct","folder":"tf","game":"Team Fortress","app_id":440,"player_count":0,"max_players":24,"Bots":0,"server_type":"Dedicated","server_os":"Linux","password":true,"vac":true,"version":"7742253","steam_id":85568392924470000,"keywords":["cp","nocrits","nodmgspread","uncletopia"],"game_id":440,"stv_port":27026,"stv_name":"Uncletopia | San Francisco | 2 | All Maps | STV","players":null},{"server_id":19,"name":"Uncletopia | San Francisco | 3 | Stopwatch Beta","name_short":"sfo-3","host":"sfo-1.us.uncletopia.com","port":27035,"enabled":true,"region":"us-west","cc":"us","latitude":37.77397,"longitude":-122.4313,"reserved":0,"last_update":"0001-01-01T00:00:00Z","name_a2s":"Uncletopia | San Francisco | 3 | Stopwatch Beta","protocol":17,"map":"cp_snakewater_final1","folder":"tf","game":"Team Fortress","app_id":440,"player_count":0,"max_players":24,"Bots":0,"server_type":"Dedicated","server_os":"Linux","password":true,"vac":true,"version":"7742253","steam_id":85568392924742824,"keywords":["cp","nocrits","nodmgspread","uncletopia"],"game_id":440,"stv_port":27036,"stv_name":"Uncletopia | San Francisco | 3 | Stopwatch Beta | STV","players":null},{"server_id":20,"name":"Uncletopia | San Francisco | 4 | Community","name_short":"sfo-4","host":"sfo-1.us.uncletopia.com","port":27045,"enabled":true,"region":"us-west","cc":"us","latitude":37.77397,"longitude":-122.4313,"reserved":0,"last_update":"0001-01-01T00:00:00Z","name_a2s":"Uncletopia | San Francisco | 4 | Community","protocol":17,"map":"workshop/koth_ashville_final.ugc2130459942","folder":"tf","game":"Team Fortress","app_id":440,"player_count":0,"max_players":24,"Bots":0,"server_type":"Dedicated","server_os":"Linux","password":true,"vac":true,"version":"7742253","steam_id":85568392924742826,"keywords":["cp","nocrits","nodmgspread","uncletopia"],"game_id":440,"stv_port":27046,"stv_name":"Uncletopia | San Francisco | 4 | Community | STV","players":null},{"server_id":141,"name":"Uncletopia | Sydney | 1 | All Maps","name_short":"syd-1","host":"syd-1.au.uncletopia.com","port":27015,"enabled":true,"region":"au","cc":"au","latitude":-33.865143,"longitude":151.2099,"reserved":0,"last_update":"0001-01-01T00:00:00Z","name_a2s":"Uncletopia | Sydney | 1 | All Maps","protocol":17,"map":"cp_steel","folder":"tf","game":"Team Fortress","app_id":440,"player_count":24,"max_players":24,"Bots":0,"server_type":"Dedicated","server_os":"Linux","password":true,"vac":true,"version":"7742253","steam_id":85568392924470001,"keywords":["cp","nocrits","nodmgspread","uncletopia"],"game_id":440,"stv_port":27016,"stv_name":"Uncletopia | Sydney | 1 | All Maps | STV","players":[{"user_id":302,"name":"krandlez` (Any/All)","steam_id":76561198044839726,"connected_time":1425000000000,"state":"active","ping":44},{"user_id":269,"name":"LightningBlock","steam_id":76561198289997742,"connected_time":4789000000000,"state":"active","ping":44},{"user_id":317,"name":"ZaEpicScout205","steam_id":76561198170693338,"connected_time":417000000000,"state":"active","ping":85},{"user_id":235,"name":"whiteshaq","steam_id":76561198131988811,"connected_time":7587000000000,"state":"active","ping":77},{"user_id":321,"name":"2200","steam_id":76561198048634605,"connected_time":230000000000,"state":"active","ping":47},{"user_id":322,"name":"Eldritch Horror Dexter","steam_id":76561198017793171,"connected_time":206000000000,"state":"active","ping":57},{"user_id":276,"name":"The Aquatic Rocksman","steam_id":76561199169690896,"connected_time":4020000000000,"state":"active","ping":53},{"user_id":303,"name":"SWAG DRAGON","steam_id":76561197960279341,"connected_time":1425000000000,"state":"active","ping":58},{"user_id":201,"name":"ุbifcheg","steam_id":76561198319806610,"connected_time":10033000000000,"state":"active","ping":60},{"user_id":272,"name":"Random Terrorist™","steam_id":76561198056753419,"connected_time":4546000000000,"state":"active","ping":51},{"user_id":219,"name":"Swaggeroth","steam_id":76561198084066189,"connected_time":8632000000000,"state":"active","ping":43},{"user_id":314,"name":"vrooom","steam_id":76561198075376393,"connected_time":464000000000,"state":"active","ping":59},{"user_id":323,"name":"XelenHost","steam_id":76561198019712304,"connected_time":119000000000,"state":"active","ping":332},{"user_id":274,"name":"tim88435","steam_id":76561198089653987,"connected_time":4253000000000,"state":"active","ping":48},{"user_id":291,"name":"yohkes","steam_id":76561198053942284,"connected_time":2775000000000,"state":"active","ping":44},{"user_id":294,"name":"Punished \"Venom\" Snake","steam_id":76561198057959073,"connected_time":2036000000000,"state":"active","ping":70},{"user_id":279,"name":"East","steam_id":76561197998179587,"connected_time":3980000000000,"state":"active","ping":97},{"user_id":290,"name":"Dame Da Ne Guy","steam_id":76561198145027367,"connected_time":2887000000000,"state":"active","ping":56},{"user_id":293,"name":"bro","steam_id":76561198310908346,"connected_time":2186000000000,"state":"active","ping":60},{"user_id":307,"name":"saladjones","steam_id":76561198825782657,"connected_time":1354000000000,"state":"active","ping":66},{"user_id":310,"name":"kief","steam_id":76561198201371959,"connected_time":635000000000,"state":"active","ping":97},{"user_id":292,"name":"Mungbean","steam_id":76561198192300679,"connected_time":2515000000000,"state":"active","ping":78},{"user_id":324,"name":"kweshuu","steam_id":76561199282412024,"connected_time":0,"state":"connecting","ping":0},{"user_id":299,"name":"Jerry be packin","steam_id":76561199229962568,"connected_time":1452000000000,"state":"active","ping":52}]},{"server_id":123,"name":"Uncletopia | Sydney | 2 | All Maps","name_short":"syd-2","host":"syd-1.au.uncletopia.com","port":27025,"enabled":true,"region":"au","cc":"au","latitude":-33.865143,"longitude":151.2099,"reserved":0,"last_update":"0001-01-01T00:00:00Z","name_a2s":"Uncletopia | Sydney | 2 | All Maps","protocol":17,"map":"pl_badwater","folder":"tf","game":"Team Fortress","app_id":440,"player_count":0,"max_players":24,"Bots":0,"server_type":"Dedicated","server_os":"Linux","password":true,"vac":true,"version":"7742253","steam_id":85568392924470002,"keywords":["nocrits","nodmgspread","payload","uncletopia"],"game_id":440,"stv_port":27026,"stv_name":"Uncletopia | Sydney | 2 | All Maps | STV","players":null},{"server_id":395,"name":"Uncletopia | Sydney | 3 | All Maps","name_short":"syd-3","host":"syd-1.au.uncletopia.com","port":27035,"enabled":true,"region":"au","cc":"au","latitude":-33.865143,"longitude":151.2099,"reserved":0,"last_update":"0001-01-01T00:00:00Z","name_a2s":"Uncletopia | Sydney | 3 | All Maps","protocol":17,"map":"koth_lakeside_final","folder":"tf","game":"Team Fortress","app_id":440,"player_count":0,"max_players":24,"Bots":0,"server_type":"Dedicated","server_os":"Linux","password":true,"vac":true,"version":"7742253","steam_id":85568392925194467,"keywords":["cp","nocrits","nodmgspread","uncletopia"],"game_id":440,"stv_port":27036,"stv_name":"Uncletopia | Sydney | 3 | All Maps | STV","players":null},{"server_id":396,"name":"Uncletopia | Sydney | 4 | All Maps","name_short":"syd-4","host":"syd-1.au.uncletopia.com","port":27045,"enabled":true,"region":"au","cc":"au","latitude":-33.865143,"longitude":151.2099,"reserved":0,"last_update":"0001-01-01T00:00:00Z","name_a2s":"Uncletopia | Sydney | 4 | All Maps","protocol":17,"map":"koth_viaduct","folder":"tf","game":"Team Fortress","app_id":440,"player_count":0,"max_players":24,"Bots":0,"server_type":"Dedicated","server_os":"Linux","password":true,"vac":true,"version":"7742253","steam_id":85568392925397958,"keywords":["cp","nocrits","nodmgspread","uncletopia"],"game_id":440,"stv_port":27046,"stv_name":"Uncletopia | Sydney | 4 | All Maps | STV","players":null},{"server_id":58,"name":"Uncletopia | Sydney | 5 | Stopwatch Beta","name_short":"syd-5","host":"syd-1.au.uncletopia.com","port":27055,"enabled":true,"region":"au","cc":"au","latitude":-33.865143,"longitude":151.2099,"reserved":0,"last_update":"0001-01-01T00:00:00Z","name_a2s":"Uncletopia | Sydney | 5 | Stopwatch Beta","protocol":17,"map":"cp_snakewater_final1","folder":"tf","game":"Team Fortress","app_id":440,"player_count":0,"max_players":24,"Bots":0,"server_type":"Dedicated","server_os":"Linux","password":true,"vac":true,"version":"7742253","steam_id":85568392925397959,"keywords":["cp","nocrits","nodmgspread","uncletopia"],"game_id":440,"stv_port":27056,"stv_name":"Uncletopia | Sydney | 5 | Stopwatch Beta | STV","players":null},{"server_id":59,"name":"Uncletopia | Sydney | 6 | Community","name_short":"syd-6","host":"syd-1.au.uncletopia.com","port":27065,"enabled":true,"region":"au","cc":"au","latitude":-33.865143,"longitude":151.2099,"reserved":0,"last_update":"0001-01-01T00:00:00Z","name_a2s":"Uncletopia | Sydney | 6 | Community","protocol":17,"map":"workshop/koth_product_final.ugc454272353","folder":"tf","game":"Team Fortress","app_id":440,"player_count":0,"max_players":24,"Bots":0,"server_type":"Dedicated","server_os":"Linux","password":true,"vac":true,"version":"7742253","steam_id":85568392925397960,"keywords":["cp","nocrits","nodmgspread","uncletopia"],"game_id":440,"stv_port":27066,"stv_name":"Uncletopia | Sydney | 6 | Community | STV","players":null},{"server_id":49,"name":"Uncletopia | Warsaw | 1 | All Maps","name_short":"waw-1","host":"waw-1.pl.uncletopia.com","port":27015,"enabled":true,"region":"eu","cc":"pl","latitude":52.2297,"longitude":21.017532,"reserved":0,"last_update":"0001-01-01T00:00:00Z","name_a2s":"","protocol":0,"map":"","folder":"","game":"","app_id":0,"player_count":0,"max_players":0,"Bots":0,"server_type":"","server_os":"","password":false,"vac":false,"version":"","steam_id":0,"keywords":null,"game_id":0,"stv_port":0,"stv_name":"","players":null},{"server_id":50,"name":"Uncletopia | Warsaw | 2 | All Maps","name_short":"waw-2","host":"waw-1.pl.uncletopia.com","port":27025,"enabled":true,"region":"eu","cc":"pl","latitude":52.2297,"longitude":21.017532,"reserved":0,"last_update":"0001-01-01T00:00:00Z","name_a2s":"Uncletopia | Warsaw | 2 | All Maps","protocol":17,"map":"pl_barnblitz","folder":"tf","game":"Team Fortress","app_id":440,"player_count":0,"max_players":24,"Bots":0,"server_type":"Dedicated","server_os":"Linux","password":true,"vac":true,"version":"7742253","steam_id":85568392925397851,"keywords":["nocrits","nodmgspread","payload","uncletopia"],"game_id":440,"stv_port":27026,"stv_name":"Uncletopia | Warsaw | 2 | All Maps | STV","players":null},{"server_id":51,"name":"Uncletopia | Warsaw | 3 | All Maps","name_short":"waw-3","host":"waw-1.pl.uncletopia.com","port":27035,"enabled":true,"region":"eu","cc":"pl","latitude":52.2297,"longitude":21.017532,"reserved":0,"last_update":"0001-01-01T00:00:00Z","name_a2s":"Uncletopia | Warsaw | 3 | All Maps","protocol":17,"map":"pl_swiftwater_final1","folder":"tf","game":"Team Fortress","app_id":440,"player_count":0,"max_players":24,"Bots":0,"server_type":"Dedicated","server_os":"Linux","password":true,"vac":true,"version":"7742253","steam_id":85568392925397852,"keywords":["nocrits","nodmgspread","payload","uncletopia"],"game_id":440,"stv_port":27036,"stv_name":"Uncletopia | Warsaw | 3 | All Maps | STV","players":null},{"server_id":52,"name":"Uncletopia | Warsaw | 4 | All Maps","name_short":"waw-4","host":"waw-1.pl.uncletopia.com","port":27045,"enabled":true,"region":"eu","cc":"pl","latitude":52.2297,"longitude":21.017532,"reserved":0,"last_update":"0001-01-01T00:00:00Z","name_a2s":"Uncletopia | Warsaw | 4 | All Maps","protocol":17,"map":"pl_swiftwater_final1","folder":"tf","game":"Team Fortress","app_id":440,"player_count":0,"max_players":24,"Bots":0,"server_type":"Dedicated","server_os":"Linux","password":true,"vac":true,"version":"7742253","steam_id":85568392925397853,"keywords":["nocrits","nodmgspread","payload","uncletopia"],"game_id":440,"stv_port":27046,"stv_name":"Uncletopia | Warsaw | 4 | All Maps | STV","players":null},{"server_id":53,"name":"Uncletopia | Warsaw | 5 | Stopwatch Beta","name_short":"waw-5","host":"waw-1.pl.uncletopia.com","port":27055,"enabled":true,"region":"eu","cc":"pl","latitude":52.2297,"longitude":21.017532,"reserved":0,"last_update":"0001-01-01T00:00:00Z","name_a2s":"Uncletopia | Warsaw | 5 | Stopwatch Beta","protocol":17,"map":"pl_pier","folder":"tf","game":"Team Fortress","app_id":440,"player_count":0,"max_players":24,"Bots":0,"server_type":"Dedicated","server_os":"Linux","password":true,"vac":true,"version":"7742253","steam_id":85568392925397854,"keywords":["nocrits","nodmgspread","payload","uncletopia"],"game_id":440,"stv_port":27056,"stv_name":"Uncletopia | Warsaw | 5 | Stopwatch Beta | STV","players":null},{"server_id":54,"name":"Uncletopia | Warsaw | 6 | Community","name_short":"waw-6","host":"waw-1.pl.uncletopia.com","port":27065,"enabled":true,"region":"eu","cc":"pl","latitude":52.2297,"longitude":21.017532,"reserved":0,"last_update":"0001-01-01T00:00:00Z","name_a2s":"Uncletopia | Warsaw | 6 | Community","protocol":17,"map":"cp_sunshine","folder":"tf","game":"Team Fortress","app_id":440,"player_count":0,"max_players":24,"Bots":0,"server_type":"Dedicated","server_os":"Linux","password":true,"vac":true,"version":"7742253","steam_id":85568392925397856,"keywords":["cp","nocrits","nodmgspread","uncletopia"],"game_id":440,"stv_port":27066,"stv_name":"Uncletopia | Warsaw | 6 | Community | STV","players":null}]}