{"status":true,"message":"","result":[{"server_id":9,"name":"Uncletopia | Atlanta | 1 | All Maps","name_short":"atl-1","host":"atl-1.us.uncletopia.com","port":27015,"enabled":true,"region":"us-east","cc":"us","latitude":33.753746,"longitude":-84.38633,"reserved":0,"last_update":"0001-01-01T00:00:00Z","name_a2s":"Uncletopia | Atlanta | 1 | All Maps","protocol":17,"map":"cp_dustbowl","folder":"tf","game":"Team Fortress","app_id":440,"player_count":24,"max_players":24,"Bots":0,"server_type":"Dedicated","server_os":"Linux","password":true,"vac":true,"version":"7757534","steam_id":85568392924469982,"keywords":["cp","nocrits","nodmgspread","uncletopia"],"game_id":440,"stv_port":27016,"stv_name":"Uncletopia | Atlanta | 1 | All Maps | STV","players":[{"user_id":282,"name":"jordxn","steam_id":76561198117505303,"connected_time":804000000000,"state":"active","ping":78},{"user_id":289,"name":"AverageSandwich","steam_id":76561199474528163,"connected_time":489000000000,"state":"active","ping":115},{"user_id":288,"name":"mayhem","steam_id":76561199246637881,"connected_time":562000000000,"state":"active","ping":54},{"user_id":280,"name":"melancholy","steam_id":76561198024301465,"connected_time":957000000000,"state":"active","ping":44},{"user_id":274,"name":"luxin","steam_id":76561198399383047,"connected_time":1147000000000,"state":"active","ping":48},{"user_id":211,"name":"Brown_Dream","steam_id":76561198975766145,"connected_time":5830000000000,"state":"active","ping":73},{"user_id":245,"name":"Scrumlet","steam_id":76561198339806643,"connected_time":3356000000000,"state":"active","ping":81},{"user_id":209,"name":"‚áå | œütriKeR | ‚áã","steam_id":76561199389089862,"connected_time":5865000000000,"state":"active","ping":136},{"user_id":251,"name":"Duckywinner","steam_id":76561198254828139,"connected_time":2967000000000,"state":"active","ping":63},{"user_id":154,"name":"Ashes!","steam_id":76561197998475441,"connected_time":10264000000000,"state":"active","ping":76},{"user_id":283,"name":"Prd_cz","steam_id":76561199090455570,"connected_time":802000000000,"state":"active","ping":161},{"user_id":295,"name":"mr. gomble","steam_id":76561198353865966,"connected_time":92000000000,"state":"active","ping":80},{"user_id":276,"name":"athletesfoot","steam_id":76561197997331867,"connected_time":1127000000000,"state":"active","ping":60},{"user_id":269,"name":"HarryjusttHarry","steam_id":76561198982810452,"connected_time":1317000000000,"state":"active","ping":71},{"user_id":267,"name":"Riptide","steam_id":76561198164930435,"connected_time":1338000000000,"state":"active","ping":59},{"user_id":290,"name":"Kelly Clarkson","steam_id":76561198250330566,"connected_time":465000000000,"state":"active","ping":103},{"user_id":294,"name":"namisimp102","steam_id":76561198166710027,"connected_time":104000000000,"state":"active","ping":46},{"user_id":277,"name":"TI-83 Plus","steam_id":76561198316134443,"connected_time":1084000000000,"state":"active","ping":66},{"user_id":284,"name":"silentpieceofbacon","steam_id":76561198869323351,"connected_time":787000000000,"state":"active","ping":82},{"user_id":287,"name":"Squish #1","steam_id":76561198087713516,"connected_time":691000000000,"state":"active","ping":57},{"user_id":271,"name":"GunManWIllSTabYou#SaveTf2","steam_id":76561199045277311,"connected_time":1228000000000,"state":"active","ping":73},{"user_id":292,"name":"Dabbledornk","steam_id":76561198065241300,"connected_time":422000000000,"state":"active","ping":47},{"user_id":296,"name":"wife","steam_id":76561198141795632,"connected_time":89000000000,"state":"active","ping":59},{"user_id":279,"name":"Ellis","steam_id":76561198993634489,"connected_time":1072000000000,"state":"active","ping":106}]},{"server_id":400,"name":"Uncletopia | Atlanta | 3 | Community","name_short":"atl-3","host":"atl-1.us.uncletopia.com","port":27035,"enabled":true,"region":"us-east","cc":"us","latitude":33.753746,"longitude":-84.38633,"reserved":0,"last_update":"0001-01-01T00:00:00Z","name_a2s":"Uncletopia | Atlanta | 3 | Community","protocol":17,"map":"workshop/pl_corrode_rc2.ugc546577989","folder":"tf","game":"Team Fortress","app_id":440,"player_count":3,"max_players":24,"Bots":0,"server_type":"Dedicated","server_os":"Linux","password":true,"vac":true,"version":"7757534","steam_id":85568392924515187,"keywords":["nocrits","nodmgspread","payload","uncletopia"],"game_id":440,"stv_port":27036,"stv_name":"Uncletopia | Atlanta | 3 | Community | STV","players":[{"user_id":6,"name":"Greasy Ricky","steam_id":76561198301468342,"connected_time":268000000000,"state":"active","ping":68},{"user_id":7,"name":"Crime McGyi","steam_id":76561198063997260,"connected_time":247000000000,"state":"active","ping":78},{"user_id":8,"name":"Slippin Jimmy","steam_id":76561199018147171,"connected_time":242000000000,"state":"spawning","ping":416}]},{"server_id":401,"name":"Uncletopia | Atlanta | 4 | No Payload","name_short":"atl-4","host":"atl-1.us.uncletopia.com","port":27045,"enabled":true,"region":"us-east","cc":"us","latitude":33.753746,"longitude":-84.38633,"reserved":0,"last_update":"0001-01-01T00:00:00Z","name_a2s":"","protocol":0,"map":"","folder":"","game":"","app_id":0,"player_count":0,"max_players":0,"Bots":0,"server_type":"","server_os":"","password":false,"vac":false,"version":"","steam_id":0,"keywords":null,"game_id":0,"stv_port":0,"stv_name":"","players":null},{"server_id":2,"name":"Uncletopia | Chicago | 1 | All Maps","name_short":"chi-1","host":"chi-1.us.uncletopia.com","port":27015,"enabled":true,"region":"us-central","cc":"us","latitude":41.881832,"longitude":-87.62318,"reserved":0,"last_update":"0001-01-01T00:00:00Z","name_a2s":"Uncletopia | Chicago | 1 | All Maps","protocol":17,"map":"pl_badwater","folder":"tf","game":"Team Fortress","app_id":440,"player_count":24,"max_players":24,"Bots":0,"server_type":"Dedicated","server_os":"Linux","password":true,"vac":true,"version":"7757534","steam_id":85568392924469984,"keywords":["nocrits","nodmgspread","payload","uncletopia"],"game_id":440,"stv_port":27016,"stv_name":"Uncletopia | Chicago | 1 | All Maps | STV","players":[{"user_id":430,"name":"Cousin Corn on the Cob","steam_id":76561198049837377,"connected_time":3255000000000,"state":"active","ping":49},{"user_id":449,"name":"ali oop","steam_id":76561198057516213,"connected_time":1815000000000,"state":"active","ping":83},{"user_id":368,"name":"tyg","steam_id":76561198056246867,"connected_time":8275000000000,"state":"active","ping":68},{"user_id":470,"name":"GPLv2","steam_id":76561198113096772,"connected_time":700000000000,"state":"active","ping":120},{"user_id":435,"name":"OrionKid","steam_id":76561198359094901,"connected_time":2551000000000,"state":"active","ping":70},{"user_id":432,"name":"chloe","steam_id":76561198369849908,"connected_time":2577000000000,"state":"active","ping":71},{"user_id":468,"name":"Weerk","steam_id":76561199209543551,"connected_time":705000000000,"state":"active","ping":76},{"user_id":391,"name":"Valerie","steam_id":76561198243188782,"connected_time":6524000000000,"state":"active","ping":78},{"user_id":466,"name":"bary","steam_id":76561197988317087,"connected_time":808000000000,"state":"active","ping":68},{"user_id":469,"name":"IPlayGamez","steam_id":76561198041387508,"connected_time":701000000000,"state":"active","ping":68},{"user_id":477,"name":"Cartwright","steam_id":76561197975491705,"connected_time":660000000000,"state":"active","ping":93},{"user_id":461,"name":"Spex","steam_id":76561198404566859,"connected_time":1286000000000,"state":"active","ping":71},{"user_id":467,"name":"Iron Argus","steam_id":76561198181088245,"connected_time":745000000000,"state":"active","ping":60},{"user_id":480,"name":"Grand Piano Tuna","steam_id":76561198135137213,"connected_time":417000000000,"state":"active","ping":71},{"user_id":472,"name":"dog flattening machine","steam_id":76561198122487460,"connected_time":685000000000,"state":"active","ping":75},{"user_id":478,"name":"ItsDifficultttt","steam_id":76561199402730529,"connected_time":630000000000,"state":"active","ping":81},{"user_id":473,"name":"Tito McMan","steam_id":76561198068901630,"connected_time":683000000000,"state":"active","ping":103},{"user_id":474,"name":"Spointy","steam_id":76561198080556773,"connected_time":678000000000,"state":"active","ping":71},{"user_id":475,"name":"leumas","steam_id":76561198240408540,"connected_time":678000000000,"state":"active","ping":57},{"user_id":446,"name":"Apollite","steam_id":76561198071669801,"connected_time":2081000000000,"state":"active","ping":62},{"user_id":476,"name":"chanoc","steam_id":76561198026734746,"connected_time":676000000000,"state":"active","ping":103},{"user_id":479,"name":"catfish from toontown","steam_id":76561198060070002,"connected_time":606000000000,"state":"active","ping":73},{"user_id":481,"name":"hummus in my tummus","steam_id":76561199438698036,"connected_time":339000000000,"state":"active","ping":48},{"user_id":459,"name":"kivee","steam_id":76561198838223023,"connected_time":1351000000000,"state":"active","ping":46}]},{"server_id":106,"name":"Uncletopia | Chicago | 2 | All Maps","name_short":"chi-2","host":"chi-1.us.uncletopia.com","port":27025,"enabled":true,"region":"us-central","cc":"us","latitude":41.881832,"longitude":-87.62318,"reserved":0,"last_update":"0001-01-01T00:00:00Z","name_a2s":"Uncletopia | Chicago | 2 | All Maps","protocol":17,"map":"pl_badwater","folder":"tf","game":"Team Fortress","app_id":440,"player_count":24,"max_players":24,"Bots":0,"server_type":"Dedicated","server_os":"Linux","password":true,"vac":true,"version":"7757534","steam_id":85568392924469985,"keywords":["nocrits","nodmgspread","payload","uncletopia"],"game_id":440,"stv_port":27026,"stv_name":"Uncletopia | Chicago | 2 | All Maps | STV","players":[{"user_id":497,"name":"THRILLHO","steam_id":76561198371663047,"connected_time":335000000000,"state":"active","ping":57},{"user_id":473,"name":"4 life","steam_id":76561198175961598,"connected_time":2187000000000,"state":"active","ping":110},{"user_id":489,"name":"‚òº  gamble","steam_id":76561198074180953,"connected_time":1101000000000,"state":"active","ping":65},{"user_id":475,"name":"Bubz","steam_id":76561199013499631,"connected_time":2156000000000,"state":"active","ping":86},{"user_id":502,"name":"Steen","steam_id":76561198122992510,"connected_time":217000000000,"state":"active","ping":135},{"user_id":491,"name":"[OC2TM] CF-TF2","steam_id":76561198145893044,"connected_time":1005000000000,"state":"active","ping":76},{"user_id":495,"name":"Rein","steam_id":76561198300340427,"connected_time":347000000000,"state":"active","ping":67},{"user_id":485,"name":"Prison Sal","steam_id":76561198355553673,"connected_time":1697000000000,"state":"active","ping":57},{"user_id":478,"name":"Coffee with a Stranger","steam_id":76561198307422313,"connected_time":2146000000000,"state":"active","ping":73},{"user_id":464,"name":"98","steam_id":76561198134813102,"connected_time":2430000000000,"state":"active","ping":59},{"user_id":433,"name":"Anti spawn jumper pyro","steam_id":76561198085815757,"connected_time":5429000000000,"state":"active","ping":67},{"user_id":470,"name":"suckmycock47","steam_id":76561198063099828,"connected_time":2250000000000,"state":"active","ping":48},{"user_id":494,"name":"mmmm im grooving","steam_id":76561198406252824,"connected_time":636000000000,"state":"active","ping":104},{"user_id":427,"name":"creeeeeee","steam_id":76561198392539722,"connected_time":5724000000000,"state":"active","ping":78},{"user_id":467,"name":"zavala = smurf","steam_id":76561198249206656,"connected_time":2369000000000,"state":"active","ping":76},{"user_id":496,"name":"The Land Admiral","steam_id":76561198159356609,"connected_time":341000000000,"state":"active","ping":77},{"user_id":480,"name":"[ŸäŸáŸàÿØŸä] Bill Clinton [◊ê◊ú","steam_id":76561198163291190,"connected_time":2078000000000,"state":"active","ping":89},{"user_id":507,"name":"bear","steam_id":76561198313696546,"connected_time":7000000000,"state":"active","ping":137},{"user_id":498,"name":"JacripspyVulcano","steam_id":76561198966980576,"connected_time":332000000000,"state":"active","ping":66},{"user_id":503,"name":"battle clown","steam_id":76561198045788371,"connected_time":142000000000,"state":"active","ping":91},{"user_id":414,"name":"Eden","steam_id":76561198075587475,"connected_time":7240000000000,"state":"active","ping":42},{"user_id":488,"name":"Doom","steam_id":76561197982099794,"connected_time":1498000000000,"state":"active","ping":64},{"user_id":431,"name":"The Drunk Clown","steam_id":76561197986850426,"connected_time":5441000000000,"state":"active","ping":75},{"user_id":483,"name":"Moizturized","steam_id":76561198873850038,"connected_time":1940000000000,"state":"active","ping":75}]},{"server_id":402,"name":"Uncletopia | Chicago | 3 | All Maps","name_short":"chi-3","host":"chi-1.us.uncletopia.com","port":27035,"enabled":true,"region":"us-central","cc":"us","latitude":41.881832,"longitude":-87.62318,"reserved":0,"last_update":"0001-01-01T00:00:00Z","name_a2s":"Uncletopia | Chicago | 3 | All Maps","protocol":17,"map":"koth_cascade","folder":"tf","game":"Team Fortress","app_id":440,"player_count":0,"max_players":24,"Bots":0,"server_type":"Dedicated","server_os":"Linux","password":true,"vac":true,"version":"7757534","steam_id":85568392924515191,"keywords":["cp","nocrits","nodmgspread","uncletopia"],"game_id":440,"stv_port":27036,"stv_name":"Uncletopia | Chicago | 3 | All Maps | STV","players":null},{"server_id":403,"name":"Uncletopia | Chicago | 4 | All Maps","name_short":"chi-4","host":"chi-1.us.uncletopia.com","port":27045,"enabled":true,"region":"us-central","cc":"us","latitude":41.881832,"longitude":-87.62318,"reserved":0,"last_update":"0001-01-01T00:00:00Z","name_a2s":"Uncletopia | Chicago | 4 | All Maps","protocol":17,"map":"pl_pier","folder":"tf","game":"Team Fortress","app_id":440,"player_count":24,"max_players":24,"Bots":0,"server_type":"Dedicated","server_os":"Linux","password":true,"vac":true,"version":"7757534","steam_id":85568392924515193,"keywords":["nocrits","nodmgspread","payload","uncletopia"],"game_id":440,"stv_port":27046,"stv_name":"Uncletopia | Chicago | 4 | All Maps | STV","players":[{"user_id":351,"name":"j - „Éï„É©„Ç§„Éâ„ÉÅ„Ç≠„É≥","steam_id":76561198061224922,"connected_time":433000000000,"state":"active","ping":75},{"user_id":349,"name":"Snimca","steam_id":76561198453519709,"connected_time":494000000000,"state":"active","ping":66},{"user_id":355,"name":"there is cum in my ramen","steam_id":76561198059815894,"connected_time":115000000000,"state":"active","ping":56},{"user_id":339,"name":"Ekoh2wo","steam_id":76561198067994868,"connected_time":1344000000000,"state":"active","ping":69},{"user_id":307,"name":"Ejaculation Zach","steam_id":76561198203765200,"connected_time":4371000000000,"state":"active","ping":66},{"user_id":357,"name":"Antwan","steam_id":76561198246200638,"connected_time":48000000000,"state":"active","ping":62},{"user_id":311,"name":"my palisman would be a polarbea","steam_id":76561199060224916,"connected_time":4026000000000,"state":"active","ping":109},{"user_id":350,"name":"floofy","steam_id":76561198389769098,"connected_time":463000000000,"state":"active","ping":78},{"user_id":314,"name":"Admiral Crumbs","steam_id":76561198108791583,"connected_time":3342000000000,"state":"active","ping":66},{"user_id":320,"name":"jorjor wells","steam_id":76561199073429082,"connected_time":3089000000000,"state":"active","ping":62},{"user_id":298,"name":"Cheeeeeeeen","steam_id":76561198986388085,"connected_time":4741000000000,"state":"active","ping":107},{"user_id":340,"name":"sAven","steam_id":76561198139343389,"connected_time":1324000000000,"state":"active","ping":50},{"user_id":324,"name":"Bee","steam_id":76561198074681324,"connected_time":2522000000000,"state":"active","ping":57},{"user_id":347,"name":"alolan duntski","steam_id":76561198038826744,"connected_time":929000000000,"state":"active","ping":57},{"user_id":334,"name":"Sal955","steam_id":76561198297487966,"connected_time":1668000000000,"state":"active","ping":75},{"user_id":325,"name":"pizzaroger2003 #savejulia","steam_id":76561198179785873,"connected_time":2069000000000,"state":"active","ping":79},{"user_id":331,"name":"silly little feller","steam_id":76561198041975003,"connected_time":1844000000000,"state":"active","ping":78},{"user_id":299,"name":"Stumblin' in","steam_id":76561198119826352,"connected_time":4705000000000,"state":"active","ping":75},{"user_id":354,"name":"Waluigi","steam_id":76561198891626233,"connected_time":145000000000,"state":"active","ping":65},{"user_id":313,"name":"SSBM Pelican","steam_id":76561198040697907,"connected_time":3779000000000,"state":"active","ping":77},{"user_id":321,"name":"Fake Uncle","steam_id":76561198880227689,"connected_time":2908000000000,"state":"active","ping":66},{"user_id":332,"name":"wheres my drink?","steam_id":76561198031675881,"connected_time":1835000000000,"state":"active","ping":53},{"user_id":318,"name":"when the oob hits","steam_id":76561198277163301,"connected_time":3123000000000,"state":"active","ping":68},{"user_id":345,"name":"Peopledbear52","steam_id":76561198126449338,"connected_time":1116000000000,"state":"active","ping":109}]},{"server_id":36,"name":"Uncletopia | Chicago | 5 | All Maps","name_short":"chi-5","host":"chi-2.us.uncletopia.com","port":27015,"enabled":true,"region":"us-central","cc":"us","latitude":41.881832,"longitude":-87.62318,"reserved":0,"last_update":"0001-01-01T00:00:00Z","name_a2s":"Uncletopia | Chicago | 5 | All Maps","protocol":17,"map":"koth_lakeside_final","folder":"tf","game":"Team Fortress","app_id":440,"player_count":0,"max_players":24,"Bots":0,"server_type":"Dedicated","server_os":"Linux","password":true,"vac":true,"version":"7757534","steam_id":85568392924866362,"keywords":["cp","nocrits","nodmgspread","uncletopia"],"game_id":440,"stv_port":27016,"stv_name":"Uncletopia | Chicago | 5 | All Maps | STV","players":null},{"server_id":37,"name":"Uncletopia | Chicago | 6 | All Maps","name_short":"chi-6","host":"chi-2.us.uncletopia.com","port":27025,"enabled":true,"region":"us-central","cc":"us","latitude":41.881832,"longitude":-87.62318,"reserved":0,"last_update":"0001-01-01T00:00:00Z","name_a2s":"Uncletopia | Chicago | 6 | All Maps","protocol":17,"map":"cp_dustbowl","folder":"tf","game":"Team Fortress","app_id":440,"player_count":0,"max_players":24,"Bots":0,"server_type":"Dedicated","server_os":"Linux","password":true,"vac":true,"version":"7757534","steam_id":85568392924866363,"keywords":["cp","nocrits","nodmgspread","uncletopia"],"game_id":440,"stv_port":27026,"stv_name":"Uncletopia | Chicago | 6 | All Maps | STV","players":null},{"server_id":38,"name":"Uncletopia | Chicago | 7 | Stopwatch Beta","name_short":"chi-7","host":"chi-2.us.uncletopia.com","port":27035,"enabled":true,"region":"us-central","cc":"us","latitude":41.881832,"longitude":-87.62318,"reserved":0,"last_update":"0001-01-01T00:00:00Z","name_a2s":"Uncletopia | Chicago | 7 | Stopwatch Beta","protocol":17,"map":"workshop/koth_bagel_rc6.ugc2514036946","folder":"tf","game":"Team Fortress","app_id":440,"player_count":0,"max_players":24,"Bots":0,"server_type":"Dedicated","server_os":"Linux","password":true,"vac":true,"version":"7757534","steam_id":85568392924866364,"keywords":["cp","nocrits","nodmgspread","uncletopia"],"game_id":440,"stv_port":27036,"stv_name":"Uncletopia | Chicago | 7 | Stopwatch Beta | STV","players":null},{"server_id":39,"name":"Uncletopia | Chicago | 8 | Community","name_short":"chi-8","host":"chi-2.us.uncletopia.com","port":27045,"enabled":true,"region":"us-central","cc":"us","latitude":41.881832,"longitude":-87.62318,"reserved":0,"last_update":"0001-01-01T00:00:00Z","name_a2s":"Uncletopia | Chicago | 8 | Community","protocol":17,"map":"koth_lakeside_final","folder":"tf","game":"Team Fortress","app_id":440,"player_count":0,"max_players":24,"Bots":0,"server_type":"Dedicated","server_os":"Linux","password":true,"vac":true,"version":"7757534","steam_id":85568392924866365,"keywords":["cp","nocrits","nodmgspread","uncletopia"],"game_id":440,"stv_port":27046,"stv_name":"Uncletopia | Chicago | 8 | Community | STV","players":null},{"server_id":8,"name":"Uncletopia | Dallas | 1 | All Maps","name_short":"dal-1","host":"dal-1.us.uncletopia.com","port":27015,"enabled":true,"region":"us-central","cc":"us","latitude":32.779167,"longitude":-96.80889,"reserved":0,"last_update":"0001-01-01T00:00:00Z","name_a2s":"Uncletopia | Dallas | 1 | All Maps","protocol":17,"map":"pl_upward","folder":"tf","game":"Team Fortress","app_id":440,"player_count":24,"max_players":24,"Bots":0,"server_type":"Dedicated","server_os":"Linux","password":true,"vac":true,"version":"7757534","steam_id":85568392924469986,"keywords":["nocrits","nodmgspread","payload","uncletopia"],"game_id":440,"stv_port":27016,"stv_name":"Uncletopia | Dallas | 1 | All Maps | STV","players":[{"user_id":260,"name":"Trash Medic","steam_id":76561199042228163,"connected_time":2789000000000,"state":"active","ping":68},{"user_id":264,"name":"NANO","steam_id":76561199009634635,"connected_time":2683000000000,"state":"active","ping":80},{"user_id":254,"name":"Captain MLG","steam_id":76561199183321645,"connected_time":3286000000000,"state":"active","ping":55},{"user_id":261,"name":"armpit fetishist","steam_id":76561199008452637,"connected_time":2744000000000,"state":"active","ping":91},{"user_id":212,"name":"terrorism? boy howdy","steam_id":76561198844003641,"connected_time":4424000000000,"state":"active","ping":84},{"user_id":251,"name":"SirArza","steam_id":76561198196214655,"connected_time":3351000000000,"state":"active","ping":77},{"user_id":277,"name":"Rendoas","steam_id":76561198002105259,"connected_time":1776000000000,"state":"active","ping":53},{"user_id":293,"name":"slap cheeks","steam_id":76561198128285450,"connected_time":645000000000,"state":"active","ping":93},{"user_id":271,"name":"tragic | swiftyservers.com","steam_id":76561198024043469,"connected_time":1925000000000,"state":"active","ping":72},{"user_id":286,"name":"Possessd Pyro","steam_id":76561198389830988,"connected_time":1641000000000,"state":"active","ping":43},{"user_id":268,"name":"Beep","steam_id":76561198166649901,"connected_time":2107000000000,"state":"active","ping":109},{"user_id":294,"name":"jack","steam_id":76561198397804555,"connected_time":412000000000,"state":"active","ping":131},{"user_id":269,"name":"\"Gay Panic\"","steam_id":76561198132531594,"connected_time":2086000000000,"state":"active","ping":64},{"user_id":290,"name":"Legit_Jaxer","steam_id":76561198172234053,"connected_time":1309000000000,"state":"active","ping":110},{"user_id":287,"name":"Aonator","steam_id":76561198252312446,"connected_time":1560000000000,"state":"active","ping":99},{"user_id":274,"name":"anBee","steam_id":76561198050760807,"connected_time":1794000000000,"state":"active","ping":93},{"user_id":292,"name":"Latex Princess","steam_id":76561198158750199,"connected_time":1253000000000,"state":"active","ping":63},{"user_id":259,"name":"Wolverine Fingerblaster","steam_id":76561198095394582,"connected_time":2849000000000,"state":"active","ping":63},{"user_id":275,"name":"Jdpho99","steam_id":76561197968182680,"connected_time":1792000000000,"state":"active","ping":86},{"user_id":289,"name":"Approving Penguin","steam_id":76561198070959246,"connected_time":1359000000000,"state":"active","ping":107},{"user_id":295,"name":"yvko","steam_id":76561198165724991,"connected_time":322000000000,"state":"active","ping":80},{"user_id":279,"name":"HeisenBurger","steam_id":76561198040632080,"connected_time":1773000000000,"state":"active","ping":75},{"user_id":283,"name":"whip bone grew shrooms","steam_id":76561198338482937,"connected_time":1740000000000,"state":"active","ping":89},{"user_id":281,"name":"golem","steam_id":76561198355040593,"connected_time":1765000000000,"state":"active","ping":95}]},{"server_id":108,"name":"Uncletopia | Dallas | 2 | All Maps","name_short":"dal-2","host":"dal-1.us.uncletopia.com","port":27025,"enabled":true,"region":"us-central","cc":"us","latitude":32.779167,"longitude":-96.80889,"reserved":0,"last_update":"0001-01-01T00:00:00Z","name_a2s":"Uncletopia | Dallas | 2 | All Maps","protocol":17,"map":"pl_swiftwater_final1","folder":"tf","game":"Team Fortress","app_id":440,"player_count":24,"max_players":24,"Bots":0,"server_type":"Dedicated","server_os":"Linux","password":true,"vac":true,"version":"7757534","steam_id":85568392924469988,"keywords":["nocrits","nodmgspread","payload","uncletopia"],"game_id":440,"stv_port":27026,"stv_name":"Uncletopia | Dallas | 2 | All Maps | STV","players":[{"user_id":129,"name":"jubb","steam_id":76561198186865526,"connected_time":971000000000,"state":"active","ping":121},{"user_id":121,"name":"Romo","steam_id":76561198243101572,"connected_time":1185000000000,"state":"active","ping":83},{"user_id":125,"name":"Seal","steam_id":76561197970204043,"connected_time":1146000000000,"state":"active","ping":83},{"user_id":141,"name":"no trouble at all","steam_id":76561198138221795,"connected_time":177000000000,"state":"active","ping":87},{"user_id":135,"name":"Quansen","steam_id":76561198151594550,"connected_time":644000000000,"state":"active","ping":86},{"user_id":130,"name":"mynameisweenis","steam_id":76561198990223681,"connected_time":955000000000,"state":"active","ping":128},{"user_id":134,"name":"Leviathan","steam_id":76561197997528907,"connected_time":931000000000,"state":"active","ping":75},{"user_id":120,"name":"Baby Astro","steam_id":76561198357182369,"connected_time":1191000000000,"state":"active","ping":84},{"user_id":122,"name":"jn tr po","steam_id":76561198120327601,"connected_time":1181000000000,"state":"active","ping":67},{"user_id":137,"name":"Karrot","steam_id":76561198058970903,"connected_time":450000000000,"state":"active","ping":88},{"user_id":70,"name":"HELIUM VAN!","steam_id":76561198083463877,"connected_time":5124000000000,"state":"active","ping":77},{"user_id":105,"name":"Hi! I'm Twilight Sparkle! :)","steam_id":76561198982584470,"connected_time":2139000000000,"state":"active","ping":56},{"user_id":113,"name":"–ü–æ–ª–∫–æ–≤–Ω–∏–∫ M–æ–ª—å","steam_id":76561198120551680,"connected_time":1430000000000,"state":"active","ping":70},{"user_id":112,"name":"Tax","steam_id":76561198335683534,"connected_time":1455000000000,"state":"active","ping":82},{"user_id":138,"name":"brain so big i ate an ikea","steam_id":76561198099431543,"connected_time":254000000000,"state":"active","ping":87},{"user_id":140,"name":"Train (E-Girl Edition)","steam_id":76561198087472085,"connected_time":203000000000,"state":"active","ping":87},{"user_id":103,"name":"walterhwhite","steam_id":76561199433675789,"connected_time":2616000000000,"state":"active","ping":99},{"user_id":133,"name":"Soy Blaster","steam_id":76561197971948876,"connected_time":938000000000,"state":"active","ping":88},{"user_id":80,"name":"PingableUsername","steam_id":76561198138760165,"connected_time":3823000000000,"state":"active","ping":63},{"user_id":44,"name":"StarLy","steam_id":76561198174428289,"connected_time":6805000000000,"state":"active","ping":89},{"user_id":114,"name":"Crazy__Biscuit","steam_id":76561198399851872,"connected_time":1409000000000,"state":"active","ping":117},{"user_id":126,"name":"LordMorphesus","steam_id":76561198026995104,"connected_time":1089000000000,"state":"active","ping":99},{"user_id":68,"name":"Unofficial","steam_id":76561198370071152,"connected_time":5292000000000,"state":"active","ping":120},{"user_id":136,"name":"Matt.jpg","steam_id":76561198132469465,"connected_time":625000000000,"state":"active","ping":51}]},{"server_id":5,"name":"Uncletopia | Frankfurt | 1 | All Maps","name_short":"frk-1","host":"frk-1.de.uncletopia.com","port":27015,"enabled":true,"region":"eu","cc":"de","latitude":50.110924,"longitude":8.682127,"reserved":0,"last_update":"0001-01-01T00:00:00Z","name_a2s":"Uncletopia | Frankfurt | 1 | All Maps","protocol":17,"map":"pl_badwater","folder":"tf","game":"Team Fortress","app_id":440,"player_count":23,"max_players":24,"Bots":0,"server_type":"Dedicated","server_os":"Linux","password":true,"vac":true,"version":"7757534","steam_id":85568392924469989,"keywords":["nocrits","nodmgspread","payload","uncletopia"],"game_id":440,"stv_port":27016,"stv_name":"Uncletopia | Frankfurt | 1 | All Maps | STV","players":[{"user_id":695,"name":"pitbull gaming","steam_id":76561198052412362,"connected_time":950000000000,"state":"active","ping":68},{"user_id":696,"name":"ProfessorCrack","steam_id":76561199035475627,"connected_time":818000000000,"state":"active","ping":83},{"user_id":673,"name":"mr K","steam_id":76561198120166752,"connected_time":2081000000000,"state":"active","ping":70},{"user_id":690,"name":"Blyatwork","steam_id":76561198825379598,"connected_time":1167000000000,"state":"active","ping":39},{"user_id":697,"name":"TMC","steam_id":76561198077956157,"connected_time":812000000000,"state":"active","ping":60},{"user_id":706,"name":"unseen unit","steam_id":76561198125381319,"connected_time":191000000000,"state":"active","ping":88},{"user_id":595,"name":"R","steam_id":76561199379233899,"connected_time":7278000000000,"state":"active","ping":89},{"user_id":670,"name":"‚Ç≠√§Ã∑≈Çƒê…Ü‚Ç¶","steam_id":76561198166352975,"connected_time":2209000000000,"state":"active","ping":44},{"user_id":687,"name":"Petal","steam_id":76561199103766971,"connected_time":1335000000000,"state":"active","ping":153},{"user_id":675,"name":"Lux","steam_id":76561198060417740,"connected_time":2023000000000,"state":"active","ping":47},{"user_id":698,"name":"wepon","steam_id":76561198097789669,"connected_time":809000000000,"state":"active","ping":59},{"user_id":694,"name":"minespweper","steam_id":76561199096919345,"connected_time":1124000000000,"state":"active","ping":73},{"user_id":699,"name":"snost and lost","steam_id":76561198072892783,"connected_time":793000000000,"state":"active","ping":55},{"user_id":710,"name":"Castellan","steam_id":76561197994861142,"connected_time":140000000000,"state":"active","ping":68},{"user_id":691,"name":"big hoops","steam_id":76561198004703799,"connected_time":1165000000000,"state":"active","ping":46},{"user_id":663,"name":"Nickbro101","steam_id":76561198044271692,"connected_time":2389000000000,"state":"active","ping":61},{"user_id":704,"name":"Jayco","steam_id":76561198122497262,"connected_time":405000000000,"state":"active","ping":72},{"user_id":665,"name":"Arturias","steam_id":76561198188720263,"connected_time":2377000000000,"state":"active","ping":47},{"user_id":700,"name":"Tig","steam_id":76561198039881034,"connected_time":772000000000,"state":"active","ping":146},{"user_id":707,"name":"Mza28","steam_id":76561198873993324,"connected_time":180000000000,"state":"active","ping":80},{"user_id":680,"name":"jt7","steam_id":76561198073655162,"connected_time":1985000000000,"state":"active","ping":69},{"user_id":703,"name":"Predrag218","steam_id":76561199242439630,"connected_time":647000000000,"state":"active","ping":114},{"user_id":684,"name":"Chris","steam_id":76561198018626828,"connected_time":1927000000000,"state":"active","ping":67}]},{"server_id":110,"name":"Uncletopia | Frankfurt | 2 | All Maps","name_short":"frk-2","host":"frk-1.de.uncletopia.com","port":27025,"enabled":true,"region":"eu","cc":"de","latitude":50.110924,"longitude":8.682127,"reserved":0,"last_update":"0001-01-01T00:00:00Z","name_a2s":"Uncletopia | Frankfurt | 2 | All Maps","protocol":17,"map":"cp_snakewater_final1","folder":"tf","game":"Team Fortress","app_id":440,"player_count":0,"max_players":24,"Bots":0,"server_type":"Dedicated","server_os":"Linux","password":true,"vac":true,"version":"7757534","steam_id":85568392924469990,"keywords":["cp","nocrits","nodmgspread","uncletopia"],"game_id":440,"stv_port":27026,"stv_name":"Uncletopia | Frankfurt | 2 | All Maps | STV","players":null},{"server_id":308,"name":"Uncletopia | Frankfurt | 3 | All Maps","name_short":"frk-3","host":"frk-1.de.uncletopia.com","port":27035,"enabled":true,"region":"eu","cc":"de","latitude":50.110924,"longitude":8.682127,"reserved":0,"last_update":"0001-01-01T00:00:00Z","name_a2s":"Uncletopia | Frankfurt | 3 | All Maps","protocol":17,"map":"cp_altitude","folder":"tf","game":"Team Fortress","app_id":440,"player_count":8,"max_players":24,"Bots":0,"server_type":"Dedicated","server_os":"Linux","password":true,"vac":true,"version":"7757534","steam_id":85568392924504274,"keywords":["cp","nocrits","nodmgspread","uncletopia"],"game_id":440,"stv_port":27036,"stv_name":"Uncletopia | Frankfurt | 3 | All Maps | STV","players":[{"user_id":321,"name":"fried","steam_id":76561198307522022,"connected_time":359000000000,"state":"active","ping":53},{"user_id":304,"name":"Yony","steam_id":76561199070569941,"connected_time":2568000000000,"state":"active","ping":55},{"user_id":326,"name":"torn","steam_id":76561198223003236,"connected_time":150000000000,"state":"active","ping":53},{"user_id":324,"name":"waffle toaster","steam_id":76561198799089628,"connected_time":236000000000,"state":"active","ping":57},{"user_id":327,"name":"gjhkgfkjfh","steam_id":76561198031181349,"connected_time":54000000000,"state":"active","ping":83},{"user_id":328,"name":"LionKing","steam_id":76561198023399545,"connected_time":45000000000,"state":"active","ping":46},{"user_id":292,"name":"Baki ‡∂û","steam_id":76561198193615529,"connected_time":3152000000000,"state":"active","ping":58},{"user_id":318,"name":"REN","steam_id":76561198000596385,"connected_time":652000000000,"state":"active","ping":66}]},{"server_id":309,"name":"Uncletopia | Frankfurt | 4 | All Maps","name_short":"frk-4","host":"frk-1.de.uncletopia.com","port":27045,"enabled":true,"region":"eu","cc":"de","latitude":50.110924,"longitude":8.682127,"reserved":0,"last_update":"0001-01-01T00:00:00Z","name_a2s":"Uncletopia | Frankfurt | 4 | All Maps","protocol":17,"map":"cp_dustbowl","folder":"tf","game":"Team Fortress","app_id":440,"player_count":0,"max_players":24,"Bots":0,"server_type":"Dedicated","server_os":"Linux","password":true,"vac":true,"version":"7757534","steam_id":85568392924504275,"keywords":["cp","nocrits","nodmgspread","uncletopia"],"game_id":440,"stv_port":27046,"stv_name":"Uncletopia | Frankfurt | 4 | All Maps | STV","players":null},{"server_id":310,"name":"Uncletopia | Frankfurt | 5 | All Maps","name_short":"frk-5","host":"frk-1.de.uncletopia.com","port":27055,"enabled":true,"region":"eu","cc":"de","latitude":50.110924,"longitude":8.682127,"reserved":0,"last_update":"0001-01-01T00:00:00Z","name_a2s":"Uncletopia | Frankfurt | 5 | All Maps","protocol":17,"map":"cp_sunshine","folder":"tf","game":"Team Fortress","app_id":440,"player_count":24,"max_players":24,"Bots":0,"server_type":"Dedicated","server_os":"Linux","password":true,"vac":true,"version":"7757534","steam_id":85568392924504277,"keywords":["cp","nocrits","nodmgspread","uncletopia"],"game_id":440,"stv_port":27056,"stv_name":"Uncletopia | Frankfurt | 5 | All Maps | STV","players":[{"user_id":235,"name":"alvinulv","steam_id":76561198024487177,"connected_time":5203000000000,"state":"active","ping":62},{"user_id":282,"name":"porridge","steam_id":76561198044585737,"connected_time":1004000000000,"state":"active","ping":67},{"user_id":258,"name":"Deacon Dracul","steam_id":76561198046880663,"connected_time":3015000000000,"state":"active","ping":97},{"user_id":276,"name":"Hellish Paradise.","steam_id":76561199011293286,"connected_time":1476000000000,"state":"active","ping":87},{"user_id":237,"name":"Klinmir","steam_id":76561198352339376,"connected_time":5171000000000,"state":"active","ping":94},{"user_id":277,"name":"Miju","steam_id":76561198056029274,"connected_time":1449000000000,"state":"active","ping":49},{"user_id":265,"name":"Zembis","steam_id":76561198008017918,"connected_time":2248000000000,"state":"active","ping":91},{"user_id":285,"name":"Huhso","steam_id":76561198219443271,"connected_time":726000000000,"state":"active","ping":97},{"user_id":283,"name":"e36 1.8","steam_id":76561198134203031,"connected_time":973000000000,"state":"active","ping":66},{"user_id":243,"name":"Hasamnas","steam_id":76561199125038537,"connected_time":5047000000000,"state":"active","ping":56},{"user_id":288,"name":"Pancakes","steam_id":76561198196259989,"connected_time":102000000000,"state":"active","ping":62},{"user_id":248,"name":"The Mage","steam_id":76561198019147244,"connected_time":3561000000000,"state":"active","ping":61},{"user_id":287,"name":"nedilya","steam_id":76561198039692077,"connected_time":167000000000,"state":"active","ping":49},{"user_id":203,"name":"Vershal Smershal","steam_id":76561198116223995,"connected_time":7341000000000,"state":"active","ping":58},{"user_id":262,"name":"Charrky","steam_id":76561198054398642,"connected_time":2765000000000,"state":"active","ping":60},{"user_id":286,"name":"shr1mple","steam_id":76561198173537027,"connected_time":560000000000,"state":"active","ping":39},{"user_id":275,"name":"Mr Manager","steam_id":76561198021775885,"connected_time":1505000000000,"state":"active","ping":58},{"user_id":279,"name":"ASer1982","steam_id":76561197998146109,"connected_time":1261000000000,"state":"active","ping":84},{"user_id":278,"name":"Baron","steam_id":76561198021901783,"connected_time":1307000000000,"state":"active","ping":74},{"user_id":270,"name":"etc","steam_id":76561197998394797,"connected_time":1747000000000,"state":"active","ping":60},{"user_id":207,"name":"Mi Manchi","steam_id":76561198171573129,"connected_time":7068000000000,"state":"active","ping":51},{"user_id":260,"name":"LOBZIK","steam_id":76561198114830120,"connected_time":2978000000000,"state":"active","ping":77},{"user_id":221,"name":"Kvicha Kvaratskhelia","steam_id":76561198179339326,"connected_time":6353000000000,"state":"active","ping":77},{"user_id":290,"name":"$13 hand-crank","steam_id":76561198029998773,"connected_time":66000000000,"state":"spawning","ping":60}]},{"server_id":311,"name":"Uncletopia | Frankfurt | 6 | All Maps","name_short":"frk-6","host":"frk-1.de.uncletopia.com","port":27065,"enabled":true,"region":"eu","cc":"de","latitude":50.110924,"longitude":8.682127,"reserved":0,"last_update":"0001-01-01T00:00:00Z","name_a2s":"Uncletopia | Frankfurt | 6 | All Maps","protocol":17,"map":"pl_goldrush","folder":"tf","game":"Team Fortress","app_id":440,"player_count":24,"max_players":24,"Bots":0,"server_type":"Dedicated","server_os":"Linux","password":true,"vac":true,"version":"7757534","steam_id":85568392924504278,"keywords":["nocrits","nodmgspread","payload","uncletopia"],"game_id":440,"stv_port":27066,"stv_name":"Uncletopia | Frankfurt | 6 | All Maps | STV","players":[{"user_id":114,"name":"Rizzly Bear","steam_id":76561199012155377,"connected_time":948000000000,"state":"active","ping":42},{"user_id":68,"name":"B4NNY","steam_id":76561198426522902,"connected_time":4603000000000,"state":"active","ping":65},{"user_id":17,"name":"Milca_11","steam_id":76561198848650365,"connected_time":9531000000000,"state":"active","ping":89},{"user_id":123,"name":"xd","steam_id":76561198066523881,"connected_time":634000000000,"state":"active","ping":55},{"user_id":82,"name":"bear in the big blue house enjo","steam_id":76561198133532980,"connected_time":3999000000000,"state":"active","ping":60},{"user_id":89,"name":"Eddy Merckx 2","steam_id":76561198150009727,"connected_time":2992000000000,"state":"active","ping":67},{"user_id":131,"name":"arktischer Frosch","steam_id":76561199026955212,"connected_time":19000000000,"state":"active","ping":294},{"user_id":74,"name":"FoOzTV","steam_id":76561197998636728,"connected_time":4230000000000,"state":"active","ping":72},{"user_id":113,"name":"Rudy Karma","steam_id":76561198349348738,"connected_time":994000000000,"state":"active","ping":54},{"user_id":115,"name":"trexwithlasereyes ü•ö","steam_id":76561198417276908,"connected_time":899000000000,"state":"active","ping":71},{"user_id":118,"name":"Juice Councilmen","steam_id":76561198312125574,"connected_time":784000000000,"state":"active","ping":153},{"user_id":127,"name":"M4R1O","steam_id":76561198050528464,"connected_time":487000000000,"state":"active","ping":59},{"user_id":88,"name":"SMELLY UNFORTUNATE","steam_id":76561198256755222,"connected_time":3139000000000,"state":"active","ping":59},{"user_id":128,"name":"aph","steam_id":76561198057722639,"connected_time":427000000000,"state":"active","ping":74},{"user_id":92,"name":".Fourbee","steam_id":76561198249832770,"connected_time":2913000000000,"state":"active","ping":64},{"user_id":110,"name":"Juiceydough","steam_id":76561197997323419,"connected_time":1238000000000,"state":"active","ping":91},{"user_id":130,"name":"Scrotie McBoogerballs","steam_id":76561198049312442,"connected_time":78000000000,"state":"active","ping":62},{"user_id":126,"name":"Julez","steam_id":76561198045505082,"connected_time":575000000000,"state":"active","ping":73},{"user_id":124,"name":"FNF","steam_id":76561199151422826,"connected_time":633000000000,"state":"active","ping":120},{"user_id":96,"name":"The Bushman","steam_id":76561198152576682,"connected_time":2780000000000,"state":"active","ping":81},{"user_id":129,"name":"drew","steam_id":76561198012304706,"connected_time":368000000000,"state":"active","ping":92},{"user_id":66,"name":"Kendo-6","steam_id":76561198318748304,"connected_time":4815000000000,"state":"active","ping":123},{"user_id":56,"name":"EastmoreRandoms.","steam_id":76561198048921203,"connected_time":5489000000000,"state":"active","ping":86},{"user_id":111,"name":"CarrotFlowers","steam_id":76561198154714698,"connected_time":1230000000000,"state":"active","ping":57}]},{"server_id":23,"name":"Uncletopia | Frankfurt | 7 | Stopwatch Beta","name_short":"frk-7","host":"frk-1.de.uncletopia.com","port":27075,"enabled":true,"region":"eu","cc":"de","latitude":50.110924,"longitude":8.682127,"reserved":0,"last_update":"0001-01-01T00:00:00Z","name_a2s":"Uncletopia | Frankfurt | 7 | Stopwatch Beta","protocol":17,"map":"pl_swiftwater_final1","folder":"tf","game":"Team Fortress","app_id":440,"player_count":0,"max_players":24,"Bots":0,"server_type":"Dedicated","server_os":"Linux","password":true,"vac":true,"version":"7757534","steam_id":85568392924742827,"keywords":["nocrits","nodmgspread","payload","uncletopia"],"game_id":440,"stv_port":27076,"stv_name":"Uncletopia | Frankfurt | 7 | Stopwatch Beta | STV","players":null},{"server_id":24,"name":"Uncletopia | Frankfurt | 8 | Community","name_short":"frk-8","host":"frk-1.de.uncletopia.com","port":27085,"enabled":true,"region":"eu","cc":"de","latitude":50.110924,"longitude":8.682127,"reserved":0,"last_update":"0001-01-01T00:00:00Z","name_a2s":"Uncletopia | Frankfurt | 8 | Community","protocol":17,"map":"koth_viaduct","folder":"tf","game":"Team Fortress","app_id":440,"player_count":0,"max_players":24,"Bots":0,"server_type":"Dedicated","server_os":"Linux","password":true,"vac":true,"version":"7757534","steam_id":85568392924742828,"keywords":["cp","nocrits","nodmgspread","uncletopia"],"game_id":440,"stv_port":27086,"stv_name":"Uncletopia | Frankfurt | 8 | Community | STV","players":null},{"server_id":202,"name":"Uncletopia | Hong Kong | 1 | All Maps","name_short":"hgk-1","host":"hgk-1.hk.uncletopia.com","port":27015,"enabled":true,"region":"asia","cc":"hk","latitude":22.302711,"longitude":114.177216,"reserved":0,"last_update":"0001-01-01T00:00:00Z","name_a2s":"Uncletopia | Hong Kong | 1 | All Maps","protocol":17,"map":"cp_process_final","folder":"tf","game":"Team Fortress","app_id":440,"player_count":0,"max_players":24,"Bots":0,"server_type":"Dedicated","server_os":"Linux","password":true,"vac":true,"version":"7757534","steam_id":85568392924494504,"keywords":["cp","nocrits","nodmgspread","uncletopia"],"game_id":440,"stv_port":27016,"stv_name":"Uncletopia | Hong Kong | 1 | All Maps | STV","players":null},{"server_id":1,"name":"Uncletopia | Los Angeles | 1 | All Maps","name_short":"lax-1","host":"lax-1.us.uncletopia.com","port":27015,"enabled":true,"region":"us-west","cc":"us","latitude":33.94279,"longitude":-118.41004,"reserved":0,"last_update":"0001-01-01T00:00:00Z","name_a2s":"Uncletopia | Los Angeles | 1 | All Maps","protocol":17,"map":"pl_swiftwater_final1","folder":"tf","game":"Team Fortress","app_id":440,"player_count":24,"max_players":24,"Bots":0,"server_type":"Dedicated","server_os":"Linux","password":true,"vac":true,"version":"7757534","steam_id":85568392924469991,"keywords":["nocrits","nodmgspread","payload","uncletopia"],"game_id":440,"stv_port":27016,"stv_name":"Uncletopia | Los Angeles | 1 | All Maps | STV","players":[{"user_id":47,"name":"MegaMott","steam_id":76561199172245274,"connected_time":16000000000,"state":"active","ping":194},{"user_id":40,"name":"beatrix","steam_id":76561199057103062,"connected_time":681000000000,"state":"active","ping":56},{"user_id":9,"name":"Jhon Xina","steam_id":76561198411174051,"connected_time":5023000000000,"state":"active","ping":73},{"user_id":13,"name":"BoX_hEaD101","steam_id":76561198200875467,"connected_time":2636000000000,"state":"active","ping":64},{"user_id":45,"name":"Barn.Jones1992","steam_id":76561198197981309,"connected_time":141000000000,"state":"active","ping":43},{"user_id":37,"name":"compulsive","steam_id":76561198212421513,"connected_time":1179000000000,"state":"active","ping":45},{"user_id":16,"name":"Guavaz!","steam_id":76561198282290924,"connected_time":2174000000000,"state":"active","ping":45},{"user_id":17,"name":"PinguEnjoyer6","steam_id":76561199186723516,"connected_time":2066000000000,"state":"active","ping":36},{"user_id":41,"name":"Bluedemon","steam_id":76561199212058684,"connected_time":672000000000,"state":"active","ping":55},{"user_id":42,"name":"a chicken","steam_id":76561198313121580,"connected_time":669000000000,"state":"active","ping":43},{"user_id":22,"name":"Blitzy","steam_id":76561198149472890,"connected_time":1690000000000,"state":"active","ping":85},{"user_id":23,"name":"Tort boi","steam_id":76561198125327110,"connected_time":1542000000000,"state":"active","ping":72},{"user_id":30,"name":"Meteora","steam_id":76561198070934430,"connected_time":1294000000000,"state":"active","ping":105},{"user_id":25,"name":"Superman123389","steam_id":76561198267472539,"connected_time":1432000000000,"state":"active","ping":90},{"user_id":26,"name":"tlm","steam_id":76561198178457461,"connected_time":1409000000000,"state":"active","ping":77},{"user_id":27,"name":"Lilgraves710x","steam_id":76561199219933577,"connected_time":1357000000000,"state":"active","ping":102},{"user_id":28,"name":"Drowse","steam_id":76561198029794548,"connected_time":1356000000000,"state":"active","ping":59},{"user_id":29,"name":"SneekiCheekiQbone","steam_id":76561198045077980,"connected_time":1341000000000,"state":"active","ping":44},{"user_id":31,"name":"soy jesse joy bitch","steam_id":76561198154525168,"connected_time":1272000000000,"state":"active","ping":105},{"user_id":43,"name":"Birdman743","steam_id":76561198799636748,"connected_time":655000000000,"state":"active","ping":94},{"user_id":33,"name":"matthew.caffee","steam_id":76561199069898310,"connected_time":1239000000000,"state":"active","ping":132},{"user_id":34,"name":"soapboxracer360","steam_id":76561198316394688,"connected_time":1230000000000,"state":"active","ping":59},{"user_id":35,"name":"oil","steam_id":76561198099980149,"connected_time":1220000000000,"state":"active","ping":45},{"user_id":36,"name":"its mosquito season","steam_id":76561198862096185,"connected_time":1219000000000,"state":"active","ping":110}]},{"server_id":112,"name":"Uncletopia | Los Angeles | 2 | All Maps","name_short":"lax-2","host":"lax-1.us.uncletopia.com","port":27025,"enabled":true,"region":"us-west","cc":"us","latitude":33.94279,"longitude":-118.41004,"reserved":0,"last_update":"0001-01-01T00:00:00Z","name_a2s":"Uncletopia | Los Angeles | 2 | All Maps","protocol":17,"map":"koth_viaduct","folder":"tf","game":"Team Fortress","app_id":440,"player_count":0,"max_players":24,"Bots":0,"server_type":"Dedicated","server_os":"Linux","password":true,"vac":true,"version":"7757534","steam_id":85568392924469992,"keywords":["cp","nocrits","nodmgspread","uncletopia"],"game_id":440,"stv_port":27026,"stv_name":"Uncletopia | Los Angeles | 2 | All Maps | STV","players":null},{"server_id":324,"name":"Uncletopia | Los Angeles | 3 | All Maps","name_short":"lax-3","host":"lax-1.us.uncletopia.com","port":27035,"enabled":true,"region":"us-west","cc":"us","latitude":33.94279,"longitude":-118.41004,"reserved":0,"last_update":"0001-01-01T00:00:00Z","name_a2s":"Uncletopia | Los Angeles | 3 | All Maps","protocol":17,"map":"cp_altitude","folder":"tf","game":"Team Fortress","app_id":440,"player_count":0,"max_players":24,"Bots":0,"server_type":"Dedicated","server_os":"Linux","password":true,"vac":true,"version":"7757534","steam_id":85568392924510198,"keywords":["cp","nocrits","nodmgspread","uncletopia"],"game_id":440,"stv_port":27036,"stv_name":"Uncletopia | Los Angeles | 3 | All Maps | STV","players":null},{"server_id":25,"name":"Uncletopia | Los Angeles | 4 | Stopwatch Beta","name_short":"lax-4","host":"lax-1.us.uncletopia.com","port":27045,"enabled":true,"region":"us-west","cc":"us","latitude":33.94279,"longitude":-118.41004,"reserved":0,"last_update":"0001-01-01T00:00:00Z","name_a2s":"Uncletopia | Los Angeles | 4 | Stopwatch Beta","protocol":17,"map":"cp_dustbowl","folder":"tf","game":"Team Fortress","app_id":440,"player_count":0,"max_players":24,"Bots":0,"server_type":"Dedicated","server_os":"Linux","password":true,"vac":true,"version":"7757534","steam_id":85568392924510199,"keywords":["cp","nocrits","nodmgspread","uncletopia"],"game_id":440,"stv_port":27046,"stv_name":"Uncletopia | Los Angeles | 4 | Stopwatch Beta | STV","players":null},{"server_id":11,"name":"Uncletopia | London | 1 | All Maps","name_short":"lon-1","host":"lon-1.uk.uncletopia.com","port":27015,"enabled":true,"region":"eu","cc":"gb","latitude":51.509865,"longitude":-0.118092,"reserved":0,"last_update":"0001-01-01T00:00:00Z","name_a2s":"Uncletopia | London | 1 | All Maps","protocol":17,"map":"pl_borneo","folder":"tf","game":"Team Fortress","app_id":440,"player_count":24,"max_players":24,"Bots":0,"server_type":"Dedicated","server_os":"Linux","password":true,"vac":true,"version":"7757534","steam_id":85568392924367362,"keywords":["nocrits","nodmgspread","payload","uncletopia"],"game_id":440,"stv_port":27016,"stv_name":"Uncletopia | London | 1 | All Maps | STV","players":[{"user_id":531,"name":"DeadpoolDealsDamage","steam_id":76561198399472908,"connected_time":4048000000000,"state":"active","ping":54},{"user_id":574,"name":"Boil em mash em","steam_id":76561198026508026,"connected_time":1700000000000,"state":"active","ping":66},{"user_id":587,"name":"Reiyo the Interloper","steam_id":76561198155092485,"connected_time":690000000000,"state":"active","ping":59},{"user_id":576,"name":"Ass Clappicus","steam_id":76561198851157897,"connected_time":1580000000000,"state":"active","ping":60},{"user_id":581,"name":"Meddler","steam_id":76561198033001402,"connected_time":1140000000000,"state":"active","ping":38},{"user_id":572,"name":"peruna","steam_id":76561198000721196,"connected_time":1762000000000,"state":"active","ping":75},{"user_id":575,"name":"Egap","steam_id":76561199070653454,"connected_time":1684000000000,"state":"active","ping":114},{"user_id":534,"name":"Thalgorock","steam_id":76561198195315022,"connected_time":3888000000000,"state":"active","ping":67},{"user_id":536,"name":"Subterranean","steam_id":76561198106684566,"connected_time":3732000000000,"state":"active","ping":85},{"user_id":568,"name":"Evil weed wizard","steam_id":76561198076137526,"connected_time":1927000000000,"state":"active","ping":50},{"user_id":580,"name":"Harpenden, Harpenden, Harpenden","steam_id":76561198118138546,"connected_time":1209000000000,"state":"active","ping":44},{"user_id":495,"name":"dec","steam_id":76561198009660168,"connected_time":6735000000000,"state":"active","ping":56},{"user_id":539,"name":"true","steam_id":76561198031145243,"connected_time":3717000000000,"state":"active","ping":79},{"user_id":569,"name":"InsectKing","steam_id":76561199013519071,"connected_time":1914000000000,"state":"active","ping":42},{"user_id":554,"name":"Roe Jogan","steam_id":76561198871991529,"connected_time":3043000000000,"state":"active","ping":64},{"user_id":529,"name":"sassy the sasquatch","steam_id":76561198844060342,"connected_time":4460000000000,"state":"active","ping":45},{"user_id":573,"name":"owlsie","steam_id":76561198094883280,"connected_time":1711000000000,"state":"active","ping":66},{"user_id":566,"name":"Yuval","steam_id":76561198241802390,"connected_time":1973000000000,"state":"active","ping":111},{"user_id":588,"name":"Renard pos4","steam_id":76561197998908594,"connected_time":55000000000,"state":"active","ping":61},{"user_id":582,"name":"Spetse","steam_id":76561197990649972,"connected_time":988000000000,"state":"active","ping":84},{"user_id":579,"name":"xristosblin","steam_id":76561199043074852,"connected_time":1351000000000,"state":"active","ping":91},{"user_id":578,"name":"Noodle","steam_id":76561198306486695,"connected_time":1426000000000,"state":"active","ping":70},{"user_id":585,"name":"paranoia","steam_id":76561198274105878,"connected_time":945000000000,"state":"active","ping":89},{"user_id":589,"name":"Bumblebee","steam_id":76561198033551105,"connected_time":2000000000,"state":"spawning","ping":97}]},{"server_id":114,"name":"Uncletopia | London | 2 | All Maps","name_short":"lon-2","host":"lon-1.uk.uncletopia.com","port":27025,"enabled":true,"region":"eu","cc":"gb","latitude":51.509865,"longitude":-0.118092,"reserved":0,"last_update":"0001-01-01T00:00:00Z","name_a2s":"Uncletopia | London | 2 | All Maps","protocol":17,"map":"cp_sunshine","folder":"tf","game":"Team Fortress","app_id":440,"player_count":24,"max_players":24,"Bots":0,"server_type":"Dedicated","server_os":"Linux","password":true,"vac":true,"version":"7757534","steam_id":85568392924470941,"keywords":["cp","nocrits","nodmgspread","uncletopia"],"game_id":440,"stv_port":27026,"stv_name":"Uncletopia | London | 2 | All Maps | STV","players":[{"user_id":366,"name":"Dangerousbros","steam_id":76561198088952519,"connected_time":134000000000,"state":"active","ping":39},{"user_id":319,"name":"kektuse","steam_id":76561198088426580,"connected_time":2944000000000,"state":"active","ping":61},{"user_id":347,"name":"Frikerf","steam_id":76561198079602952,"connected_time":1149000000000,"state":"active","ping":50},{"user_id":368,"name":"Udinese Dion","steam_id":76561198067931573,"connected_time":87000000000,"state":"active","ping":56},{"user_id":301,"name":"Fat Pigeon","steam_id":76561198817940142,"connected_time":3595000000000,"state":"active","ping":46},{"user_id":321,"name":"BisaGone!","steam_id":76561199002624709,"connected_time":2930000000000,"state":"active","ping":45},{"user_id":322,"name":"Captain HandicappedCock","steam_id":76561198109850402,"connected_time":2920000000000,"state":"active","ping":74},{"user_id":348,"name":"QuorglepleegJR","steam_id":76561198984658438,"connected_time":1121000000000,"state":"active","ping":52},{"user_id":365,"name":"player","steam_id":76561198054474684,"connected_time":156000000000,"state":"active","ping":75},{"user_id":336,"name":"yoursbzt","steam_id":76561198201866574,"connected_time":2178000000000,"state":"active","ping":79},{"user_id":253,"name":"Tomau5","steam_id":76561198027409468,"connected_time":7764000000000,"state":"active","ping":71},{"user_id":357,"name":"f√©nix","steam_id":76561198083199151,"connected_time":908000000000,"state":"active","ping":54},{"user_id":341,"name":"Petight","steam_id":76561197999438798,"connected_time":2038000000000,"state":"active","ping":32},{"user_id":344,"name":"RudiPrico4","steam_id":76561199014381495,"connected_time":1778000000000,"state":"active","ping":61},{"user_id":350,"name":"Swedde","steam_id":76561198297296440,"connected_time":1098000000000,"state":"active","ping":65},{"user_id":367,"name":"Der_Milchmann","steam_id":76561198001417748,"connected_time":119000000000,"state":"active","ping":55},{"user_id":361,"name":"Daga","steam_id":76561198055450219,"connected_time":280000000000,"state":"active","ping":45},{"user_id":337,"name":"The Perpetrator","steam_id":76561198825651550,"connected_time":2168000000000,"state":"active","ping":90},{"user_id":353,"name":"Saint","steam_id":76561198003296382,"connected_time":1069000000000,"state":"active","ping":75},{"user_id":338,"name":"„Äê caden / karma „Äë","steam_id":76561198072276429,"connected_time":2160000000000,"state":"active","ping":153},{"user_id":237,"name":"goblin","steam_id":76561198151122921,"connected_time":9530000000000,"state":"active","ping":78},{"user_id":339,"name":"PizzaPete123","steam_id":76561198089478290,"connected_time":2152000000000,"state":"active","ping":47},{"user_id":356,"name":"Setter Ball Gaul","steam_id":76561198130427881,"connected_time":939000000000,"state":"active","ping":171},{"user_id":358,"name":"SwingyWingyShoes","steam_id":76561198089547302,"connected_time":908000000000,"state":"active","ping":51}]},{"server_id":320,"name":"Uncletopia | London | 3 | All Maps","name_short":"lon-3","host":"lon-1.uk.uncletopia.com","port":27035,"enabled":true,"region":"eu","cc":"gb","latitude":51.509865,"longitude":-0.118092,"reserved":0,"last_update":"0001-01-01T00:00:00Z","name_a2s":"Uncletopia | London | 3 | All Maps","protocol":17,"map":"cp_mercenarypark","folder":"tf","game":"Team Fortress","app_id":440,"player_count":24,"max_players":24,"Bots":0,"server_type":"Dedicated","server_os":"Linux","password":true,"vac":true,"version":"7757534","steam_id":85568392924510192,"keywords":["cp","nocrits","nodmgspread","uncletopia"],"game_id":440,"stv_port":27036,"stv_name":"Uncletopia | London | 3 | All Maps | STV","players":[{"user_id":139,"name":"‚ô• TRANS RIGHTS ‚ô•","steam_id":76561198066258544,"connected_time":7614000000000,"state":"active","ping":65},{"user_id":191,"name":"Traveandre","steam_id":76561198372637536,"connected_time":2706000000000,"state":"active","ping":65},{"user_id":230,"name":"noobdog","steam_id":76561198036486671,"connected_time":226000000000,"state":"active","ping":60},{"user_id":229,"name":"NoPfizer","steam_id":76561198307914381,"connected_time":256000000000,"state":"active","ping":55},{"user_id":215,"name":"doktor kablowski","steam_id":76561198334042273,"connected_time":1076000000000,"state":"active","ping":91},{"user_id":226,"name":"Koi-Koi","steam_id":76561198045527771,"connected_time":283000000000,"state":"active","ping":55},{"user_id":225,"name":"Bert","steam_id":76561198070206096,"connected_time":315000000000,"state":"active","ping":54},{"user_id":209,"name":"KittyKate ‚ù§","steam_id":76561198116340817,"connected_time":1452000000000,"state":"active","ping":61},{"user_id":214,"name":"BuzzBees ‚ù§","steam_id":76561198101502273,"connected_time":1111000000000,"state":"active","ping":46},{"user_id":218,"name":"Chambersite","steam_id":76561198197022399,"connected_time":888000000000,"state":"active","ping":74},{"user_id":220,"name":"GardenFungus","steam_id":76561198054894337,"connected_time":796000000000,"state":"active","ping":31},{"user_id":138,"name":"bussy overload","steam_id":76561198413545609,"connected_time":7708000000000,"state":"active","ping":46},{"user_id":232,"name":"HUGO","steam_id":76561198317134996,"connected_time":110000000000,"state":"active","ping":90},{"user_id":221,"name":"!Trying to have fun!","steam_id":76561198151370212,"connected_time":753000000000,"state":"active","ping":71},{"user_id":222,"name":"78","steam_id":76561198208328357,"connected_time":535000000000,"state":"active","ping":90},{"user_id":125,"name":"rob","steam_id":76561198122211848,"connected_time":8321000000000,"state":"active","ping":91},{"user_id":227,"name":"Cosmetic brain","steam_id":76561198055936410,"connected_time":266000000000,"state":"active","ping":81},{"user_id":228,"name":"joe","steam_id":76561198026484403,"connected_time":260000000000,"state":"active","ping":57},{"user_id":206,"name":"BepisR47","steam_id":76561198084515716,"connected_time":1550000000000,"state":"active","ping":39},{"user_id":219,"name":"kbbq","steam_id":76561198346638308,"connected_time":827000000000,"state":"active","ping":47},{"user_id":231,"name":"Greyhunter","steam_id":76561197960884202,"connected_time":149000000000,"state":"active","ping":34},{"user_id":212,"name":"Checkmate.","steam_id":76561198339466196,"connected_time":1305000000000,"state":"active","ping":71},{"user_id":155,"name":"pezza","steam_id":76561197995173247,"connected_time":6248000000000,"state":"active","ping":55},{"user_id":223,"name":"John Noob","steam_id":76561197999170026,"connected_time":482000000000,"state":"active","ping":99}]},{"server_id":321,"name":"Uncletopia | London | 4 | All Maps","name_short":"lon-4","host":"lon-1.uk.uncletopia.com","port":27045,"enabled":true,"region":"eu","cc":"gb","latitude":51.509865,"longitude":-0.118092,"reserved":0,"last_update":"0001-01-01T00:00:00Z","name_a2s":"Uncletopia | London | 4 | All Maps","protocol":17,"map":"cp_sunshine","folder":"tf","game":"Team Fortress","app_id":440,"player_count":0,"max_players":24,"Bots":0,"server_type":"Dedicated","server_os":"Linux","password":true,"vac":true,"version":"7757534","steam_id":85568392924510193,"keywords":["cp","nocrits","nodmgspread","uncletopia"],"game_id":440,"stv_port":27046,"stv_name":"Uncletopia | London | 4 | All Maps | STV","players":null},{"server_id":21,"name":"Uncletopia | London | 5 | All Maps","name_short":"lon-5","host":"lon-1.uk.uncletopia.com","port":27055,"enabled":true,"region":"eu","cc":"gb","latitude":51.509865,"longitude":-0.118092,"reserved":0,"last_update":"0001-01-01T00:00:00Z","name_a2s":"Uncletopia | London | 5 | All Maps","protocol":17,"map":"koth_viaduct","folder":"tf","game":"Team Fortress","app_id":440,"player_count":0,"max_players":24,"Bots":0,"server_type":"Dedicated","server_os":"Linux","password":true,"vac":true,"version":"7757534","steam_id":85568392924742829,"keywords":["cp","nocrits","nodmgspread","uncletopia"],"game_id":440,"stv_port":27056,"stv_name":"Uncletopia | London | 5 | All Maps | STV","players":null},{"server_id":22,"name":"Uncletopia | London | 6 | All Maps","name_short":"lon-6","host":"lon-1.uk.uncletopia.com","port":27065,"enabled":true,"region":"eu","cc":"gb","latitude":51.509865,"longitude":-0.118092,"reserved":0,"last_update":"0001-01-01T00:00:00Z","name_a2s":"Uncletopia | London | 6 | All Maps","protocol":17,"map":"pl_goldrush","folder":"tf","game":"Team Fortress","app_id":440,"player_count":24,"max_players":24,"Bots":0,"server_type":"Dedicated","server_os":"Linux","password":true,"vac":true,"version":"7757534","steam_id":85568392924742830,"keywords":["nocrits","nodmgspread","payload","uncletopia"],"game_id":440,"stv_port":27066,"stv_name":"Uncletopia | London | 6 | All Maps | STV","players":[{"user_id":219,"name":"VolcanicArts","steam_id":76561198063453246,"connected_time":540000000000,"state":"active","ping":60},{"user_id":216,"name":"wheelie bin","steam_id":76561198040040328,"connected_time":570000000000,"state":"active","ping":47},{"user_id":227,"name":"Grillem Dafoe","steam_id":76561198306874574,"connected_time":365000000000,"state":"active","ping":67},{"user_id":173,"name":"eeeeee","steam_id":76561198017786875,"connected_time":4013000000000,"state":"active","ping":57},{"user_id":195,"name":"Kurage","steam_id":76561198021221288,"connected_time":2178000000000,"state":"active","ping":67},{"user_id":163,"name":"Farao Ramses II","steam_id":76561198078722712,"connected_time":4524000000000,"state":"active","ping":44},{"user_id":207,"name":"justgvbe","steam_id":76561199193230375,"connected_time":972000000000,"state":"active","ping":59},{"user_id":187,"name":"MAKENTAKEN","steam_id":76561199127359587,"connected_time":2915000000000,"state":"active","ping":99},{"user_id":212,"name":"Tort","steam_id":76561198329646769,"connected_time":672000000000,"state":"active","ping":55},{"user_id":161,"name":"sex haver","steam_id":76561198798892497,"connected_time":4703000000000,"state":"active","ping":49},{"user_id":210,"name":"La-Li-Lu-Le-Lo","steam_id":76561198047990600,"connected_time":691000000000,"state":"active","ping":53},{"user_id":204,"name":"StandAlloy","steam_id":76561199466218699,"connected_time":1340000000000,"state":"active","ping":110},{"user_id":214,"name":"Camo Leaf","steam_id":76561197999456575,"connected_time":584000000000,"state":"active","ping":49},{"user_id":191,"name":"egirls are ruining my life","steam_id":76561198152368271,"connected_time":2782000000000,"state":"active","ping":71},{"user_id":218,"name":"quickfast","steam_id":76561199438900919,"connected_time":562000000000,"state":"active","ping":43},{"user_id":180,"name":"Kodutah","steam_id":76561198203405574,"connected_time":3710000000000,"state":"active","ping":55},{"user_id":220,"name":"laser","steam_id":76561198036030697,"connected_time":536000000000,"state":"active","ping":68},{"user_id":175,"name":"Carrotcracker","steam_id":76561198034862396,"connected_time":3997000000000,"state":"active","ping":71},{"user_id":144,"name":"Welder","steam_id":76561198355300561,"connected_time":5935000000000,"state":"active","ping":72},{"user_id":221,"name":"Versity!","steam_id":76561198152172841,"connected_time":527000000000,"state":"active","ping":46},{"user_id":228,"name":"shekels","steam_id":76561199218838411,"connected_time":359000000000,"state":"active","ping":56},{"user_id":232,"name":"I.C. Wiener","steam_id":76561197999912254,"connected_time":143000000000,"state":"active","ping":98},{"user_id":230,"name":"baro.ricky","steam_id":76561198172204039,"connected_time":269000000000,"state":"active","ping":81},{"user_id":186,"name":"diogenes","steam_id":76561198080387138,"connected_time":3149000000000,"state":"active","ping":52}]},{"server_id":40,"name":"Uncletopia | London | 7 | No Payload","name_short":"lon-7","host":"lon-1.uk.uncletopia.com","port":27075,"enabled":true,"region":"eu","cc":"gb","latitude":51.509865,"longitude":-0.118092,"reserved":0,"last_update":"0001-01-01T00:00:00Z","name_a2s":"Uncletopia | London | 7 | No Payload","protocol":17,"map":"koth_highpass","folder":"tf","game":"Team Fortress","app_id":440,"player_count":0,"max_players":24,"Bots":0,"server_type":"Dedicated","server_os":"Linux","password":true,"vac":true,"version":"7757534","steam_id":85568392924964314,"keywords":["cp","nocrits","nodmgspread","uncletopia"],"game_id":440,"stv_port":27076,"stv_name":"Uncletopia | London | 7 | No Payload | STV","players":null},{"server_id":41,"name":"Uncletopia | London | 8 | Community","name_short":"lon-8","host":"lon-1.uk.uncletopia.com","port":27085,"enabled":true,"region":"eu","cc":"gb","latitude":51.509865,"longitude":-0.118092,"reserved":0,"last_update":"0001-01-01T00:00:00Z","name_a2s":"Uncletopia | London | 8 | Community","protocol":17,"map":"cp_altitude","folder":"tf","game":"Team Fortress","app_id":440,"player_count":0,"max_players":24,"Bots":0,"server_type":"Dedicated","server_os":"Linux","password":true,"vac":true,"version":"7757534","steam_id":85568392924964315,"keywords":["cp","nocrits","nodmgspread","uncletopia"],"game_id":440,"stv_port":27086,"stv_name":"Uncletopia | London | 8 | Community | STV","players":null},{"server_id":300,"name":"Uncletopia | Montr√©al | 1 | All Maps","name_short":"mtl-1","host":"mtl-1.ca.uncletopia.com","port":27015,"enabled":true,"region":"us-east","cc":"ca","latitude":45.50889,"longitude":-73.56167,"reserved":0,"last_update":"0001-01-01T00:00:00Z","name_a2s":"Uncletopia | Montr√©al | 1 | All Maps","protocol":17,"map":"pl_pier","folder":"tf","game":"Team Fortress","app_id":440,"player_count":0,"max_players":24,"Bots":0,"server_type":"Dedicated","server_os":"Linux","password":true,"vac":true,"version":"7757534","steam_id":85568392924500087,"keywords":["nocrits","nodmgspread","payload","uncletopia"],"game_id":440,"stv_port":27016,"stv_name":"Uncletopia | Montr√©al | 1 | All Maps | STV","players":null},{"server_id":301,"name":"Uncletopia | Montr√©al | 2 | All Maps","name_short":"mtl-2","host":"mtl-1.ca.uncletopia.com","port":27025,"enabled":true,"region":"us-east","cc":"ca","latitude":45.50889,"longitude":-73.56167,"reserved":0,"last_update":"0001-01-01T00:00:00Z","name_a2s":"Uncletopia | Montr√©al | 2 | All Maps","protocol":17,"map":"pl_snowycoast","folder":"tf","game":"Team Fortress","app_id":440,"player_count":0,"max_players":24,"Bots":0,"server_type":"Dedicated","server_os":"Linux","password":true,"vac":true,"version":"7757534","steam_id":85568392924500088,"keywords":["nocrits","nodmgspread","payload","uncletopia"],"game_id":440,"stv_port":27026,"stv_name":"Uncletopia | Montr√©al | 2 | All Maps | STV","players":null},{"server_id":302,"name":"Uncletopia | Montr√©al | 3 | All Maps","name_short":"mtl-3","host":"mtl-1.ca.uncletopia.com","port":27035,"enabled":true,"region":"us-east","cc":"ca","latitude":45.50889,"longitude":-73.56167,"reserved":0,"last_update":"0001-01-01T00:00:00Z","name_a2s":"Uncletopia | Montr√©al | 3 | All Maps","protocol":17,"map":"pl_frontier_final","folder":"tf","game":"Team Fortress","app_id":440,"player_count":0,"max_players":24,"Bots":0,"server_type":"Dedicated","server_os":"Linux","password":true,"vac":true,"version":"7757534","steam_id":85568392924500089,"keywords":["nocrits","nodmgspread","payload","uncletopia"],"game_id":440,"stv_port":27036,"stv_name":"Uncletopia | Montr√©al | 3 | All Maps | STV","players":null},{"server_id":303,"name":"Uncletopia | Montr√©al | 4 | No Payload","name_short":"mtl-4","host":"mtl-1.ca.uncletopia.com","port":27045,"enabled":true,"region":"us-east","cc":"ca","latitude":45.50889,"longitude":-73.56167,"reserved":0,"last_update":"0001-01-01T00:00:00Z","name_a2s":"Uncletopia | Montr√©al | 4 | No Payload","protocol":17,"map":"pl_pier","folder":"tf","game":"Team Fortress","app_id":440,"player_count":0,"max_players":24,"Bots":0,"server_type":"Dedicated","server_os":"Linux","password":true,"vac":true,"version":"7757534","steam_id":85568392924500090,"keywords":["nocrits","nodmgspread","payload","uncletopia"],"game_id":440,"stv_port":27046,"stv_name":"Uncletopia | Montr√©al | 4 | No Payload | STV","players":null},{"server_id":13,"name":"Uncletopia | New York City | 1 | All Maps","name_short":"nyc-1","host":"nyc-1.us.uncletopia.com","port":27015,"enabled":true,"region":"us-east","cc":"us","latitude":40.73061,"longitude":-73.93524,"reserved":0,"last_update":"0001-01-01T00:00:00Z","name_a2s":"Uncletopia | New York City | 1 | All Maps","protocol":17,"map":"koth_nucleus","folder":"tf","game":"Team Fortress","app_id":440,"player_count":24,"max_players":24,"Bots":0,"server_type":"Dedicated","server_os":"Linux","password":true,"vac":true,"version":"7757534","steam_id":85568392924469993,"keywords":["cp","nocrits","nodmgspread","uncletopia"],"game_id":440,"stv_port":27016,"stv_name":"Uncletopia | New York City | 1 | All Maps | STV","players":[{"user_id":89,"name":"gulch","steam_id":76561199227946025,"connected_time":529000000000,"state":"active","ping":100},{"user_id":29,"name":"Average Engineer Main","steam_id":76561197999657118,"connected_time":5126000000000,"state":"active","ping":58},{"user_id":90,"name":"Bakucon","steam_id":76561198153667638,"connected_time":521000000000,"state":"active","ping":77},{"user_id":68,"name":"Totouri","steam_id":76561198004229789,"connected_time":2383000000000,"state":"active","ping":65},{"user_id":97,"name":"plaiddd (needs friends)","steam_id":76561198353053169,"connected_time":257000000000,"state":"active","ping":64},{"user_id":98,"name":"a king who's on a budget","steam_id":76561199134895220,"connected_time":221000000000,"state":"active","ping":57},{"user_id":75,"name":"NeverAcedIt (Pinnacle -\u003e Pit)","steam_id":76561198406671743,"connected_time":2086000000000,"state":"active","ping":84},{"user_id":38,"name":"Shuu","steam_id":76561199199180558,"connected_time":3655000000000,"state":"active","ping":50},{"user_id":77,"name":"reanimator","steam_id":76561198085830470,"connected_time":1720000000000,"state":"active","ping":46},{"user_id":88,"name":"BigBubble42","steam_id":76561198136286123,"connected_time":591000000000,"state":"active","ping":70},{"user_id":87,"name":"Drake the Pixel","steam_id":76561198131824401,"connected_time":681000000000,"state":"active","ping":38},{"user_id":40,"name":"tulpa","steam_id":76561198013253513,"connected_time":3583000000000,"state":"active","ping":67},{"user_id":96,"name":"Buttons :)","steam_id":76561198139478534,"connected_time":358000000000,"state":"active","ping":122},{"user_id":48,"name":"ttv/Muenstier","steam_id":76561198312153623,"connected_time":3404000000000,"state":"active","ping":44},{"user_id":49,"name":"Fudgely","steam_id":76561198039425862,"connected_time":3398000000000,"state":"active","ping":56},{"user_id":92,"name":"Sophvis","steam_id":76561198143786834,"connected_time":466000000000,"state":"active","ping":139},{"user_id":93,"name":"Huey","steam_id":76561198972816386,"connected_time":456000000000,"state":"active","ping":75},{"user_id":52,"name":"StarKillerX7","steam_id":76561198400952294,"connected_time":3345000000000,"state":"active","ping":45},{"user_id":54,"name":"Wahooka","steam_id":76561197962240925,"connected_time":3224000000000,"state":"active","ping":45},{"user_id":85,"name":"slop","steam_id":76561198199803242,"connected_time":965000000000,"state":"active","ping":75},{"user_id":94,"name":"swooce","steam_id":76561198156232484,"connected_time":440000000000,"state":"active","ping":51},{"user_id":57,"name":"breesey","steam_id":76561198341658826,"connected_time":3174000000000,"state":"active","ping":43},{"user_id":95,"name":"/v/4na","steam_id":76561198971354161,"connected_time":432000000000,"state":"active","ping":54},{"user_id":83,"name":"The Rambler","steam_id":76561198109648603,"connected_time":1316000000000,"state":"active","ping":79}]},{"server_id":14,"name":"Uncletopia | New York City | 2 | All Maps","name_short":"nyc-2","host":"nyc-1.us.uncletopia.com","port":27025,"enabled":true,"region":"us-east","cc":"us","latitude":40.73061,"longitude":-73.93524,"reserved":0,"last_update":"0001-01-01T00:00:00Z","name_a2s":"Uncletopia | New York City | 2 | All Maps","protocol":17,"map":"plr_hightower","folder":"tf","game":"Team Fortress","app_id":440,"player_count":0,"max_players":24,"Bots":0,"server_type":"Dedicated","server_os":"Linux","password":true,"vac":true,"version":"7757534","steam_id":85568392924469994,"keywords":["nocrits","nodmgspread","payload","uncletopia"],"game_id":440,"stv_port":27026,"stv_name":"Uncletopia | New York City | 2 | All Maps | STV","players":null},{"server_id":15,"name":"Uncletopia | New York City | 3 | Stopwatch Beta","name_short":"nyc-3","host":"nyc-1.us.uncletopia.com","port":27035,"enabled":true,"region":"us-east","cc":"us","latitude":40.73061,"longitude":-73.93524,"reserved":0,"last_update":"0001-01-01T00:00:00Z","name_a2s":"Uncletopia | New York City | 3 | Stopwatch Beta","protocol":17,"map":"cp_granary","folder":"tf","game":"Team Fortress","app_id":440,"player_count":3,"max_players":24,"Bots":0,"server_type":"Dedicated","server_os":"Linux","password":true,"vac":true,"version":"7757534","steam_id":85568392924742820,"keywords":["cp","nocrits","nodmgspread","uncletopia"],"game_id":440,"stv_port":27036,"stv_name":"Uncletopia | New York City | 3 | Stopwatch Beta | STV","players":[{"user_id":3,"name":"BaconLol","steam_id":76561199125317999,"connected_time":1185000000000,"state":"active","ping":174},{"user_id":5,"name":"Theristes#SaveTf2","steam_id":76561198055947434,"connected_time":973000000000,"state":"active","ping":105},{"user_id":7,"name":"coolfalcon168","steam_id":76561198948665710,"connected_time":96000000000,"state":"active","ping":65}]},{"server_id":16,"name":"Uncletopia | New York City | 4 | Community","name_short":"nyc-4","host":"nyc-1.us.uncletopia.com","port":27045,"enabled":true,"region":"us-east","cc":"us","latitude":40.73061,"longitude":-73.93524,"reserved":0,"last_update":"0001-01-01T00:00:00Z","name_a2s":"Uncletopia | New York City | 4 | Community","protocol":17,"map":"pl_frontier_final","folder":"tf","game":"Team Fortress","app_id":440,"player_count":0,"max_players":24,"Bots":0,"server_type":"Dedicated","server_os":"Linux","password":true,"vac":true,"version":"7757534","steam_id":85568392924742821,"keywords":["nocrits","nodmgspread","payload","uncletopia"],"game_id":440,"stv_port":27046,"stv_name":"Uncletopia | New York City | 4 | Community | STV","players":null},{"server_id":142,"name":"Uncletopia | S√£o Paulo | 1 | All Maps","name_short":"sao-1","host":"sao-1.br.uncletopia.com","port":27015,"enabled":true,"region":"sa","cc":"br","latitude":-23.533773,"longitude":-46.62529,"reserved":0,"last_update":"0001-01-01T00:00:00Z","name_a2s":"Uncletopia | S√£o Paulo | 1 | All Maps","protocol":17,"map":"koth_viaduct","folder":"tf","game":"Team Fortress","app_id":440,"player_count":0,"max_players":24,"Bots":0,"server_type":"Dedicated","server_os":"Linux","password":true,"vac":true,"version":"7757534","steam_id":85568392924469996,"keywords":["cp","nocrits","nodmgspread","uncletopia"],"game_id":440,"stv_port":27016,"stv_name":"Uncletopia | S√£o Paulo | 1 | All Maps | STV","players":null},{"server_id":143,"name":"Uncletopia | S√£o Paulo | 2 | All Maps","name_short":"sao-2","host":"sao-2.br.uncletopia.com","port":27015,"enabled":true,"region":"sa","cc":"br","latitude":-23.533773,"longitude":-46.62529,"reserved":0,"last_update":"0001-01-01T00:00:00Z","name_a2s":"Uncletopia | S√£o Paulo | 2 | All Maps","protocol":17,"map":"koth_viaduct","folder":"tf","game":"Team Fortress","app_id":440,"player_count":3,"max_players":24,"Bots":0,"server_type":"Dedicated","server_os":"Linux","password":true,"vac":true,"version":"7757534","steam_id":85568392924485349,"keywords":["cp","nocrits","nodmgspread","uncletopia"],"game_id":440,"stv_port":27016,"stv_name":"Uncletopia | S√£o Paulo | 2 | All Maps | STV","players":[{"user_id":26,"name":"ENCHANTEDPIG","steam_id":76561199129458361,"connected_time":421000000000,"state":"active","ping":211},{"user_id":27,"name":"dylan","steam_id":76561199185537002,"connected_time":373000000000,"state":"active","ping":203},{"user_id":22,"name":"chum7013","steam_id":76561199267154533,"connected_time":998000000000,"state":"active","ping":199}]},{"server_id":7,"name":"Uncletopia | Seattle | 1 | All Maps","name_short":"sea-1","host":"sea-1.us.uncletopia.com","port":27015,"enabled":true,"region":"us-west","cc":"us","latitude":47.608013,"longitude":-122.33517,"reserved":0,"last_update":"0001-01-01T00:00:00Z","name_a2s":"Uncletopia | Seattle | 1 | All Maps","protocol":17,"map":"koth_viaduct","folder":"tf","game":"Team Fortress","app_id":440,"player_count":24,"max_players":24,"Bots":0,"server_type":"Dedicated","server_os":"Linux","password":true,"vac":true,"version":"7757534","steam_id":85568392924469997,"keywords":["cp","nocrits","nodmgspread","uncletopia"],"game_id":440,"stv_port":27016,"stv_name":"Uncletopia | Seattle | 1 | All Maps | STV","players":[{"user_id":356,"name":"Speedy","steam_id":76561198080761661,"connected_time":3539000000000,"state":"active","ping":129},{"user_id":201,"name":"crumblejon","steam_id":76561198111273302,"connected_time":14811000000000,"state":"active","ping":61},{"user_id":364,"name":"Sloppy John (Extra Sauce)","steam_id":76561198359703432,"connected_time":2053000000000,"state":"active","ping":76},{"user_id":376,"name":"years","steam_id":76561197994098627,"connected_time":657000000000,"state":"active","ping":95},{"user_id":325,"name":"„Ä£dust„Ä£ -she/it-","steam_id":76561198045218909,"connected_time":6315000000000,"state":"active","ping":42},{"user_id":380,"name":"icFlow","steam_id":76561199068853190,"connected_time":60000000000,"state":"active","ping":48},{"user_id":363,"name":"Frog","steam_id":76561198093257083,"connected_time":2228000000000,"state":"active","ping":49},{"user_id":365,"name":"jas_the_man","steam_id":76561198147991471,"connected_time":2048000000000,"state":"active","ping":98},{"user_id":375,"name":"Can of Oranges","steam_id":76561199121813529,"connected_time":1157000000000,"state":"active","ping":47},{"user_id":339,"name":"SpinetinglingToast","steam_id":76561198099470670,"connected_time":4971000000000,"state":"active","ping":120},{"user_id":343,"name":"Thequirka","steam_id":76561198968058652,"connected_time":4279000000000,"state":"active","ping":42},{"user_id":368,"name":"enolteiii","steam_id":76561198140843225,"connected_time":1906000000000,"state":"active","ping":117},{"user_id":372,"name":"Eris","steam_id":76561199471434875,"connected_time":1627000000000,"state":"active","ping":45},{"user_id":378,"name":"Swag6","steam_id":76561198064110837,"connected_time":383000000000,"state":"active","ping":64},{"user_id":370,"name":"Scythe07","steam_id":76561199064810353,"connected_time":1875000000000,"state":"active","ping":135},{"user_id":350,"name":"Lil Urge","steam_id":76561198162207470,"connected_time":3604000000000,"state":"active","ping":62},{"user_id":371,"name":"AmiableNebula","steam_id":76561198094306627,"connected_time":1774000000000,"state":"active","ping":78},{"user_id":369,"name":"Oldengie","steam_id":76561199074712665,"connected_time":1895000000000,"state":"active","ping":140},{"user_id":181,"name":"LProduct","steam_id":76561199442139670,"connected_time":16585000000000,"state":"active","ping":74},{"user_id":374,"name":"SUNLIGHT WITCH ANARCHY GATHER","steam_id":76561198131166135,"connected_time":1280000000000,"state":"active","ping":40},{"user_id":373,"name":"Ducks","steam_id":76561198130038345,"connected_time":1295000000000,"state":"active","ping":69},{"user_id":355,"name":"Korey","steam_id":76561198210734407,"connected_time":3580000000000,"state":"active","ping":115},{"user_id":359,"name":"Toad :)","steam_id":76561198163008022,"connected_time":3304000000000,"state":"active","ping":48},{"user_id":379,"name":"Mignyanne :3","steam_id":76561198048754056,"connected_time":257000000000,"state":"active","ping":68}]},{"server_id":119,"name":"Uncletopia | Seattle | 2 | All Maps","name_short":"sea-2","host":"sea-1.us.uncletopia.com","port":27025,"enabled":true,"region":"us-west","cc":"us","latitude":47.608013,"longitude":-122.33517,"reserved":0,"last_update":"0001-01-01T00:00:00Z","name_a2s":"Uncletopia | Seattle | 2 | All Maps","protocol":17,"map":"pl_frontier_final","folder":"tf","game":"Team Fortress","app_id":440,"player_count":23,"max_players":24,"Bots":0,"server_type":"Dedicated","server_os":"Linux","password":true,"vac":true,"version":"7757534","steam_id":85568392924469998,"keywords":["nocrits","nodmgspread","payload","uncletopia"],"game_id":440,"stv_port":27026,"stv_name":"Uncletopia | Seattle | 2 | All Maps | STV","players":[{"user_id":11,"name":"WaffleWithNoToppings","steam_id":76561199088280111,"connected_time":12419000000000,"state":"active","ping":53},{"user_id":164,"name":"Burrito","steam_id":76561199453910560,"connected_time":528000000000,"state":"active","ping":101},{"user_id":172,"name":"Simply_Komeiji","steam_id":76561198354177703,"connected_time":5000000000,"state":"spawning","ping":95},{"user_id":129,"name":"shy guy","steam_id":76561198151246059,"connected_time":2615000000000,"state":"active","ping":68},{"user_id":145,"name":"SuperFresh","steam_id":76561198200723198,"connected_time":1650000000000,"state":"active","ping":87},{"user_id":166,"name":"TheGreatDong","steam_id":76561198000634178,"connected_time":505000000000,"state":"active","ping":83},{"user_id":159,"name":"Mr8bittripper","steam_id":76561198133894229,"connected_time":603000000000,"state":"active","ping":43},{"user_id":149,"name":"ShiftShock01","steam_id":76561199049488870,"connected_time":1593000000000,"state":"active","ping":52},{"user_id":140,"name":"blahturretx","steam_id":76561198062998225,"connected_time":1874000000000,"state":"active","ping":68},{"user_id":171,"name":"Trolldier 76","steam_id":76561198036504161,"connected_time":17000000000,"state":"spawning","ping":166},{"user_id":161,"name":"Blue Banana","steam_id":76561198100077411,"connected_time":563000000000,"state":"active","ping":75},{"user_id":107,"name":"Novaside","steam_id":76561198079461961,"connected_time":5190000000000,"state":"active","ping":138},{"user_id":152,"name":"jams","steam_id":76561198131701290,"connected_time":1529000000000,"state":"active","ping":75},{"user_id":170,"name":"BigRigger82","steam_id":76561198317918317,"connected_time":135000000000,"state":"active","ping":100},{"user_id":147,"name":"Icy","steam_id":76561198125015366,"connected_time":1634000000000,"state":"active","ping":112},{"user_id":169,"name":"money getter","steam_id":76561199065645094,"connected_time":414000000000,"state":"active","ping":85},{"user_id":136,"name":"land0","steam_id":76561198321264704,"connected_time":2255000000000,"state":"active","ping":86},{"user_id":156,"name":"Roberto‚Ñ¢","steam_id":76561198856969918,"connected_time":1193000000000,"state":"active","ping":84},{"user_id":153,"name":"Cheeki","steam_id":76561198024375176,"connected_time":1506000000000,"state":"active","ping":101},{"user_id":154,"name":"goob the 3st","steam_id":76561198158735758,"connected_time":1504000000000,"state":"active","ping":127},{"user_id":157,"name":"Snake","steam_id":76561198161498557,"connected_time":960000000000,"state":"active","ping":76},{"user_id":155,"name":"OrangeShoes","steam_id":76561197971249940,"connected_time":1502000000000,"state":"active","ping":128},{"user_id":73,"name":"The Pepsi¬Æ Superbowl¬Æ!","steam_id":76561198080828981,"connected_time":7813000000000,"state":"active","ping":75}]},{"server_id":406,"name":"Uncletopia | Seattle | 3 | Stopwatch Beta","name_short":"sea-3","host":"sea-1.us.uncletopia.com","port":27035,"enabled":true,"region":"us-west","cc":"us","latitude":47.608013,"longitude":-122.33517,"reserved":0,"last_update":"0001-01-01T00:00:00Z","name_a2s":"Uncletopia | Seattle | 3 | Stopwatch Beta","protocol":17,"map":"cp_process_final","folder":"tf","game":"Team Fortress","app_id":440,"player_count":0,"max_players":24,"Bots":0,"server_type":"Dedicated","server_os":"Linux","password":true,"vac":true,"version":"7757534","steam_id":85568392924515217,"keywords":["cp","nocrits","nodmgspread","uncletopia"],"game_id":440,"stv_port":27036,"stv_name":"Uncletopia | Seattle | 3 | Stopwatch Beta | STV","players":null},{"server_id":17,"name":"Uncletopia | San Francisco | 1 | All Maps","name_short":"sfo-1","host":"sfo-1.us.uncletopia.com","port":27015,"enabled":true,"region":"us-west","cc":"us","latitude":37.77397,"longitude":-122.4313,"reserved":0,"last_update":"0001-01-01T00:00:00Z","name_a2s":"Uncletopia | San Francisco | 1 | All Maps","protocol":17,"map":"koth_highpass","folder":"tf","game":"Team Fortress","app_id":440,"player_count":0,"max_players":24,"Bots":0,"server_type":"Dedicated","server_os":"Linux","password":true,"vac":true,"version":"7757534","steam_id":85568392924469999,"keywords":["cp","nocrits","nodmgspread","uncletopia"],"game_id":440,"stv_port":27016,"stv_name":"Uncletopia | San Francisco | 1 | All Maps | STV","players":null},{"server_id":18,"name":"Uncletopia | San Francisco | 2 | All Maps","name_short":"sfo-2","host":"sfo-1.us.uncletopia.com","port":27025,"enabled":true,"region":"us-west","cc":"us","latitude":37.77397,"longitude":-122.4313,"reserved":0,"last_update":"0001-01-01T00:00:00Z","name_a2s":"Uncletopia | San Francisco | 2 | All Maps","protocol":17,"map":"koth_viaduct","folder":"tf","game":"Team Fortress","app_id":440,"player_count":0,"max_players":24,"Bots":0,"server_type":"Dedicated","server_os":"Linux","password":true,"vac":true,"version":"7757534","steam_id":85568392924470000,"keywords":["cp","nocrits","nodmgspread","uncletopia"],"game_id":440,"stv_port":27026,"stv_name":"Uncletopia | San Francisco | 2 | All Maps | STV","players":null},{"server_id":19,"name":"Uncletopia | San Francisco | 3 | Stopwatch Beta","name_short":"sfo-3","host":"sfo-1.us.uncletopia.com","port":27035,"enabled":true,"region":"us-west","cc":"us","latitude":37.77397,"longitude":-122.4313,"reserved":0,"last_update":"0001-01-01T00:00:00Z","name_a2s":"Uncletopia | San Francisco | 3 | Stopwatch Beta","protocol":17,"map":"cp_snakewater_final1","folder":"tf","game":"Team Fortress","app_id":440,"player_count":0,"max_players":24,"Bots":0,"server_type":"Dedicated","server_os":"Linux","password":true,"vac":true,"version":"7757534","steam_id":85568392924742824,"keywords":["cp","nocrits","nodmgspread","uncletopia"],"game_id":440,"stv_port":27036,"stv_name":"Uncletopia | San Francisco | 3 | Stopwatch Beta | STV","players":null},{"server_id":20,"name":"Uncletopia | San Francisco | 4 | Community","name_short":"sfo-4","host":"sfo-1.us.uncletopia.com","port":27045,"enabled":true,"region":"us-west","cc":"us","latitude":37.77397,"longitude":-122.4313,"reserved":0,"last_update":"0001-01-01T00:00:00Z","name_a2s":"Uncletopia | San Francisco | 4 | Community","protocol":17,"map":"pl_frontier_final","folder":"tf","game":"Team Fortress","app_id":440,"player_count":0,"max_players":24,"Bots":0,"server_type":"Dedicated","server_os":"Linux","password":true,"vac":true,"version":"7757534","steam_id":85568392924742826,"keywords":["nocrits","nodmgspread","payload","uncletopia"],"game_id":440,"stv_port":27046,"stv_name":"Uncletopia | San Francisco | 4 | Community | STV","players":null},{"server_id":141,"name":"Uncletopia | Sydney | 1 | All Maps","name_short":"syd-1","host":"syd-1.au.uncletopia.com","port":27015,"enabled":true,"region":"au","cc":"au","latitude":-33.865143,"longitude":151.2099,"reserved":0,"last_update":"0001-01-01T00:00:00Z","name_a2s":"Uncletopia | Sydney | 1 | All Maps","protocol":17,"map":"pl_borneo","folder":"tf","game":"Team Fortress","app_id":440,"player_count":0,"max_players":24,"Bots":0,"server_type":"Dedicated","server_os":"Linux","password":true,"vac":true,"version":"7757534","steam_id":85568392924470001,"keywords":["nocrits","nodmgspread","payload","uncletopia"],"game_id":440,"stv_port":27016,"stv_name":"Uncletopia | Sydney | 1 | All Maps | STV","players":null},{"server_id":123,"name":"Uncletopia | Sydney | 2 | All Maps","name_short":"syd-2","host":"syd-1.au.uncletopia.com","port":27025,"enabled":true,"region":"au","cc":"au","latitude":-33.865143,"longitude":151.2099,"reserved":0,"last_update":"0001-01-01T00:00:00Z","name_a2s":"Uncletopia | Sydney | 2 | All Maps","protocol":17,"map":"pl_upward","folder":"tf","game":"Team Fortress","app_id":440,"player_count":0,"max_players":24,"Bots":0,"server_type":"Dedicated","server_os":"Linux","password":true,"vac":true,"version":"7757534","steam_id":85568392924470002,"keywords":["nocrits","nodmgspread","payload","uncletopia"],"game_id":440,"stv_port":27026,"stv_name":"Uncletopia | Sydney | 2 | All Maps | STV","players":null},{"server_id":395,"name":"Uncletopia | Sydney | 3 | All Maps","name_short":"syd-3","host":"syd-1.au.uncletopia.com","port":27035,"enabled":true,"region":"au","cc":"au","latitude":-33.865143,"longitude":151.2099,"reserved":0,"last_update":"0001-01-01T00:00:00Z","name_a2s":"Uncletopia | Sydney | 3 | All Maps","protocol":17,"map":"pl_borneo","folder":"tf","game":"Team Fortress","app_id":440,"player_count":0,"max_players":24,"Bots":0,"server_type":"Dedicated","server_os":"Linux","password":true,"vac":true,"version":"7757534","steam_id":85568392925194467,"keywords":["nocrits","nodmgspread","payload","uncletopia"],"game_id":440,"stv_port":27036,"stv_name":"Uncletopia | Sydney | 3 | All Maps | STV","players":null},{"server_id":396,"name":"Uncletopia | Sydney | 4 | All Maps","name_short":"syd-4","host":"syd-1.au.uncletopia.com","port":27045,"enabled":true,"region":"au","cc":"au","latitude":-33.865143,"longitude":151.2099,"reserved":0,"last_update":"0001-01-01T00:00:00Z","name_a2s":"Uncletopia | Sydney | 4 | All Maps","protocol":17,"map":"cp_process_final","folder":"tf","game":"Team Fortress","app_id":440,"player_count":0,"max_players":24,"Bots":0,"server_type":"Dedicated","server_os":"Linux","password":true,"vac":true,"version":"7757534","steam_id":85568392925397958,"keywords":["cp","nocrits","nodmgspread","uncletopia"],"game_id":440,"stv_port":27046,"stv_name":"Uncletopia | Sydney | 4 | All Maps | STV","players":null},{"server_id":58,"name":"Uncletopia | Sydney | 5 | Stopwatch Beta","name_short":"syd-5","host":"syd-1.au.uncletopia.com","port":27055,"enabled":true,"region":"au","cc":"au","latitude":-33.865143,"longitude":151.2099,"reserved":0,"last_update":"0001-01-01T00:00:00Z","name_a2s":"Uncletopia | Sydney | 5 | Stopwatch Beta","protocol":17,"map":"koth_cascade","folder":"tf","game":"Team Fortress","app_id":440,"player_count":0,"max_players":24,"Bots":0,"server_type":"Dedicated","server_os":"Linux","password":true,"vac":true,"version":"7757534","steam_id":85568392925397959,"keywords":["cp","nocrits","nodmgspread","uncletopia"],"game_id":440,"stv_port":27056,"stv_name":"Uncletopia | Sydney | 5 | Stopwatch Beta | STV","players":null},{"server_id":59,"name":"Uncletopia | Sydney | 6 | Community","name_short":"syd-6","host":"syd-1.au.uncletopia.com","port":27065,"enabled":true,"region":"au","cc":"au","latitude":-33.865143,"longitude":151.2099,"reserved":0,"last_update":"0001-01-01T00:00:00Z","name_a2s":"Uncletopia | Sydney | 6 | Community","protocol":17,"map":"pl_badwater","folder":"tf","game":"Team Fortress","app_id":440,"player_count":0,"max_players":24,"Bots":0,"server_type":"Dedicated","server_os":"Linux","password":true,"vac":true,"version":"7757534","steam_id":85568392925397960,"keywords":["nocrits","nodmgspread","payload","uncletopia"],"game_id":440,"stv_port":27066,"stv_name":"Uncletopia | Sydney | 6 | Community | STV","players":null},{"server_id":49,"name":"Uncletopia | Warsaw | 1 | All Maps","name_short":"waw-1","host":"waw-1.pl.uncletopia.com","port":27015,"enabled":true,"region":"eu","cc":"pl","latitude":52.2297,"longitude":21.017532,"reserved":0,"last_update":"0001-01-01T00:00:00Z","name_a2s":"","protocol":0,"map":"","folder":"","game":"","app_id":0,"player_count":0,"max_players":0,"Bots":0,"server_type":"","server_os":"","password":false,"vac":false,"version":"","steam_id":0,"keywords":null,"game_id":0,"stv_port":0,"stv_name":"","players":null},{"server_id":50,"name":"Uncletopia | Warsaw | 2 | All Maps","name_short":"waw-2","host":"waw-1.pl.uncletopia.com","port":27025,"enabled":true,"region":"eu","cc":"pl","latitude":52.2297,"longitude":21.017532,"reserved":0,"last_update":"0001-01-01T00:00:00Z","name_a2s":"Uncletopia | Warsaw | 2 | All Maps","protocol":17,"map":"koth_highpass","folder":"tf","game":"Team Fortress","app_id":440,"player_count":0,"max_players":24,"Bots":0,"server_type":"Dedicated","server_os":"Linux","password":true,"vac":true,"version":"7757534","steam_id":85568392925397851,"keywords":["cp","nocrits","nodmgspread","uncletopia"],"game_id":440,"stv_port":27026,"stv_name":"Uncletopia | Warsaw | 2 | All Maps | STV","players":null},{"server_id":51,"name":"Uncletopia | Warsaw | 3 | All Maps","name_short":"waw-3","host":"waw-1.pl.uncletopia.com","port":27035,"enabled":true,"region":"eu","cc":"pl","latitude":52.2297,"longitude":21.017532,"reserved":0,"last_update":"0001-01-01T00:00:00Z","name_a2s":"Uncletopia | Warsaw | 3 | All Maps","protocol":17,"map":"pl_pier","folder":"tf","game":"Team Fortress","app_id":440,"player_count":0,"max_players":24,"Bots":0,"server_type":"Dedicated","server_os":"Linux","password":true,"vac":true,"version":"7757534","steam_id":85568392925397852,"keywords":["nocrits","nodmgspread","payload","uncletopia"],"game_id":440,"stv_port":27036,"stv_name":"Uncletopia | Warsaw | 3 | All Maps | STV","players":null},{"server_id":52,"name":"Uncletopia | Warsaw | 4 | All Maps","name_short":"waw-4","host":"waw-1.pl.uncletopia.com","port":27045,"enabled":true,"region":"eu","cc":"pl","latitude":52.2297,"longitude":21.017532,"reserved":0,"last_update":"0001-01-01T00:00:00Z","name_a2s":"Uncletopia | Warsaw | 4 | All Maps","protocol":17,"map":"koth_highpass","folder":"tf","game":"Team Fortress","app_id":440,"player_count":0,"max_players":24,"Bots":0,"server_type":"Dedicated","server_os":"Linux","password":true,"vac":true,"version":"7757534","steam_id":85568392925397853,"keywords":["cp","nocrits","nodmgspread","uncletopia"],"game_id":440,"stv_port":27046,"stv_name":"Uncletopia | Warsaw | 4 | All Maps | STV","players":null},{"server_id":53,"name":"Uncletopia | Warsaw | 5 | Stopwatch Beta","name_short":"waw-5","host":"waw-1.pl.uncletopia.com","port":27055,"enabled":true,"region":"eu","cc":"pl","latitude":52.2297,"longitude":21.017532,"reserved":0,"last_update":"0001-01-01T00:00:00Z","name_a2s":"Uncletopia | Warsaw | 5 | Stopwatch Beta","protocol":17,"map":"pl_pier","folder":"tf","game":"Team Fortress","app_id":440,"player_count":0,"max_players":24,"Bots":0,"server_type":"Dedicated","server_os":"Linux","password":true,"vac":true,"version":"7757534","steam_id":85568392925397854,"keywords":["nocrits","nodmgspread","payload","uncletopia"],"game_id":440,"stv_port":27056,"stv_name":"Uncletopia | Warsaw | 5 | Stopwatch Beta | STV","players":null},{"server_id":54,"name":"Uncletopia | Warsaw | 6 | Community","name_short":"waw-6","host":"waw-1.pl.uncletopia.com","port":27065,"enabled":true,"region":"eu","cc":"pl","latitude":52.2297,"longitude":21.017532,"reserved":0,"last_update":"0001-01-01T00:00:00Z","name_a2s":"Uncletopia | Warsaw | 6 | Community","protocol":17,"map":"koth_highpass","folder":"tf","game":"Team Fortress","app_id":440,"player_count":0,"max_players":24,"Bots":0,"server_type":"Dedicated","server_os":"Linux","password":true,"vac":true,"version":"7757534","steam_id":85568392925397856,"keywords":["cp","nocrits","nodmgspread","uncletopia"],"game_id":440,"stv_port":27066,"stv_name":"Uncletopia | Warsaw | 6 | Community | STV","players":null}]}