{"status":true,"message":"","result":[{"server_id":9,"name":"Uncletopia | Atlanta | 1 | All Maps","name_short":"atl-1","host":"atl-1.us.uncletopia.com","port":27015,"enabled":true,"region":"us-east","cc":"us","latitude":33.753746,"longitude":-84.38633,"reserved":0,"last_update":"0001-01-01T00:00:00Z","name_a2s":"Uncletopia | Atlanta | 1 | All Maps","protocol":17,"map":"pl_upward","folder":"tf","game":"Team Fortress","app_id":440,"player_count":24,"max_players":24,"Bots":0,"server_type":"Dedicated","server_os":"Linux","password":true,"vac":true,"version":"7757534","steam_id":85568392924469982,"keywords":["nocrits","nodmgspread","payload","uncletopia"],"game_id":440,"stv_port":27016,"stv_name":"Uncletopia | Atlanta | 1 | All Maps | STV","players":[{"user_id":193,"name":"morphine","steam_id":76561198072124799,"connected_time":1128000000000,"state":"active","ping":92},{"user_id":191,"name":"MjrMovnTARGET","steam_id":76561199125908849,"connected_time":1899000000000,"state":"active","ping":79},{"user_id":197,"name":"Jrock","steam_id":76561198045715996,"connected_time":1006000000000,"state":"active","ping":80},{"user_id":196,"name":"Bow_","steam_id":76561198109608134,"connected_time":1086000000000,"state":"active","ping":90},{"user_id":163,"name":"xX_HimboSwallower_Xx","steam_id":76561198016029965,"connected_time":5179000000000,"state":"active","ping":71},{"user_id":173,"name":"William Wallace","steam_id":76561199343316814,"connected_time":3834000000000,"state":"active","ping":62},{"user_id":202,"name":"Jona2180","steam_id":76561198807012900,"connected_time":178000000000,"state":"active","ping":61},{"user_id":183,"name":"bautismo","steam_id":76561198158106743,"connected_time":2513000000000,"state":"active","ping":120},{"user_id":192,"name":"BackwardsEagle","steam_id":76561199013712612,"connected_time":1465000000000,"state":"active","ping":73},{"user_id":150,"name":"Albino Jellyfish","steam_id":76561198208561097,"connected_time":7423000000000,"state":"active","ping":66},{"user_id":190,"name":"lil cock ass","steam_id":76561198242842394,"connected_time":2011000000000,"state":"active","ping":93},{"user_id":187,"name":"Flying Emu","steam_id":76561198121632924,"connected_time":2280000000000,"state":"active","ping":70},{"user_id":149,"name":"ror!","steam_id":76561198021227843,"connected_time":7988000000000,"state":"active","ping":73},{"user_id":198,"name":"HarryjusttHarry","steam_id":76561198982810452,"connected_time":762000000000,"state":"active","ping":75},{"user_id":84,"name":"Ashes!","steam_id":76561197998475441,"connected_time":13506000000000,"state":"active","ping":70},{"user_id":121,"name":"VALENCE","steam_id":76561198118492031,"connected_time":10352000000000,"state":"active","ping":99},{"user_id":178,"name":"RarestGuide","steam_id":76561198050338923,"connected_time":3308000000000,"state":"active","ping":73},{"user_id":179,"name":"Ziath","steam_id":76561198094009164,"connected_time":3147000000000,"state":"active","ping":65},{"user_id":199,"name":"John Darksoul","steam_id":76561198999712284,"connected_time":540000000000,"state":"active","ping":90},{"user_id":200,"name":"Pixler544","steam_id":76561198240575132,"connected_time":421000000000,"state":"active","ping":62},{"user_id":195,"name":"troll","steam_id":76561198040890252,"connected_time":1116000000000,"state":"active","ping":56},{"user_id":169,"name":"miffed pocky","steam_id":76561198380244743,"connected_time":5100000000000,"state":"active","ping":51},{"user_id":181,"name":"Ninty","steam_id":76561199364725776,"connected_time":2923000000000,"state":"active","ping":75},{"user_id":154,"name":"AlmondMilk","steam_id":76561198151229725,"connected_time":6798000000000,"state":"active","ping":48}]},{"server_id":104,"name":"Uncletopia | Atlanta | 2 | All Maps","name_short":"atl-2","host":"atl-1.us.uncletopia.com","port":27025,"enabled":true,"region":"us-east","cc":"us","latitude":33.753746,"longitude":-84.38633,"reserved":0,"last_update":"0001-01-01T00:00:00Z","name_a2s":"Uncletopia | Atlanta | 2 | All Maps","protocol":17,"map":"koth_highpass","folder":"tf","game":"Team Fortress","app_id":440,"player_count":0,"max_players":24,"Bots":0,"server_type":"Dedicated","server_os":"Linux","password":true,"vac":true,"version":"7757534","steam_id":85568392924469983,"keywords":["cp","nocrits","nodmgspread","uncletopia"],"game_id":440,"stv_port":27026,"stv_name":"Uncletopia | Atlanta | 2 | All Maps | STV","players":null},{"server_id":400,"name":"Uncletopia | Atlanta | 3 | Community","name_short":"atl-3","host":"atl-1.us.uncletopia.com","port":27035,"enabled":true,"region":"us-east","cc":"us","latitude":33.753746,"longitude":-84.38633,"reserved":0,"last_update":"0001-01-01T00:00:00Z","name_a2s":"Uncletopia | Atlanta | 3 | Community","protocol":17,"map":"cp_snakewater_final1","folder":"tf","game":"Team Fortress","app_id":440,"player_count":0,"max_players":24,"Bots":0,"server_type":"Dedicated","server_os":"Linux","password":true,"vac":true,"version":"7757534","steam_id":85568392924515187,"keywords":["cp","nocrits","nodmgspread","uncletopia"],"game_id":440,"stv_port":27036,"stv_name":"Uncletopia | Atlanta | 3 | Community | STV","players":null},{"server_id":401,"name":"Uncletopia | Atlanta | 4 | No Payload","name_short":"atl-4","host":"atl-1.us.uncletopia.com","port":27045,"enabled":true,"region":"us-east","cc":"us","latitude":33.753746,"longitude":-84.38633,"reserved":0,"last_update":"0001-01-01T00:00:00Z","name_a2s":"","protocol":0,"map":"","folder":"","game":"","app_id":0,"player_count":0,"max_players":0,"Bots":0,"server_type":"","server_os":"","password":false,"vac":false,"version":"","steam_id":0,"keywords":null,"game_id":0,"stv_port":0,"stv_name":"","players":null},{"server_id":2,"name":"Uncletopia | Chicago | 1 | All Maps","name_short":"chi-1","host":"chi-1.us.uncletopia.com","port":27015,"enabled":true,"region":"us-central","cc":"us","latitude":41.881832,"longitude":-87.62318,"reserved":0,"last_update":"0001-01-01T00:00:00Z","name_a2s":"Uncletopia | Chicago | 1 | All Maps","protocol":17,"map":"pl_swiftwater_final1","folder":"tf","game":"Team Fortress","app_id":440,"player_count":25,"max_players":24,"Bots":0,"server_type":"Dedicated","server_os":"Linux","password":true,"vac":true,"version":"7757534","steam_id":85568392924469984,"keywords":["nocrits","nodmgspread","payload","uncletopia"],"game_id":440,"stv_port":27016,"stv_name":"Uncletopia | Chicago | 1 | All Maps | STV","players":[{"user_id":499,"name":"Congcrab","steam_id":76561198078687685,"connected_time":254000000000,"state":"active","ping":93},{"user_id":474,"name":"NUt","steam_id":76561198031007966,"connected_time":926000000000,"state":"active","ping":69},{"user_id":495,"name":"Smoker Lung","steam_id":76561198077167395,"connected_time":419000000000,"state":"active","ping":46},{"user_id":443,"name":"schizophrenic Stack stan","steam_id":76561198214370515,"connected_time":1548000000000,"state":"active","ping":70},{"user_id":318,"name":"roman","steam_id":76561198170066797,"connected_time":8760000000000,"state":"active","ping":64},{"user_id":476,"name":"Assitins","steam_id":76561198041572892,"connected_time":830000000000,"state":"active","ping":67},{"user_id":496,"name":"Speedy","steam_id":76561198080761661,"connected_time":347000000000,"state":"active","ping":75},{"user_id":446,"name":"g00bur","steam_id":76561197993622520,"connected_time":1503000000000,"state":"active","ping":70},{"user_id":410,"name":"Retro Phoenix","steam_id":76561198077176271,"connected_time":2329000000000,"state":"active","ping":63},{"user_id":505,"name":"Hindmost","steam_id":76561199081837220,"connected_time":157000000000,"state":"active","ping":83},{"user_id":479,"name":"nalezinik","steam_id":76561198030026119,"connected_time":798000000000,"state":"active","ping":61},{"user_id":503,"name":"negev man","steam_id":76561198995911467,"connected_time":180000000000,"state":"active","ping":194},{"user_id":444,"name":"Buswolley","steam_id":76561197995205571,"connected_time":1522000000000,"state":"active","ping":101},{"user_id":445,"name":"sound","steam_id":76561199053033603,"connected_time":1514000000000,"state":"active","ping":148},{"user_id":447,"name":"hud_saytext_time 0","steam_id":76561198010327228,"connected_time":1457000000000,"state":"active","ping":166},{"user_id":497,"name":"Chaotic Rushu","steam_id":76561198170054407,"connected_time":277000000000,"state":"active","ping":82},{"user_id":511,"name":"6t26j","steam_id":76561198278282836,"connected_time":2000000000,"state":"spawning","ping":45},{"user_id":334,"name":"vv","steam_id":76561198134813102,"connected_time":7877000000000,"state":"active","ping":59},{"user_id":491,"name":"anonpain","steam_id":76561198081317092,"connected_time":638000000000,"state":"active","ping":50},{"user_id":484,"name":"Rohi Mig","steam_id":76561198113623627,"connected_time":769000000000,"state":"active","ping":71},{"user_id":348,"name":"carly rae jepsen","steam_id":76561198336144991,"connected_time":6380000000000,"state":"active","ping":75},{"user_id":510,"name":"FROYO domando","steam_id":76561199150367705,"connected_time":56000000000,"state":"active","ping":96},{"user_id":494,"name":"Big Sauce","steam_id":76561198046654750,"connected_time":549000000000,"state":"active","ping":73},{"user_id":501,"name":"Broadsword","steam_id":76561198011160411,"connected_time":249000000000,"state":"active","ping":91},{"user_id":506,"name":"F0restFerret","steam_id":76561199112458876,"connected_time":143000000000,"state":"active","ping":70}]},{"server_id":106,"name":"Uncletopia | Chicago | 2 | All Maps","name_short":"chi-2","host":"chi-1.us.uncletopia.com","port":27025,"enabled":true,"region":"us-central","cc":"us","latitude":41.881832,"longitude":-87.62318,"reserved":0,"last_update":"0001-01-01T00:00:00Z","name_a2s":"Uncletopia | Chicago | 2 | All Maps","protocol":17,"map":"pl_upward","folder":"tf","game":"Team Fortress","app_id":440,"player_count":24,"max_players":24,"Bots":0,"server_type":"Dedicated","server_os":"Linux","password":true,"vac":true,"version":"7757534","steam_id":85568392924469985,"keywords":["nocrits","nodmgspread","payload","uncletopia"],"game_id":440,"stv_port":27026,"stv_name":"Uncletopia | Chicago | 2 | All Maps | STV","players":[{"user_id":89,"name":"Pumpkin Spice","steam_id":76561198058356815,"connected_time":8411000000000,"state":"active","ping":60},{"user_id":190,"name":"Cassius","steam_id":76561198146163328,"connected_time":299000000000,"state":"active","ping":78},{"user_id":172,"name":"alpha1zer0ready","steam_id":76561199206731331,"connected_time":1223000000000,"state":"active","ping":92},{"user_id":187,"name":"BasicPeaches","steam_id":76561198190890150,"connected_time":554000000000,"state":"active","ping":80},{"user_id":178,"name":"Good Lad","steam_id":76561198077784214,"connected_time":906000000000,"state":"active","ping":99},{"user_id":191,"name":"LocaKola","steam_id":76561198173435430,"connected_time":253000000000,"state":"active","ping":78},{"user_id":179,"name":"Jiggs Le Stupid Bitch","steam_id":76561199008904686,"connected_time":886000000000,"state":"active","ping":160},{"user_id":139,"name":"PEPSI POWERED MAN","steam_id":76561198362668431,"connected_time":4046000000000,"state":"active","ping":105},{"user_id":140,"name":"GIGAMODE","steam_id":76561198027140064,"connected_time":4043000000000,"state":"active","ping":70},{"user_id":189,"name":"I eat Ass","steam_id":76561199203352781,"connected_time":319000000000,"state":"active","ping":163},{"user_id":182,"name":"OHGODBEES!","steam_id":76561198000653374,"connected_time":756000000000,"state":"active","ping":137},{"user_id":164,"name":"Samitch","steam_id":76561198038247982,"connected_time":1977000000000,"state":"active","ping":60},{"user_id":173,"name":"Genius Meme","steam_id":76561198162911254,"connected_time":1223000000000,"state":"active","ping":106},{"user_id":170,"name":"LVL 4 Dispenser Gaming","steam_id":76561198044244547,"connected_time":1248000000000,"state":"active","ping":79},{"user_id":193,"name":"Ass Blassum","steam_id":76561198095571628,"connected_time":143000000000,"state":"active","ping":81},{"user_id":165,"name":"a Salty Individual","steam_id":76561197979951077,"connected_time":1949000000000,"state":"active","ping":118},{"user_id":192,"name":"nicholas.cortese","steam_id":76561199472818002,"connected_time":186000000000,"state":"active","ping":60},{"user_id":135,"name":"drooskie","steam_id":76561198036083886,"connected_time":4230000000000,"state":"active","ping":77},{"user_id":175,"name":"rabscootle","steam_id":76561198045619076,"connected_time":1063000000000,"state":"active","ping":54},{"user_id":147,"name":"Pot Head Pixie","steam_id":76561198083024504,"connected_time":3889000000000,"state":"active","ping":56},{"user_id":167,"name":"Car Crash","steam_id":76561199086615041,"connected_time":1883000000000,"state":"active","ping":51},{"user_id":194,"name":"Mr.noob","steam_id":76561199200442395,"connected_time":6000000000,"state":"spawning","ping":167},{"user_id":113,"name":"Ask Nicely For Heals","steam_id":76561198138478907,"connected_time":6139000000000,"state":"active","ping":77},{"user_id":168,"name":"PEPPINO SPAGHETTI","steam_id":76561198084849541,"connected_time":1867000000000,"state":"active","ping":60}]},{"server_id":402,"name":"Uncletopia | Chicago | 3 | All Maps","name_short":"chi-3","host":"chi-1.us.uncletopia.com","port":27035,"enabled":true,"region":"us-central","cc":"us","latitude":41.881832,"longitude":-87.62318,"reserved":0,"last_update":"0001-01-01T00:00:00Z","name_a2s":"Uncletopia | Chicago | 3 | All Maps","protocol":17,"map":"pl_barnblitz","folder":"tf","game":"Team Fortress","app_id":440,"player_count":24,"max_players":24,"Bots":0,"server_type":"Dedicated","server_os":"Linux","password":true,"vac":true,"version":"7757534","steam_id":85568392924515191,"keywords":["nocrits","nodmgspread","payload","uncletopia"],"game_id":440,"stv_port":27036,"stv_name":"Uncletopia | Chicago | 3 | All Maps | STV","players":[{"user_id":276,"name":"Also Known As Assteeth","steam_id":76561198049837377,"connected_time":1997000000000,"state":"active","ping":45},{"user_id":273,"name":"Bonk my Balls","steam_id":76561198070154445,"connected_time":2101000000000,"state":"active","ping":77},{"user_id":263,"name":"Indicative","steam_id":76561199076612537,"connected_time":2394000000000,"state":"active","ping":77},{"user_id":284,"name":"nurp","steam_id":76561198071687616,"connected_time":967000000000,"state":"active","ping":60},{"user_id":178,"name":"Derpydude2002","steam_id":76561198811719519,"connected_time":5886000000000,"state":"active","ping":69},{"user_id":285,"name":"Fartly","steam_id":76561197987805095,"connected_time":576000000000,"state":"active","ping":106},{"user_id":289,"name":"dx","steam_id":76561198335496355,"connected_time":321000000000,"state":"active","ping":66},{"user_id":252,"name":"robo-larkey","steam_id":76561198844502582,"connected_time":3327000000000,"state":"active","ping":72},{"user_id":283,"name":"Lovedaddy","steam_id":76561198006569710,"connected_time":1222000000000,"state":"active","ping":81},{"user_id":256,"name":"Jill Stingray","steam_id":76561198074209737,"connected_time":2945000000000,"state":"active","ping":62},{"user_id":281,"name":"Gary Budussy","steam_id":76561197969793969,"connected_time":1470000000000,"state":"active","ping":67},{"user_id":205,"name":"WatchWill","steam_id":76561198157237945,"connected_time":5039000000000,"state":"active","ping":78},{"user_id":260,"name":"AstroVulpes","steam_id":76561198384277161,"connected_time":2447000000000,"state":"active","ping":159},{"user_id":286,"name":"Uzi bin Laden","steam_id":76561198218811453,"connected_time":527000000000,"state":"active","ping":75},{"user_id":290,"name":"Lowvast","steam_id":76561198068455981,"connected_time":281000000000,"state":"active","ping":76},{"user_id":266,"name":"C papi","steam_id":76561198027779564,"connected_time":2348000000000,"state":"active","ping":55},{"user_id":270,"name":"♥_0ak lynn_♥","steam_id":76561198080197090,"connected_time":2189000000000,"state":"active","ping":74},{"user_id":279,"name":"tulpa","steam_id":76561198013253513,"connected_time":1705000000000,"state":"active","ping":79},{"user_id":261,"name":"capybara","steam_id":76561198182288455,"connected_time":2442000000000,"state":"active","ping":66},{"user_id":291,"name":"hog rider","steam_id":76561198449091814,"connected_time":273000000000,"state":"active","ping":62},{"user_id":271,"name":"Deeply","steam_id":76561199000786530,"connected_time":2172000000000,"state":"active","ping":66},{"user_id":177,"name":"Nassu","steam_id":76561198147367577,"connected_time":5994000000000,"state":"active","ping":72},{"user_id":255,"name":"Raptortastic","steam_id":76561198105613110,"connected_time":3030000000000,"state":"active","ping":48},{"user_id":272,"name":"moah380","steam_id":76561198090644581,"connected_time":2124000000000,"state":"active","ping":115}]},{"server_id":403,"name":"Uncletopia | Chicago | 4 | All Maps","name_short":"chi-4","host":"chi-1.us.uncletopia.com","port":27045,"enabled":true,"region":"us-central","cc":"us","latitude":41.881832,"longitude":-87.62318,"reserved":0,"last_update":"0001-01-01T00:00:00Z","name_a2s":"Uncletopia | Chicago | 4 | All Maps","protocol":17,"map":"koth_lakeside_final","folder":"tf","game":"Team Fortress","app_id":440,"player_count":0,"max_players":24,"Bots":0,"server_type":"Dedicated","server_os":"Linux","password":true,"vac":true,"version":"7757534","steam_id":85568392924515193,"keywords":["cp","nocrits","nodmgspread","uncletopia"],"game_id":440,"stv_port":27046,"stv_name":"Uncletopia | Chicago | 4 | All Maps | STV","players":null},{"server_id":36,"name":"Uncletopia | Chicago | 5 | All Maps","name_short":"chi-5","host":"chi-2.us.uncletopia.com","port":27015,"enabled":true,"region":"us-central","cc":"us","latitude":41.881832,"longitude":-87.62318,"reserved":0,"last_update":"0001-01-01T00:00:00Z","name_a2s":"Uncletopia | Chicago | 5 | All Maps","protocol":17,"map":"koth_cascade","folder":"tf","game":"Team Fortress","app_id":440,"player_count":5,"max_players":24,"Bots":0,"server_type":"Dedicated","server_os":"Linux","password":true,"vac":true,"version":"7757534","steam_id":85568392924866362,"keywords":["cp","nocrits","nodmgspread","uncletopia"],"game_id":440,"stv_port":27016,"stv_name":"Uncletopia | Chicago | 5 | All Maps | STV","players":[{"user_id":9,"name":"-W3E- grim10465","steam_id":76561198045698581,"connected_time":105000000000,"state":"active","ping":45},{"user_id":6,"name":"turkeysarefriendsz","steam_id":76561199074521322,"connected_time":1568000000000,"state":"active","ping":109},{"user_id":7,"name":"Iron_Dave_Qc","steam_id":76561198159325213,"connected_time":1004000000000,"state":"active","ping":74},{"user_id":8,"name":"Frog Man","steam_id":76561198388738763,"connected_time":778000000000,"state":"active","ping":74},{"user_id":10,"name":"lukethepumpkin","steam_id":76561198204158335,"connected_time":83000000000,"state":"active","ping":66}]},{"server_id":37,"name":"Uncletopia | Chicago | 6 | All Maps","name_short":"chi-6","host":"chi-2.us.uncletopia.com","port":27025,"enabled":true,"region":"us-central","cc":"us","latitude":41.881832,"longitude":-87.62318,"reserved":0,"last_update":"0001-01-01T00:00:00Z","name_a2s":"Uncletopia | Chicago | 6 | All Maps","protocol":17,"map":"koth_highpass","folder":"tf","game":"Team Fortress","app_id":440,"player_count":0,"max_players":24,"Bots":0,"server_type":"Dedicated","server_os":"Linux","password":true,"vac":true,"version":"7757534","steam_id":85568392924866363,"keywords":["cp","nocrits","nodmgspread","uncletopia"],"game_id":440,"stv_port":27026,"stv_name":"Uncletopia | Chicago | 6 | All Maps | STV","players":null},{"server_id":38,"name":"Uncletopia | Chicago | 7 | Stopwatch Beta","name_short":"chi-7","host":"chi-2.us.uncletopia.com","port":27035,"enabled":true,"region":"us-central","cc":"us","latitude":41.881832,"longitude":-87.62318,"reserved":0,"last_update":"0001-01-01T00:00:00Z","name_a2s":"Uncletopia | Chicago | 7 | Stopwatch Beta","protocol":17,"map":"pl_barnblitz","folder":"tf","game":"Team Fortress","app_id":440,"player_count":0,"max_players":24,"Bots":0,"server_type":"Dedicated","server_os":"Linux","password":true,"vac":true,"version":"7757534","steam_id":85568392924866364,"keywords":["nocrits","nodmgspread","payload","uncletopia"],"game_id":440,"stv_port":27036,"stv_name":"Uncletopia | Chicago | 7 | Stopwatch Beta | STV","players":null},{"server_id":39,"name":"Uncletopia | Chicago | 8 | Community","name_short":"chi-8","host":"chi-2.us.uncletopia.com","port":27045,"enabled":true,"region":"us-central","cc":"us","latitude":41.881832,"longitude":-87.62318,"reserved":0,"last_update":"0001-01-01T00:00:00Z","name_a2s":"Uncletopia | Chicago | 8 | Community","protocol":17,"map":"workshop/cp_propaganda_b18.ugc1603743849","folder":"tf","game":"Team Fortress","app_id":440,"player_count":0,"max_players":24,"Bots":0,"server_type":"Dedicated","server_os":"Linux","password":true,"vac":true,"version":"7757534","steam_id":85568392924866365,"keywords":["cp","nocrits","nodmgspread","uncletopia"],"game_id":440,"stv_port":27046,"stv_name":"Uncletopia | Chicago | 8 | Community | STV","players":null},{"server_id":8,"name":"Uncletopia | Dallas | 1 | All Maps","name_short":"dal-1","host":"dal-1.us.uncletopia.com","port":27015,"enabled":true,"region":"us-central","cc":"us","latitude":32.779167,"longitude":-96.80889,"reserved":0,"last_update":"0001-01-01T00:00:00Z","name_a2s":"Uncletopia | Dallas | 1 | All Maps","protocol":17,"map":"pl_upward","folder":"tf","game":"Team Fortress","app_id":440,"player_count":3,"max_players":24,"Bots":0,"server_type":"Dedicated","server_os":"Linux","password":true,"vac":true,"version":"7757534","steam_id":85568392924469986,"keywords":["nocrits","nodmgspread","payload","uncletopia"],"game_id":440,"stv_port":27016,"stv_name":"Uncletopia | Dallas | 1 | All Maps | STV","players":[{"user_id":14,"name":"momb","steam_id":76561198142234038,"connected_time":1154000000000,"state":"active","ping":84},{"user_id":15,"name":"Husker414Pupper","steam_id":76561198812776770,"connected_time":859000000000,"state":"active","ping":58},{"user_id":17,"name":"WalrusIncarnate","steam_id":76561198059867060,"connected_time":684000000000,"state":"active","ping":76}]},{"server_id":108,"name":"Uncletopia | Dallas | 2 | All Maps","name_short":"dal-2","host":"dal-1.us.uncletopia.com","port":27025,"enabled":true,"region":"us-central","cc":"us","latitude":32.779167,"longitude":-96.80889,"reserved":0,"last_update":"0001-01-01T00:00:00Z","name_a2s":"Uncletopia | Dallas | 2 | All Maps","protocol":17,"map":"koth_viaduct","folder":"tf","game":"Team Fortress","app_id":440,"player_count":24,"max_players":24,"Bots":0,"server_type":"Dedicated","server_os":"Linux","password":true,"vac":true,"version":"7757534","steam_id":85568392924469988,"keywords":["cp","nocrits","nodmgspread","uncletopia"],"game_id":440,"stv_port":27026,"stv_name":"Uncletopia | Dallas | 2 | All Maps | STV","players":[{"user_id":86,"name":"big stank dick dad","steam_id":76561198121561534,"connected_time":131000000000,"state":"active","ping":86},{"user_id":60,"name":"cataconik","steam_id":76561198145530829,"connected_time":2080000000000,"state":"active","ping":95},{"user_id":84,"name":"amaz","steam_id":76561198386233160,"connected_time":254000000000,"state":"active","ping":59},{"user_id":85,"name":"Pluto","steam_id":76561198338593690,"connected_time":227000000000,"state":"active","ping":85},{"user_id":41,"name":"Chief Diggery K.","steam_id":76561198066629137,"connected_time":3007000000000,"state":"active","ping":79},{"user_id":73,"name":"Pombley","steam_id":76561198141227263,"connected_time":662000000000,"state":"active","ping":61},{"user_id":33,"name":"Mr pompken","steam_id":76561198860335871,"connected_time":3302000000000,"state":"active","ping":90},{"user_id":36,"name":"Reaper","steam_id":76561198435826103,"connected_time":3057000000000,"state":"active","ping":70},{"user_id":87,"name":"barbara","steam_id":76561198072417792,"connected_time":124000000000,"state":"active","ping":73},{"user_id":39,"name":"chill koi","steam_id":76561198451516389,"connected_time":3042000000000,"state":"active","ping":43},{"user_id":88,"name":"gunkeater","steam_id":76561198120387104,"connected_time":119000000000,"state":"active","ping":81},{"user_id":42,"name":"CaptainKn1ght","steam_id":76561198018979695,"connected_time":2991000000000,"state":"active","ping":76},{"user_id":76,"name":"primus sucks.","steam_id":76561199273231736,"connected_time":570000000000,"state":"active","ping":79},{"user_id":77,"name":"Warewolf","steam_id":76561197999385838,"connected_time":560000000000,"state":"active","ping":56},{"user_id":81,"name":"Muffin","steam_id":76561198209987299,"connected_time":361000000000,"state":"active","ping":149},{"user_id":89,"name":"LG_Fridge_User","steam_id":76561198977815014,"connected_time":70000000000,"state":"active","ping":76},{"user_id":70,"name":"Kid B8","steam_id":76561198086764710,"connected_time":812000000000,"state":"active","ping":79},{"user_id":51,"name":"sonic1394","steam_id":76561198054636788,"connected_time":2734000000000,"state":"active","ping":89},{"user_id":71,"name":"Kasodani Kyouko","steam_id":76561198023178589,"connected_time":802000000000,"state":"active","ping":110},{"user_id":78,"name":"Recursive Gamer","steam_id":76561198042102952,"connected_time":554000000000,"state":"active","ping":88},{"user_id":67,"name":"FI LO","steam_id":76561198976530881,"connected_time":1424000000000,"state":"active","ping":62},{"user_id":65,"name":"Dive(z)","steam_id":76561198140843225,"connected_time":1675000000000,"state":"active","ping":87},{"user_id":79,"name":"Antifa Supersoldier","steam_id":76561198141816516,"connected_time":478000000000,"state":"active","ping":68},{"user_id":83,"name":"Ginger Jesus","steam_id":76561198052386458,"connected_time":301000000000,"state":"active","ping":80}]},{"server_id":5,"name":"Uncletopia | Frankfurt | 1 | All Maps","name_short":"frk-1","host":"frk-1.de.uncletopia.com","port":27015,"enabled":true,"region":"eu","cc":"de","latitude":50.110924,"longitude":8.682127,"reserved":0,"last_update":"0001-01-01T00:00:00Z","name_a2s":"Uncletopia | Frankfurt | 1 | All Maps","protocol":17,"map":"pl_pier","folder":"tf","game":"Team Fortress","app_id":440,"player_count":24,"max_players":24,"Bots":0,"server_type":"Dedicated","server_os":"Linux","password":true,"vac":true,"version":"7757534","steam_id":85568392924469989,"keywords":["nocrits","nodmgspread","payload","uncletopia"],"game_id":440,"stv_port":27016,"stv_name":"Uncletopia | Frankfurt | 1 | All Maps | STV","players":[{"user_id":240,"name":"Vershal Smershal","steam_id":76561198116223995,"connected_time":656000000000,"state":"active","ping":59},{"user_id":202,"name":"knees","steam_id":76561198005924647,"connected_time":3299000000000,"state":"active","ping":75},{"user_id":224,"name":"sharp stick enjoyer","steam_id":76561198070962612,"connected_time":1376000000000,"state":"active","ping":61},{"user_id":211,"name":"r06u3","steam_id":76561198254099253,"connected_time":2428000000000,"state":"active","ping":175},{"user_id":221,"name":"ricky pee pee","steam_id":76561198152620745,"connected_time":1558000000000,"state":"active","ping":73},{"user_id":229,"name":"steko","steam_id":76561198254860581,"connected_time":1301000000000,"state":"active","ping":75},{"user_id":185,"name":"cazador","steam_id":76561198123096922,"connected_time":4217000000000,"state":"active","ping":94},{"user_id":189,"name":"Mr.O #deletesniper","steam_id":76561198039567498,"connected_time":4046000000000,"state":"active","ping":63},{"user_id":241,"name":"xavier","steam_id":76561198076494034,"connected_time":363000000000,"state":"active","ping":55},{"user_id":223,"name":"Foreskin Gamer","steam_id":76561198283106341,"connected_time":1376000000000,"state":"active","ping":110},{"user_id":236,"name":"Subterranean","steam_id":76561198106684566,"connected_time":1142000000000,"state":"active","ping":76},{"user_id":215,"name":"Washburne","steam_id":76561198032810579,"connected_time":2215000000000,"state":"active","ping":68},{"user_id":228,"name":"Yaire","steam_id":76561198017343510,"connected_time":1313000000000,"state":"active","ping":72},{"user_id":242,"name":"pablo.gonzales.2013","steam_id":76561199057576622,"connected_time":191000000000,"state":"active","ping":111},{"user_id":231,"name":"Bambi","steam_id":76561198166972711,"connected_time":1292000000000,"state":"active","ping":70},{"user_id":244,"name":"BlueBlueFox","steam_id":76561198053817230,"connected_time":155000000000,"state":"active","ping":72},{"user_id":245,"name":"dimitrij_6ix_god","steam_id":76561199023275543,"connected_time":130000000000,"state":"active","ping":75},{"user_id":239,"name":"Soerlssoelssöen","steam_id":76561197993060585,"connected_time":722000000000,"state":"active","ping":69},{"user_id":195,"name":"Tegnerud","steam_id":76561198214185612,"connected_time":3705000000000,"state":"active","ping":74},{"user_id":243,"name":"romos","steam_id":76561199123161420,"connected_time":190000000000,"state":"active","ping":60},{"user_id":220,"name":"j o n","steam_id":76561199229511741,"connected_time":1626000000000,"state":"active","ping":70},{"user_id":222,"name":"Dake","steam_id":76561198879773477,"connected_time":1553000000000,"state":"active","ping":77},{"user_id":238,"name":"zebulon","steam_id":76561198384683504,"connected_time":861000000000,"state":"active","ping":56},{"user_id":105,"name":"Matteo Il Biondo","steam_id":76561198315389475,"connected_time":9536000000000,"state":"active","ping":75}]},{"server_id":110,"name":"Uncletopia | Frankfurt | 2 | All Maps","name_short":"frk-2","host":"frk-1.de.uncletopia.com","port":27025,"enabled":true,"region":"eu","cc":"de","latitude":50.110924,"longitude":8.682127,"reserved":0,"last_update":"0001-01-01T00:00:00Z","name_a2s":"Uncletopia | Frankfurt | 2 | All Maps","protocol":17,"map":"pl_swiftwater_final1","folder":"tf","game":"Team Fortress","app_id":440,"player_count":24,"max_players":24,"Bots":0,"server_type":"Dedicated","server_os":"Linux","password":true,"vac":true,"version":"7757534","steam_id":85568392924469990,"keywords":["nocrits","nodmgspread","payload","uncletopia"],"game_id":440,"stv_port":27026,"stv_name":"Uncletopia | Frankfurt | 2 | All Maps | STV","players":[{"user_id":311,"name":"Pepegi","steam_id":76561198001230113,"connected_time":1603000000000,"state":"active","ping":68},{"user_id":279,"name":"svantezch","steam_id":76561198373831657,"connected_time":3493000000000,"state":"active","ping":76},{"user_id":330,"name":"Clint Eastwood","steam_id":76561198021552128,"connected_time":20000000000,"state":"active","ping":110},{"user_id":315,"name":"dnljns","steam_id":76561198085091752,"connected_time":1466000000000,"state":"active","ping":75},{"user_id":302,"name":"Cuthbert","steam_id":76561198204649481,"connected_time":2503000000000,"state":"active","ping":97},{"user_id":313,"name":"Our Hero","steam_id":76561198132047538,"connected_time":1533000000000,"state":"active","ping":94},{"user_id":322,"name":"Melissimas","steam_id":76561198119243627,"connected_time":1143000000000,"state":"active","ping":75},{"user_id":329,"name":"randompixel","steam_id":76561198003941207,"connected_time":168000000000,"state":"active","ping":73},{"user_id":290,"name":"anders McFlanders","steam_id":76561198022811995,"connected_time":3024000000000,"state":"active","ping":60},{"user_id":324,"name":"Ray Lilith","steam_id":76561198133946866,"connected_time":685000000000,"state":"active","ping":45},{"user_id":321,"name":"clipsy11","steam_id":76561199185851191,"connected_time":1348000000000,"state":"active","ping":80},{"user_id":316,"name":"Puzzles","steam_id":76561198137106459,"connected_time":1443000000000,"state":"active","ping":63},{"user_id":317,"name":"dn4k","steam_id":76561199221755690,"connected_time":1436000000000,"state":"active","ping":77},{"user_id":309,"name":"The one who knocks","steam_id":76561198089341471,"connected_time":1817000000000,"state":"active","ping":73},{"user_id":325,"name":"2BCD","steam_id":76561198178254946,"connected_time":614000000000,"state":"active","ping":71},{"user_id":202,"name":"Just_Chilling","steam_id":76561198036712229,"connected_time":9195000000000,"state":"active","ping":46},{"user_id":301,"name":"kas skaitys tas gaidys","steam_id":76561198128664132,"connected_time":2682000000000,"state":"active","ping":71},{"user_id":323,"name":"SaltyCupcakes","steam_id":76561198256386417,"connected_time":882000000000,"state":"active","ping":79},{"user_id":256,"name":"strohkopf9","steam_id":76561198059349860,"connected_time":5325000000000,"state":"active","ping":64},{"user_id":286,"name":"iokoieon","steam_id":76561198065009070,"connected_time":3350000000000,"state":"active","ping":90},{"user_id":328,"name":"rex110","steam_id":76561198159631448,"connected_time":321000000000,"state":"active","ping":80},{"user_id":296,"name":"bunglar","steam_id":76561198027374166,"connected_time":2846000000000,"state":"active","ping":56},{"user_id":326,"name":"Vilver","steam_id":76561198048505753,"connected_time":608000000000,"state":"active","ping":78},{"user_id":308,"name":"senior pomidor","steam_id":76561198123659806,"connected_time":1966000000000,"state":"active","ping":96}]},{"server_id":308,"name":"Uncletopia | Frankfurt | 3 | All Maps","name_short":"frk-3","host":"frk-1.de.uncletopia.com","port":27035,"enabled":true,"region":"eu","cc":"de","latitude":50.110924,"longitude":8.682127,"reserved":0,"last_update":"0001-01-01T00:00:00Z","name_a2s":"Uncletopia | Frankfurt | 3 | All Maps","protocol":17,"map":"pl_badwater","folder":"tf","game":"Team Fortress","app_id":440,"player_count":0,"max_players":24,"Bots":0,"server_type":"Dedicated","server_os":"Linux","password":true,"vac":true,"version":"7757534","steam_id":85568392924504274,"keywords":["nocrits","nodmgspread","payload","uncletopia"],"game_id":440,"stv_port":27036,"stv_name":"Uncletopia | Frankfurt | 3 | All Maps | STV","players":null},{"server_id":309,"name":"Uncletopia | Frankfurt | 4 | All Maps","name_short":"frk-4","host":"frk-1.de.uncletopia.com","port":27045,"enabled":true,"region":"eu","cc":"de","latitude":50.110924,"longitude":8.682127,"reserved":0,"last_update":"0001-01-01T00:00:00Z","name_a2s":"Uncletopia | Frankfurt | 4 | All Maps","protocol":17,"map":"cp_snakewater_final1","folder":"tf","game":"Team Fortress","app_id":440,"player_count":20,"max_players":24,"Bots":0,"server_type":"Dedicated","server_os":"Linux","password":true,"vac":true,"version":"7757534","steam_id":85568392924504275,"keywords":["cp","nocrits","nodmgspread","uncletopia"],"game_id":440,"stv_port":27046,"stv_name":"Uncletopia | Frankfurt | 4 | All Maps | STV","players":[{"user_id":241,"name":"vurtun","steam_id":76561198857395274,"connected_time":1890000000000,"state":"active","ping":46},{"user_id":237,"name":"Cagnus Marlsen","steam_id":76561198077859721,"connected_time":2092000000000,"state":"active","ping":53},{"user_id":198,"name":"wolffy","steam_id":76561198083145076,"connected_time":4615000000000,"state":"active","ping":53},{"user_id":265,"name":"mt","steam_id":76561197961319303,"connected_time":1069000000000,"state":"active","ping":45},{"user_id":247,"name":"MLG Peridot","steam_id":76561198069780233,"connected_time":1793000000000,"state":"active","ping":60},{"user_id":266,"name":"aguy without amustache","steam_id":76561198397105421,"connected_time":805000000000,"state":"active","ping":61},{"user_id":245,"name":"Tre3","steam_id":76561198054795379,"connected_time":1822000000000,"state":"active","ping":46},{"user_id":200,"name":"☞LaZe☜","steam_id":76561198202191400,"connected_time":4595000000000,"state":"active","ping":72},{"user_id":248,"name":"VanillaWoof","steam_id":76561198158343951,"connected_time":1762000000000,"state":"active","ping":45},{"user_id":267,"name":"scarecrowshelper","steam_id":76561198072260553,"connected_time":383000000000,"state":"active","ping":45},{"user_id":270,"name":"Cathedra","steam_id":76561198430227030,"connected_time":15000000000,"state":"active","ping":62},{"user_id":229,"name":"Jimmy","steam_id":76561198133680783,"connected_time":2814000000000,"state":"active","ping":85},{"user_id":169,"name":"Fat Pigeon","steam_id":76561198817940142,"connected_time":6305000000000,"state":"active","ping":45},{"user_id":269,"name":"Eme","steam_id":76561198171619442,"connected_time":57000000000,"state":"active","ping":304},{"user_id":268,"name":"Udinese Dion","steam_id":76561198067931573,"connected_time":135000000000,"state":"active","ping":52},{"user_id":230,"name":"Helon","steam_id":76561198050761682,"connected_time":2762000000000,"state":"active","ping":51},{"user_id":252,"name":"Endi","steam_id":76561198914938199,"connected_time":1676000000000,"state":"active","ping":89},{"user_id":243,"name":"Sirzen","steam_id":76561198170155434,"connected_time":1849000000000,"state":"active","ping":45},{"user_id":254,"name":"♥ aura ♥","steam_id":76561198066258544,"connected_time":1645000000000,"state":"active","ping":50},{"user_id":264,"name":"Miton","steam_id":76561197970323209,"connected_time":1153000000000,"state":"active","ping":76}]},{"server_id":310,"name":"Uncletopia | Frankfurt | 5 | All Maps","name_short":"frk-5","host":"frk-1.de.uncletopia.com","port":27055,"enabled":true,"region":"eu","cc":"de","latitude":50.110924,"longitude":8.682127,"reserved":0,"last_update":"0001-01-01T00:00:00Z","name_a2s":"Uncletopia | Frankfurt | 5 | All Maps","protocol":17,"map":"pl_borneo","folder":"tf","game":"Team Fortress","app_id":440,"player_count":24,"max_players":24,"Bots":0,"server_type":"Dedicated","server_os":"Linux","password":true,"vac":true,"version":"7757534","steam_id":85568392924504277,"keywords":["nocrits","nodmgspread","payload","uncletopia"],"game_id":440,"stv_port":27056,"stv_name":"Uncletopia | Frankfurt | 5 | All Maps | STV","players":[{"user_id":173,"name":"burt","steam_id":76561198137548311,"connected_time":1165000000000,"state":"active","ping":164},{"user_id":206,"name":"full power heart attack","steam_id":76561199196568965,"connected_time":155000000000,"state":"active","ping":203},{"user_id":200,"name":"Sex Man TF2","steam_id":76561198798657045,"connected_time":321000000000,"state":"active","ping":59},{"user_id":208,"name":"myself","steam_id":76561198445052636,"connected_time":83000000000,"state":"active","ping":96},{"user_id":175,"name":"Minimi","steam_id":76561198873850443,"connected_time":1131000000000,"state":"active","ping":58},{"user_id":198,"name":"JohkupohkuXD","steam_id":76561198391108762,"connected_time":411000000000,"state":"active","ping":86},{"user_id":169,"name":"clean","steam_id":76561198127053294,"connected_time":1316000000000,"state":"active","ping":75},{"user_id":171,"name":"result","steam_id":76561198269200388,"connected_time":1182000000000,"state":"active","ping":75},{"user_id":155,"name":"I am bad in TF2 (not bot)","steam_id":76561199214000895,"connected_time":2132000000000,"state":"active","ping":83},{"user_id":201,"name":"Kitten","steam_id":76561198019027657,"connected_time":291000000000,"state":"active","ping":74},{"user_id":186,"name":"LoLo","steam_id":76561199403387863,"connected_time":869000000000,"state":"active","ping":70},{"user_id":185,"name":"Pancake Batter Taster","steam_id":76561198060638325,"connected_time":896000000000,"state":"active","ping":33},{"user_id":172,"name":"Noxu","steam_id":76561198156299821,"connected_time":1182000000000,"state":"active","ping":78},{"user_id":145,"name":"Sir Kiops","steam_id":76561198022769275,"connected_time":2607000000000,"state":"active","ping":117},{"user_id":202,"name":"Thors","steam_id":76561197968739075,"connected_time":272000000000,"state":"active","ping":52},{"user_id":203,"name":"robie","steam_id":76561198914744938,"connected_time":240000000000,"state":"active","ping":89},{"user_id":180,"name":"Osmo","steam_id":76561199286764992,"connected_time":1017000000000,"state":"active","ping":75},{"user_id":205,"name":"dafydd","steam_id":76561198052200325,"connected_time":213000000000,"state":"active","ping":83},{"user_id":207,"name":"JC DENTON","steam_id":76561198296597241,"connected_time":149000000000,"state":"active","ping":119},{"user_id":165,"name":"Mati [EST]","steam_id":76561197994743813,"connected_time":1698000000000,"state":"active","ping":98},{"user_id":195,"name":"Crunchips","steam_id":76561198004336818,"connected_time":586000000000,"state":"active","ping":122},{"user_id":182,"name":"Dewotter","steam_id":76561198007653168,"connected_time":996000000000,"state":"active","ping":75},{"user_id":187,"name":"bigwish | bmod.tf","steam_id":76561197997859723,"connected_time":846000000000,"state":"active","ping":80},{"user_id":183,"name":"Pinkchup","steam_id":76561198106802803,"connected_time":988000000000,"state":"active","ping":68}]},{"server_id":311,"name":"Uncletopia | Frankfurt | 6 | All Maps","name_short":"frk-6","host":"frk-1.de.uncletopia.com","port":27065,"enabled":true,"region":"eu","cc":"de","latitude":50.110924,"longitude":8.682127,"reserved":0,"last_update":"0001-01-01T00:00:00Z","name_a2s":"Uncletopia | Frankfurt | 6 | All Maps","protocol":17,"map":"pl_barnblitz","folder":"tf","game":"Team Fortress","app_id":440,"player_count":24,"max_players":24,"Bots":0,"server_type":"Dedicated","server_os":"Linux","password":true,"vac":true,"version":"7757534","steam_id":85568392924504278,"keywords":["nocrits","nodmgspread","payload","uncletopia"],"game_id":440,"stv_port":27066,"stv_name":"Uncletopia | Frankfurt | 6 | All Maps | STV","players":[{"user_id":281,"name":"Vanilla","steam_id":76561198073933435,"connected_time":676000000000,"state":"active","ping":60},{"user_id":222,"name":"MrBanana","steam_id":76561198116021623,"connected_time":3766000000000,"state":"active","ping":49},{"user_id":291,"name":"GazerBazer","steam_id":76561198879107565,"connected_time":325000000000,"state":"active","ping":66},{"user_id":224,"name":"H2n9","steam_id":76561198055811259,"connected_time":3674000000000,"state":"active","ping":72},{"user_id":282,"name":"r4s1","steam_id":76561198024034917,"connected_time":659000000000,"state":"active","ping":60},{"user_id":246,"name":"9000 DPI Gaming","steam_id":76561198999956111,"connected_time":2797000000000,"state":"active","ping":59},{"user_id":247,"name":"taima","steam_id":76561198281053248,"connected_time":2794000000000,"state":"active","ping":70},{"user_id":220,"name":"Radegast the Brown","steam_id":76561198075489505,"connected_time":4179000000000,"state":"active","ping":62},{"user_id":289,"name":"MUTANT","steam_id":76561198010429091,"connected_time":511000000000,"state":"active","ping":64},{"user_id":272,"name":"Rezayne","steam_id":76561198047576346,"connected_time":1649000000000,"state":"active","ping":140},{"user_id":270,"name":"Hi, I am PIPPUM nice to meetcha","steam_id":76561198081457924,"connected_time":1688000000000,"state":"active","ping":135},{"user_id":243,"name":"HADID_sex_god","steam_id":76561198302623594,"connected_time":2954000000000,"state":"active","ping":88},{"user_id":283,"name":"Reprobus","steam_id":76561198332243756,"connected_time":646000000000,"state":"active","ping":81},{"user_id":290,"name":"vadr","steam_id":76561198334528186,"connected_time":426000000000,"state":"active","ping":62},{"user_id":278,"name":"ＴrendyＬemon","steam_id":76561198158957324,"connected_time":964000000000,"state":"active","ping":68},{"user_id":215,"name":"dotdotdot","steam_id":76561198057628751,"connected_time":4368000000000,"state":"active","ping":63},{"user_id":293,"name":"MEGOS","steam_id":76561198172740637,"connected_time":94000000000,"state":"active","ping":59},{"user_id":295,"name":"minkirol","steam_id":76561198413595736,"connected_time":13000000000,"state":"spawning","ping":72},{"user_id":271,"name":"After8","steam_id":76561198090750865,"connected_time":1662000000000,"state":"active","ping":69},{"user_id":275,"name":"PP_master69420","steam_id":76561199019913910,"connected_time":1572000000000,"state":"active","ping":72},{"user_id":287,"name":"WATANG!","steam_id":76561198040478926,"connected_time":590000000000,"state":"active","ping":71},{"user_id":288,"name":"pakin157","steam_id":76561198035125667,"connected_time":571000000000,"state":"active","ping":81},{"user_id":260,"name":"Soda Drink","steam_id":76561198202990635,"connected_time":2315000000000,"state":"active","ping":63},{"user_id":207,"name":"rmz.ssj","steam_id":76561198329613930,"connected_time":4776000000000,"state":"active","ping":63}]},{"server_id":23,"name":"Uncletopia | Frankfurt | 7 | Stopwatch Beta","name_short":"frk-7","host":"frk-1.de.uncletopia.com","port":27075,"enabled":true,"region":"eu","cc":"de","latitude":50.110924,"longitude":8.682127,"reserved":0,"last_update":"0001-01-01T00:00:00Z","name_a2s":"Uncletopia | Frankfurt | 7 | Stopwatch Beta","protocol":17,"map":"pl_swiftwater_final1","folder":"tf","game":"Team Fortress","app_id":440,"player_count":0,"max_players":24,"Bots":0,"server_type":"Dedicated","server_os":"Linux","password":true,"vac":true,"version":"7757534","steam_id":85568392924742827,"keywords":["nocrits","nodmgspread","payload","uncletopia"],"game_id":440,"stv_port":27076,"stv_name":"Uncletopia | Frankfurt | 7 | Stopwatch Beta | STV","players":null},{"server_id":24,"name":"Uncletopia | Frankfurt | 8 | Community","name_short":"frk-8","host":"frk-1.de.uncletopia.com","port":27085,"enabled":true,"region":"eu","cc":"de","latitude":50.110924,"longitude":8.682127,"reserved":0,"last_update":"0001-01-01T00:00:00Z","name_a2s":"Uncletopia | Frankfurt | 8 | Community","protocol":17,"map":"koth_lakeside_final","folder":"tf","game":"Team Fortress","app_id":440,"player_count":0,"max_players":24,"Bots":0,"server_type":"Dedicated","server_os":"Linux","password":true,"vac":true,"version":"7757534","steam_id":85568392924742828,"keywords":["cp","nocrits","nodmgspread","uncletopia"],"game_id":440,"stv_port":27086,"stv_name":"Uncletopia | Frankfurt | 8 | Community | STV","players":null},{"server_id":202,"name":"Uncletopia | Hong Kong | 1 | All Maps","name_short":"hgk-1","host":"hgk-1.hk.uncletopia.com","port":27015,"enabled":true,"region":"asia","cc":"hk","latitude":22.302711,"longitude":114.177216,"reserved":0,"last_update":"0001-01-01T00:00:00Z","name_a2s":"Uncletopia | Hong Kong | 1 | All Maps","protocol":17,"map":"cp_altitude","folder":"tf","game":"Team Fortress","app_id":440,"player_count":0,"max_players":24,"Bots":0,"server_type":"Dedicated","server_os":"Linux","password":true,"vac":true,"version":"7757534","steam_id":85568392924494504,"keywords":["cp","nocrits","nodmgspread","uncletopia"],"game_id":440,"stv_port":27016,"stv_name":"Uncletopia | Hong Kong | 1 | All Maps | STV","players":null},{"server_id":1,"name":"Uncletopia | Los Angeles | 1 | All Maps","name_short":"lax-1","host":"lax-1.us.uncletopia.com","port":27015,"enabled":true,"region":"us-west","cc":"us","latitude":33.94279,"longitude":-118.41004,"reserved":0,"last_update":"0001-01-01T00:00:00Z","name_a2s":"Uncletopia | Los Angeles | 1 | All Maps","protocol":17,"map":"koth_lakeside_final","folder":"tf","game":"Team Fortress","app_id":440,"player_count":0,"max_players":24,"Bots":0,"server_type":"Dedicated","server_os":"Linux","password":true,"vac":true,"version":"7757534","steam_id":85568392924469991,"keywords":["cp","nocrits","nodmgspread","uncletopia"],"game_id":440,"stv_port":27016,"stv_name":"Uncletopia | Los Angeles | 1 | All Maps | STV","players":null},{"server_id":112,"name":"Uncletopia | Los Angeles | 2 | All Maps","name_short":"lax-2","host":"lax-1.us.uncletopia.com","port":27025,"enabled":true,"region":"us-west","cc":"us","latitude":33.94279,"longitude":-118.41004,"reserved":0,"last_update":"0001-01-01T00:00:00Z","name_a2s":"Uncletopia | Los Angeles | 2 | All Maps","protocol":17,"map":"koth_viaduct","folder":"tf","game":"Team Fortress","app_id":440,"player_count":1,"max_players":24,"Bots":0,"server_type":"Dedicated","server_os":"Linux","password":true,"vac":true,"version":"7757534","steam_id":85568392924469992,"keywords":["cp","nocrits","nodmgspread","uncletopia"],"game_id":440,"stv_port":27026,"stv_name":"Uncletopia | Los Angeles | 2 | All Maps | STV","players":[{"user_id":5,"name":"Sprit ♥","steam_id":76561198268780781,"connected_time":526000000000,"state":"active","ping":104}]},{"server_id":324,"name":"Uncletopia | Los Angeles | 3 | All Maps","name_short":"lax-3","host":"lax-1.us.uncletopia.com","port":27035,"enabled":true,"region":"us-west","cc":"us","latitude":33.94279,"longitude":-118.41004,"reserved":0,"last_update":"0001-01-01T00:00:00Z","name_a2s":"Uncletopia | Los Angeles | 3 | All Maps","protocol":17,"map":"cp_snakewater_final1","folder":"tf","game":"Team Fortress","app_id":440,"player_count":0,"max_players":24,"Bots":0,"server_type":"Dedicated","server_os":"Linux","password":true,"vac":true,"version":"7757534","steam_id":85568392924510198,"keywords":["cp","nocrits","nodmgspread","uncletopia"],"game_id":440,"stv_port":27036,"stv_name":"Uncletopia | Los Angeles | 3 | All Maps | STV","players":null},{"server_id":25,"name":"Uncletopia | Los Angeles | 4 | Stopwatch Beta","name_short":"lax-4","host":"lax-1.us.uncletopia.com","port":27045,"enabled":true,"region":"us-west","cc":"us","latitude":33.94279,"longitude":-118.41004,"reserved":0,"last_update":"0001-01-01T00:00:00Z","name_a2s":"Uncletopia | Los Angeles | 4 | Stopwatch Beta","protocol":17,"map":"pl_swiftwater_final1","folder":"tf","game":"Team Fortress","app_id":440,"player_count":0,"max_players":24,"Bots":0,"server_type":"Dedicated","server_os":"Linux","password":true,"vac":true,"version":"7757534","steam_id":85568392924510199,"keywords":["nocrits","nodmgspread","payload","uncletopia"],"game_id":440,"stv_port":27046,"stv_name":"Uncletopia | Los Angeles | 4 | Stopwatch Beta | STV","players":null},{"server_id":11,"name":"Uncletopia | London | 1 | All Maps","name_short":"lon-1","host":"lon-1.uk.uncletopia.com","port":27015,"enabled":true,"region":"eu","cc":"gb","latitude":51.509865,"longitude":-0.118092,"reserved":0,"last_update":"0001-01-01T00:00:00Z","name_a2s":"Uncletopia | London | 1 | All Maps","protocol":17,"map":"cp_dustbowl","folder":"tf","game":"Team Fortress","app_id":440,"player_count":24,"max_players":24,"Bots":0,"server_type":"Dedicated","server_os":"Linux","password":true,"vac":true,"version":"7757534","steam_id":85568392924367362,"keywords":["cp","nocrits","nodmgspread","uncletopia"],"game_id":440,"stv_port":27016,"stv_name":"Uncletopia | London | 1 | All Maps | STV","players":[{"user_id":717,"name":"Mecha-lord","steam_id":76561198034811536,"connected_time":1273000000000,"state":"active","ping":149},{"user_id":666,"name":"Makłowicz","steam_id":76561198281831506,"connected_time":4088000000000,"state":"active","ping":89},{"user_id":676,"name":"Jesus Enjoyer","steam_id":76561198840259819,"connected_time":3595000000000,"state":"active","ping":51},{"user_id":719,"name":"JOHN GAMING (#1 gunspy)","steam_id":76561199085822219,"connected_time":1261000000000,"state":"active","ping":90},{"user_id":734,"name":"Rizziologist","steam_id":76561198089003514,"connected_time":647000000000,"state":"active","ping":54},{"user_id":728,"name":"D0kai","steam_id":76561198389271720,"connected_time":1039000000000,"state":"active","ping":49},{"user_id":726,"name":"Drekadóttir","steam_id":76561198119979169,"connected_time":1089000000000,"state":"active","ping":74},{"user_id":694,"name":"CNTRL","steam_id":76561199125803827,"connected_time":3077000000000,"state":"active","ping":62},{"user_id":733,"name":"Fishtopher, child of the fathom","steam_id":76561197995038881,"connected_time":659000000000,"state":"active","ping":58},{"user_id":495,"name":"Rappin' Sebastian","steam_id":76561198453928256,"connected_time":18964000000000,"state":"active","ping":77},{"user_id":721,"name":"padillacampos","steam_id":76561198161923970,"connected_time":1204000000000,"state":"active","ping":73},{"user_id":674,"name":"Gorogaz","steam_id":76561198207157679,"connected_time":3725000000000,"state":"active","ping":61},{"user_id":693,"name":"Snokie Boi","steam_id":76561198081126247,"connected_time":3100000000000,"state":"active","ping":74},{"user_id":687,"name":"Gubbly Bubbins","steam_id":76561198101451654,"connected_time":3329000000000,"state":"active","ping":39},{"user_id":699,"name":"trite","steam_id":76561197983765323,"connected_time":3034000000000,"state":"active","ping":55},{"user_id":722,"name":"Cataleptic","steam_id":76561197997966949,"connected_time":1161000000000,"state":"active","ping":58},{"user_id":723,"name":"hshs","steam_id":76561198314562513,"connected_time":1139000000000,"state":"active","ping":61},{"user_id":685,"name":"thatCerv","steam_id":76561198037798308,"connected_time":3360000000000,"state":"active","ping":61},{"user_id":710,"name":"Fish","steam_id":76561199133635066,"connected_time":2245000000000,"state":"active","ping":68},{"user_id":732,"name":"DINKLEBERGTOE","steam_id":76561199231599334,"connected_time":692000000000,"state":"active","ping":81},{"user_id":712,"name":"BenteBent","steam_id":76561198297920637,"connected_time":1938000000000,"state":"active","ping":34},{"user_id":727,"name":"ottergauze","steam_id":76561198050523315,"connected_time":1089000000000,"state":"active","ping":53},{"user_id":731,"name":"Cookies and Bakies","steam_id":76561198017442928,"connected_time":909000000000,"state":"active","ping":66}]},{"server_id":114,"name":"Uncletopia | London | 2 | All Maps","name_short":"lon-2","host":"lon-1.uk.uncletopia.com","port":27025,"enabled":true,"region":"eu","cc":"gb","latitude":51.509865,"longitude":-0.118092,"reserved":0,"last_update":"0001-01-01T00:00:00Z","name_a2s":"Uncletopia | London | 2 | All Maps","protocol":17,"map":"cp_sunshine","folder":"tf","game":"Team Fortress","app_id":440,"player_count":24,"max_players":24,"Bots":0,"server_type":"Dedicated","server_os":"Linux","password":true,"vac":true,"version":"7757534","steam_id":85568392924470941,"keywords":["cp","nocrits","nodmgspread","uncletopia"],"game_id":440,"stv_port":27026,"stv_name":"Uncletopia | London | 2 | All Maps | STV","players":[{"user_id":528,"name":"Nithle","steam_id":76561198025372740,"connected_time":734000000000,"state":"active","ping":30},{"user_id":523,"name":"Mario","steam_id":76561198062171002,"connected_time":1020000000000,"state":"active","ping":66},{"user_id":533,"name":"Lyell","steam_id":76561198350329389,"connected_time":553000000000,"state":"active","ping":76},{"user_id":414,"name":"Zerfesh","steam_id":76561198117534358,"connected_time":8174000000000,"state":"active","ping":99},{"user_id":525,"name":"Curlew","steam_id":76561198075884540,"connected_time":766000000000,"state":"active","ping":60},{"user_id":517,"name":"Ga Blun","steam_id":76561198865908327,"connected_time":2434000000000,"state":"active","ping":145},{"user_id":521,"name":"gandalf zaza","steam_id":76561198059787688,"connected_time":1467000000000,"state":"active","ping":146},{"user_id":477,"name":"Kamikrazy","steam_id":76561198044254918,"connected_time":5238000000000,"state":"active","ping":54},{"user_id":516,"name":"I have aids","steam_id":76561198860347851,"connected_time":2613000000000,"state":"active","ping":128},{"user_id":529,"name":"walt","steam_id":76561198871381636,"connected_time":670000000000,"state":"active","ping":102},{"user_id":512,"name":"The Shotgun","steam_id":76561198044008976,"connected_time":2820000000000,"state":"active","ping":66},{"user_id":515,"name":"Lasauttaja","steam_id":76561198009823148,"connected_time":2701000000000,"state":"active","ping":67},{"user_id":503,"name":"Sir Cauterize","steam_id":76561198047079422,"connected_time":3631000000000,"state":"active","ping":47},{"user_id":522,"name":"Dirty Joe","steam_id":76561198142418870,"connected_time":1467000000000,"state":"active","ping":41},{"user_id":500,"name":"shakunetsu","steam_id":76561198057859386,"connected_time":3901000000000,"state":"active","ping":81},{"user_id":509,"name":"Wuffington","steam_id":76561198033762881,"connected_time":3274000000000,"state":"active","ping":46},{"user_id":535,"name":"Milk","steam_id":76561198125876588,"connected_time":236000000000,"state":"active","ping":38},{"user_id":524,"name":"Shearman360","steam_id":76561198193909685,"connected_time":784000000000,"state":"active","ping":58},{"user_id":480,"name":"porngamer","steam_id":76561198204620491,"connected_time":5167000000000,"state":"active","ping":32},{"user_id":527,"name":"Tortes","steam_id":76561199049185884,"connected_time":762000000000,"state":"active","ping":104},{"user_id":495,"name":"snorrbrod","steam_id":76561198142389396,"connected_time":4270000000000,"state":"active","ping":77},{"user_id":511,"name":"Terra","steam_id":76561198074482461,"connected_time":3016000000000,"state":"active","ping":105},{"user_id":469,"name":"MaRo","steam_id":76561198992286676,"connected_time":5855000000000,"state":"active","ping":58},{"user_id":530,"name":"Swiss_Nostalgia","steam_id":76561199159896259,"connected_time":665000000000,"state":"active","ping":66}]},{"server_id":320,"name":"Uncletopia | London | 3 | All Maps","name_short":"lon-3","host":"lon-1.uk.uncletopia.com","port":27035,"enabled":true,"region":"eu","cc":"gb","latitude":51.509865,"longitude":-0.118092,"reserved":0,"last_update":"0001-01-01T00:00:00Z","name_a2s":"Uncletopia | London | 3 | All Maps","protocol":17,"map":"pl_badwater","folder":"tf","game":"Team Fortress","app_id":440,"player_count":2,"max_players":24,"Bots":0,"server_type":"Dedicated","server_os":"Linux","password":true,"vac":true,"version":"7757534","steam_id":85568392924510192,"keywords":["nocrits","nodmgspread","payload","uncletopia"],"game_id":440,"stv_port":27036,"stv_name":"Uncletopia | London | 3 | All Maps | STV","players":[{"user_id":557,"name":"morgan","steam_id":76561198322124999,"connected_time":208000000000,"state":"active","ping":85},{"user_id":559,"name":"Man With A Pan","steam_id":76561199138916276,"connected_time":141000000000,"state":"active","ping":60}]},{"server_id":321,"name":"Uncletopia | London | 4 | All Maps","name_short":"lon-4","host":"lon-1.uk.uncletopia.com","port":27045,"enabled":true,"region":"eu","cc":"gb","latitude":51.509865,"longitude":-0.118092,"reserved":0,"last_update":"0001-01-01T00:00:00Z","name_a2s":"Uncletopia | London | 4 | All Maps","protocol":17,"map":"ctf_turbine","folder":"tf","game":"Team Fortress","app_id":440,"player_count":24,"max_players":24,"Bots":0,"server_type":"Dedicated","server_os":"Linux","password":true,"vac":true,"version":"7757534","steam_id":85568392924510193,"keywords":["ctf","nocrits","nodmgspread","uncletopia"],"game_id":440,"stv_port":27046,"stv_name":"Uncletopia | London | 4 | All Maps | STV","players":[{"user_id":130,"name":"nate.smith317","steam_id":76561199194338253,"connected_time":556000000000,"state":"active","ping":145},{"user_id":124,"name":"Tanza -","steam_id":76561197961335217,"connected_time":730000000000,"state":"active","ping":43},{"user_id":80,"name":"THE ENGIE MAIN#SAVETF2","steam_id":76561198872904989,"connected_time":2829000000000,"state":"active","ping":39},{"user_id":120,"name":"Vanta_BlackLD","steam_id":76561198346271576,"connected_time":984000000000,"state":"active","ping":67},{"user_id":76,"name":"Spectre","steam_id":76561198163819482,"connected_time":2963000000000,"state":"active","ping":68},{"user_id":117,"name":"Lessoz","steam_id":76561199211572036,"connected_time":1089000000000,"state":"active","ping":89},{"user_id":129,"name":"Stańczyk","steam_id":76561197998906563,"connected_time":638000000000,"state":"active","ping":41},{"user_id":125,"name":"screenshot2020-25-09","steam_id":76561198255275650,"connected_time":681000000000,"state":"active","ping":60},{"user_id":126,"name":"Denzonian","steam_id":76561198445738614,"connected_time":662000000000,"state":"active","ping":57},{"user_id":131,"name":"certified transphobe","steam_id":76561198845044956,"connected_time":486000000000,"state":"active","ping":111},{"user_id":37,"name":"Chocofrolik","steam_id":76561198454779847,"connected_time":4901000000000,"state":"active","ping":61},{"user_id":79,"name":"Tink","steam_id":76561198118235443,"connected_time":2853000000000,"state":"active","ping":55},{"user_id":140,"name":"swagbra","steam_id":76561198051828515,"connected_time":349000000000,"state":"active","ping":68},{"user_id":107,"name":"flub_","steam_id":76561198337519315,"connected_time":1676000000000,"state":"active","ping":39},{"user_id":31,"name":"F","steam_id":76561199149462792,"connected_time":5316000000000,"state":"active","ping":61},{"user_id":142,"name":"Rapagun","steam_id":76561197978797358,"connected_time":193000000000,"state":"active","ping":75},{"user_id":118,"name":"GuSkand","steam_id":76561198043775605,"connected_time":1087000000000,"state":"active","ping":83},{"user_id":143,"name":"yuch_tach","steam_id":76561198827040155,"connected_time":176000000000,"state":"active","ping":82},{"user_id":133,"name":"Hubble","steam_id":76561198329002678,"connected_time":447000000000,"state":"active","ping":57},{"user_id":136,"name":"TheBanik","steam_id":76561198391656442,"connected_time":425000000000,"state":"active","ping":58},{"user_id":135,"name":"PavlosPaok04","steam_id":76561199076069361,"connected_time":440000000000,"state":"active","ping":69},{"user_id":112,"name":"finbar","steam_id":76561198056812396,"connected_time":1350000000000,"state":"active","ping":83},{"user_id":144,"name":"Pipp Petals2014","steam_id":76561198147668373,"connected_time":109000000000,"state":"active","ping":67},{"user_id":138,"name":"s a i","steam_id":76561197970379754,"connected_time":419000000000,"state":"active","ping":63}]},{"server_id":21,"name":"Uncletopia | London | 5 | All Maps","name_short":"lon-5","host":"lon-1.uk.uncletopia.com","port":27055,"enabled":true,"region":"eu","cc":"gb","latitude":51.509865,"longitude":-0.118092,"reserved":0,"last_update":"0001-01-01T00:00:00Z","name_a2s":"Uncletopia | London | 5 | All Maps","protocol":17,"map":"pl_upward","folder":"tf","game":"Team Fortress","app_id":440,"player_count":24,"max_players":24,"Bots":0,"server_type":"Dedicated","server_os":"Linux","password":true,"vac":true,"version":"7757534","steam_id":85568392924742829,"keywords":["nocrits","nodmgspread","payload","uncletopia"],"game_id":440,"stv_port":27056,"stv_name":"Uncletopia | London | 5 | All Maps | STV","players":[{"user_id":593,"name":"Anzu","steam_id":76561198043953503,"connected_time":1162000000000,"state":"active","ping":86},{"user_id":594,"name":"fregaropa","steam_id":76561198150806166,"connected_time":1048000000000,"state":"active","ping":74},{"user_id":586,"name":"Locke","steam_id":76561198339408300,"connected_time":1288000000000,"state":"active","ping":54},{"user_id":527,"name":"thefatcontroller","steam_id":76561199332965146,"connected_time":4494000000000,"state":"active","ping":96},{"user_id":588,"name":"Joseph Stalin","steam_id":76561198033199746,"connected_time":1265000000000,"state":"active","ping":48},{"user_id":577,"name":"breedable","steam_id":76561198010300032,"connected_time":1677000000000,"state":"active","ping":71},{"user_id":535,"name":"stay positive","steam_id":76561198198581079,"connected_time":3869000000000,"state":"active","ping":82},{"user_id":606,"name":"Vezage","steam_id":76561198064916164,"connected_time":76000000000,"state":"active","ping":70},{"user_id":574,"name":"Труп Володя","steam_id":76561198035718457,"connected_time":2068000000000,"state":"active","ping":93},{"user_id":579,"name":"unlucky killer","steam_id":76561199039152146,"connected_time":1651000000000,"state":"active","ping":142},{"user_id":548,"name":"WHUSSKEY","steam_id":76561198137827441,"connected_time":3004000000000,"state":"active","ping":78},{"user_id":600,"name":"cool safe name","steam_id":76561198237827742,"connected_time":631000000000,"state":"active","ping":119},{"user_id":528,"name":"Prim","steam_id":76561198043191342,"connected_time":4446000000000,"state":"active","ping":69},{"user_id":523,"name":"Beta Probopass","steam_id":76561198140806694,"connected_time":4622000000000,"state":"active","ping":92},{"user_id":605,"name":"Cpt_frost","steam_id":76561198218034817,"connected_time":271000000000,"state":"active","ping":39},{"user_id":584,"name":"maybe blw.tf","steam_id":76561199028670732,"connected_time":1494000000000,"state":"active","ping":58},{"user_id":601,"name":"Morseerman","steam_id":76561198040169391,"connected_time":509000000000,"state":"active","ping":54},{"user_id":589,"name":"I Don't Know","steam_id":76561198841011430,"connected_time":1262000000000,"state":"active","ping":83},{"user_id":590,"name":"AsuX","steam_id":76561197990333289,"connected_time":1245000000000,"state":"active","ping":61},{"user_id":582,"name":"RuneShine","steam_id":76561198007098323,"connected_time":1556000000000,"state":"active","ping":51},{"user_id":597,"name":"Nugget","steam_id":76561198338916407,"connected_time":810000000000,"state":"active","ping":75},{"user_id":591,"name":"Ve","steam_id":76561198155150513,"connected_time":1245000000000,"state":"active","ping":66},{"user_id":592,"name":"Economic crisis","steam_id":76561198063562843,"connected_time":1206000000000,"state":"active","ping":64},{"user_id":604,"name":"too much tf2 not enough sanity","steam_id":76561198977420882,"connected_time":294000000000,"state":"active","ping":34}]},{"server_id":22,"name":"Uncletopia | London | 6 | All Maps","name_short":"lon-6","host":"lon-1.uk.uncletopia.com","port":27065,"enabled":true,"region":"eu","cc":"gb","latitude":51.509865,"longitude":-0.118092,"reserved":0,"last_update":"0001-01-01T00:00:00Z","name_a2s":"Uncletopia | London | 6 | All Maps","protocol":17,"map":"cp_sunshine","folder":"tf","game":"Team Fortress","app_id":440,"player_count":1,"max_players":24,"Bots":0,"server_type":"Dedicated","server_os":"Linux","password":true,"vac":true,"version":"7757534","steam_id":85568392924742830,"keywords":["cp","nocrits","nodmgspread","uncletopia"],"game_id":440,"stv_port":27066,"stv_name":"Uncletopia | London | 6 | All Maps | STV","players":[{"user_id":12,"name":"Svilar","steam_id":76561198828348612,"connected_time":3000000000,"state":"spawning","ping":193}]},{"server_id":40,"name":"Uncletopia | London | 7 | No Payload","name_short":"lon-7","host":"lon-1.uk.uncletopia.com","port":27075,"enabled":true,"region":"eu","cc":"gb","latitude":51.509865,"longitude":-0.118092,"reserved":0,"last_update":"0001-01-01T00:00:00Z","name_a2s":"Uncletopia | London | 7 | No Payload","protocol":17,"map":"koth_harvest_final","folder":"tf","game":"Team Fortress","app_id":440,"player_count":24,"max_players":24,"Bots":0,"server_type":"Dedicated","server_os":"Linux","password":true,"vac":true,"version":"7757534","steam_id":85568392924964314,"keywords":["cp","nocrits","nodmgspread","uncletopia"],"game_id":440,"stv_port":27076,"stv_name":"Uncletopia | London | 7 | No Payload | STV","players":[{"user_id":109,"name":"ran is running","steam_id":76561199443185667,"connected_time":7413000000000,"state":"active","ping":129},{"user_id":196,"name":"Carrotcracker","steam_id":76561198034862396,"connected_time":153000000000,"state":"active","ping":77},{"user_id":197,"name":"dustloaf","steam_id":76561198074339302,"connected_time":124000000000,"state":"active","ping":99},{"user_id":184,"name":"os2","steam_id":76561199482805601,"connected_time":429000000000,"state":"active","ping":67},{"user_id":185,"name":"cherry coal","steam_id":76561198822725169,"connected_time":407000000000,"state":"active","ping":46},{"user_id":114,"name":"Dor_atar","steam_id":76561198973980542,"connected_time":6164000000000,"state":"active","ping":76},{"user_id":125,"name":"Frank","steam_id":76561198086672774,"connected_time":3116000000000,"state":"active","ping":52},{"user_id":131,"name":"WAT","steam_id":76561198941203517,"connected_time":2378000000000,"state":"active","ping":70},{"user_id":198,"name":"Proto-arc","steam_id":76561198012776747,"connected_time":123000000000,"state":"active","ping":45},{"user_id":167,"name":"Gordon","steam_id":76561198303652059,"connected_time":841000000000,"state":"active","ping":63},{"user_id":199,"name":"Garden Freeman","steam_id":76561199073314677,"connected_time":100000000000,"state":"active","ping":78},{"user_id":158,"name":"romaniamanele2004","steam_id":76561198125546299,"connected_time":1428000000000,"state":"active","ping":81},{"user_id":157,"name":"sex havin'","steam_id":76561198169857427,"connected_time":1477000000000,"state":"active","ping":73},{"user_id":162,"name":"slightly drunk","steam_id":76561199184873889,"connected_time":1102000000000,"state":"active","ping":72},{"user_id":187,"name":"\u003c blank \u003e","steam_id":76561198059375315,"connected_time":332000000000,"state":"active","ping":73},{"user_id":188,"name":"BingusDingus","steam_id":76561198310983903,"connected_time":321000000000,"state":"active","ping":48},{"user_id":189,"name":"Ferlo","steam_id":76561198095561504,"connected_time":316000000000,"state":"active","ping":47},{"user_id":190,"name":"Mr.Dies a lot","steam_id":76561199061602946,"connected_time":310000000000,"state":"active","ping":90},{"user_id":181,"name":"indipendentlemon","steam_id":76561199070771483,"connected_time":564000000000,"state":"active","ping":69},{"user_id":200,"name":"Piellino","steam_id":76561198156873276,"connected_time":75000000000,"state":"active","ping":128},{"user_id":191,"name":"Dyon B.","steam_id":76561198285690526,"connected_time":299000000000,"state":"active","ping":50},{"user_id":171,"name":"Mackerel","steam_id":76561197980088396,"connected_time":816000000000,"state":"active","ping":59},{"user_id":194,"name":"eeeeee","steam_id":76561198017786875,"connected_time":188000000000,"state":"active","ping":67},{"user_id":202,"name":"KingStrikeShot","steam_id":76561198274505674,"connected_time":29000000000,"state":"active","ping":415}]},{"server_id":41,"name":"Uncletopia | London | 8 | Community","name_short":"lon-8","host":"lon-1.uk.uncletopia.com","port":27085,"enabled":true,"region":"eu","cc":"gb","latitude":51.509865,"longitude":-0.118092,"reserved":0,"last_update":"0001-01-01T00:00:00Z","name_a2s":"Uncletopia | London | 8 | Community","protocol":17,"map":"pl_barnblitz","folder":"tf","game":"Team Fortress","app_id":440,"player_count":0,"max_players":24,"Bots":0,"server_type":"Dedicated","server_os":"Linux","password":true,"vac":true,"version":"7757534","steam_id":85568392924964315,"keywords":["nocrits","nodmgspread","payload","uncletopia"],"game_id":440,"stv_port":27086,"stv_name":"Uncletopia | London | 8 | Community | STV","players":null},{"server_id":300,"name":"Uncletopia | Montréal | 1 | All Maps","name_short":"mtl-1","host":"mtl-1.ca.uncletopia.com","port":27015,"enabled":true,"region":"us-east","cc":"ca","latitude":45.50889,"longitude":-73.56167,"reserved":0,"last_update":"0001-01-01T00:00:00Z","name_a2s":"Uncletopia | Montréal | 1 | All Maps","protocol":17,"map":"pl_upward","folder":"tf","game":"Team Fortress","app_id":440,"player_count":0,"max_players":24,"Bots":0,"server_type":"Dedicated","server_os":"Linux","password":true,"vac":true,"version":"7757534","steam_id":85568392924500087,"keywords":["nocrits","nodmgspread","payload","uncletopia"],"game_id":440,"stv_port":27016,"stv_name":"Uncletopia | Montréal | 1 | All Maps | STV","players":null},{"server_id":301,"name":"Uncletopia | Montréal | 2 | All Maps","name_short":"mtl-2","host":"mtl-1.ca.uncletopia.com","port":27025,"enabled":true,"region":"us-east","cc":"ca","latitude":45.50889,"longitude":-73.56167,"reserved":0,"last_update":"0001-01-01T00:00:00Z","name_a2s":"Uncletopia | Montréal | 2 | All Maps","protocol":17,"map":"pl_snowycoast","folder":"tf","game":"Team Fortress","app_id":440,"player_count":0,"max_players":24,"Bots":0,"server_type":"Dedicated","server_os":"Linux","password":true,"vac":true,"version":"7757534","steam_id":85568392924500088,"keywords":["nocrits","nodmgspread","payload","uncletopia"],"game_id":440,"stv_port":27026,"stv_name":"Uncletopia | Montréal | 2 | All Maps | STV","players":null},{"server_id":302,"name":"Uncletopia | Montréal | 3 | All Maps","name_short":"mtl-3","host":"mtl-1.ca.uncletopia.com","port":27035,"enabled":true,"region":"us-east","cc":"ca","latitude":45.50889,"longitude":-73.56167,"reserved":0,"last_update":"0001-01-01T00:00:00Z","name_a2s":"Uncletopia | Montréal | 3 | All Maps","protocol":17,"map":"pl_swiftwater_final1","folder":"tf","game":"Team Fortress","app_id":440,"player_count":0,"max_players":24,"Bots":0,"server_type":"Dedicated","server_os":"Linux","password":true,"vac":true,"version":"7757534","steam_id":85568392924500089,"keywords":["nocrits","nodmgspread","payload","uncletopia"],"game_id":440,"stv_port":27036,"stv_name":"Uncletopia | Montréal | 3 | All Maps | STV","players":null},{"server_id":303,"name":"Uncletopia | Montréal | 4 | No Payload","name_short":"mtl-4","host":"mtl-1.ca.uncletopia.com","port":27045,"enabled":true,"region":"us-east","cc":"ca","latitude":45.50889,"longitude":-73.56167,"reserved":0,"last_update":"0001-01-01T00:00:00Z","name_a2s":"Uncletopia | Montréal | 4 | No Payload","protocol":17,"map":"pl_pier","folder":"tf","game":"Team Fortress","app_id":440,"player_count":0,"max_players":24,"Bots":0,"server_type":"Dedicated","server_os":"Linux","password":true,"vac":true,"version":"7757534","steam_id":85568392924500090,"keywords":["nocrits","nodmgspread","payload","uncletopia"],"game_id":440,"stv_port":27046,"stv_name":"Uncletopia | Montréal | 4 | No Payload | STV","players":null},{"server_id":13,"name":"Uncletopia | New York City | 1 | All Maps","name_short":"nyc-1","host":"nyc-1.us.uncletopia.com","port":27015,"enabled":true,"region":"us-east","cc":"us","latitude":40.73061,"longitude":-73.93524,"reserved":0,"last_update":"0001-01-01T00:00:00Z","name_a2s":"Uncletopia | New York City | 1 | All Maps","protocol":17,"map":"pl_badwater","folder":"tf","game":"Team Fortress","app_id":440,"player_count":24,"max_players":24,"Bots":0,"server_type":"Dedicated","server_os":"Linux","password":true,"vac":true,"version":"7757534","steam_id":85568392924469993,"keywords":["nocrits","nodmgspread","payload","uncletopia"],"game_id":440,"stv_port":27016,"stv_name":"Uncletopia | New York City | 1 | All Maps | STV","players":[{"user_id":8,"name":"Gobbo Nikki","steam_id":76561198164401669,"connected_time":7206000000000,"state":"active","ping":92},{"user_id":77,"name":"Spimtmot733","steam_id":76561199029189825,"connected_time":1476000000000,"state":"active","ping":54},{"user_id":61,"name":"DJ Spit","steam_id":76561198186637025,"connected_time":3729000000000,"state":"active","ping":93},{"user_id":75,"name":"CRAZY engineer","steam_id":76561198887937902,"connected_time":1496000000000,"state":"active","ping":72},{"user_id":69,"name":"go touch keyboard","steam_id":76561198197388678,"connected_time":2686000000000,"state":"active","ping":75},{"user_id":29,"name":"jody","steam_id":76561198065103382,"connected_time":5947000000000,"state":"active","ping":75},{"user_id":88,"name":"The magic doo bus","steam_id":76561198243387974,"connected_time":314000000000,"state":"active","ping":56},{"user_id":82,"name":"WibbyOne","steam_id":76561198052843846,"connected_time":1181000000000,"state":"active","ping":35},{"user_id":56,"name":"Egpta","steam_id":76561198237840238,"connected_time":3759000000000,"state":"active","ping":56},{"user_id":66,"name":"Jasper Zawn","steam_id":76561198077651204,"connected_time":2753000000000,"state":"active","ping":70},{"user_id":85,"name":"CuSO4","steam_id":76561199278147589,"connected_time":708000000000,"state":"active","ping":52},{"user_id":58,"name":"Mutt","steam_id":76561198113640643,"connected_time":3738000000000,"state":"active","ping":126},{"user_id":87,"name":"Crazy__Biscuit","steam_id":76561198399851872,"connected_time":613000000000,"state":"active","ping":79},{"user_id":55,"name":"Dillon Planter","steam_id":76561198118903188,"connected_time":4093000000000,"state":"active","ping":89},{"user_id":84,"name":"Ian","steam_id":76561199078852180,"connected_time":733000000000,"state":"active","ping":74},{"user_id":79,"name":"Professor Shaggy","steam_id":76561198276926724,"connected_time":1406000000000,"state":"active","ping":48},{"user_id":89,"name":"Walla","steam_id":76561198103379757,"connected_time":294000000000,"state":"active","ping":71},{"user_id":81,"name":"Mr. Crispy Lips","steam_id":76561198028157625,"connected_time":1293000000000,"state":"active","ping":94},{"user_id":80,"name":"Gian","steam_id":76561198041434512,"connected_time":1391000000000,"state":"active","ping":97},{"user_id":59,"name":"Broadway Rose","steam_id":76561198046083342,"connected_time":3736000000000,"state":"active","ping":44},{"user_id":60,"name":"retinz","steam_id":76561198135563495,"connected_time":3732000000000,"state":"active","ping":56},{"user_id":70,"name":"Failtastic","steam_id":76561198994009973,"connected_time":2396000000000,"state":"active","ping":51},{"user_id":62,"name":"Red spy in the base!","steam_id":76561199315167502,"connected_time":3704000000000,"state":"active","ping":65},{"user_id":74,"name":"Bother","steam_id":76561198336750909,"connected_time":1508000000000,"state":"active","ping":39}]},{"server_id":14,"name":"Uncletopia | New York City | 2 | All Maps","name_short":"nyc-2","host":"nyc-1.us.uncletopia.com","port":27025,"enabled":true,"region":"us-east","cc":"us","latitude":40.73061,"longitude":-73.93524,"reserved":0,"last_update":"0001-01-01T00:00:00Z","name_a2s":"Uncletopia | New York City | 2 | All Maps","protocol":17,"map":"koth_viaduct","folder":"tf","game":"Team Fortress","app_id":440,"player_count":0,"max_players":24,"Bots":0,"server_type":"Dedicated","server_os":"Linux","password":true,"vac":true,"version":"7757534","steam_id":85568392924469994,"keywords":["cp","nocrits","nodmgspread","uncletopia"],"game_id":440,"stv_port":27026,"stv_name":"Uncletopia | New York City | 2 | All Maps | STV","players":null},{"server_id":15,"name":"Uncletopia | New York City | 3 | Stopwatch Beta","name_short":"nyc-3","host":"nyc-1.us.uncletopia.com","port":27035,"enabled":true,"region":"us-east","cc":"us","latitude":40.73061,"longitude":-73.93524,"reserved":0,"last_update":"0001-01-01T00:00:00Z","name_a2s":"Uncletopia | New York City | 3 | Stopwatch Beta","protocol":17,"map":"pl_upward","folder":"tf","game":"Team Fortress","app_id":440,"player_count":0,"max_players":24,"Bots":0,"server_type":"Dedicated","server_os":"Linux","password":true,"vac":true,"version":"7757534","steam_id":85568392924742820,"keywords":["nocrits","nodmgspread","payload","uncletopia"],"game_id":440,"stv_port":27036,"stv_name":"Uncletopia | New York City | 3 | Stopwatch Beta | STV","players":null},{"server_id":16,"name":"Uncletopia | New York City | 4 | Community","name_short":"nyc-4","host":"nyc-1.us.uncletopia.com","port":27045,"enabled":true,"region":"us-east","cc":"us","latitude":40.73061,"longitude":-73.93524,"reserved":0,"last_update":"0001-01-01T00:00:00Z","name_a2s":"Uncletopia | New York City | 4 | Community","protocol":17,"map":"workshop/koth_product_final.ugc454272353","folder":"tf","game":"Team Fortress","app_id":440,"player_count":0,"max_players":24,"Bots":0,"server_type":"Dedicated","server_os":"Linux","password":true,"vac":true,"version":"7757534","steam_id":85568392924742821,"keywords":["cp","nocrits","nodmgspread","uncletopia"],"game_id":440,"stv_port":27046,"stv_name":"Uncletopia | New York City | 4 | Community | STV","players":null},{"server_id":142,"name":"Uncletopia | São Paulo | 1 | All Maps","name_short":"sao-1","host":"sao-1.br.uncletopia.com","port":27015,"enabled":true,"region":"sa","cc":"br","latitude":-23.533773,"longitude":-46.62529,"reserved":0,"last_update":"0001-01-01T00:00:00Z","name_a2s":"Uncletopia | São Paulo | 1 | All Maps","protocol":17,"map":"koth_lakeside_final","folder":"tf","game":"Team Fortress","app_id":440,"player_count":0,"max_players":24,"Bots":0,"server_type":"Dedicated","server_os":"Linux","password":true,"vac":true,"version":"7757534","steam_id":85568392924469996,"keywords":["cp","nocrits","nodmgspread","uncletopia"],"game_id":440,"stv_port":27016,"stv_name":"Uncletopia | São Paulo | 1 | All Maps | STV","players":null},{"server_id":143,"name":"Uncletopia | São Paulo | 2 | All Maps","name_short":"sao-2","host":"sao-2.br.uncletopia.com","port":27015,"enabled":true,"region":"sa","cc":"br","latitude":-23.533773,"longitude":-46.62529,"reserved":0,"last_update":"0001-01-01T00:00:00Z","name_a2s":"Uncletopia | São Paulo | 2 | All Maps","protocol":17,"map":"pl_snowycoast","folder":"tf","game":"Team Fortress","app_id":440,"player_count":0,"max_players":24,"Bots":0,"server_type":"Dedicated","server_os":"Linux","password":true,"vac":true,"version":"7757534","steam_id":85568392924485349,"keywords":["nocrits","nodmgspread","payload","uncletopia"],"game_id":440,"stv_port":27016,"stv_name":"Uncletopia | São Paulo | 2 | All Maps | STV","players":null},{"server_id":7,"name":"Uncletopia | Seattle | 1 | All Maps","name_short":"sea-1","host":"sea-1.us.uncletopia.com","port":27015,"enabled":true,"region":"us-west","cc":"us","latitude":47.608013,"longitude":-122.33517,"reserved":0,"last_update":"0001-01-01T00:00:00Z","name_a2s":"Uncletopia | Seattle | 1 | All Maps","protocol":17,"map":"koth_harvest_final","folder":"tf","game":"Team Fortress","app_id":440,"player_count":21,"max_players":24,"Bots":0,"server_type":"Dedicated","server_os":"Linux","password":true,"vac":true,"version":"7757534","steam_id":85568392924469997,"keywords":["cp","nocrits","nodmgspread","uncletopia"],"game_id":440,"stv_port":27016,"stv_name":"Uncletopia | Seattle | 1 | All Maps | STV","players":[{"user_id":254,"name":"Baltimore CA-68","steam_id":76561198313517179,"connected_time":851000000000,"state":"connecting","ping":110},{"user_id":250,"name":"ʳᵒʸᵒ","steam_id":76561198155447646,"connected_time":984000000000,"state":"connecting","ping":84},{"user_id":258,"name":"Junko","steam_id":76561198146089003,"connected_time":505000000000,"state":"connecting","ping":134},{"user_id":233,"name":"soda","steam_id":76561198105924953,"connected_time":3750000000000,"state":"connecting","ping":81},{"user_id":181,"name":"nori_420","steam_id":76561199117134203,"connected_time":7793000000000,"state":"connecting","ping":102},{"user_id":237,"name":"SeaBass","steam_id":76561197982949108,"connected_time":3138000000000,"state":"connecting","ping":122},{"user_id":243,"name":"Konrad Vilulf","steam_id":76561198111124481,"connected_time":2388000000000,"state":"connecting","ping":146},{"user_id":265,"name":"Y2K","steam_id":76561199191855486,"connected_time":134000000000,"state":"connecting","ping":56},{"user_id":266,"name":"Master John Thursday","steam_id":76561197987593154,"connected_time":71000000000,"state":"connecting","ping":98},{"user_id":257,"name":"Gavial the Invincible","steam_id":76561198348354629,"connected_time":544000000000,"state":"connecting","ping":77},{"user_id":202,"name":"lavener","steam_id":76561199069518286,"connected_time":6316000000000,"state":"connecting","ping":98},{"user_id":241,"name":"BolognaWithOlives","steam_id":76561198101262668,"connected_time":2618000000000,"state":"connecting","ping":112},{"user_id":252,"name":"Technology Man","steam_id":76561198196136573,"connected_time":962000000000,"state":"connecting","ping":62},{"user_id":261,"name":"NEBULA","steam_id":76561198086878595,"connected_time":218000000000,"state":"connecting","ping":98},{"user_id":262,"name":"Phlogging Solly","steam_id":76561198020580071,"connected_time":208000000000,"state":"connecting","ping":118},{"user_id":259,"name":"Saint Pablo","steam_id":76561198083300159,"connected_time":505000000000,"state":"spawning","ping":90},{"user_id":230,"name":"SibilantSerpent","steam_id":76561198154488754,"connected_time":4119000000000,"state":"connecting","ping":65},{"user_id":263,"name":"Depths","steam_id":76561198343435310,"connected_time":200000000000,"state":"connecting","ping":77},{"user_id":264,"name":"liliLovesUnicorns83","steam_id":76561199391478575,"connected_time":167000000000,"state":"spawning","ping":81},{"user_id":225,"name":"Super Perfect Cell","steam_id":76561198271939793,"connected_time":4205000000000,"state":"connecting","ping":70}]},{"server_id":119,"name":"Uncletopia | Seattle | 2 | All Maps","name_short":"sea-2","host":"sea-1.us.uncletopia.com","port":27025,"enabled":true,"region":"us-west","cc":"us","latitude":47.608013,"longitude":-122.33517,"reserved":0,"last_update":"0001-01-01T00:00:00Z","name_a2s":"Uncletopia | Seattle | 2 | All Maps","protocol":17,"map":"koth_cascade","folder":"tf","game":"Team Fortress","app_id":440,"player_count":23,"max_players":24,"Bots":0,"server_type":"Dedicated","server_os":"Linux","password":true,"vac":true,"version":"7757534","steam_id":85568392924469998,"keywords":["cp","nocrits","nodmgspread","uncletopia"],"game_id":440,"stv_port":27026,"stv_name":"Uncletopia | Seattle | 2 | All Maps | STV","players":[{"user_id":348,"name":"Dargoos","steam_id":76561198366212046,"connected_time":106000000000,"state":"active","ping":75},{"user_id":340,"name":"Ding Chavez","steam_id":76561198012104492,"connected_time":901000000000,"state":"active","ping":46},{"user_id":343,"name":"creepycrawler","steam_id":76561198352016831,"connected_time":463000000000,"state":"active","ping":109},{"user_id":344,"name":"CUBENSiS","steam_id":76561199138699358,"connected_time":302000000000,"state":"active","ping":116},{"user_id":345,"name":"Coolpotato9","steam_id":76561199047814020,"connected_time":281000000000,"state":"active","ping":132},{"user_id":342,"name":"Capt. Nog","steam_id":76561198915900665,"connected_time":864000000000,"state":"active","ping":58},{"user_id":336,"name":"Shark Sandwich","steam_id":76561198025007938,"connected_time":1217000000000,"state":"active","ping":59},{"user_id":309,"name":"Paul Blart","steam_id":76561198068110623,"connected_time":2934000000000,"state":"active","ping":53},{"user_id":346,"name":"Ockulus","steam_id":76561199069638460,"connected_time":264000000000,"state":"active","ping":80},{"user_id":329,"name":"Kuyumiester","steam_id":76561198126835302,"connected_time":1799000000000,"state":"active","ping":74},{"user_id":335,"name":"FlamingManiac","steam_id":76561198361996837,"connected_time":1262000000000,"state":"active","ping":132},{"user_id":323,"name":"magunyamu","steam_id":76561198823083676,"connected_time":2015000000000,"state":"active","ping":84},{"user_id":196,"name":"Dob Bole","steam_id":76561198056367220,"connected_time":10939000000000,"state":"active","ping":68},{"user_id":337,"name":"p i n e ↟ ↟","steam_id":76561198058199952,"connected_time":1176000000000,"state":"active","ping":54},{"user_id":330,"name":"Pudsla","steam_id":76561198258974036,"connected_time":1793000000000,"state":"active","ping":68},{"user_id":331,"name":"Jambi","steam_id":76561198846091685,"connected_time":1421000000000,"state":"active","ping":92},{"user_id":325,"name":"AudaCD","steam_id":76561198202775853,"connected_time":1962000000000,"state":"active","ping":84},{"user_id":326,"name":"CJDGuy","steam_id":76561198213009545,"connected_time":1958000000000,"state":"active","ping":85},{"user_id":299,"name":"I'm so full of stem cells","steam_id":76561198329087915,"connected_time":3334000000000,"state":"active","ping":85},{"user_id":327,"name":"reiidaya","steam_id":76561198325306660,"connected_time":1951000000000,"state":"active","ping":50},{"user_id":341,"name":"the trollining","steam_id":76561199160884713,"connected_time":897000000000,"state":"active","ping":84},{"user_id":334,"name":"NotNamedBob","steam_id":76561199482149729,"connected_time":1315000000000,"state":"active","ping":121},{"user_id":240,"name":"DVD Copy of Men in Black II","steam_id":76561198080067715,"connected_time":7100000000000,"state":"active","ping":107}]},{"server_id":406,"name":"Uncletopia | Seattle | 3 | Stopwatch Beta","name_short":"sea-3","host":"sea-1.us.uncletopia.com","port":27035,"enabled":true,"region":"us-west","cc":"us","latitude":47.608013,"longitude":-122.33517,"reserved":0,"last_update":"0001-01-01T00:00:00Z","name_a2s":"Uncletopia | Seattle | 3 | Stopwatch Beta","protocol":17,"map":"workshop/koth_product_final.ugc454272353","folder":"tf","game":"Team Fortress","app_id":440,"player_count":0,"max_players":24,"Bots":0,"server_type":"Dedicated","server_os":"Linux","password":true,"vac":true,"version":"7757534","steam_id":85568392924515217,"keywords":["cp","nocrits","nodmgspread","uncletopia"],"game_id":440,"stv_port":27036,"stv_name":"Uncletopia | Seattle | 3 | Stopwatch Beta | STV","players":null},{"server_id":17,"name":"Uncletopia | San Francisco | 1 | All Maps","name_short":"sfo-1","host":"sfo-1.us.uncletopia.com","port":27015,"enabled":true,"region":"us-west","cc":"us","latitude":37.77397,"longitude":-122.4313,"reserved":0,"last_update":"0001-01-01T00:00:00Z","name_a2s":"Uncletopia | San Francisco | 1 | All Maps","protocol":17,"map":"pl_upward","folder":"tf","game":"Team Fortress","app_id":440,"player_count":24,"max_players":24,"Bots":0,"server_type":"Dedicated","server_os":"Linux","password":true,"vac":true,"version":"7757534","steam_id":85568392924469999,"keywords":["nocrits","nodmgspread","payload","uncletopia"],"game_id":440,"stv_port":27016,"stv_name":"Uncletopia | San Francisco | 1 | All Maps | STV","players":[{"user_id":133,"name":"Power Jake","steam_id":76561198051510260,"connected_time":992000000000,"state":"active","ping":69},{"user_id":75,"name":"Ethan","steam_id":76561198073208185,"connected_time":5337000000000,"state":"active","ping":62},{"user_id":132,"name":"boosh","steam_id":76561198034218020,"connected_time":1128000000000,"state":"active","ping":76},{"user_id":140,"name":"DOMO_MR_ROBOTO","steam_id":76561198077108345,"connected_time":679000000000,"state":"active","ping":98},{"user_id":91,"name":"Void","steam_id":76561198308290211,"connected_time":4147000000000,"state":"active","ping":99},{"user_id":134,"name":"Definitely Not A Cat","steam_id":76561198123464621,"connected_time":989000000000,"state":"active","ping":126},{"user_id":129,"name":"Zeebop","steam_id":76561198148332988,"connected_time":1333000000000,"state":"active","ping":112},{"user_id":149,"name":"airbudenjoyer2012","steam_id":76561198150428763,"connected_time":89000000000,"state":"active","ping":64},{"user_id":145,"name":"borb is not a medic","steam_id":76561198301198733,"connected_time":455000000000,"state":"active","ping":99},{"user_id":144,"name":"uzr","steam_id":76561198799343084,"connected_time":529000000000,"state":"active","ping":59},{"user_id":146,"name":"Enforcer Enthusiast","steam_id":76561199124102271,"connected_time":396000000000,"state":"active","ping":80},{"user_id":119,"name":"Sludge eater","steam_id":76561198424248616,"connected_time":2187000000000,"state":"active","ping":112},{"user_id":147,"name":"EchoReplayz","steam_id":76561198229366892,"connected_time":368000000000,"state":"active","ping":98},{"user_id":90,"name":"Fallen","steam_id":76561198206490352,"connected_time":4346000000000,"state":"active","ping":51},{"user_id":98,"name":"Leaderofthe00fkins","steam_id":76561198281999872,"connected_time":3776000000000,"state":"active","ping":55},{"user_id":135,"name":"Blitzy","steam_id":76561198149472890,"connected_time":981000000000,"state":"active","ping":77},{"user_id":148,"name":"Drapph","steam_id":76561199384213314,"connected_time":307000000000,"state":"active","ping":114},{"user_id":137,"name":"diversity hire","steam_id":76561198022967929,"connected_time":951000000000,"state":"active","ping":61},{"user_id":136,"name":"🅜🅔🅔🅚🅢🅣🅔\ufffd\ufffd\ufffd","steam_id":76561197999748343,"connected_time":981000000000,"state":"active","ping":83},{"user_id":138,"name":"STENDO_CLIP","steam_id":76561198059570167,"connected_time":924000000000,"state":"active","ping":166},{"user_id":143,"name":"walterhwhite","steam_id":76561199433675789,"connected_time":563000000000,"state":"active","ping":64},{"user_id":109,"name":"noceof","steam_id":76561198043656816,"connected_time":3347000000000,"state":"active","ping":160},{"user_id":125,"name":"Altruisticailuridae","steam_id":76561198335295596,"connected_time":1805000000000,"state":"active","ping":53},{"user_id":131,"name":"D0VE","steam_id":76561198151618566,"connected_time":1317000000000,"state":"active","ping":76}]},{"server_id":18,"name":"Uncletopia | San Francisco | 2 | All Maps","name_short":"sfo-2","host":"sfo-1.us.uncletopia.com","port":27025,"enabled":true,"region":"us-west","cc":"us","latitude":37.77397,"longitude":-122.4313,"reserved":0,"last_update":"0001-01-01T00:00:00Z","name_a2s":"Uncletopia | San Francisco | 2 | All Maps","protocol":17,"map":"koth_highpass","folder":"tf","game":"Team Fortress","app_id":440,"player_count":0,"max_players":24,"Bots":0,"server_type":"Dedicated","server_os":"Linux","password":true,"vac":true,"version":"7757534","steam_id":85568392924470000,"keywords":["cp","nocrits","nodmgspread","uncletopia"],"game_id":440,"stv_port":27026,"stv_name":"Uncletopia | San Francisco | 2 | All Maps | STV","players":null},{"server_id":19,"name":"Uncletopia | San Francisco | 3 | Stopwatch Beta","name_short":"sfo-3","host":"sfo-1.us.uncletopia.com","port":27035,"enabled":true,"region":"us-west","cc":"us","latitude":37.77397,"longitude":-122.4313,"reserved":0,"last_update":"0001-01-01T00:00:00Z","name_a2s":"Uncletopia | San Francisco | 3 | Stopwatch Beta","protocol":17,"map":"koth_lakeside_final","folder":"tf","game":"Team Fortress","app_id":440,"player_count":0,"max_players":24,"Bots":0,"server_type":"Dedicated","server_os":"Linux","password":true,"vac":true,"version":"7757534","steam_id":85568392924742824,"keywords":["cp","nocrits","nodmgspread","uncletopia"],"game_id":440,"stv_port":27036,"stv_name":"Uncletopia | San Francisco | 3 | Stopwatch Beta | STV","players":null},{"server_id":20,"name":"Uncletopia | San Francisco | 4 | Community","name_short":"sfo-4","host":"sfo-1.us.uncletopia.com","port":27045,"enabled":true,"region":"us-west","cc":"us","latitude":37.77397,"longitude":-122.4313,"reserved":0,"last_update":"0001-01-01T00:00:00Z","name_a2s":"Uncletopia | San Francisco | 4 | Community","protocol":17,"map":"workshop/cp_kalinka_rc6a.ugc1272700588","folder":"tf","game":"Team Fortress","app_id":440,"player_count":0,"max_players":24,"Bots":0,"server_type":"Dedicated","server_os":"Linux","password":true,"vac":true,"version":"7757534","steam_id":85568392924742826,"keywords":["cp","nocrits","nodmgspread","uncletopia"],"game_id":440,"stv_port":27046,"stv_name":"Uncletopia | San Francisco | 4 | Community | STV","players":null},{"server_id":141,"name":"Uncletopia | Sydney | 1 | All Maps","name_short":"syd-1","host":"syd-1.au.uncletopia.com","port":27015,"enabled":true,"region":"au","cc":"au","latitude":-33.865143,"longitude":151.2099,"reserved":0,"last_update":"0001-01-01T00:00:00Z","name_a2s":"Uncletopia | Sydney | 1 | All Maps","protocol":17,"map":"koth_viaduct","folder":"tf","game":"Team Fortress","app_id":440,"player_count":0,"max_players":24,"Bots":0,"server_type":"Dedicated","server_os":"Linux","password":true,"vac":true,"version":"7757534","steam_id":85568392924470001,"keywords":["cp","nocrits","nodmgspread","uncletopia"],"game_id":440,"stv_port":27016,"stv_name":"Uncletopia | Sydney | 1 | All Maps | STV","players":null},{"server_id":123,"name":"Uncletopia | Sydney | 2 | All Maps","name_short":"syd-2","host":"syd-1.au.uncletopia.com","port":27025,"enabled":true,"region":"au","cc":"au","latitude":-33.865143,"longitude":151.2099,"reserved":0,"last_update":"0001-01-01T00:00:00Z","name_a2s":"Uncletopia | Sydney | 2 | All Maps","protocol":17,"map":"cp_process_final","folder":"tf","game":"Team Fortress","app_id":440,"player_count":0,"max_players":24,"Bots":0,"server_type":"Dedicated","server_os":"Linux","password":true,"vac":true,"version":"7757534","steam_id":85568392924470002,"keywords":["cp","nocrits","nodmgspread","uncletopia"],"game_id":440,"stv_port":27026,"stv_name":"Uncletopia | Sydney | 2 | All Maps | STV","players":null},{"server_id":395,"name":"Uncletopia | Sydney | 3 | All Maps","name_short":"syd-3","host":"syd-1.au.uncletopia.com","port":27035,"enabled":true,"region":"au","cc":"au","latitude":-33.865143,"longitude":151.2099,"reserved":0,"last_update":"0001-01-01T00:00:00Z","name_a2s":"Uncletopia | Sydney | 3 | All Maps","protocol":17,"map":"pl_swiftwater_final1","folder":"tf","game":"Team Fortress","app_id":440,"player_count":0,"max_players":24,"Bots":0,"server_type":"Dedicated","server_os":"Linux","password":true,"vac":true,"version":"7757534","steam_id":85568392925194467,"keywords":["nocrits","nodmgspread","payload","uncletopia"],"game_id":440,"stv_port":27036,"stv_name":"Uncletopia | Sydney | 3 | All Maps | STV","players":null},{"server_id":396,"name":"Uncletopia | Sydney | 4 | All Maps","name_short":"syd-4","host":"syd-1.au.uncletopia.com","port":27045,"enabled":true,"region":"au","cc":"au","latitude":-33.865143,"longitude":151.2099,"reserved":0,"last_update":"0001-01-01T00:00:00Z","name_a2s":"Uncletopia | Sydney | 4 | All Maps","protocol":17,"map":"koth_highpass","folder":"tf","game":"Team Fortress","app_id":440,"player_count":0,"max_players":24,"Bots":0,"server_type":"Dedicated","server_os":"Linux","password":true,"vac":true,"version":"7757534","steam_id":85568392925397958,"keywords":["cp","nocrits","nodmgspread","uncletopia"],"game_id":440,"stv_port":27046,"stv_name":"Uncletopia | Sydney | 4 | All Maps | STV","players":null},{"server_id":58,"name":"Uncletopia | Sydney | 5 | Stopwatch Beta","name_short":"syd-5","host":"syd-1.au.uncletopia.com","port":27055,"enabled":true,"region":"au","cc":"au","latitude":-33.865143,"longitude":151.2099,"reserved":0,"last_update":"0001-01-01T00:00:00Z","name_a2s":"Uncletopia | Sydney | 5 | Stopwatch Beta","protocol":17,"map":"koth_cascade","folder":"tf","game":"Team Fortress","app_id":440,"player_count":0,"max_players":24,"Bots":0,"server_type":"Dedicated","server_os":"Linux","password":true,"vac":true,"version":"7757534","steam_id":85568392925397959,"keywords":["cp","nocrits","nodmgspread","uncletopia"],"game_id":440,"stv_port":27056,"stv_name":"Uncletopia | Sydney | 5 | Stopwatch Beta | STV","players":null},{"server_id":59,"name":"Uncletopia | Sydney | 6 | Community","name_short":"syd-6","host":"syd-1.au.uncletopia.com","port":27065,"enabled":true,"region":"au","cc":"au","latitude":-33.865143,"longitude":151.2099,"reserved":0,"last_update":"0001-01-01T00:00:00Z","name_a2s":"Uncletopia | Sydney | 6 | Community","protocol":17,"map":"cp_snakewater_final1","folder":"tf","game":"Team Fortress","app_id":440,"player_count":0,"max_players":24,"Bots":0,"server_type":"Dedicated","server_os":"Linux","password":true,"vac":true,"version":"7757534","steam_id":85568392925397960,"keywords":["cp","nocrits","nodmgspread","uncletopia"],"game_id":440,"stv_port":27066,"stv_name":"Uncletopia | Sydney | 6 | Community | STV","players":null},{"server_id":49,"name":"Uncletopia | Warsaw | 1 | All Maps","name_short":"waw-1","host":"waw-1.pl.uncletopia.com","port":27015,"enabled":true,"region":"eu","cc":"pl","latitude":52.2297,"longitude":21.017532,"reserved":0,"last_update":"0001-01-01T00:00:00Z","name_a2s":"","protocol":0,"map":"","folder":"","game":"","app_id":0,"player_count":0,"max_players":0,"Bots":0,"server_type":"","server_os":"","password":false,"vac":false,"version":"","steam_id":0,"keywords":null,"game_id":0,"stv_port":0,"stv_name":"","players":null},{"server_id":50,"name":"Uncletopia | Warsaw | 2 | All Maps","name_short":"waw-2","host":"waw-1.pl.uncletopia.com","port":27025,"enabled":true,"region":"eu","cc":"pl","latitude":52.2297,"longitude":21.017532,"reserved":0,"last_update":"0001-01-01T00:00:00Z","name_a2s":"Uncletopia | Warsaw | 2 | All Maps","protocol":17,"map":"koth_viaduct","folder":"tf","game":"Team Fortress","app_id":440,"player_count":0,"max_players":24,"Bots":0,"server_type":"Dedicated","server_os":"Linux","password":true,"vac":true,"version":"7757534","steam_id":85568392925397851,"keywords":["cp","nocrits","nodmgspread","uncletopia"],"game_id":440,"stv_port":27026,"stv_name":"Uncletopia | Warsaw | 2 | All Maps | STV","players":null},{"server_id":51,"name":"Uncletopia | Warsaw | 3 | All Maps","name_short":"waw-3","host":"waw-1.pl.uncletopia.com","port":27035,"enabled":true,"region":"eu","cc":"pl","latitude":52.2297,"longitude":21.017532,"reserved":0,"last_update":"0001-01-01T00:00:00Z","name_a2s":"Uncletopia | Warsaw | 3 | All Maps","protocol":17,"map":"pl_badwater","folder":"tf","game":"Team Fortress","app_id":440,"player_count":0,"max_players":24,"Bots":0,"server_type":"Dedicated","server_os":"Linux","password":true,"vac":true,"version":"7757534","steam_id":85568392925397852,"keywords":["nocrits","nodmgspread","payload","uncletopia"],"game_id":440,"stv_port":27036,"stv_name":"Uncletopia | Warsaw | 3 | All Maps | STV","players":null},{"server_id":52,"name":"Uncletopia | Warsaw | 4 | All Maps","name_short":"waw-4","host":"waw-1.pl.uncletopia.com","port":27045,"enabled":true,"region":"eu","cc":"pl","latitude":52.2297,"longitude":21.017532,"reserved":0,"last_update":"0001-01-01T00:00:00Z","name_a2s":"Uncletopia | Warsaw | 4 | All Maps","protocol":17,"map":"koth_lakeside_final","folder":"tf","game":"Team Fortress","app_id":440,"player_count":0,"max_players":24,"Bots":0,"server_type":"Dedicated","server_os":"Linux","password":true,"vac":true,"version":"7757534","steam_id":85568392925397853,"keywords":["cp","nocrits","nodmgspread","uncletopia"],"game_id":440,"stv_port":27046,"stv_name":"Uncletopia | Warsaw | 4 | All Maps | STV","players":null},{"server_id":53,"name":"Uncletopia | Warsaw | 5 | Stopwatch Beta","name_short":"waw-5","host":"waw-1.pl.uncletopia.com","port":27055,"enabled":true,"region":"eu","cc":"pl","latitude":52.2297,"longitude":21.017532,"reserved":0,"last_update":"0001-01-01T00:00:00Z","name_a2s":"Uncletopia | Warsaw | 5 | Stopwatch Beta","protocol":17,"map":"pl_borneo","folder":"tf","game":"Team Fortress","app_id":440,"player_count":0,"max_players":24,"Bots":0,"server_type":"Dedicated","server_os":"Linux","password":true,"vac":true,"version":"7757534","steam_id":85568392925397854,"keywords":["nocrits","nodmgspread","payload","uncletopia"],"game_id":440,"stv_port":27056,"stv_name":"Uncletopia | Warsaw | 5 | Stopwatch Beta | STV","players":null},{"server_id":54,"name":"Uncletopia | Warsaw | 6 | Community","name_short":"waw-6","host":"waw-1.pl.uncletopia.com","port":27065,"enabled":true,"region":"eu","cc":"pl","latitude":52.2297,"longitude":21.017532,"reserved":0,"last_update":"0001-01-01T00:00:00Z","name_a2s":"Uncletopia | Warsaw | 6 | Community","protocol":17,"map":"koth_lakeside_final","folder":"tf","game":"Team Fortress","app_id":440,"player_count":0,"max_players":24,"Bots":0,"server_type":"Dedicated","server_os":"Linux","password":true,"vac":true,"version":"7757534","steam_id":85568392925397856,"keywords":["cp","nocrits","nodmgspread","uncletopia"],"game_id":440,"stv_port":27066,"stv_name":"Uncletopia | Warsaw | 6 | Community | STV","players":null}]}