{"status":true,"message":"","result":[{"server_id":9,"name":"Uncletopia | Atlanta | 1 | All Maps","name_short":"atl-1","host":"atl-1.us.uncletopia.com","port":27015,"enabled":true,"region":"us-east","cc":"us","latitude":33.753746,"longitude":-84.38633,"reserved":0,"last_update":"0001-01-01T00:00:00Z","name_a2s":"Uncletopia | Atlanta | 1 | All Maps","protocol":17,"map":"cp_sunshine","folder":"tf","game":"Team Fortress","app_id":440,"player_count":24,"max_players":24,"Bots":0,"server_type":"Dedicated","server_os":"Linux","password":true,"vac":true,"version":"7961495","steam_id":85568392924469982,"keywords":["cp","nocrits","nodmgspread","uncletopia"],"game_id":440,"stv_port":27016,"stv_name":"Uncletopia | Atlanta | 1 | All Maps | STV","players":null},{"server_id":104,"name":"Uncletopia | Atlanta | 2 | All Maps","name_short":"atl-2","host":"atl-1.us.uncletopia.com","port":27025,"enabled":true,"region":"us-east","cc":"us","latitude":33.753746,"longitude":-84.38633,"reserved":0,"last_update":"0001-01-01T00:00:00Z","name_a2s":"Uncletopia | Atlanta | 2 | All Maps","protocol":17,"map":"koth_viaduct","folder":"tf","game":"Team Fortress","app_id":440,"player_count":0,"max_players":24,"Bots":0,"server_type":"Dedicated","server_os":"Linux","password":true,"vac":true,"version":"7961495","steam_id":85568392924469983,"keywords":["cp","nocrits","nodmgspread","uncletopia"],"game_id":440,"stv_port":27026,"stv_name":"Uncletopia | Atlanta | 2 | All Maps | STV","players":null},{"server_id":400,"name":"Uncletopia | Atlanta | 3 | Stopwatch","name_short":"atl-3","host":"atl-1.us.uncletopia.com","port":27035,"enabled":true,"region":"us-east","cc":"us","latitude":33.753746,"longitude":-84.38633,"reserved":0,"last_update":"0001-01-01T00:00:00Z","name_a2s":"Uncletopia | Atlanta | 3 | Stopwatch","protocol":17,"map":"pl_badwater","folder":"tf","game":"Team Fortress","app_id":440,"player_count":0,"max_players":24,"Bots":0,"server_type":"Dedicated","server_os":"Linux","password":true,"vac":true,"version":"7961495","steam_id":85568392924515187,"keywords":["nocrits","nodmgspread","payload","uncletopia"],"game_id":440,"stv_port":27036,"stv_name":"Uncletopia | Atlanta | 3 | Stopwatch | STV","players":null},{"server_id":401,"name":"Uncletopia | Atlanta | 4 | Community","name_short":"atl-4","host":"atl-1.us.uncletopia.com","port":27045,"enabled":true,"region":"us-east","cc":"us","latitude":33.753746,"longitude":-84.38633,"reserved":0,"last_update":"0001-01-01T00:00:00Z","name_a2s":"Uncletopia | Atlanta | 4 | Community","protocol":17,"map":"pl_emerge_rc2","folder":"tf","game":"Team Fortress","app_id":440,"player_count":0,"max_players":24,"Bots":0,"server_type":"Dedicated","server_os":"Linux","password":true,"vac":true,"version":"7961495","steam_id":85568392924515188,"keywords":["nocrits","nodmgspread","payload","uncletopia"],"game_id":440,"stv_port":27046,"stv_name":"Uncletopia | Atlanta | 4 | Community | STV","players":null},{"server_id":2,"name":"Uncletopia | Chicago | 1 | All Maps","name_short":"chi-1","host":"chi-1.us.uncletopia.com","port":27015,"enabled":true,"region":"us-central","cc":"us","latitude":41.881832,"longitude":-87.62318,"reserved":0,"last_update":"0001-01-01T00:00:00Z","name_a2s":"Uncletopia | Chicago | 1 | All Maps","protocol":17,"map":"koth_harvest_final","folder":"tf","game":"Team Fortress","app_id":440,"player_count":18,"max_players":24,"Bots":0,"server_type":"Dedicated","server_os":"Linux","password":true,"vac":true,"version":"7961495","steam_id":85568392924469984,"keywords":["cp","nocrits","nodmgspread","uncletopia"],"game_id":440,"stv_port":27016,"stv_name":"Uncletopia | Chicago | 1 | All Maps | STV","players":[{"user_id":1143,"name":"SilentFootba11","steam_id":76561199006570947,"connected_time":19000000000,"state":"connecting","ping":57},{"user_id":1085,"name":"badboy6996","steam_id":76561197969386201,"connected_time":4607000000000,"state":"active","ping":100},{"user_id":1119,"name":"feudal","steam_id":76561198057374871,"connected_time":2035000000000,"state":"active","ping":75},{"user_id":1064,"name":"hamletespacial","steam_id":76561199084414649,"connected_time":6180000000000,"state":"active","ping":132},{"user_id":1137,"name":"Diego","steam_id":76561198142626612,"connected_time":461000000000,"state":"active","ping":131},{"user_id":1126,"name":"AppleTruffle","steam_id":76561198031299571,"connected_time":946000000000,"state":"active","ping":68},{"user_id":1141,"name":"hej","steam_id":76561198110530761,"connected_time":55000000000,"state":"spawning","ping":202},{"user_id":1073,"name":"NjoKuAni","steam_id":76561199061380038,"connected_time":5583000000000,"state":"active","ping":107},{"user_id":1142,"name":"Guts","steam_id":76561198244702428,"connected_time":35000000000,"state":"active","ping":61},{"user_id":1127,"name":"TRIPLE AAARON","steam_id":76561198066835150,"connected_time":936000000000,"state":"spawning","ping":371},{"user_id":1106,"name":"Oswald god mode","steam_id":76561198136642793,"connected_time":3195000000000,"state":"active","ping":98},{"user_id":1138,"name":"L + Maidenless + Tarnished","steam_id":76561198978605490,"connected_time":376000000000,"state":"active","ping":159},{"user_id":1139,"name":"Spinya","steam_id":76561198086653667,"connected_time":280000000000,"state":"active","ping":150},{"user_id":1091,"name":"B4NNY UNIVERSITY GRADUATE","steam_id":76561198144766439,"connected_time":3981000000000,"state":"active","ping":61},{"user_id":1124,"name":"crispy","steam_id":76561198971106376,"connected_time":955000000000,"state":"active","ping":101},{"user_id":1140,"name":"The Spanish Inquisition","steam_id":76561198109322171,"connected_time":243000000000,"state":"active","ping":82},{"user_id":1133,"name":"Glennithy","steam_id":76561198339332079,"connected_time":750000000000,"state":"active","ping":112},{"user_id":1135,"name":"Ace Attorney","steam_id":76561198133011705,"connected_time":638000000000,"state":"active","ping":100}]},{"server_id":106,"name":"Uncletopia | Chicago | 2 | All Maps","name_short":"chi-2","host":"chi-1.us.uncletopia.com","port":27025,"enabled":true,"region":"us-central","cc":"us","latitude":41.881832,"longitude":-87.62318,"reserved":0,"last_update":"0001-01-01T00:00:00Z","name_a2s":"Uncletopia | Chicago | 2 | All Maps","protocol":17,"map":"koth_viaduct","folder":"tf","game":"Team Fortress","app_id":440,"player_count":0,"max_players":24,"Bots":0,"server_type":"Dedicated","server_os":"Linux","password":true,"vac":true,"version":"7961495","steam_id":85568392924469985,"keywords":["cp","nocrits","nodmgspread","uncletopia"],"game_id":440,"stv_port":27026,"stv_name":"Uncletopia | Chicago | 2 | All Maps | STV","players":null},{"server_id":402,"name":"Uncletopia | Chicago | 3 | All Maps","name_short":"chi-3","host":"chi-1.us.uncletopia.com","port":27035,"enabled":true,"region":"us-central","cc":"us","latitude":41.881832,"longitude":-87.62318,"reserved":0,"last_update":"0001-01-01T00:00:00Z","name_a2s":"Uncletopia | Chicago | 3 | All Maps","protocol":17,"map":"cp_process_final","folder":"tf","game":"Team Fortress","app_id":440,"player_count":0,"max_players":24,"Bots":0,"server_type":"Dedicated","server_os":"Linux","password":true,"vac":true,"version":"7961495","steam_id":85568392924515191,"keywords":["cp","nocrits","nodmgspread","uncletopia"],"game_id":440,"stv_port":27036,"stv_name":"Uncletopia | Chicago | 3 | All Maps | STV","players":null},{"server_id":403,"name":"Uncletopia | Chicago | 4 | All Maps","name_short":"chi-4","host":"chi-1.us.uncletopia.com","port":27045,"enabled":true,"region":"us-central","cc":"us","latitude":41.881832,"longitude":-87.62318,"reserved":0,"last_update":"0001-01-01T00:00:00Z","name_a2s":"Uncletopia | Chicago | 4 | All Maps","protocol":17,"map":"pl_swiftwater_final1","folder":"tf","game":"Team Fortress","app_id":440,"player_count":24,"max_players":24,"Bots":0,"server_type":"Dedicated","server_os":"Linux","password":true,"vac":true,"version":"7961495","steam_id":85568392924515193,"keywords":["nocrits","nodmgspread","payload","uncletopia"],"game_id":440,"stv_port":27046,"stv_name":"Uncletopia | Chicago | 4 | All Maps | STV","players":[{"user_id":404,"name":"koko","steam_id":76561198881665250,"connected_time":606000000000,"state":"active","ping":92},{"user_id":405,"name":"beanaay","steam_id":76561198134099143,"connected_time":599000000000,"state":"active","ping":58},{"user_id":339,"name":"Bryguy","steam_id":76561198092096120,"connected_time":5720000000000,"state":"active","ping":43},{"user_id":406,"name":"_Pai","steam_id":76561198108196753,"connected_time":591000000000,"state":"active","ping":101},{"user_id":402,"name":"raya","steam_id":76561198051504581,"connected_time":739000000000,"state":"active","ping":70},{"user_id":407,"name":"Mufalito","steam_id":76561198951889482,"connected_time":559000000000,"state":"active","ping":134},{"user_id":408,"name":"mohamy_19","steam_id":76561198075833698,"connected_time":541000000000,"state":"active","ping":75},{"user_id":413,"name":"bengineer","steam_id":76561198171912174,"connected_time":262000000000,"state":"active","ping":90},{"user_id":367,"name":"*:･ﾟ✧smolgols*:･ﾟ✧","steam_id":76561198356567673,"connected_time":4562000000000,"state":"active","ping":63},{"user_id":358,"name":"Shotaway's Kitten","steam_id":76561198284226688,"connected_time":5005000000000,"state":"active","ping":60},{"user_id":324,"name":"The Rock","steam_id":76561198433328517,"connected_time":6781000000000,"state":"active","ping":72},{"user_id":394,"name":"zpalmtree","steam_id":76561198134307620,"connected_time":1884000000000,"state":"active","ping":67},{"user_id":299,"name":"alN","steam_id":76561198329171346,"connected_time":8295000000000,"state":"active","ping":47},{"user_id":348,"name":"✪ dSaner -iwnl-","steam_id":76561198082291174,"connected_time":5162000000000,"state":"active","ping":69},{"user_id":375,"name":"merlin","steam_id":76561198334511480,"connected_time":4201000000000,"state":"active","ping":75},{"user_id":414,"name":"Vox Vulpera","steam_id":76561198796227041,"connected_time":1000000000,"state":"spawning","ping":40},{"user_id":398,"name":"rice white","steam_id":76561198320732910,"connected_time":1126000000000,"state":"active","ping":75},{"user_id":353,"name":"realCptJack","steam_id":76561198021082168,"connected_time":5123000000000,"state":"active","ping":61},{"user_id":411,"name":"kid named amogus","steam_id":76561198156093674,"connected_time":321000000000,"state":"active","ping":55},{"user_id":412,"name":"msay","steam_id":76561198170888029,"connected_time":308000000000,"state":"active","ping":98},{"user_id":385,"name":"phantom","steam_id":76561197963860777,"connected_time":3120000000000,"state":"active","ping":57},{"user_id":354,"name":"sherlock gnomes","steam_id":76561198050681704,"connected_time":5122000000000,"state":"active","ping":60},{"user_id":355,"name":"\u003c3","steam_id":76561198065872641,"connected_time":5116000000000,"state":"active","ping":112},{"user_id":400,"name":"totoro","steam_id":76561198210420871,"connected_time":1086000000000,"state":"active","ping":46}]},{"server_id":36,"name":"Uncletopia | Chicago | 5 | All Maps","name_short":"chi-5","host":"chi-2.us.uncletopia.com","port":27015,"enabled":true,"region":"us-central","cc":"us","latitude":41.881832,"longitude":-87.62318,"reserved":0,"last_update":"0001-01-01T00:00:00Z","name_a2s":"Uncletopia | Chicago | 5 | All Maps","protocol":17,"map":"cp_mountainlab","folder":"tf","game":"Team Fortress","app_id":440,"player_count":0,"max_players":24,"Bots":0,"server_type":"Dedicated","server_os":"Linux","password":true,"vac":true,"version":"7961495","steam_id":85568392924866362,"keywords":["cp","nocrits","nodmgspread","uncletopia"],"game_id":440,"stv_port":27016,"stv_name":"Uncletopia | Chicago | 5 | All Maps | STV","players":null},{"server_id":37,"name":"Uncletopia | Chicago | 6 | All Maps","name_short":"chi-6","host":"chi-2.us.uncletopia.com","port":27025,"enabled":true,"region":"us-central","cc":"us","latitude":41.881832,"longitude":-87.62318,"reserved":0,"last_update":"0001-01-01T00:00:00Z","name_a2s":"Uncletopia | Chicago | 6 | All Maps","protocol":17,"map":"cp_snakewater_final1","folder":"tf","game":"Team Fortress","app_id":440,"player_count":0,"max_players":24,"Bots":0,"server_type":"Dedicated","server_os":"Linux","password":true,"vac":true,"version":"7961495","steam_id":85568392924866363,"keywords":["cp","nocrits","nodmgspread","uncletopia"],"game_id":440,"stv_port":27026,"stv_name":"Uncletopia | Chicago | 6 | All Maps | STV","players":null},{"server_id":38,"name":"Uncletopia | Chicago | 7 | Stopwatch","name_short":"chi-7","host":"chi-2.us.uncletopia.com","port":27035,"enabled":true,"region":"us-central","cc":"us","latitude":41.881832,"longitude":-87.62318,"reserved":0,"last_update":"0001-01-01T00:00:00Z","name_a2s":"Uncletopia | Chicago | 7 | Stopwatch","protocol":17,"map":"cp_process_final","folder":"tf","game":"Team Fortress","app_id":440,"player_count":0,"max_players":24,"Bots":0,"server_type":"Dedicated","server_os":"Linux","password":true,"vac":true,"version":"7961495","steam_id":85568392924866364,"keywords":["cp","nocrits","nodmgspread","uncletopia"],"game_id":440,"stv_port":27036,"stv_name":"Uncletopia | Chicago | 7 | Stopwatch | STV","players":null},{"server_id":39,"name":"Uncletopia | Chicago | 8 | Community","name_short":"chi-8","host":"chi-2.us.uncletopia.com","port":27045,"enabled":true,"region":"us-central","cc":"us","latitude":41.881832,"longitude":-87.62318,"reserved":0,"last_update":"0001-01-01T00:00:00Z","name_a2s":"Uncletopia | Chicago | 8 | Community","protocol":17,"map":"workshop/koth_slaughter_rc1.ugc1712845210","folder":"tf","game":"Team Fortress","app_id":440,"player_count":0,"max_players":24,"Bots":0,"server_type":"Dedicated","server_os":"Linux","password":true,"vac":true,"version":"7961495","steam_id":85568392924866365,"keywords":["cp","nocrits","nodmgspread","uncletopia"],"game_id":440,"stv_port":27046,"stv_name":"Uncletopia | Chicago | 8 | Community | STV","players":null},{"server_id":8,"name":"Uncletopia | Dallas | 1 | All Maps","name_short":"dal-1","host":"dal-1.us.uncletopia.com","port":27015,"enabled":true,"region":"us-central","cc":"us","latitude":32.779167,"longitude":-96.80889,"reserved":0,"last_update":"0001-01-01T00:00:00Z","name_a2s":"Uncletopia | Dallas | 1 | All Maps","protocol":17,"map":"pl_pier","folder":"tf","game":"Team Fortress","app_id":440,"player_count":24,"max_players":24,"Bots":0,"server_type":"Dedicated","server_os":"Linux","password":true,"vac":true,"version":"7961495","steam_id":85568392924469986,"keywords":["nocrits","nodmgspread","payload","uncletopia"],"game_id":440,"stv_port":27016,"stv_name":"Uncletopia | Dallas | 1 | All Maps | STV","players":[{"user_id":572,"name":"shpee","steam_id":76561198259650356,"connected_time":770000000000,"state":"active","ping":89},{"user_id":568,"name":"dumbest girl alive","steam_id":76561198062263639,"connected_time":947000000000,"state":"active","ping":56},{"user_id":573,"name":"Reality Loser","steam_id":76561198001541433,"connected_time":748000000000,"state":"active","ping":75},{"user_id":530,"name":"weed lesbian","steam_id":76561198042263805,"connected_time":4092000000000,"state":"active","ping":98},{"user_id":578,"name":"Squiliam","steam_id":76561198025278006,"connected_time":555000000000,"state":"active","ping":43},{"user_id":529,"name":"floofy","steam_id":76561198389769098,"connected_time":4535000000000,"state":"active","ping":78},{"user_id":574,"name":"aaron","steam_id":76561198113364714,"connected_time":707000000000,"state":"active","ping":82},{"user_id":556,"name":"bobbymcbobington","steam_id":76561199089411172,"connected_time":2276000000000,"state":"active","ping":120},{"user_id":569,"name":"Whole Lotta VTEC","steam_id":76561198926416886,"connected_time":927000000000,"state":"active","ping":68},{"user_id":576,"name":"Wan Shi Tong","steam_id":76561198076441225,"connected_time":670000000000,"state":"active","ping":85},{"user_id":582,"name":"Rafl","steam_id":76561198055222756,"connected_time":323000000000,"state":"active","ping":44},{"user_id":558,"name":"Rat_king","steam_id":76561199465689129,"connected_time":1948000000000,"state":"active","ping":57},{"user_id":584,"name":"KevilPo","steam_id":76561199244507267,"connected_time":270000000000,"state":"active","ping":92},{"user_id":577,"name":"Bearegard","steam_id":76561198061926542,"connected_time":638000000000,"state":"active","ping":87},{"user_id":559,"name":"Mr. DeLarge","steam_id":76561198336820066,"connected_time":1922000000000,"state":"active","ping":111},{"user_id":560,"name":"gretchling","steam_id":76561198046111695,"connected_time":1913000000000,"state":"active","ping":53},{"user_id":370,"name":"BADWOLF42","steam_id":76561198055447523,"connected_time":16311000000000,"state":"active","ping":58},{"user_id":561,"name":"Ghandi","steam_id":76561198046702733,"connected_time":1905000000000,"state":"active","ping":61},{"user_id":522,"name":"Charles","steam_id":76561198155322277,"connected_time":5609000000000,"state":"active","ping":93},{"user_id":585,"name":"Ghoulenoir","steam_id":76561198074314573,"connected_time":264000000000,"state":"active","ping":70},{"user_id":586,"name":"Wikked","steam_id":76561198196149207,"connected_time":259000000000,"state":"active","ping":138},{"user_id":579,"name":"nastya","steam_id":76561197994492154,"connected_time":486000000000,"state":"active","ping":190},{"user_id":581,"name":"fish","steam_id":76561198878380917,"connected_time":449000000000,"state":"active","ping":70},{"user_id":587,"name":"Dapple001","steam_id":76561198804630817,"connected_time":56000000000,"state":"active","ping":103}]},{"server_id":108,"name":"Uncletopia | Dallas | 2 | All Maps","name_short":"dal-2","host":"dal-1.us.uncletopia.com","port":27025,"enabled":true,"region":"us-central","cc":"us","latitude":32.779167,"longitude":-96.80889,"reserved":0,"last_update":"0001-01-01T00:00:00Z","name_a2s":"Uncletopia | Dallas | 2 | All Maps","protocol":17,"map":"koth_viaduct","folder":"tf","game":"Team Fortress","app_id":440,"player_count":7,"max_players":24,"Bots":0,"server_type":"Dedicated","server_os":"Linux","password":true,"vac":true,"version":"7961495","steam_id":85568392924469988,"keywords":["cp","nocrits","nodmgspread","uncletopia"],"game_id":440,"stv_port":27026,"stv_name":"Uncletopia | Dallas | 2 | All Maps | STV","players":[{"user_id":420,"name":"The Barrel General","steam_id":76561198133684687,"connected_time":2697000000000,"state":"active","ping":79},{"user_id":421,"name":"Brad.EXE","steam_id":76561198048351190,"connected_time":2680000000000,"state":"active","ping":83},{"user_id":422,"name":"Sgt Ruffles","steam_id":76561198060103292,"connected_time":2642000000000,"state":"active","ping":40},{"user_id":423,"name":"Bone_Yoinker","steam_id":76561198052376335,"connected_time":2467000000000,"state":"active","ping":78},{"user_id":424,"name":"randomnumeral68","steam_id":76561199486147967,"connected_time":1227000000000,"state":"active","ping":101},{"user_id":425,"name":"Infectedwaffle","steam_id":76561198076077211,"connected_time":960000000000,"state":"active","ping":72},{"user_id":430,"name":"TheRussianSpy","steam_id":76561198325389865,"connected_time":56000000000,"state":"active","ping":83}]},{"server_id":404,"name":"Uncletopia | Dallas | 3 | All Maps","name_short":"dal-3","host":"dal-1.us.uncletopia.com","port":27035,"enabled":true,"region":"us-central","cc":"us","latitude":32.779167,"longitude":-96.80889,"reserved":0,"last_update":"0001-01-01T00:00:00Z","name_a2s":"Uncletopia | Dallas | 3 | All Maps","protocol":17,"map":"cp_altitude","folder":"tf","game":"Team Fortress","app_id":440,"player_count":0,"max_players":24,"Bots":0,"server_type":"Dedicated","server_os":"Linux","password":true,"vac":true,"version":"7961495","steam_id":85568392924515219,"keywords":["cp","nocrits","nodmgspread","uncletopia"],"game_id":440,"stv_port":27036,"stv_name":"Uncletopia | Dallas | 3 | All Maps | STV","players":null},{"server_id":405,"name":"Uncletopia | Dallas | 4 | Community","name_short":"dal-4","host":"dal-1.us.uncletopia.com","port":27045,"enabled":true,"region":"us-central","cc":"us","latitude":32.779167,"longitude":-96.80889,"reserved":0,"last_update":"0001-01-01T00:00:00Z","name_a2s":"Uncletopia | Dallas | 4 | Community","protocol":17,"map":"workshop/rd_asteroid_redux_b1.ugc2154902912","folder":"tf","game":"Team Fortress","app_id":440,"player_count":0,"max_players":24,"Bots":0,"server_type":"Dedicated","server_os":"Linux","password":true,"vac":true,"version":"7961495","steam_id":85568392924515220,"keywords":["beta","nocrits","nodmgspread","rd","uncletopia"],"game_id":440,"stv_port":27046,"stv_name":"Uncletopia | Dallas | 4 | Community | STV","players":null},{"server_id":5,"name":"Uncletopia | Frankfurt | 1 | All Maps","name_short":"frk-1","host":"frk-1.de.uncletopia.com","port":27015,"enabled":true,"region":"eu","cc":"de","latitude":50.110924,"longitude":8.682127,"reserved":0,"last_update":"0001-01-01T00:00:00Z","name_a2s":"Uncletopia | Frankfurt | 1 | All Maps","protocol":17,"map":"koth_highpass","folder":"tf","game":"Team Fortress","app_id":440,"player_count":0,"max_players":24,"Bots":0,"server_type":"Dedicated","server_os":"Linux","password":true,"vac":true,"version":"7961495","steam_id":85568392924469989,"keywords":["cp","nocrits","nodmgspread","uncletopia"],"game_id":440,"stv_port":27016,"stv_name":"Uncletopia | Frankfurt | 1 | All Maps | STV","players":null},{"server_id":110,"name":"Uncletopia | Frankfurt | 2 | All Maps","name_short":"frk-2","host":"frk-1.de.uncletopia.com","port":27025,"enabled":true,"region":"eu","cc":"de","latitude":50.110924,"longitude":8.682127,"reserved":0,"last_update":"0001-01-01T00:00:00Z","name_a2s":"Uncletopia | Frankfurt | 2 | All Maps","protocol":17,"map":"cp_dustbowl","folder":"tf","game":"Team Fortress","app_id":440,"player_count":0,"max_players":24,"Bots":0,"server_type":"Dedicated","server_os":"Linux","password":true,"vac":true,"version":"7961495","steam_id":85568392924469990,"keywords":["cp","nocrits","nodmgspread","uncletopia"],"game_id":440,"stv_port":27026,"stv_name":"Uncletopia | Frankfurt | 2 | All Maps | STV","players":null},{"server_id":308,"name":"Uncletopia | Frankfurt | 3 | All Maps","name_short":"frk-3","host":"frk-1.de.uncletopia.com","port":27035,"enabled":true,"region":"eu","cc":"de","latitude":50.110924,"longitude":8.682127,"reserved":0,"last_update":"0001-01-01T00:00:00Z","name_a2s":"Uncletopia | Frankfurt | 3 | All Maps","protocol":17,"map":"plr_hightower","folder":"tf","game":"Team Fortress","app_id":440,"player_count":0,"max_players":24,"Bots":0,"server_type":"Dedicated","server_os":"Linux","password":true,"vac":true,"version":"7961495","steam_id":85568392924504274,"keywords":["nocrits","nodmgspread","payload","uncletopia"],"game_id":440,"stv_port":27036,"stv_name":"Uncletopia | Frankfurt | 3 | All Maps | STV","players":null},{"server_id":309,"name":"Uncletopia | Frankfurt | 4 | All Maps","name_short":"frk-4","host":"frk-1.de.uncletopia.com","port":27045,"enabled":true,"region":"eu","cc":"de","latitude":50.110924,"longitude":8.682127,"reserved":0,"last_update":"0001-01-01T00:00:00Z","name_a2s":"Uncletopia | Frankfurt | 4 | All Maps","protocol":17,"map":"koth_highpass","folder":"tf","game":"Team Fortress","app_id":440,"player_count":0,"max_players":24,"Bots":0,"server_type":"Dedicated","server_os":"Linux","password":true,"vac":true,"version":"7961495","steam_id":85568392924504275,"keywords":["cp","nocrits","nodmgspread","uncletopia"],"game_id":440,"stv_port":27046,"stv_name":"Uncletopia | Frankfurt | 4 | All Maps | STV","players":null},{"server_id":310,"name":"Uncletopia | Frankfurt | 5 | All Maps","name_short":"frk-5","host":"frk-1.de.uncletopia.com","port":27055,"enabled":true,"region":"eu","cc":"de","latitude":50.110924,"longitude":8.682127,"reserved":0,"last_update":"0001-01-01T00:00:00Z","name_a2s":"Uncletopia | Frankfurt | 5 | All Maps","protocol":17,"map":"pl_badwater","folder":"tf","game":"Team Fortress","app_id":440,"player_count":0,"max_players":24,"Bots":0,"server_type":"Dedicated","server_os":"Linux","password":true,"vac":true,"version":"7961495","steam_id":85568392924504277,"keywords":["nocrits","nodmgspread","payload","uncletopia"],"game_id":440,"stv_port":27056,"stv_name":"Uncletopia | Frankfurt | 5 | All Maps | STV","players":null},{"server_id":311,"name":"Uncletopia | Frankfurt | 6 | All Maps","name_short":"frk-6","host":"frk-1.de.uncletopia.com","port":27065,"enabled":true,"region":"eu","cc":"de","latitude":50.110924,"longitude":8.682127,"reserved":0,"last_update":"0001-01-01T00:00:00Z","name_a2s":"Uncletopia | Frankfurt | 6 | All Maps","protocol":17,"map":"cp_altitude","folder":"tf","game":"Team Fortress","app_id":440,"player_count":0,"max_players":24,"Bots":0,"server_type":"Dedicated","server_os":"Linux","password":true,"vac":true,"version":"7961495","steam_id":85568392924504278,"keywords":["cp","nocrits","nodmgspread","uncletopia"],"game_id":440,"stv_port":27066,"stv_name":"Uncletopia | Frankfurt | 6 | All Maps | STV","players":null},{"server_id":23,"name":"Uncletopia | Frankfurt | 7 | Stopwatch","name_short":"frk-7","host":"frk-1.de.uncletopia.com","port":27075,"enabled":true,"region":"eu","cc":"de","latitude":50.110924,"longitude":8.682127,"reserved":0,"last_update":"0001-01-01T00:00:00Z","name_a2s":"Uncletopia | Frankfurt | 7 | Stopwatch","protocol":17,"map":"pl_frontier_final","folder":"tf","game":"Team Fortress","app_id":440,"player_count":0,"max_players":24,"Bots":0,"server_type":"Dedicated","server_os":"Linux","password":true,"vac":true,"version":"7961495","steam_id":85568392924742827,"keywords":["nocrits","nodmgspread","payload","uncletopia"],"game_id":440,"stv_port":27076,"stv_name":"Uncletopia | Frankfurt | 7 | Stopwatch | STV","players":null},{"server_id":24,"name":"Uncletopia | Frankfurt | 8 | Community","name_short":"frk-8","host":"frk-1.de.uncletopia.com","port":27085,"enabled":true,"region":"eu","cc":"de","latitude":50.110924,"longitude":8.682127,"reserved":0,"last_update":"0001-01-01T00:00:00Z","name_a2s":"Uncletopia | Frankfurt | 8 | Community","protocol":17,"map":"cp_mountainlab","folder":"tf","game":"Team Fortress","app_id":440,"player_count":0,"max_players":24,"Bots":0,"server_type":"Dedicated","server_os":"Linux","password":true,"vac":true,"version":"7961495","steam_id":85568392924742828,"keywords":["cp","nocrits","nodmgspread","uncletopia"],"game_id":440,"stv_port":27086,"stv_name":"Uncletopia | Frankfurt | 8 | Community | STV","players":null},{"server_id":202,"name":"Uncletopia | Hong Kong | 1 | All Maps","name_short":"hgk-1","host":"hgk-1.hk.uncletopia.com","port":27015,"enabled":true,"region":"asia","cc":"hk","latitude":22.302711,"longitude":114.177216,"reserved":0,"last_update":"0001-01-01T00:00:00Z","name_a2s":"Uncletopia | Hong Kong | 1 | All Maps","protocol":17,"map":"pl_barnblitz","folder":"tf","game":"Team Fortress","app_id":440,"player_count":24,"max_players":24,"Bots":0,"server_type":"Dedicated","server_os":"Linux","password":true,"vac":true,"version":"7961495","steam_id":85568392924494504,"keywords":["nocrits","nodmgspread","payload","uncletopia"],"game_id":440,"stv_port":27016,"stv_name":"Uncletopia | Hong Kong | 1 | All Maps | STV","players":[{"user_id":205,"name":"sugar rush","steam_id":76561199221278400,"connected_time":1793000000000,"state":"connecting","ping":96},{"user_id":207,"name":"Spyroman50","steam_id":76561199137927625,"connected_time":1328000000000,"state":"spawning","ping":115},{"user_id":208,"name":"picisan","steam_id":76561198815253186,"connected_time":959000000000,"state":"connecting","ping":143},{"user_id":152,"name":"im_0ff","steam_id":76561198339346695,"connected_time":5844000000000,"state":"spawning","ping":139},{"user_id":206,"name":"j_rex","steam_id":76561198132473926,"connected_time":1784000000000,"state":"connecting","ping":85},{"user_id":213,"name":"vintage","steam_id":76561198230213828,"connected_time":49000000000,"state":"connecting","ping":86},{"user_id":178,"name":"im choking on point","steam_id":76561198944322758,"connected_time":3031000000000,"state":"connecting","ping":246},{"user_id":180,"name":"Submarine","steam_id":76561198415207497,"connected_time":2789000000000,"state":"connecting","ping":108},{"user_id":105,"name":"Goldy","steam_id":76561199008543001,"connected_time":9596000000000,"state":"connecting","ping":73},{"user_id":201,"name":"brizzard","steam_id":76561198048438653,"connected_time":2164000000000,"state":"spawning","ping":57},{"user_id":182,"name":"Da Boss","steam_id":76561198104268922,"connected_time":2739000000000,"state":"spawning","ping":82},{"user_id":216,"name":"Nonexistent","steam_id":76561198980563251,"connected_time":13000000000,"state":"spawning","ping":1798},{"user_id":212,"name":"a musian","steam_id":76561198152588681,"connected_time":80000000000,"state":"connecting","ping":104},{"user_id":202,"name":"Kraiwit™","steam_id":76561199126167603,"connected_time":1979000000000,"state":"connecting","ping":125},{"user_id":217,"name":"avered (doing a challenge)","steam_id":76561199480939609,"connected_time":5000000000,"state":"connecting","ping":80},{"user_id":193,"name":"corpse_cadaver","steam_id":76561199225360457,"connected_time":2492000000000,"state":"connecting","ping":77},{"user_id":138,"name":"villy","steam_id":76561198169263597,"connected_time":7163000000000,"state":"connecting","ping":53},{"user_id":218,"name":"Fatty Stabby","steam_id":76561199137872034,"connected_time":4000000000,"state":"connecting","ping":178},{"user_id":189,"name":"twitch.tv/vision515","steam_id":76561198065293729,"connected_time":2645000000000,"state":"connecting","ping":243},{"user_id":194,"name":"screaming sniper","steam_id":76561199085568674,"connected_time":2465000000000,"state":"connecting","ping":87},{"user_id":200,"name":"Archimedes","steam_id":76561198080578051,"connected_time":2251000000000,"state":"connecting","ping":55},{"user_id":203,"name":"김광만","steam_id":76561198295279503,"connected_time":1882000000000,"state":"connecting","ping":123},{"user_id":198,"name":"hakos balls","steam_id":76561198074339034,"connected_time":2322000000000,"state":"connecting","ping":115},{"user_id":199,"name":"14","steam_id":76561198113401862,"connected_time":2303000000000,"state":"connecting","ping":136}]},{"server_id":1,"name":"Uncletopia | Los Angeles | 1 | All Maps","name_short":"lax-1","host":"lax-1.us.uncletopia.com","port":27015,"enabled":true,"region":"us-west","cc":"us","latitude":33.94279,"longitude":-118.41004,"reserved":0,"last_update":"0001-01-01T00:00:00Z","name_a2s":"Uncletopia | Los Angeles | 1 | All Maps","protocol":17,"map":"pl_upward","folder":"tf","game":"Team Fortress","app_id":440,"player_count":23,"max_players":24,"Bots":0,"server_type":"Dedicated","server_os":"Linux","password":true,"vac":true,"version":"7961495","steam_id":85568392924469991,"keywords":["nocrits","nodmgspread","payload","uncletopia"],"game_id":440,"stv_port":27016,"stv_name":"Uncletopia | Los Angeles | 1 | All Maps | STV","players":[{"user_id":511,"name":"Mattz","steam_id":76561198114280595,"connected_time":466000000000,"state":"active","ping":45},{"user_id":480,"name":"b1twoo3","steam_id":76561198159287614,"connected_time":1548000000000,"state":"active","ping":58},{"user_id":484,"name":"Tideflat","steam_id":76561198179850851,"connected_time":1371000000000,"state":"active","ping":92},{"user_id":482,"name":"ุ","steam_id":76561198404271005,"connected_time":1493000000000,"state":"active","ping":60},{"user_id":515,"name":"Freyja","steam_id":76561198207412177,"connected_time":296000000000,"state":"active","ping":77},{"user_id":486,"name":"SKREWEY","steam_id":76561198105099638,"connected_time":1196000000000,"state":"active","ping":74},{"user_id":516,"name":"sora","steam_id":76561198094256973,"connected_time":284000000000,"state":"active","ping":53},{"user_id":518,"name":"MellowYellow","steam_id":76561197999021563,"connected_time":144000000000,"state":"active","ping":76},{"user_id":498,"name":"shakoiwa","steam_id":76561199059441773,"connected_time":874000000000,"state":"active","ping":55},{"user_id":520,"name":"Mex","steam_id":76561198844107833,"connected_time":119000000000,"state":"active","ping":106},{"user_id":483,"name":"ShrimpPimp","steam_id":76561198833327561,"connected_time":1467000000000,"state":"active","ping":46},{"user_id":517,"name":"Dusty Biscuit","steam_id":76561198063123731,"connected_time":284000000000,"state":"active","ping":57},{"user_id":523,"name":"Havi","steam_id":76561198197832829,"connected_time":40000000000,"state":"active","ping":73},{"user_id":507,"name":"the cock","steam_id":76561198065153674,"connected_time":766000000000,"state":"active","ping":56},{"user_id":521,"name":"Homo Ejectus","steam_id":76561197968701952,"connected_time":99000000000,"state":"active","ping":85},{"user_id":494,"name":"narko","steam_id":76561198215832523,"connected_time":938000000000,"state":"active","ping":61},{"user_id":522,"name":"Acidsolman","steam_id":76561198138693576,"connected_time":84000000000,"state":"active","ping":58},{"user_id":501,"name":"Meepster","steam_id":76561198146305159,"connected_time":867000000000,"state":"active","ping":53},{"user_id":524,"name":"Da Bird","steam_id":76561198215677985,"connected_time":25000000000,"state":"spawning","ping":92},{"user_id":504,"name":"waffle","steam_id":76561198077799844,"connected_time":813000000000,"state":"active","ping":57},{"user_id":525,"name":"vielvladimir","steam_id":76561198170299341,"connected_time":14000000000,"state":"active","ping":190},{"user_id":508,"name":"FI LO","steam_id":76561198976530881,"connected_time":731000000000,"state":"active","ping":41},{"user_id":509,"name":"TractorKid45","steam_id":76561198087472085,"connected_time":713000000000,"state":"active","ping":52}]},{"server_id":112,"name":"Uncletopia | Los Angeles | 2 | All Maps","name_short":"lax-2","host":"lax-1.us.uncletopia.com","port":27025,"enabled":true,"region":"us-west","cc":"us","latitude":33.94279,"longitude":-118.41004,"reserved":0,"last_update":"0001-01-01T00:00:00Z","name_a2s":"Uncletopia | Los Angeles | 2 | All Maps","protocol":17,"map":"koth_lakeside_final","folder":"tf","game":"Team Fortress","app_id":440,"player_count":1,"max_players":24,"Bots":0,"server_type":"Dedicated","server_os":"Linux","password":true,"vac":true,"version":"7961495","steam_id":85568392924469992,"keywords":["cp","nocrits","nodmgspread","uncletopia"],"game_id":440,"stv_port":27026,"stv_name":"Uncletopia | Los Angeles | 2 | All Maps | STV","players":[{"user_id":28,"name":".*･｡゜☆","steam_id":76561198367844154,"connected_time":65000000000,"state":"active","ping":110}]},{"server_id":324,"name":"Uncletopia | Los Angeles | 3 | All Maps","name_short":"lax-3","host":"lax-1.us.uncletopia.com","port":27035,"enabled":true,"region":"us-west","cc":"us","latitude":33.94279,"longitude":-118.41004,"reserved":0,"last_update":"0001-01-01T00:00:00Z","name_a2s":"Uncletopia | Los Angeles | 3 | All Maps","protocol":17,"map":"cp_dustbowl","folder":"tf","game":"Team Fortress","app_id":440,"player_count":22,"max_players":24,"Bots":0,"server_type":"Dedicated","server_os":"Linux","password":true,"vac":true,"version":"7961495","steam_id":85568392924510198,"keywords":["cp","nocrits","nodmgspread","uncletopia"],"game_id":440,"stv_port":27036,"stv_name":"Uncletopia | Los Angeles | 3 | All Maps | STV","players":[{"user_id":250,"name":"Spokkovith","steam_id":76561198091188431,"connected_time":2628000000000,"state":"active","ping":102},{"user_id":230,"name":"Alltrex","steam_id":76561198202254225,"connected_time":4745000000000,"state":"active","ping":75},{"user_id":270,"name":"unlikelycure","steam_id":76561199174450788,"connected_time":724000000000,"state":"active","ping":131},{"user_id":258,"name":"Xexat","steam_id":76561198041668498,"connected_time":2062000000000,"state":"active","ping":84},{"user_id":116,"name":"vvitch","steam_id":76561198279661941,"connected_time":13805000000000,"state":"active","ping":45},{"user_id":253,"name":"tkeati","steam_id":76561198056356574,"connected_time":2499000000000,"state":"active","ping":71},{"user_id":275,"name":"ropesnek","steam_id":76561198140591498,"connected_time":297000000000,"state":"active","ping":81},{"user_id":273,"name":"Cunt Force Trauma","steam_id":76561198086121413,"connected_time":404000000000,"state":"active","ping":107},{"user_id":263,"name":"Alf Creepypasta","steam_id":76561198841844093,"connected_time":1602000000000,"state":"active","ping":44},{"user_id":274,"name":"THIRDPIERCE","steam_id":76561198405366314,"connected_time":334000000000,"state":"active","ping":93},{"user_id":208,"name":"Madeline (She/Her)","steam_id":76561198336551859,"connected_time":5906000000000,"state":"active","ping":45},{"user_id":215,"name":"Hernandez$","steam_id":76561198019324588,"connected_time":5473000000000,"state":"active","ping":50},{"user_id":276,"name":"little_neb","steam_id":76561198117396733,"connected_time":262000000000,"state":"active","ping":87},{"user_id":282,"name":"gamer_cruncher","steam_id":76561198973306314,"connected_time":45000000000,"state":"active","ping":53},{"user_id":264,"name":"PROFILE NAME","steam_id":76561199438851854,"connected_time":1221000000000,"state":"active","ping":90},{"user_id":242,"name":"NormanVillage","steam_id":76561198330337371,"connected_time":4282000000000,"state":"active","ping":73},{"user_id":212,"name":"Anon","steam_id":76561198109740776,"connected_time":5574000000000,"state":"active","ping":63},{"user_id":256,"name":"{te-op] captain nemo212","steam_id":76561197996902240,"connected_time":2380000000000,"state":"active","ping":118},{"user_id":281,"name":"ars110","steam_id":76561198030492435,"connected_time":126000000000,"state":"active","ping":88},{"user_id":280,"name":"011sra","steam_id":76561199489542125,"connected_time":148000000000,"state":"active","ping":85},{"user_id":233,"name":"Hindmost","steam_id":76561199081837220,"connected_time":4569000000000,"state":"active","ping":97}]},{"server_id":25,"name":"Uncletopia | Los Angeles | 4 | Stopwatch","name_short":"lax-4","host":"lax-1.us.uncletopia.com","port":27045,"enabled":true,"region":"us-west","cc":"us","latitude":33.94279,"longitude":-118.41004,"reserved":0,"last_update":"0001-01-01T00:00:00Z","name_a2s":"Uncletopia | Los Angeles | 4 | Stopwatch","protocol":17,"map":"workshop/pl_barnblitz_pro7.ugc582280235","folder":"tf","game":"Team Fortress","app_id":440,"player_count":0,"max_players":24,"Bots":0,"server_type":"Dedicated","server_os":"Linux","password":true,"vac":true,"version":"7961495","steam_id":85568392924510199,"keywords":["nocrits","nodmgspread","payload","uncletopia"],"game_id":440,"stv_port":27046,"stv_name":"Uncletopia | Los Angeles | 4 | Stopwatch | STV","players":null},{"server_id":11,"name":"Uncletopia | London | 1 | All Maps","name_short":"lon-1","host":"lon-1.uk.uncletopia.com","port":27015,"enabled":true,"region":"eu","cc":"gb","latitude":51.509865,"longitude":-0.118092,"reserved":0,"last_update":"0001-01-01T00:00:00Z","name_a2s":"Uncletopia | London | 1 | All Maps","protocol":17,"map":"koth_highpass","folder":"tf","game":"Team Fortress","app_id":440,"player_count":0,"max_players":24,"Bots":0,"server_type":"Dedicated","server_os":"Linux","password":true,"vac":true,"version":"7961495","steam_id":85568392924367362,"keywords":["cp","nocrits","nodmgspread","uncletopia"],"game_id":440,"stv_port":27016,"stv_name":"Uncletopia | London | 1 | All Maps | STV","players":null},{"server_id":114,"name":"Uncletopia | London | 2 | All Maps","name_short":"lon-2","host":"lon-1.uk.uncletopia.com","port":27025,"enabled":true,"region":"eu","cc":"gb","latitude":51.509865,"longitude":-0.118092,"reserved":0,"last_update":"0001-01-01T00:00:00Z","name_a2s":"Uncletopia | London | 2 | All Maps","protocol":17,"map":"koth_lakeside_final","folder":"tf","game":"Team Fortress","app_id":440,"player_count":0,"max_players":24,"Bots":0,"server_type":"Dedicated","server_os":"Linux","password":true,"vac":true,"version":"7961495","steam_id":85568392924470941,"keywords":["cp","nocrits","nodmgspread","uncletopia"],"game_id":440,"stv_port":27026,"stv_name":"Uncletopia | London | 2 | All Maps | STV","players":null},{"server_id":320,"name":"Uncletopia | London | 3 | All Maps","name_short":"lon-3","host":"lon-1.uk.uncletopia.com","port":27035,"enabled":true,"region":"eu","cc":"gb","latitude":51.509865,"longitude":-0.118092,"reserved":0,"last_update":"0001-01-01T00:00:00Z","name_a2s":"Uncletopia | London | 3 | All Maps","protocol":17,"map":"cp_process_final","folder":"tf","game":"Team Fortress","app_id":440,"player_count":0,"max_players":24,"Bots":0,"server_type":"Dedicated","server_os":"Linux","password":true,"vac":true,"version":"7961495","steam_id":85568392924510192,"keywords":["cp","nocrits","nodmgspread","uncletopia"],"game_id":440,"stv_port":27036,"stv_name":"Uncletopia | London | 3 | All Maps | STV","players":null},{"server_id":321,"name":"Uncletopia | London | 4 | All Maps","name_short":"lon-4","host":"lon-1.uk.uncletopia.com","port":27045,"enabled":true,"region":"eu","cc":"gb","latitude":51.509865,"longitude":-0.118092,"reserved":0,"last_update":"0001-01-01T00:00:00Z","name_a2s":"Uncletopia | London | 4 | All Maps","protocol":17,"map":"koth_cascade","folder":"tf","game":"Team Fortress","app_id":440,"player_count":5,"max_players":24,"Bots":0,"server_type":"Dedicated","server_os":"Linux","password":true,"vac":true,"version":"7961495","steam_id":85568392924510193,"keywords":["cp","nocrits","nodmgspread","uncletopia"],"game_id":440,"stv_port":27046,"stv_name":"Uncletopia | London | 4 | All Maps | STV","players":[{"user_id":3,"name":"tzlil","steam_id":76561198399916290,"connected_time":1678000000000,"state":"active","ping":105},{"user_id":4,"name":"videogaming","steam_id":76561198818037965,"connected_time":1550000000000,"state":"active","ping":105},{"user_id":6,"name":"Endy","steam_id":76561198252942184,"connected_time":698000000000,"state":"active","ping":129},{"user_id":8,"name":"Deemaské","steam_id":76561199225833593,"connected_time":416000000000,"state":"active","ping":50},{"user_id":10,"name":"Dumb_Lizard","steam_id":76561197992043495,"connected_time":238000000000,"state":"active","ping":135}]},{"server_id":21,"name":"Uncletopia | London | 5 | All Maps","name_short":"lon-5","host":"lon-1.uk.uncletopia.com","port":27055,"enabled":true,"region":"eu","cc":"gb","latitude":51.509865,"longitude":-0.118092,"reserved":0,"last_update":"0001-01-01T00:00:00Z","name_a2s":"Uncletopia | London | 5 | All Maps","protocol":17,"map":"koth_lakeside_final","folder":"tf","game":"Team Fortress","app_id":440,"player_count":0,"max_players":24,"Bots":0,"server_type":"Dedicated","server_os":"Linux","password":true,"vac":true,"version":"7961495","steam_id":85568392924742829,"keywords":["cp","nocrits","nodmgspread","uncletopia"],"game_id":440,"stv_port":27056,"stv_name":"Uncletopia | London | 5 | All Maps | STV","players":null},{"server_id":22,"name":"Uncletopia | London | 6 | All Maps","name_short":"lon-6","host":"lon-1.uk.uncletopia.com","port":27065,"enabled":true,"region":"eu","cc":"gb","latitude":51.509865,"longitude":-0.118092,"reserved":0,"last_update":"0001-01-01T00:00:00Z","name_a2s":"Uncletopia | London | 6 | All Maps","protocol":17,"map":"cp_dustbowl","folder":"tf","game":"Team Fortress","app_id":440,"player_count":0,"max_players":24,"Bots":0,"server_type":"Dedicated","server_os":"Linux","password":true,"vac":true,"version":"7961495","steam_id":85568392924742830,"keywords":["cp","nocrits","nodmgspread","uncletopia"],"game_id":440,"stv_port":27066,"stv_name":"Uncletopia | London | 6 | All Maps | STV","players":null},{"server_id":40,"name":"Uncletopia | London | 7 | Stopwatch","name_short":"lon-7","host":"lon-1.uk.uncletopia.com","port":27075,"enabled":true,"region":"eu","cc":"gb","latitude":51.509865,"longitude":-0.118092,"reserved":0,"last_update":"0001-01-01T00:00:00Z","name_a2s":"Uncletopia | London | 7 | Stopwatch","protocol":17,"map":"koth_lakeside_final","folder":"tf","game":"Team Fortress","app_id":440,"player_count":0,"max_players":24,"Bots":0,"server_type":"Dedicated","server_os":"Linux","password":true,"vac":true,"version":"7961495","steam_id":85568392924964314,"keywords":["cp","nocrits","nodmgspread","uncletopia"],"game_id":440,"stv_port":27076,"stv_name":"Uncletopia | London | 7 | Stopwatch | STV","players":null},{"server_id":41,"name":"Uncletopia | London | 8 | Community","name_short":"lon-8","host":"lon-1.uk.uncletopia.com","port":27085,"enabled":true,"region":"eu","cc":"gb","latitude":51.509865,"longitude":-0.118092,"reserved":0,"last_update":"0001-01-01T00:00:00Z","name_a2s":"Uncletopia | London | 8 | Community","protocol":17,"map":"cp_snakewater_final1","folder":"tf","game":"Team Fortress","app_id":440,"player_count":0,"max_players":24,"Bots":0,"server_type":"Dedicated","server_os":"Linux","password":true,"vac":true,"version":"7961495","steam_id":85568392924964315,"keywords":["cp","nocrits","nodmgspread","uncletopia"],"game_id":440,"stv_port":27086,"stv_name":"Uncletopia | London | 8 | Community | STV","players":null},{"server_id":300,"name":"Uncletopia | Montréal | 1 | One Thousand Uncles","name_short":"mtl-1","host":"mtl-1.ca.uncletopia.com","port":27015,"enabled":true,"region":"us-east","cc":"ca","latitude":45.50889,"longitude":-73.56167,"reserved":0,"last_update":"0001-01-01T00:00:00Z","name_a2s":"","protocol":0,"map":"","folder":"","game":"","app_id":0,"player_count":0,"max_players":0,"Bots":0,"server_type":"","server_os":"","password":false,"vac":false,"version":"","steam_id":0,"keywords":null,"game_id":0,"stv_port":0,"stv_name":"","players":null},{"server_id":301,"name":"Uncletopia | Montréal | 2 | One Thousand Uncles","name_short":"mtl-2","host":"mtl-1.ca.uncletopia.com","port":27025,"enabled":true,"region":"us-east","cc":"ca","latitude":45.50889,"longitude":-73.56167,"reserved":0,"last_update":"0001-01-01T00:00:00Z","name_a2s":"","protocol":0,"map":"","folder":"","game":"","app_id":0,"player_count":7,"max_players":0,"Bots":0,"server_type":"","server_os":"","password":false,"vac":false,"version":"","steam_id":0,"keywords":null,"game_id":0,"stv_port":0,"stv_name":"","players":[{"user_id":246,"name":"space paranoids","steam_id":76561198085010959,"connected_time":3019000000000,"state":"active","ping":74},{"user_id":252,"name":"Philo","steam_id":76561198061873341,"connected_time":1701000000000,"state":"active","ping":85},{"user_id":253,"name":"StiaanSauce","steam_id":76561198091940547,"connected_time":1652000000000,"state":"active","ping":75},{"user_id":199,"name":"Krabby","steam_id":76561198038002264,"connected_time":5036000000000,"state":"active","ping":73},{"user_id":171,"name":"Anthid","steam_id":76561198074493797,"connected_time":8203000000000,"state":"active","ping":89},{"user_id":175,"name":"cheetaz","steam_id":76561198224614084,"connected_time":7370000000000,"state":"active","ping":70},{"user_id":203,"name":"9221669701","steam_id":76561199221669701,"connected_time":4596000000000,"state":"active","ping":95}]},{"server_id":302,"name":"Uncletopia | Montréal | 3 | One Thousand Uncles","name_short":"mtl-3","host":"mtl-1.ca.uncletopia.com","port":27035,"enabled":true,"region":"us-east","cc":"ca","latitude":45.50889,"longitude":-73.56167,"reserved":0,"last_update":"0001-01-01T00:00:00Z","name_a2s":"","protocol":0,"map":"","folder":"","game":"","app_id":0,"player_count":0,"max_players":0,"Bots":0,"server_type":"","server_os":"","password":false,"vac":false,"version":"","steam_id":0,"keywords":null,"game_id":0,"stv_port":0,"stv_name":"","players":null},{"server_id":13,"name":"Uncletopia | New York City | 1 | All Maps","name_short":"nyc-1","host":"nyc-1.us.uncletopia.com","port":27015,"enabled":true,"region":"us-east","cc":"us","latitude":40.73061,"longitude":-73.93524,"reserved":0,"last_update":"0001-01-01T00:00:00Z","name_a2s":"Uncletopia | New York City | 1 | All Maps","protocol":17,"map":"pl_upward","folder":"tf","game":"Team Fortress","app_id":440,"player_count":0,"max_players":24,"Bots":0,"server_type":"Dedicated","server_os":"Linux","password":true,"vac":true,"version":"7961495","steam_id":85568392924469993,"keywords":["nocrits","nodmgspread","payload","uncletopia"],"game_id":440,"stv_port":27016,"stv_name":"Uncletopia | New York City | 1 | All Maps | STV","players":null},{"server_id":14,"name":"Uncletopia | New York City | 2 | All Maps","name_short":"nyc-2","host":"nyc-1.us.uncletopia.com","port":27025,"enabled":true,"region":"us-east","cc":"us","latitude":40.73061,"longitude":-73.93524,"reserved":0,"last_update":"0001-01-01T00:00:00Z","name_a2s":"Uncletopia | New York City | 2 | All Maps","protocol":17,"map":"pl_upward","folder":"tf","game":"Team Fortress","app_id":440,"player_count":4,"max_players":24,"Bots":0,"server_type":"Dedicated","server_os":"Linux","password":true,"vac":true,"version":"7961495","steam_id":85568392924469994,"keywords":["nocrits","nodmgspread","payload","uncletopia"],"game_id":440,"stv_port":27026,"stv_name":"Uncletopia | New York City | 2 | All Maps | STV","players":[{"user_id":854,"name":"Lichey","steam_id":76561198345670004,"connected_time":2328000000000,"state":"active","ping":186},{"user_id":857,"name":"Raizen","steam_id":76561199092445367,"connected_time":1631000000000,"state":"active","ping":54},{"user_id":859,"name":"not engineer gaming","steam_id":76561199237541440,"connected_time":619000000000,"state":"active","ping":169},{"user_id":860,"name":"I live inside your balls","steam_id":76561199486711616,"connected_time":170000000000,"state":"active","ping":44}]},{"server_id":15,"name":"Uncletopia | New York City | 3 | Stopwatch","name_short":"nyc-3","host":"nyc-1.us.uncletopia.com","port":27035,"enabled":true,"region":"us-east","cc":"us","latitude":40.73061,"longitude":-73.93524,"reserved":0,"last_update":"0001-01-01T00:00:00Z","name_a2s":"Uncletopia | New York City | 3 | Stopwatch","protocol":17,"map":"koth_lakeside_final","folder":"tf","game":"Team Fortress","app_id":440,"player_count":0,"max_players":24,"Bots":0,"server_type":"Dedicated","server_os":"Linux","password":true,"vac":true,"version":"7961495","steam_id":85568392924742820,"keywords":["cp","nocrits","nodmgspread","uncletopia"],"game_id":440,"stv_port":27036,"stv_name":"Uncletopia | New York City | 3 | Stopwatch | STV","players":null},{"server_id":16,"name":"Uncletopia | New York City | 4 | Community","name_short":"nyc-4","host":"nyc-1.us.uncletopia.com","port":27045,"enabled":true,"region":"us-east","cc":"us","latitude":40.73061,"longitude":-73.93524,"reserved":0,"last_update":"0001-01-01T00:00:00Z","name_a2s":"Uncletopia | New York City | 4 | Community","protocol":17,"map":"workshop/cp_sulfur_rc2.ugc619869471","folder":"tf","game":"Team Fortress","app_id":440,"player_count":0,"max_players":24,"Bots":0,"server_type":"Dedicated","server_os":"Linux","password":true,"vac":true,"version":"7961495","steam_id":85568392924742821,"keywords":["cp","nocrits","nodmgspread","uncletopia"],"game_id":440,"stv_port":27046,"stv_name":"Uncletopia | New York City | 4 | Community | STV","players":null},{"server_id":142,"name":"Uncletopia | São Paulo | 1 | All Maps","name_short":"sao-1","host":"sao-1.br.uncletopia.com","port":27015,"enabled":true,"region":"sa","cc":"br","latitude":-23.533773,"longitude":-46.62529,"reserved":0,"last_update":"0001-01-01T00:00:00Z","name_a2s":"Uncletopia | São Paulo | 1 | All Maps","protocol":17,"map":"koth_harvest_final","folder":"tf","game":"Team Fortress","app_id":440,"player_count":0,"max_players":24,"Bots":0,"server_type":"Dedicated","server_os":"Linux","password":true,"vac":true,"version":"7961495","steam_id":85568392924469996,"keywords":["cp","nocrits","nodmgspread","uncletopia"],"game_id":440,"stv_port":27016,"stv_name":"Uncletopia | São Paulo | 1 | All Maps | STV","players":null},{"server_id":143,"name":"Uncletopia | São Paulo | 2 | Community","name_short":"sao-2","host":"sao-2.br.uncletopia.com","port":27015,"enabled":true,"region":"sa","cc":"br","latitude":-23.533773,"longitude":-46.62529,"reserved":0,"last_update":"0001-01-01T00:00:00Z","name_a2s":"Uncletopia | São Paulo | 2 | Community","protocol":17,"map":"workshop/pl_highwood_b13.ugc1769496557","folder":"tf","game":"Team Fortress","app_id":440,"player_count":0,"max_players":24,"Bots":0,"server_type":"Dedicated","server_os":"Linux","password":true,"vac":true,"version":"7961495","steam_id":85568392924485349,"keywords":["nocrits","nodmgspread","payload","uncletopia"],"game_id":440,"stv_port":27016,"stv_name":"Uncletopia | São Paulo | 2 | Community | STV","players":null},{"server_id":7,"name":"Uncletopia | Seattle | 1 | All Maps","name_short":"sea-1","host":"sea-1.us.uncletopia.com","port":27015,"enabled":true,"region":"us-west","cc":"us","latitude":47.608013,"longitude":-122.33517,"reserved":0,"last_update":"0001-01-01T00:00:00Z","name_a2s":"Uncletopia | Seattle | 1 | All Maps","protocol":17,"map":"pl_swiftwater_final1","folder":"tf","game":"Team Fortress","app_id":440,"player_count":24,"max_players":24,"Bots":0,"server_type":"Dedicated","server_os":"Linux","password":true,"vac":true,"version":"7961495","steam_id":85568392924469997,"keywords":["nocrits","nodmgspread","payload","uncletopia"],"game_id":440,"stv_port":27016,"stv_name":"Uncletopia | Seattle | 1 | All Maps | STV","players":[{"user_id":481,"name":"Grand","steam_id":76561198290143399,"connected_time":247000000000,"state":"active","ping":74},{"user_id":477,"name":"Drapph","steam_id":76561199384213314,"connected_time":729000000000,"state":"active","ping":106},{"user_id":480,"name":"Randle of John","steam_id":76561198328210524,"connected_time":268000000000,"state":"active","ping":84},{"user_id":484,"name":"Tom Skirrett","steam_id":76561198014600788,"connected_time":224000000000,"state":"active","ping":67},{"user_id":470,"name":"hazel","steam_id":76561198037292232,"connected_time":1322000000000,"state":"active","ping":119},{"user_id":467,"name":"Choom","steam_id":76561197972654816,"connected_time":1596000000000,"state":"active","ping":44},{"user_id":482,"name":"Amazing476","steam_id":76561198103937489,"connected_time":244000000000,"state":"active","ping":88},{"user_id":474,"name":"Stev the Hypergamous Pebble","steam_id":76561197999442625,"connected_time":1282000000000,"state":"active","ping":52},{"user_id":475,"name":"Paradon","steam_id":76561198242214772,"connected_time":1251000000000,"state":"active","ping":69},{"user_id":457,"name":"Arsonist Goose","steam_id":76561198147441830,"connected_time":4193000000000,"state":"active","ping":69},{"user_id":430,"name":"Lord Hater","steam_id":76561199158148782,"connected_time":6563000000000,"state":"active","ping":84},{"user_id":485,"name":"seats","steam_id":76561197998756039,"connected_time":181000000000,"state":"active","ping":75},{"user_id":459,"name":"Sweets(?)","steam_id":76561198998446307,"connected_time":4068000000000,"state":"active","ping":66},{"user_id":401,"name":"The King of Piss World","steam_id":76561198082806956,"connected_time":9258000000000,"state":"active","ping":143},{"user_id":469,"name":"gorlab","steam_id":76561198025089694,"connected_time":1333000000000,"state":"active","ping":60},{"user_id":425,"name":"rat who can kickflip","steam_id":76561198073620027,"connected_time":6862000000000,"state":"active","ping":44},{"user_id":486,"name":"Rango","steam_id":76561198067275912,"connected_time":178000000000,"state":"active","ping":80},{"user_id":478,"name":"aidanisokay","steam_id":76561199212189747,"connected_time":432000000000,"state":"active","ping":45},{"user_id":466,"name":"Epifiny","steam_id":76561198027958086,"connected_time":2256000000000,"state":"active","ping":111},{"user_id":420,"name":"Daz","steam_id":76561198041431938,"connected_time":7673000000000,"state":"active","ping":52},{"user_id":442,"name":"TROY","steam_id":76561197983852176,"connected_time":5361000000000,"state":"active","ping":75},{"user_id":446,"name":"Leidon","steam_id":76561198078386945,"connected_time":5319000000000,"state":"active","ping":68},{"user_id":476,"name":"lker","steam_id":76561197976975075,"connected_time":1248000000000,"state":"active","ping":117},{"user_id":402,"name":"rat gets the cheese","steam_id":76561198031234032,"connected_time":9256000000000,"state":"active","ping":103}]},{"server_id":119,"name":"Uncletopia | Seattle | 2 | All Maps","name_short":"sea-2","host":"sea-1.us.uncletopia.com","port":27025,"enabled":true,"region":"us-west","cc":"us","latitude":47.608013,"longitude":-122.33517,"reserved":0,"last_update":"0001-01-01T00:00:00Z","name_a2s":"Uncletopia | Seattle | 2 | All Maps","protocol":17,"map":"koth_cascade","folder":"tf","game":"Team Fortress","app_id":440,"player_count":0,"max_players":24,"Bots":0,"server_type":"Dedicated","server_os":"Linux","password":true,"vac":true,"version":"7961495","steam_id":85568392924469998,"keywords":["cp","nocrits","nodmgspread","uncletopia"],"game_id":440,"stv_port":27026,"stv_name":"Uncletopia | Seattle | 2 | All Maps | STV","players":null},{"server_id":406,"name":"Uncletopia | Seattle | 3 | Stopwatch","name_short":"sea-3","host":"sea-1.us.uncletopia.com","port":27035,"enabled":true,"region":"us-west","cc":"us","latitude":47.608013,"longitude":-122.33517,"reserved":0,"last_update":"0001-01-01T00:00:00Z","name_a2s":"Uncletopia | Seattle | 3 | Stopwatch","protocol":17,"map":"workshop/koth_product_final.ugc454272353","folder":"tf","game":"Team Fortress","app_id":440,"player_count":0,"max_players":24,"Bots":0,"server_type":"Dedicated","server_os":"Linux","password":true,"vac":true,"version":"7961495","steam_id":85568392924515217,"keywords":["cp","nocrits","nodmgspread","uncletopia"],"game_id":440,"stv_port":27036,"stv_name":"Uncletopia | Seattle | 3 | Stopwatch | STV","players":null},{"server_id":17,"name":"Uncletopia | San Francisco | 1 | All Maps","name_short":"sfo-1","host":"sfo-1.us.uncletopia.com","port":27015,"enabled":true,"region":"us-west","cc":"us","latitude":37.77397,"longitude":-122.4313,"reserved":0,"last_update":"0001-01-01T00:00:00Z","name_a2s":"Uncletopia | San Francisco | 1 | All Maps","protocol":17,"map":"pl_frontier_final","folder":"tf","game":"Team Fortress","app_id":440,"player_count":11,"max_players":24,"Bots":0,"server_type":"Dedicated","server_os":"Linux","password":true,"vac":true,"version":"7961495","steam_id":85568392924469999,"keywords":["nocrits","nodmgspread","payload","uncletopia"],"game_id":440,"stv_port":27016,"stv_name":"Uncletopia | San Francisco | 1 | All Maps | STV","players":[{"user_id":224,"name":"Evil Sayori","steam_id":76561198957479336,"connected_time":1181000000000,"state":"active","ping":100},{"user_id":225,"name":"Doctor X (Michiko Daemon)","steam_id":76561199106264424,"connected_time":1180000000000,"state":"active","ping":113},{"user_id":229,"name":"Mastercrazybird","steam_id":76561198085747599,"connected_time":727000000000,"state":"active","ping":62},{"user_id":227,"name":"Joker's Skull","steam_id":76561199185320627,"connected_time":1040000000000,"state":"active","ping":115},{"user_id":230,"name":"OzzyAkiro47","steam_id":76561199076449499,"connected_time":698000000000,"state":"active","ping":63},{"user_id":197,"name":"Festive Bastard","steam_id":76561198094512904,"connected_time":2870000000000,"state":"active","ping":82},{"user_id":232,"name":"flame","steam_id":76561198079321914,"connected_time":651000000000,"state":"active","ping":64},{"user_id":199,"name":"Frank Accardi","steam_id":76561198017275707,"connected_time":2788000000000,"state":"active","ping":69},{"user_id":236,"name":"Alcohol Hominid","steam_id":76561198320313950,"connected_time":335000000000,"state":"active","ping":96},{"user_id":195,"name":"Redlux","steam_id":76561199467334502,"connected_time":2983000000000,"state":"active","ping":47},{"user_id":177,"name":"Chronic Bad At Game Disease","steam_id":76561198179387139,"connected_time":4043000000000,"state":"active","ping":48}]},{"server_id":18,"name":"Uncletopia | San Francisco | 2 | All Maps","name_short":"sfo-2","host":"sfo-1.us.uncletopia.com","port":27025,"enabled":true,"region":"us-west","cc":"us","latitude":37.77397,"longitude":-122.4313,"reserved":0,"last_update":"0001-01-01T00:00:00Z","name_a2s":"Uncletopia | San Francisco | 2 | All Maps","protocol":17,"map":"pl_frontier_final","folder":"tf","game":"Team Fortress","app_id":440,"player_count":24,"max_players":24,"Bots":0,"server_type":"Dedicated","server_os":"Linux","password":true,"vac":true,"version":"7961495","steam_id":85568392924470000,"keywords":["nocrits","nodmgspread","payload","uncletopia"],"game_id":440,"stv_port":27026,"stv_name":"Uncletopia | San Francisco | 2 | All Maps | STV","players":[{"user_id":386,"name":"Granny from Hoodwinked","steam_id":76561198116389072,"connected_time":576000000000,"state":"active","ping":84},{"user_id":387,"name":"azureglxy","steam_id":76561198861388315,"connected_time":504000000000,"state":"active","ping":48},{"user_id":375,"name":"Finally fixed my mic","steam_id":76561198056075147,"connected_time":780000000000,"state":"active","ping":163},{"user_id":307,"name":"Cebula33","steam_id":76561197984964095,"connected_time":3962000000000,"state":"active","ping":62},{"user_id":308,"name":"jorts (zoot)","steam_id":76561199041179985,"connected_time":3898000000000,"state":"active","ping":72},{"user_id":393,"name":"moomin","steam_id":76561198336244269,"connected_time":225000000000,"state":"active","ping":68},{"user_id":301,"name":"rushy :))","steam_id":76561198065825165,"connected_time":4566000000000,"state":"active","ping":85},{"user_id":389,"name":"WabM (top 50 Aimlabs player)","steam_id":76561198073739176,"connected_time":431000000000,"state":"active","ping":85},{"user_id":332,"name":"stinker","steam_id":76561198295640486,"connected_time":1854000000000,"state":"active","ping":60},{"user_id":390,"name":"CatLike Pigeon","steam_id":76561198171716030,"connected_time":419000000000,"state":"active","ping":85},{"user_id":319,"name":"Uluyo","steam_id":76561198065857148,"connected_time":2895000000000,"state":"active","ping":68},{"user_id":310,"name":"mega","steam_id":76561198089520959,"connected_time":3887000000000,"state":"active","ping":105},{"user_id":320,"name":"FrodobagginsTNT","steam_id":76561198224940688,"connected_time":2737000000000,"state":"active","ping":132},{"user_id":380,"name":"Lambchop","steam_id":76561198043900363,"connected_time":706000000000,"state":"active","ping":60},{"user_id":391,"name":"★SuperBurgerBoy★","steam_id":76561198856387197,"connected_time":375000000000,"state":"active","ping":59},{"user_id":340,"name":"Golddick Lewisson","steam_id":76561198054719949,"connected_time":1587000000000,"state":"active","ping":92},{"user_id":334,"name":"Healerblade","steam_id":76561197999816472,"connected_time":1767000000000,"state":"active","ping":60},{"user_id":323,"name":"SupermanBritt","steam_id":76561198195533697,"connected_time":2715000000000,"state":"active","ping":130},{"user_id":392,"name":"haisel","steam_id":76561199001918194,"connected_time":329000000000,"state":"active","ping":70},{"user_id":324,"name":"Vitzenhauzer","steam_id":76561198116449787,"connected_time":2703000000000,"state":"active","ping":125},{"user_id":326,"name":"motion","steam_id":76561198935158462,"connected_time":2505000000000,"state":"active","ping":60},{"user_id":394,"name":"NegaNote","steam_id":76561198038213176,"connected_time":183000000000,"state":"active","ping":120},{"user_id":337,"name":"daddog","steam_id":76561198286968297,"connected_time":1726000000000,"state":"active","ping":69},{"user_id":342,"name":"Lily Thorn","steam_id":76561198305488625,"connected_time":1515000000000,"state":"active","ping":74}]},{"server_id":19,"name":"Uncletopia | San Francisco | 3 | Stopwatch","name_short":"sfo-3","host":"sfo-1.us.uncletopia.com","port":27035,"enabled":true,"region":"us-west","cc":"us","latitude":37.77397,"longitude":-122.4313,"reserved":0,"last_update":"0001-01-01T00:00:00Z","name_a2s":"Uncletopia | San Francisco | 3 | Stopwatch","protocol":17,"map":"workshop/pl_vigil_rc10.ugc1266210012","folder":"tf","game":"Team Fortress","app_id":440,"player_count":0,"max_players":24,"Bots":0,"server_type":"Dedicated","server_os":"Linux","password":true,"vac":true,"version":"7961495","steam_id":85568392924742824,"keywords":["nocrits","nodmgspread","payload","uncletopia"],"game_id":440,"stv_port":27036,"stv_name":"Uncletopia | San Francisco | 3 | Stopwatch | STV","players":null},{"server_id":20,"name":"Uncletopia | San Francisco | 4 | Community","name_short":"sfo-4","host":"sfo-1.us.uncletopia.com","port":27045,"enabled":true,"region":"us-west","cc":"us","latitude":37.77397,"longitude":-122.4313,"reserved":0,"last_update":"0001-01-01T00:00:00Z","name_a2s":"Uncletopia | San Francisco | 4 | Community","protocol":17,"map":"workshop/cp_reckoner_rc6.ugc674719999","folder":"tf","game":"Team Fortress","app_id":440,"player_count":0,"max_players":24,"Bots":0,"server_type":"Dedicated","server_os":"Linux","password":true,"vac":true,"version":"7961495","steam_id":85568392924742826,"keywords":["cp","nocrits","nodmgspread","uncletopia"],"game_id":440,"stv_port":27046,"stv_name":"Uncletopia | San Francisco | 4 | Community | STV","players":null},{"server_id":141,"name":"Uncletopia | Sydney | 1 | All Maps","name_short":"syd-1","host":"syd-1.au.uncletopia.com","port":27015,"enabled":true,"region":"au","cc":"au","latitude":-33.865143,"longitude":151.2099,"reserved":0,"last_update":"0001-01-01T00:00:00Z","name_a2s":"Uncletopia | Sydney | 1 | All Maps","protocol":17,"map":"pl_frontier_final","folder":"tf","game":"Team Fortress","app_id":440,"player_count":21,"max_players":24,"Bots":0,"server_type":"Dedicated","server_os":"Linux","password":true,"vac":true,"version":"7961495","steam_id":85568392924470001,"keywords":["nocrits","nodmgspread","payload","uncletopia"],"game_id":440,"stv_port":27016,"stv_name":"Uncletopia | Sydney | 1 | All Maps | STV","players":[{"user_id":99,"name":"CypressFluff (she/her)","steam_id":76561198174667818,"connected_time":3328000000000,"state":"active","ping":56},{"user_id":91,"name":"whitebronco32","steam_id":76561197990814265,"connected_time":3735000000000,"state":"active","ping":45},{"user_id":111,"name":"Fire_Dragon1","steam_id":76561198978045930,"connected_time":2180000000000,"state":"active","ping":49},{"user_id":36,"name":"snowy steel [HF]","steam_id":76561199024624434,"connected_time":6967000000000,"state":"active","ping":46},{"user_id":74,"name":"Lobarté","steam_id":76561198090116136,"connected_time":4947000000000,"state":"active","ping":59},{"user_id":128,"name":"KnowZero","steam_id":76561198095752015,"connected_time":357000000000,"state":"active","ping":53},{"user_id":123,"name":"Hamood","steam_id":76561198048311062,"connected_time":1175000000000,"state":"active","ping":55},{"user_id":112,"name":"Strike","steam_id":76561198254083849,"connected_time":2142000000000,"state":"active","ping":69},{"user_id":126,"name":"lau","steam_id":76561198045451991,"connected_time":520000000000,"state":"active","ping":48},{"user_id":69,"name":"soupy","steam_id":76561198073734936,"connected_time":5394000000000,"state":"active","ping":87},{"user_id":113,"name":"Rodan","steam_id":76561198038401873,"connected_time":2075000000000,"state":"active","ping":81},{"user_id":129,"name":"King Stan II","steam_id":76561198890742309,"connected_time":308000000000,"state":"active","ping":73},{"user_id":135,"name":"Tiblyat","steam_id":76561198093077688,"connected_time":63000000000,"state":"active","ping":74},{"user_id":116,"name":"piss wizard","steam_id":76561198172975530,"connected_time":1709000000000,"state":"active","ping":71},{"user_id":127,"name":"mahan.manouchehri11","steam_id":76561199480490267,"connected_time":509000000000,"state":"active","ping":52},{"user_id":125,"name":"oh noe","steam_id":76561199468787595,"connected_time":584000000000,"state":"active","ping":53},{"user_id":54,"name":"reClyde beans","steam_id":76561198301282416,"connected_time":5980000000000,"state":"active","ping":46},{"user_id":124,"name":"KNORK","steam_id":76561198137144370,"connected_time":644000000000,"state":"active","ping":39},{"user_id":107,"name":"Killer Beans","steam_id":76561199107069046,"connected_time":2530000000000,"state":"active","ping":61},{"user_id":133,"name":"Pompadouraus","steam_id":76561198327530525,"connected_time":229000000000,"state":"active","ping":80},{"user_id":134,"name":"[^7] Duffman","steam_id":76561197985515847,"connected_time":211000000000,"state":"active","ping":62}]},{"server_id":123,"name":"Uncletopia | Sydney | 2 | All Maps","name_short":"syd-2","host":"syd-1.au.uncletopia.com","port":27025,"enabled":true,"region":"au","cc":"au","latitude":-33.865143,"longitude":151.2099,"reserved":0,"last_update":"0001-01-01T00:00:00Z","name_a2s":"Uncletopia | Sydney | 2 | All Maps","protocol":17,"map":"koth_highpass","folder":"tf","game":"Team Fortress","app_id":440,"player_count":18,"max_players":24,"Bots":0,"server_type":"Dedicated","server_os":"Linux","password":true,"vac":true,"version":"7961495","steam_id":85568392924470002,"keywords":["cp","nocrits","nodmgspread","uncletopia"],"game_id":440,"stv_port":27026,"stv_name":"Uncletopia | Sydney | 2 | All Maps | STV","players":[{"user_id":6,"name":"YeahJJ","steam_id":76561198838332365,"connected_time":2881000000000,"state":"active","ping":68},{"user_id":7,"name":"OofImDuck","steam_id":76561198806600517,"connected_time":2862000000000,"state":"active","ping":69},{"user_id":11,"name":"Mikey","steam_id":76561198438203131,"connected_time":1437000000000,"state":"active","ping":59},{"user_id":10,"name":"newtrons","steam_id":76561199224937937,"connected_time":1864000000000,"state":"active","ping":46},{"user_id":12,"name":"bobbyfinger10","steam_id":76561199496976801,"connected_time":1326000000000,"state":"active","ping":117},{"user_id":13,"name":"LegEaterHK","steam_id":76561199357838817,"connected_time":1287000000000,"state":"active","ping":58},{"user_id":14,"name":"CheeseFlag126","steam_id":76561199262769917,"connected_time":1230000000000,"state":"active","ping":68},{"user_id":15,"name":"Plastic_Wrapp","steam_id":76561198817560659,"connected_time":1176000000000,"state":"active","ping":73},{"user_id":16,"name":"Sputtsthedamngod","steam_id":76561199152151734,"connected_time":1166000000000,"state":"active","ping":71},{"user_id":17,"name":"Christopher Gordon Gaming","steam_id":76561198336999112,"connected_time":1111000000000,"state":"active","ping":49},{"user_id":28,"name":"@ÿ havona","steam_id":76561198070869544,"connected_time":409000000000,"state":"active","ping":67},{"user_id":27,"name":"mada","steam_id":76561199436707447,"connected_time":504000000000,"state":"active","ping":57},{"user_id":22,"name":"Drakeo","steam_id":76561198268859184,"connected_time":738000000000,"state":"active","ping":111},{"user_id":26,"name":"infernoraz","steam_id":76561198117582261,"connected_time":594000000000,"state":"active","ping":49},{"user_id":25,"name":"Sover blw.tf","steam_id":76561198136347837,"connected_time":685000000000,"state":"active","ping":133},{"user_id":29,"name":"Big Z","steam_id":76561198337589908,"connected_time":188000000000,"state":"active","ping":45},{"user_id":30,"name":"yakub","steam_id":76561198036623771,"connected_time":171000000000,"state":"active","ping":43},{"user_id":31,"name":"doctor morbin' (official)","steam_id":76561199365241695,"connected_time":166000000000,"state":"active","ping":123}]},{"server_id":395,"name":"Uncletopia | Sydney | 3 | All Maps","name_short":"syd-3","host":"syd-1.au.uncletopia.com","port":27035,"enabled":true,"region":"au","cc":"au","latitude":-33.865143,"longitude":151.2099,"reserved":0,"last_update":"0001-01-01T00:00:00Z","name_a2s":"Uncletopia | Sydney | 3 | All Maps","protocol":17,"map":"koth_highpass","folder":"tf","game":"Team Fortress","app_id":440,"player_count":3,"max_players":24,"Bots":0,"server_type":"Dedicated","server_os":"Linux","password":true,"vac":true,"version":"7961495","steam_id":85568392925194467,"keywords":["cp","nocrits","nodmgspread","uncletopia"],"game_id":440,"stv_port":27036,"stv_name":"Uncletopia | Sydney | 3 | All Maps | STV","players":[{"user_id":4,"name":"McCrab","steam_id":76561199088821963,"connected_time":2279000000000,"state":"connecting","ping":63},{"user_id":5,"name":"Johngamer2418","steam_id":76561198377832282,"connected_time":2239000000000,"state":"active","ping":50},{"user_id":6,"name":"APVC","steam_id":76561199090168813,"connected_time":55000000000,"state":"active","ping":48}]},{"server_id":396,"name":"Uncletopia | Sydney | 4 | All Maps","name_short":"syd-4","host":"syd-1.au.uncletopia.com","port":27045,"enabled":true,"region":"au","cc":"au","latitude":-33.865143,"longitude":151.2099,"reserved":0,"last_update":"0001-01-01T00:00:00Z","name_a2s":"Uncletopia | Sydney | 4 | All Maps","protocol":17,"map":"koth_lakeside_final","folder":"tf","game":"Team Fortress","app_id":440,"player_count":0,"max_players":24,"Bots":0,"server_type":"Dedicated","server_os":"Linux","password":true,"vac":true,"version":"7961495","steam_id":85568392925397958,"keywords":["cp","nocrits","nodmgspread","uncletopia"],"game_id":440,"stv_port":27046,"stv_name":"Uncletopia | Sydney | 4 | All Maps | STV","players":null},{"server_id":58,"name":"Uncletopia | Sydney | 5 | Stopwatch","name_short":"syd-5","host":"syd-1.au.uncletopia.com","port":27055,"enabled":true,"region":"au","cc":"au","latitude":-33.865143,"longitude":151.2099,"reserved":0,"last_update":"0001-01-01T00:00:00Z","name_a2s":"Uncletopia | Sydney | 5 | Stopwatch","protocol":17,"map":"pl_frontier_final","folder":"tf","game":"Team Fortress","app_id":440,"player_count":0,"max_players":24,"Bots":0,"server_type":"Dedicated","server_os":"Linux","password":true,"vac":true,"version":"7961495","steam_id":85568392925397959,"keywords":["nocrits","nodmgspread","payload","uncletopia"],"game_id":440,"stv_port":27056,"stv_name":"Uncletopia | Sydney | 5 | Stopwatch | STV","players":null},{"server_id":59,"name":"Uncletopia | Sydney | 6 | Community","name_short":"syd-6","host":"syd-1.au.uncletopia.com","port":27065,"enabled":true,"region":"au","cc":"au","latitude":-33.865143,"longitude":151.2099,"reserved":0,"last_update":"0001-01-01T00:00:00Z","name_a2s":"Uncletopia | Sydney | 6 | Community","protocol":17,"map":"cp_sunshine","folder":"tf","game":"Team Fortress","app_id":440,"player_count":0,"max_players":24,"Bots":0,"server_type":"Dedicated","server_os":"Linux","password":true,"vac":true,"version":"7961495","steam_id":85568392925397960,"keywords":["cp","nocrits","nodmgspread","uncletopia"],"game_id":440,"stv_port":27066,"stv_name":"Uncletopia | Sydney | 6 | Community | STV","players":null},{"server_id":49,"name":"Uncletopia | Warsaw | 1 | One Thousand Uncles","name_short":"waw-1","host":"waw-1.pl.uncletopia.com","port":27015,"enabled":true,"region":"eu","cc":"pl","latitude":52.2297,"longitude":21.017532,"reserved":0,"last_update":"0001-01-01T00:00:00Z","name_a2s":"Uncletopia | Warsaw | 1 | One Thousand Uncles","protocol":17,"map":"koth_highpass","folder":"tf","game":"Team Fortress","app_id":440,"player_count":0,"max_players":32,"Bots":0,"server_type":"Dedicated","server_os":"Linux","password":true,"vac":true,"version":"7961495","steam_id":85568392925397850,"keywords":["alltalk","cp","danepve","increased_maxplayers","nocrits","norespawntime","uncletopia"],"game_id":440,"stv_port":0,"stv_name":"","players":null},{"server_id":50,"name":"Uncletopia | Warsaw | 2 | One Thousand Uncles","name_short":"waw-2","host":"waw-1.pl.uncletopia.com","port":27025,"enabled":true,"region":"eu","cc":"pl","latitude":52.2297,"longitude":21.017532,"reserved":0,"last_update":"0001-01-01T00:00:00Z","name_a2s":"Uncletopia | Warsaw | 2 | One Thousand Uncles","protocol":17,"map":"cp_mercenarypark","folder":"tf","game":"Team Fortress","app_id":440,"player_count":25,"max_players":32,"Bots":16,"server_type":"Dedicated","server_os":"Linux","password":true,"vac":true,"version":"7961495","steam_id":85568392925397851,"keywords":["alltalk","bots","cp","danepve","increased_maxplayers","nocrits","norespawntime","uncletopia"],"game_id":440,"stv_port":0,"stv_name":"","players":[{"user_id":41,"name":"Truegr","steam_id":76561198811912339,"connected_time":4577000000000,"state":"active","ping":76},{"user_id":87,"name":"Amandus","steam_id":76561198036281079,"connected_time":819000000000,"state":"active","ping":69},{"user_id":76,"name":"Yuzu","steam_id":76561198121694613,"connected_time":3181000000000,"state":"active","ping":64},{"user_id":77,"name":"JVLIVS","steam_id":76561198366167099,"connected_time":3174000000000,"state":"active","ping":67},{"user_id":88,"name":"stefanbejenari","steam_id":76561199466718294,"connected_time":731000000000,"state":"active","ping":66},{"user_id":80,"name":"Local_TransFemme_GamerGirl","steam_id":76561198355772802,"connected_time":2008000000000,"state":"active","ping":172},{"user_id":89,"name":"Apollyon","steam_id":76561198109870127,"connected_time":402000000000,"state":"active","ping":97},{"user_id":92,"name":"ElTamagoshi","steam_id":76561198419143622,"connected_time":115000000000,"state":"active","ping":96},{"user_id":84,"name":"Zer0","steam_id":76561199044878886,"connected_time":1325000000000,"state":"active","ping":58}]},{"server_id":51,"name":"Uncletopia | Warsaw | 3 | All Maps","name_short":"waw-3","host":"waw-1.pl.uncletopia.com","port":27035,"enabled":true,"region":"eu","cc":"pl","latitude":52.2297,"longitude":21.017532,"reserved":0,"last_update":"0001-01-01T00:00:00Z","name_a2s":"Uncletopia | Warsaw | 3 | All Maps","protocol":17,"map":"plr_pipeline","folder":"tf","game":"Team Fortress","app_id":440,"player_count":0,"max_players":24,"Bots":0,"server_type":"Dedicated","server_os":"Linux","password":true,"vac":true,"version":"7961495","steam_id":85568392925397852,"keywords":["nocrits","nodmgspread","payload","uncletopia"],"game_id":440,"stv_port":27036,"stv_name":"Uncletopia | Warsaw | 3 | All Maps | STV","players":null},{"server_id":52,"name":"Uncletopia | Warsaw | 4 | All Maps","name_short":"waw-4","host":"waw-1.pl.uncletopia.com","port":27045,"enabled":true,"region":"eu","cc":"pl","latitude":52.2297,"longitude":21.017532,"reserved":0,"last_update":"0001-01-01T00:00:00Z","name_a2s":"Uncletopia | Warsaw | 4 | All Maps","protocol":17,"map":"cp_coldfront","folder":"tf","game":"Team Fortress","app_id":440,"player_count":0,"max_players":24,"Bots":0,"server_type":"Dedicated","server_os":"Linux","password":true,"vac":true,"version":"7961495","steam_id":85568392925397853,"keywords":["cp","nocrits","nodmgspread","uncletopia"],"game_id":440,"stv_port":27046,"stv_name":"Uncletopia | Warsaw | 4 | All Maps | STV","players":null},{"server_id":53,"name":"Uncletopia | Warsaw | 5 | Stopwatch","name_short":"waw-5","host":"waw-1.pl.uncletopia.com","port":27055,"enabled":true,"region":"eu","cc":"pl","latitude":52.2297,"longitude":21.017532,"reserved":0,"last_update":"0001-01-01T00:00:00Z","name_a2s":"Uncletopia | Warsaw | 5 | Stopwatch","protocol":17,"map":"workshop/pl_summercoast_rc8e.ugc1761528829","folder":"tf","game":"Team Fortress","app_id":440,"player_count":1,"max_players":24,"Bots":0,"server_type":"Dedicated","server_os":"Linux","password":true,"vac":true,"version":"7961495","steam_id":85568392925397854,"keywords":["nocrits","nodmgspread","payload","uncletopia"],"game_id":440,"stv_port":27056,"stv_name":"Uncletopia | Warsaw | 5 | Stopwatch | STV","players":[{"user_id":4,"name":"darjan69713","steam_id":76561199428131909,"connected_time":313000000000,"state":"active","ping":114}]},{"server_id":54,"name":"Uncletopia | Warsaw | 6 | Community","name_short":"waw-6","host":"waw-1.pl.uncletopia.com","port":27065,"enabled":true,"region":"eu","cc":"pl","latitude":52.2297,"longitude":21.017532,"reserved":0,"last_update":"0001-01-01T00:00:00Z","name_a2s":"Uncletopia | Warsaw | 6 | Community","protocol":17,"map":"workshop/pl_badwater_pro_v12.ugc2142942074","folder":"tf","game":"Team Fortress","app_id":440,"player_count":0,"max_players":24,"Bots":0,"server_type":"Dedicated","server_os":"Linux","password":true,"vac":true,"version":"7961495","steam_id":85568392925397856,"keywords":["nocrits","nodmgspread","payload","uncletopia"],"game_id":440,"stv_port":27066,"stv_name":"Uncletopia | Warsaw | 6 | Community | STV","players":null}]}