{"status":true,"message":"","result":[{"server_id":9,"name":"Uncletopia | Atlanta | 1 | All Maps","name_short":"atl-1","host":"atl-1.us.uncletopia.com","port":27015,"enabled":true,"region":"us-east","cc":"us","latitude":33.753746,"longitude":-84.38633,"reserved":0,"last_update":"0001-01-01T00:00:00Z","name_a2s":"Uncletopia | Atlanta | 1 | All Maps","protocol":17,"map":"pl_upward","folder":"tf","game":"Team Fortress","app_id":440,"player_count":24,"max_players":24,"Bots":0,"server_type":"Dedicated","server_os":"Linux","password":true,"vac":true,"version":"7723704","steam_id":85568392924469982,"keywords":["nocrits","nodmgspread","payload","uncletopia"],"game_id":440,"stv_port":27016,"stv_name":"Uncletopia | Atlanta | 1 | All Maps | STV","players":[{"user_id":315,"name":"NoBoreGaming","steam_id":76561198044244547,"connected_time":472000000000,"state":"active","ping":72},{"user_id":289,"name":"lost in spaaaaace","steam_id":76561199085974120,"connected_time":1619000000000,"state":"active","ping":63},{"user_id":301,"name":"Maiora","steam_id":76561198047246926,"connected_time":1223000000000,"state":"active","ping":81},{"user_id":297,"name":"Cthulwho?","steam_id":76561198165550810,"connected_time":1501000000000,"state":"active","ping":76},{"user_id":317,"name":"smittann","steam_id":76561198299570650,"connected_time":49000000000,"state":"active","ping":81},{"user_id":314,"name":"pinglefingle","steam_id":76561198216580197,"connected_time":727000000000,"state":"active","ping":83},{"user_id":203,"name":"name him golfball","steam_id":76561198068958789,"connected_time":3035000000000,"state":"active","ping":47},{"user_id":93,"name":"Turtle","steam_id":76561198262110064,"connected_time":6771000000000,"state":"active","ping":116},{"user_id":225,"name":"fiber1","steam_id":76561198095518320,"connected_time":2601000000000,"state":"active","ping":87},{"user_id":300,"name":"Cirno","steam_id":76561198283602302,"connected_time":1256000000000,"state":"active","ping":46},{"user_id":311,"name":"Pixler544","steam_id":76561198240575132,"connected_time":772000000000,"state":"active","ping":76},{"user_id":139,"name":"Seru","steam_id":76561199219827214,"connected_time":4483000000000,"state":"active","ping":80},{"user_id":291,"name":"caberknight tf2","steam_id":76561199273882768,"connected_time":1600000000000,"state":"active","ping":63},{"user_id":307,"name":"Bunt","steam_id":76561198124477567,"connected_time":822000000000,"state":"active","ping":60},{"user_id":308,"name":"b\u0026","steam_id":76561199165974260,"connected_time":807000000000,"state":"active","ping":94},{"user_id":204,"name":"Scout.tf","steam_id":76561199241807676,"connected_time":3019000000000,"state":"active","ping":120},{"user_id":313,"name":"failing pre algebra type beat","steam_id":76561198005806915,"connected_time":743000000000,"state":"active","ping":79},{"user_id":309,"name":"That One Guy","steam_id":76561198945646560,"connected_time":775000000000,"state":"active","ping":99},{"user_id":36,"name":"Red Velveeta Cake","steam_id":76561198073764084,"connected_time":10620000000000,"state":"active","ping":96},{"user_id":306,"name":"TheLonliestThelonius","steam_id":76561198097657243,"connected_time":931000000000,"state":"active","ping":80},{"user_id":123,"name":"Slowth","steam_id":76561198093849916,"connected_time":5891000000000,"state":"active","ping":85},{"user_id":131,"name":"Mithrandir","steam_id":76561197995003142,"connected_time":5557000000000,"state":"active","ping":86},{"user_id":270,"name":"Nyle","steam_id":76561198045652639,"connected_time":1927000000000,"state":"active","ping":120},{"user_id":184,"name":"Chloemew | TFConnect 2022!","steam_id":76561198042071762,"connected_time":3237000000000,"state":"active","ping":151}]},{"server_id":400,"name":"Uncletopia | Atlanta | 3 | Stopwatch Beta","name_short":"atl-3","host":"atl-1.us.uncletopia.com","port":27035,"enabled":true,"region":"us-east","cc":"us","latitude":33.753746,"longitude":-84.38633,"reserved":0,"last_update":"0001-01-01T00:00:00Z","name_a2s":"Uncletopia | Atlanta | 3 | Stopwatch Beta","protocol":17,"map":"koth_cascade","folder":"tf","game":"Team Fortress","app_id":440,"player_count":0,"max_players":24,"Bots":0,"server_type":"Dedicated","server_os":"Linux","password":true,"vac":true,"version":"7723704","steam_id":85568392924515187,"keywords":["cp","nocrits","nodmgspread","uncletopia"],"game_id":440,"stv_port":27036,"stv_name":"Uncletopia | Atlanta | 3 | Stopwatch Beta | STV","players":null},{"server_id":401,"name":"Uncletopia | Atlanta | 4 | No Payload","name_short":"atl-4","host":"atl-1.us.uncletopia.com","port":27045,"enabled":true,"region":"us-east","cc":"us","latitude":33.753746,"longitude":-84.38633,"reserved":0,"last_update":"0001-01-01T00:00:00Z","name_a2s":"Uncletopia | Atlanta | 4 | No Payload","protocol":17,"map":"pl_pier","folder":"tf","game":"Team Fortress","app_id":440,"player_count":0,"max_players":24,"Bots":0,"server_type":"Dedicated","server_os":"Linux","password":true,"vac":true,"version":"7723704","steam_id":85568392924515188,"keywords":["nocrits","nodmgspread","payload","uncletopia"],"game_id":440,"stv_port":27046,"stv_name":"Uncletopia | Atlanta | 4 | No Payload | STV","players":null},{"server_id":2,"name":"Uncletopia | Chicago | 1 | All Maps","name_short":"chi-1","host":"chi-1.us.uncletopia.com","port":27015,"enabled":true,"region":"us-central","cc":"us","latitude":41.881832,"longitude":-87.62318,"reserved":0,"last_update":"0001-01-01T00:00:00Z","name_a2s":"Uncletopia | Chicago | 1 | All Maps","protocol":17,"map":"cp_badlands","folder":"tf","game":"Team Fortress","app_id":440,"player_count":21,"max_players":24,"Bots":0,"server_type":"Dedicated","server_os":"Linux","password":true,"vac":true,"version":"7723704","steam_id":85568392924469984,"keywords":["cp","nocrits","nodmgspread","uncletopia"],"game_id":440,"stv_port":27016,"stv_name":"Uncletopia | Chicago | 1 | All Maps | STV","players":[{"user_id":21,"name":"Bozanimal","steam_id":76561198044096897,"connected_time":313000000000,"state":"active","ping":62},{"user_id":12,"name":"Evolution","steam_id":76561198144767370,"connected_time":440000000000,"state":"active","ping":45},{"user_id":7,"name":"jan kili","steam_id":76561198289894834,"connected_time":616000000000,"state":"active","ping":75},{"user_id":8,"name":"bdkaine1","steam_id":76561198133545467,"connected_time":565000000000,"state":"active","ping":62},{"user_id":9,"name":"Enforcer Enjoyer","steam_id":76561198018654093,"connected_time":563000000000,"state":"active","ping":74},{"user_id":20,"name":"DIO!","steam_id":76561198425893112,"connected_time":345000000000,"state":"active","ping":86},{"user_id":13,"name":"French Narrator","steam_id":76561198855559452,"connected_time":408000000000,"state":"active","ping":81},{"user_id":14,"name":"Kill.","steam_id":76561199129374922,"connected_time":408000000000,"state":"active","ping":76},{"user_id":15,"name":"Ripheart","steam_id":76561198089661561,"connected_time":394000000000,"state":"active","ping":55},{"user_id":16,"name":"Thatoneguybunchanumbers","steam_id":76561198028039160,"connected_time":385000000000,"state":"active","ping":65},{"user_id":17,"name":"Sauce Lord","steam_id":76561198059103441,"connected_time":380000000000,"state":"active","ping":66},{"user_id":28,"name":"wes","steam_id":76561198273536400,"connected_time":42000000000,"state":"active","ping":66},{"user_id":19,"name":"motorized bar of soap","steam_id":76561198882404753,"connected_time":368000000000,"state":"active","ping":78},{"user_id":22,"name":"rkp!","steam_id":76561199053070819,"connected_time":306000000000,"state":"active","ping":57},{"user_id":23,"name":"DankMemer","steam_id":76561199057017123,"connected_time":306000000000,"state":"active","ping":86},{"user_id":25,"name":"Defender0070","steam_id":76561199089678158,"connected_time":133000000000,"state":"active","ping":62},{"user_id":26,"name":"Tevo","steam_id":76561198375502931,"connected_time":114000000000,"state":"active","ping":62},{"user_id":27,"name":"Salmon","steam_id":76561198098295862,"connected_time":74000000000,"state":"active","ping":82},{"user_id":29,"name":"jade harley","steam_id":76561198044363630,"connected_time":29000000000,"state":"active","ping":60},{"user_id":30,"name":"Daagit","steam_id":76561198078557778,"connected_time":21000000000,"state":"active","ping":76},{"user_id":31,"name":"Deformed Gnome","steam_id":76561198152973879,"connected_time":7000000000,"state":"spawning","ping":101}]},{"server_id":106,"name":"Uncletopia | Chicago | 2 | All Maps","name_short":"chi-2","host":"chi-1.us.uncletopia.com","port":27025,"enabled":true,"region":"us-central","cc":"us","latitude":41.881832,"longitude":-87.62318,"reserved":0,"last_update":"0001-01-01T00:00:00Z","name_a2s":"Uncletopia | Chicago | 2 | All Maps","protocol":17,"map":"koth_highpass","folder":"tf","game":"Team Fortress","app_id":440,"player_count":0,"max_players":24,"Bots":0,"server_type":"Dedicated","server_os":"Linux","password":true,"vac":true,"version":"7723704","steam_id":85568392924469985,"keywords":["cp","nocrits","nodmgspread","uncletopia"],"game_id":440,"stv_port":27026,"stv_name":"Uncletopia | Chicago | 2 | All Maps | STV","players":null},{"server_id":402,"name":"Uncletopia | Chicago | 3 | All Maps","name_short":"chi-3","host":"chi-1.us.uncletopia.com","port":27035,"enabled":true,"region":"us-central","cc":"us","latitude":41.881832,"longitude":-87.62318,"reserved":0,"last_update":"0001-01-01T00:00:00Z","name_a2s":"Uncletopia | Chicago | 3 | All Maps","protocol":17,"map":"cp_mountainlab","folder":"tf","game":"Team Fortress","app_id":440,"player_count":0,"max_players":24,"Bots":0,"server_type":"Dedicated","server_os":"Linux","password":true,"vac":true,"version":"7723704","steam_id":85568392924515191,"keywords":["cp","nocrits","nodmgspread","uncletopia"],"game_id":440,"stv_port":27036,"stv_name":"Uncletopia | Chicago | 3 | All Maps | STV","players":null},{"server_id":403,"name":"Uncletopia | Chicago | 4 | All Maps","name_short":"chi-4","host":"chi-1.us.uncletopia.com","port":27045,"enabled":true,"region":"us-central","cc":"us","latitude":41.881832,"longitude":-87.62318,"reserved":0,"last_update":"0001-01-01T00:00:00Z","name_a2s":"Uncletopia | Chicago | 4 | All Maps","protocol":17,"map":"pl_pier","folder":"tf","game":"Team Fortress","app_id":440,"player_count":0,"max_players":24,"Bots":0,"server_type":"Dedicated","server_os":"Linux","password":true,"vac":true,"version":"7723704","steam_id":85568392924515193,"keywords":["nocrits","nodmgspread","payload","uncletopia"],"game_id":440,"stv_port":27046,"stv_name":"Uncletopia | Chicago | 4 | All Maps | STV","players":null},{"server_id":36,"name":"Uncletopia | Chicago | 5 | All Maps","name_short":"chi-5","host":"chi-2.us.uncletopia.com","port":27015,"enabled":true,"region":"us-central","cc":"us","latitude":41.881832,"longitude":-87.62318,"reserved":0,"last_update":"0001-01-01T00:00:00Z","name_a2s":"Uncletopia | Chicago | 5 | All Maps","protocol":17,"map":"cp_altitude","folder":"tf","game":"Team Fortress","app_id":440,"player_count":0,"max_players":24,"Bots":0,"server_type":"Dedicated","server_os":"Linux","password":true,"vac":true,"version":"7723704","steam_id":85568392924866362,"keywords":["cp","nocrits","nodmgspread","uncletopia"],"game_id":440,"stv_port":27016,"stv_name":"Uncletopia | Chicago | 5 | All Maps | STV","players":null},{"server_id":37,"name":"Uncletopia | Chicago | 6 | All Maps","name_short":"chi-6","host":"chi-2.us.uncletopia.com","port":27025,"enabled":true,"region":"us-central","cc":"us","latitude":41.881832,"longitude":-87.62318,"reserved":0,"last_update":"0001-01-01T00:00:00Z","name_a2s":"Uncletopia | Chicago | 6 | All Maps","protocol":17,"map":"pl_swiftwater_final1","folder":"tf","game":"Team Fortress","app_id":440,"player_count":0,"max_players":24,"Bots":0,"server_type":"Dedicated","server_os":"Linux","password":true,"vac":true,"version":"7723704","steam_id":85568392924866363,"keywords":["nocrits","nodmgspread","payload","uncletopia"],"game_id":440,"stv_port":27026,"stv_name":"Uncletopia | Chicago | 6 | All Maps | STV","players":null},{"server_id":38,"name":"Uncletopia | Chicago | 7 | Stopwatch Beta","name_short":"chi-7","host":"chi-2.us.uncletopia.com","port":27035,"enabled":true,"region":"us-central","cc":"us","latitude":41.881832,"longitude":-87.62318,"reserved":0,"last_update":"0001-01-01T00:00:00Z","name_a2s":"Uncletopia | Chicago | 7 | Stopwatch Beta","protocol":17,"map":"pl_upward","folder":"tf","game":"Team Fortress","app_id":440,"player_count":0,"max_players":24,"Bots":0,"server_type":"Dedicated","server_os":"Linux","password":true,"vac":true,"version":"7723704","steam_id":85568392924866364,"keywords":["nocrits","nodmgspread","payload","uncletopia"],"game_id":440,"stv_port":27036,"stv_name":"Uncletopia | Chicago | 7 | Stopwatch Beta | STV","players":null},{"server_id":39,"name":"Uncletopia | Chicago | 8 | Community","name_short":"chi-8","host":"chi-2.us.uncletopia.com","port":27045,"enabled":true,"region":"us-central","cc":"us","latitude":41.881832,"longitude":-87.62318,"reserved":0,"last_update":"0001-01-01T00:00:00Z","name_a2s":"Uncletopia | Chicago | 8 | Community","protocol":17,"map":"pl_frontier_final","folder":"tf","game":"Team Fortress","app_id":440,"player_count":0,"max_players":24,"Bots":0,"server_type":"Dedicated","server_os":"Linux","password":true,"vac":true,"version":"7723704","steam_id":85568392924866365,"keywords":["nocrits","nodmgspread","payload","uncletopia"],"game_id":440,"stv_port":27046,"stv_name":"Uncletopia | Chicago | 8 | Community | STV","players":null},{"server_id":8,"name":"Uncletopia | Dallas | 1 | All Maps","name_short":"dal-1","host":"dal-1.us.uncletopia.com","port":27015,"enabled":true,"region":"us-central","cc":"us","latitude":32.779167,"longitude":-96.80889,"reserved":0,"last_update":"0001-01-01T00:00:00Z","name_a2s":"Uncletopia | Dallas | 1 | All Maps","protocol":17,"map":"pl_barnblitz","folder":"tf","game":"Team Fortress","app_id":440,"player_count":0,"max_players":24,"Bots":0,"server_type":"Dedicated","server_os":"Linux","password":true,"vac":true,"version":"7723704","steam_id":85568392924469986,"keywords":["nocrits","nodmgspread","payload","uncletopia"],"game_id":440,"stv_port":27016,"stv_name":"Uncletopia | Dallas | 1 | All Maps | STV","players":null},{"server_id":108,"name":"Uncletopia | Dallas | 2 | All Maps","name_short":"dal-2","host":"dal-1.us.uncletopia.com","port":27025,"enabled":true,"region":"us-central","cc":"us","latitude":32.779167,"longitude":-96.80889,"reserved":0,"last_update":"0001-01-01T00:00:00Z","name_a2s":"Uncletopia | Dallas | 2 | All Maps","protocol":17,"map":"pl_borneo","folder":"tf","game":"Team Fortress","app_id":440,"player_count":0,"max_players":24,"Bots":0,"server_type":"Dedicated","server_os":"Linux","password":true,"vac":true,"version":"7723704","steam_id":85568392924469988,"keywords":["nocrits","nodmgspread","payload","uncletopia"],"game_id":440,"stv_port":27026,"stv_name":"Uncletopia | Dallas | 2 | All Maps | STV","players":null},{"server_id":5,"name":"Uncletopia | Frankfurt | 1 | All Maps","name_short":"frk-1","host":"frk-1.de.uncletopia.com","port":27015,"enabled":true,"region":"eu","cc":"de","latitude":50.110924,"longitude":8.682127,"reserved":0,"last_update":"0001-01-01T00:00:00Z","name_a2s":"Uncletopia | Frankfurt | 1 | All Maps","protocol":17,"map":"cp_granary","folder":"tf","game":"Team Fortress","app_id":440,"player_count":24,"max_players":24,"Bots":0,"server_type":"Dedicated","server_os":"Linux","password":true,"vac":true,"version":"7723704","steam_id":85568392924469989,"keywords":["cp","nocrits","nodmgspread","uncletopia"],"game_id":440,"stv_port":27016,"stv_name":"Uncletopia | Frankfurt | 1 | All Maps | STV","players":[{"user_id":91,"name":"Cocsam","steam_id":76561198050827179,"connected_time":395000000000,"state":"active","ping":56},{"user_id":87,"name":"cruise missile","steam_id":76561198076084824,"connected_time":1087000000000,"state":"active","ping":61},{"user_id":95,"name":"Cosmonaut","steam_id":76561198239514504,"connected_time":331000000000,"state":"active","ping":85},{"user_id":80,"name":"солевой вездеход","steam_id":76561198827892036,"connected_time":2157000000000,"state":"active","ping":82},{"user_id":83,"name":"Well","steam_id":76561198411337640,"connected_time":1876000000000,"state":"active","ping":93},{"user_id":99,"name":"LasagnaLarry22","steam_id":76561198089478290,"connected_time":232000000000,"state":"active","ping":54},{"user_id":60,"name":"tristan","steam_id":76561198096097448,"connected_time":4198000000000,"state":"active","ping":49},{"user_id":14,"name":"Djarlem","steam_id":76561198080968386,"connected_time":7150000000000,"state":"active","ping":51},{"user_id":61,"name":"hello my name is devil may cry","steam_id":76561198115106008,"connected_time":3605000000000,"state":"active","ping":78},{"user_id":52,"name":"Guppy","steam_id":76561198055351185,"connected_time":5029000000000,"state":"active","ping":60},{"user_id":31,"name":"DeCypher","steam_id":76561198171992619,"connected_time":6187000000000,"state":"active","ping":58},{"user_id":81,"name":"Pachakamakk","steam_id":76561197989010401,"connected_time":1968000000000,"state":"active","ping":55},{"user_id":79,"name":"The_FireNuke_PL","steam_id":76561198202641469,"connected_time":2204000000000,"state":"active","ping":62},{"user_id":85,"name":"[Festive] deadinside letmedie z","steam_id":76561198103660553,"connected_time":1377000000000,"state":"active","ping":92},{"user_id":69,"name":"Him","steam_id":76561198086400484,"connected_time":3014000000000,"state":"active","ping":77},{"user_id":98,"name":"Chalky Blue","steam_id":76561199053378029,"connected_time":299000000000,"state":"active","ping":48},{"user_id":100,"name":"Atronic","steam_id":76561198354960567,"connected_time":110000000000,"state":"active","ping":59},{"user_id":62,"name":"Umbro","steam_id":76561198087930438,"connected_time":3285000000000,"state":"active","ping":75},{"user_id":96,"name":"where is my egg?","steam_id":76561198172542535,"connected_time":327000000000,"state":"active","ping":65},{"user_id":75,"name":"Alich","steam_id":76561198054110232,"connected_time":2276000000000,"state":"active","ping":86},{"user_id":39,"name":"Luke SpyWalker","steam_id":76561198008643276,"connected_time":5971000000000,"state":"active","ping":59},{"user_id":93,"name":"System","steam_id":76561199442503973,"connected_time":392000000000,"state":"active","ping":45},{"user_id":97,"name":"Tea","steam_id":76561198799243030,"connected_time":317000000000,"state":"active","ping":61},{"user_id":84,"name":"Eyencia","steam_id":76561198834995822,"connected_time":1774000000000,"state":"active","ping":88}]},{"server_id":110,"name":"Uncletopia | Frankfurt | 2 | All Maps","name_short":"frk-2","host":"frk-1.de.uncletopia.com","port":27025,"enabled":true,"region":"eu","cc":"de","latitude":50.110924,"longitude":8.682127,"reserved":0,"last_update":"0001-01-01T00:00:00Z","name_a2s":"Uncletopia | Frankfurt | 2 | All Maps","protocol":17,"map":"pl_coal_event","folder":"tf","game":"Team Fortress","app_id":440,"player_count":24,"max_players":24,"Bots":0,"server_type":"Dedicated","server_os":"Linux","password":true,"vac":true,"version":"7723704","steam_id":85568392924469990,"keywords":["nocrits","nodmgspread","payload","uncletopia"],"game_id":440,"stv_port":27026,"stv_name":"Uncletopia | Frankfurt | 2 | All Maps | STV","players":[{"user_id":68,"name":"Lukero","steam_id":76561198301594341,"connected_time":966000000000,"state":"active","ping":51},{"user_id":43,"name":"3 Italians in a trenchcoat.","steam_id":76561198094993151,"connected_time":2446000000000,"state":"active","ping":47},{"user_id":64,"name":"Blu-Ray","steam_id":76561198167116301,"connected_time":1030000000000,"state":"active","ping":76},{"user_id":37,"name":"Bouba 1er","steam_id":76561198050971038,"connected_time":2698000000000,"state":"active","ping":66},{"user_id":16,"name":"Crab that ate amelia earhart","steam_id":76561198103175187,"connected_time":3374000000000,"state":"active","ping":63},{"user_id":65,"name":"Boid","steam_id":76561198141588857,"connected_time":1025000000000,"state":"active","ping":45},{"user_id":60,"name":"pjena","steam_id":76561198207643025,"connected_time":1283000000000,"state":"active","ping":49},{"user_id":32,"name":"Vertically Challenged","steam_id":76561198257158275,"connected_time":2878000000000,"state":"active","ping":138},{"user_id":69,"name":"Candou","steam_id":76561198086454043,"connected_time":956000000000,"state":"active","ping":49},{"user_id":21,"name":"Sedoy","steam_id":76561198390666516,"connected_time":3319000000000,"state":"active","ping":89},{"user_id":56,"name":"PhantomStriker","steam_id":76561199116689935,"connected_time":1608000000000,"state":"active","ping":74},{"user_id":29,"name":"Jonas Destark","steam_id":76561198030327441,"connected_time":3010000000000,"state":"active","ping":64},{"user_id":33,"name":"Nix (they/them)","steam_id":76561198150006573,"connected_time":2877000000000,"state":"active","ping":57},{"user_id":31,"name":"snake9544","steam_id":76561198083076205,"connected_time":2952000000000,"state":"active","ping":77},{"user_id":34,"name":"Leibeigener","steam_id":76561199275478305,"connected_time":2874000000000,"state":"active","ping":43},{"user_id":35,"name":"Lapa Mato","steam_id":76561199052049475,"connected_time":2845000000000,"state":"active","ping":79},{"user_id":67,"name":"Adam Sandler","steam_id":76561198310408309,"connected_time":993000000000,"state":"active","ping":65},{"user_id":62,"name":"The Wolf Leader","steam_id":76561198038007462,"connected_time":1053000000000,"state":"active","ping":59},{"user_id":41,"name":"Meat Prince","steam_id":76561198836130113,"connected_time":2536000000000,"state":"active","ping":167},{"user_id":44,"name":"ViktorYoshi","steam_id":76561199157555246,"connected_time":2424000000000,"state":"active","ping":61},{"user_id":75,"name":"Yatsuzume","steam_id":76561198059762108,"connected_time":43000000000,"state":"spawning","ping":51},{"user_id":55,"name":"Ampiong99","steam_id":76561199245197481,"connected_time":1619000000000,"state":"active","ping":58},{"user_id":47,"name":"Suomenjuusto","steam_id":76561198991491758,"connected_time":2398000000000,"state":"active","ping":81},{"user_id":71,"name":"shadow","steam_id":76561198161824724,"connected_time":949000000000,"state":"active","ping":143}]},{"server_id":308,"name":"Uncletopia | Frankfurt | 3 | All Maps","name_short":"frk-3","host":"frk-1.de.uncletopia.com","port":27035,"enabled":true,"region":"eu","cc":"de","latitude":50.110924,"longitude":8.682127,"reserved":0,"last_update":"0001-01-01T00:00:00Z","name_a2s":"Uncletopia | Frankfurt | 3 | All Maps","protocol":17,"map":"pl_badwater","folder":"tf","game":"Team Fortress","app_id":440,"player_count":24,"max_players":24,"Bots":0,"server_type":"Dedicated","server_os":"Linux","password":true,"vac":true,"version":"7723704","steam_id":85568392924504274,"keywords":["nocrits","nodmgspread","payload","uncletopia"],"game_id":440,"stv_port":27036,"stv_name":"Uncletopia | Frankfurt | 3 | All Maps | STV","players":[{"user_id":248,"name":"ribs","steam_id":76561198354735240,"connected_time":398000000000,"state":"active","ping":111},{"user_id":250,"name":"Packet","steam_id":76561199173195875,"connected_time":345000000000,"state":"active","ping":89},{"user_id":214,"name":"bubblojoe","steam_id":76561198044534119,"connected_time":2999000000000,"state":"active","ping":70},{"user_id":244,"name":".::[SerafeTTiN]::.","steam_id":76561198009471724,"connected_time":575000000000,"state":"active","ping":84},{"user_id":249,"name":"Xoriss","steam_id":76561198045892147,"connected_time":366000000000,"state":"active","ping":75},{"user_id":251,"name":"9TByron","steam_id":76561198086730020,"connected_time":330000000000,"state":"active","ping":74},{"user_id":231,"name":"MehuMummo","steam_id":76561198054344941,"connected_time":1880000000000,"state":"active","ping":90},{"user_id":252,"name":"kotamine","steam_id":76561198068907991,"connected_time":321000000000,"state":"active","ping":69},{"user_id":206,"name":"zinzyk","steam_id":76561198128011822,"connected_time":3172000000000,"state":"active","ping":60},{"user_id":253,"name":"SugipuLaur","steam_id":76561199138556623,"connected_time":272000000000,"state":"active","ping":75},{"user_id":226,"name":"dafydd","steam_id":76561198052200325,"connected_time":2136000000000,"state":"active","ping":83},{"user_id":254,"name":"Francjirachi","steam_id":76561198070339070,"connected_time":271000000000,"state":"active","ping":66},{"user_id":255,"name":"Typical","steam_id":76561199009805172,"connected_time":245000000000,"state":"active","ping":52},{"user_id":256,"name":"Juno4","steam_id":76561198034518616,"connected_time":229000000000,"state":"active","ping":78},{"user_id":240,"name":"Mr. Mundy","steam_id":76561198132008918,"connected_time":1005000000000,"state":"active","ping":88},{"user_id":257,"name":"No. 1 ₪ F4.exe","steam_id":76561197997909480,"connected_time":216000000000,"state":"active","ping":74},{"user_id":260,"name":"Hoshungen","steam_id":76561198064498861,"connected_time":9000000000,"state":"spawning","ping":120},{"user_id":259,"name":"OnniVonManni","steam_id":76561198012236005,"connected_time":183000000000,"state":"active","ping":93},{"user_id":170,"name":"Hexagon","steam_id":76561198151205758,"connected_time":5470000000000,"state":"active","ping":53},{"user_id":224,"name":"[K.sTyLe] fabinhO;","steam_id":76561197982416891,"connected_time":2323000000000,"state":"active","ping":47},{"user_id":246,"name":"Speedwagon","steam_id":76561198387667243,"connected_time":491000000000,"state":"active","ping":123},{"user_id":210,"name":"GOT Ya :)","steam_id":76561198877246517,"connected_time":3115000000000,"state":"active","ping":98},{"user_id":197,"name":"Nick","steam_id":76561198036109469,"connected_time":3963000000000,"state":"active","ping":94},{"user_id":212,"name":"MAKENTAKEN","steam_id":76561199127359587,"connected_time":3058000000000,"state":"active","ping":81}]},{"server_id":309,"name":"Uncletopia | Frankfurt | 4 | All Maps","name_short":"frk-4","host":"frk-1.de.uncletopia.com","port":27045,"enabled":true,"region":"eu","cc":"de","latitude":50.110924,"longitude":8.682127,"reserved":0,"last_update":"0001-01-01T00:00:00Z","name_a2s":"Uncletopia | Frankfurt | 4 | All Maps","protocol":17,"map":"pl_pier","folder":"tf","game":"Team Fortress","app_id":440,"player_count":5,"max_players":24,"Bots":0,"server_type":"Dedicated","server_os":"Linux","password":true,"vac":true,"version":"7723704","steam_id":85568392924504275,"keywords":["nocrits","nodmgspread","payload","uncletopia"],"game_id":440,"stv_port":27046,"stv_name":"Uncletopia | Frankfurt | 4 | All Maps | STV","players":[{"user_id":6,"name":"Mowelic","steam_id":76561198873641222,"connected_time":919000000000,"state":"active","ping":78},{"user_id":7,"name":"InfamousAxe","steam_id":76561198099504739,"connected_time":841000000000,"state":"spawning","ping":102},{"user_id":9,"name":"Scrooge Mc Clunk","steam_id":76561198885945084,"connected_time":674000000000,"state":"active","ping":71},{"user_id":14,"name":"Barbatruc","steam_id":76561198119019916,"connected_time":59000000000,"state":"spawning","ping":85},{"user_id":12,"name":"Artock","steam_id":76561198808599713,"connected_time":425000000000,"state":"spawning","ping":74}]},{"server_id":310,"name":"Uncletopia | Frankfurt | 5 | All Maps","name_short":"frk-5","host":"frk-1.de.uncletopia.com","port":27055,"enabled":true,"region":"eu","cc":"de","latitude":50.110924,"longitude":8.682127,"reserved":0,"last_update":"0001-01-01T00:00:00Z","name_a2s":"Uncletopia | Frankfurt | 5 | All Maps","protocol":17,"map":"pl_borneo","folder":"tf","game":"Team Fortress","app_id":440,"player_count":24,"max_players":24,"Bots":0,"server_type":"Dedicated","server_os":"Linux","password":true,"vac":true,"version":"7723704","steam_id":85568392924504277,"keywords":["nocrits","nodmgspread","payload","uncletopia"],"game_id":440,"stv_port":27056,"stv_name":"Uncletopia | Frankfurt | 5 | All Maps | STV","players":[{"user_id":90,"name":"Ben Dover","steam_id":76561198034264020,"connected_time":2227000000000,"state":"active","ping":120},{"user_id":98,"name":"DONGUS","steam_id":76561198042774930,"connected_time":1456000000000,"state":"active","ping":62},{"user_id":109,"name":"jorj3821","steam_id":76561198844794367,"connected_time":620000000000,"state":"active","ping":75},{"user_id":117,"name":"walter whited","steam_id":76561199004316549,"connected_time":355000000000,"state":"active","ping":121},{"user_id":51,"name":"jt7","steam_id":76561198073655162,"connected_time":6393000000000,"state":"active","ping":64},{"user_id":119,"name":"Dolcelatte","steam_id":76561198038501770,"connected_time":207000000000,"state":"active","ping":57},{"user_id":106,"name":"Dunboi","steam_id":76561198120949216,"connected_time":774000000000,"state":"active","ping":60},{"user_id":16,"name":"Independent","steam_id":76561198068999873,"connected_time":7823000000000,"state":"active","ping":77},{"user_id":118,"name":"Iru","steam_id":76561198077602040,"connected_time":336000000000,"state":"active","ping":62},{"user_id":108,"name":"Fella","steam_id":76561199090136355,"connected_time":674000000000,"state":"active","ping":59},{"user_id":87,"name":"Frog Dude","steam_id":76561198859366097,"connected_time":2589000000000,"state":"active","ping":67},{"user_id":85,"name":"Dummy","steam_id":76561198349741126,"connected_time":2679000000000,"state":"active","ping":80},{"user_id":67,"name":"azzy","steam_id":76561198061293740,"connected_time":4161000000000,"state":"active","ping":82},{"user_id":111,"name":"xXx_Lord_Wymiatacz_420_xXx","steam_id":76561198259173875,"connected_time":593000000000,"state":"active","ping":70},{"user_id":64,"name":"Sgreff","steam_id":76561198036304365,"connected_time":5205000000000,"state":"active","ping":60},{"user_id":97,"name":"Proto-arc","steam_id":76561198012776747,"connected_time":1716000000000,"state":"active","ping":63},{"user_id":43,"name":"lol","steam_id":76561198322087870,"connected_time":6852000000000,"state":"active","ping":114},{"user_id":31,"name":"Sverhrazym","steam_id":76561198868708664,"connected_time":7203000000000,"state":"active","ping":91},{"user_id":100,"name":"Gramma!","steam_id":76561198340989175,"connected_time":1451000000000,"state":"active","ping":175},{"user_id":101,"name":"drip drip from the tap","steam_id":76561199064350902,"connected_time":1143000000000,"state":"active","ping":104},{"user_id":115,"name":"shr1mple","steam_id":76561198173537027,"connected_time":502000000000,"state":"active","ping":42},{"user_id":112,"name":"fgheni","steam_id":76561198159291693,"connected_time":592000000000,"state":"active","ping":45},{"user_id":113,"name":"pepega","steam_id":76561199119361320,"connected_time":576000000000,"state":"active","ping":140},{"user_id":114,"name":"tim","steam_id":76561198253546985,"connected_time":561000000000,"state":"active","ping":67}]},{"server_id":311,"name":"Uncletopia | Frankfurt | 6 | All Maps","name_short":"frk-6","host":"frk-1.de.uncletopia.com","port":27065,"enabled":true,"region":"eu","cc":"de","latitude":50.110924,"longitude":8.682127,"reserved":0,"last_update":"0001-01-01T00:00:00Z","name_a2s":"Uncletopia | Frankfurt | 6 | All Maps","protocol":17,"map":"cp_snakewater_final1","folder":"tf","game":"Team Fortress","app_id":440,"player_count":23,"max_players":24,"Bots":0,"server_type":"Dedicated","server_os":"Linux","password":true,"vac":true,"version":"7723704","steam_id":85568392924504278,"keywords":["cp","nocrits","nodmgspread","uncletopia"],"game_id":440,"stv_port":27066,"stv_name":"Uncletopia | Frankfurt | 6 | All Maps | STV","players":[{"user_id":270,"name":"soap lore","steam_id":76561198058879767,"connected_time":2850000000000,"state":"active","ping":57},{"user_id":306,"name":"NatP","steam_id":76561198012083811,"connected_time":377000000000,"state":"active","ping":75},{"user_id":298,"name":"Hÿlkje","steam_id":76561198998581449,"connected_time":852000000000,"state":"active","ping":75},{"user_id":308,"name":"No.23","steam_id":76561198066287815,"connected_time":120000000000,"state":"active","ping":120},{"user_id":309,"name":"K.V. #RemoveRandomCrits","steam_id":76561197994832993,"connected_time":99000000000,"state":"active","ping":77},{"user_id":310,"name":"Healing bullet","steam_id":76561198138060189,"connected_time":95000000000,"state":"active","ping":59},{"user_id":292,"name":"blue_axolotl64","steam_id":76561199121285443,"connected_time":1554000000000,"state":"active","ping":135},{"user_id":272,"name":"Okacha","steam_id":76561198341166854,"connected_time":2825000000000,"state":"active","ping":91},{"user_id":281,"name":"stankboxers #savetf2","steam_id":76561198058609582,"connected_time":2343000000000,"state":"active","ping":140},{"user_id":182,"name":"Carpe diem.","steam_id":76561199065917088,"connected_time":8921000000000,"state":"active","ping":71},{"user_id":301,"name":"Larry Penus","steam_id":76561198207546233,"connected_time":661000000000,"state":"active","ping":60},{"user_id":311,"name":"el'bingel","steam_id":76561199069243192,"connected_time":58000000000,"state":"active","ping":54},{"user_id":179,"name":"Jin","steam_id":76561198248878364,"connected_time":9199000000000,"state":"active","ping":47},{"user_id":313,"name":"Sürünücü Gövde","steam_id":76561198304052786,"connected_time":8000000000,"state":"spawning","ping":117},{"user_id":303,"name":"Snow Raze32","steam_id":76561198059871919,"connected_time":556000000000,"state":"active","ping":72},{"user_id":312,"name":"Michael","steam_id":76561198003146906,"connected_time":30000000000,"state":"active","ping":56},{"user_id":251,"name":"Kurage","steam_id":76561198021221288,"connected_time":4095000000000,"state":"active","ping":60},{"user_id":307,"name":"ivanmixo","steam_id":76561198160213989,"connected_time":279000000000,"state":"active","ping":66},{"user_id":284,"name":"HanhiGaming","steam_id":76561198877007477,"connected_time":2315000000000,"state":"active","ping":91},{"user_id":290,"name":"a fruitful and unwind","steam_id":76561198978029443,"connected_time":1688000000000,"state":"active","ping":97},{"user_id":297,"name":"GreenDaddy","steam_id":76561198169793046,"connected_time":923000000000,"state":"active","ping":66},{"user_id":285,"name":"Zenos","steam_id":76561198212366199,"connected_time":2303000000000,"state":"active","ping":59},{"user_id":299,"name":"tealoverr.190","steam_id":76561199028497703,"connected_time":827000000000,"state":"active","ping":98}]},{"server_id":23,"name":"Uncletopia | Frankfurt | 7 | Stopwatch Beta","name_short":"frk-7","host":"frk-1.de.uncletopia.com","port":27075,"enabled":true,"region":"eu","cc":"de","latitude":50.110924,"longitude":8.682127,"reserved":0,"last_update":"0001-01-01T00:00:00Z","name_a2s":"Uncletopia | Frankfurt | 7 | Stopwatch Beta","protocol":17,"map":"workshop/pl_barnblitz_pro7.ugc582280235","folder":"tf","game":"Team Fortress","app_id":440,"player_count":0,"max_players":24,"Bots":0,"server_type":"Dedicated","server_os":"Linux","password":true,"vac":true,"version":"7723704","steam_id":85568392924742827,"keywords":["nocrits","nodmgspread","payload","uncletopia"],"game_id":440,"stv_port":27076,"stv_name":"Uncletopia | Frankfurt | 7 | Stopwatch Beta | STV","players":null},{"server_id":24,"name":"Uncletopia | Frankfurt | 8 | Community","name_short":"frk-8","host":"frk-1.de.uncletopia.com","port":27085,"enabled":true,"region":"eu","cc":"de","latitude":50.110924,"longitude":8.682127,"reserved":0,"last_update":"0001-01-01T00:00:00Z","name_a2s":"Uncletopia | Frankfurt | 8 | Community","protocol":17,"map":"pl_frontier_final","folder":"tf","game":"Team Fortress","app_id":440,"player_count":0,"max_players":24,"Bots":0,"server_type":"Dedicated","server_os":"Linux","password":true,"vac":true,"version":"7723704","steam_id":85568392924742828,"keywords":["nocrits","nodmgspread","payload","uncletopia"],"game_id":440,"stv_port":27086,"stv_name":"Uncletopia | Frankfurt | 8 | Community | STV","players":null},{"server_id":202,"name":"Uncletopia | Hong Kong | 1 | All Maps","name_short":"hgk-1","host":"hgk-1.hk.uncletopia.com","port":27015,"enabled":true,"region":"asia","cc":"hk","latitude":22.302711,"longitude":114.177216,"reserved":0,"last_update":"0001-01-01T00:00:00Z","name_a2s":"Uncletopia | Hong Kong | 1 | All Maps","protocol":17,"map":"pl_upward","folder":"tf","game":"Team Fortress","app_id":440,"player_count":24,"max_players":24,"Bots":0,"server_type":"Dedicated","server_os":"Linux","password":true,"vac":true,"version":"7723704","steam_id":85568392924494504,"keywords":["nocrits","nodmgspread","payload","uncletopia"],"game_id":440,"stv_port":27016,"stv_name":"Uncletopia | Hong Kong | 1 | All Maps | STV","players":[{"user_id":524,"name":"GlacialHex","steam_id":76561198854397761,"connected_time":436000000000,"state":"active","ping":80},{"user_id":468,"name":"Banana Milk","steam_id":76561198005156257,"connected_time":8379000000000,"state":"active","ping":132},{"user_id":507,"name":"母の肉団子","steam_id":76561198069561896,"connected_time":4277000000000,"state":"active","ping":41},{"user_id":488,"name":"(no sound) oppai protons","steam_id":76561198008307645,"connected_time":7217000000000,"state":"active","ping":70},{"user_id":527,"name":"AmaiToxic","steam_id":76561199122491157,"connected_time":412000000000,"state":"active","ping":63},{"user_id":490,"name":"+W+","steam_id":76561197997220367,"connected_time":7200000000000,"state":"active","ping":44},{"user_id":512,"name":"Puddin","steam_id":76561198140052918,"connected_time":3502000000000,"state":"active","ping":87},{"user_id":519,"name":"Green","steam_id":76561198391718463,"connected_time":610000000000,"state":"active","ping":60},{"user_id":514,"name":"Tin-Tin \u003c3","steam_id":76561199247983065,"connected_time":2405000000000,"state":"active","ping":74},{"user_id":528,"name":"Skyler White yo","steam_id":76561198895193247,"connected_time":80000000000,"state":"active","ping":75},{"user_id":497,"name":"Lud","steam_id":76561198828840546,"connected_time":5811000000000,"state":"active","ping":80},{"user_id":516,"name":"j_rex","steam_id":76561198132473926,"connected_time":2217000000000,"state":"active","ping":64},{"user_id":476,"name":"A Toilet","steam_id":76561198148278657,"connected_time":8126000000000,"state":"active","ping":100},{"user_id":521,"name":"Nishizono","steam_id":76561198198136158,"connected_time":468000000000,"state":"active","ping":104},{"user_id":523,"name":"screaming sniper","steam_id":76561199085568674,"connected_time":456000000000,"state":"active","ping":66},{"user_id":517,"name":"zxcvbnm","steam_id":76561198866884809,"connected_time":1351000000000,"state":"active","ping":73},{"user_id":522,"name":"The Cake is a lie","steam_id":76561198190738610,"connected_time":467000000000,"state":"active","ping":77},{"user_id":502,"name":"r/leroy","steam_id":76561199137927625,"connected_time":5045000000000,"state":"active","ping":112},{"user_id":496,"name":"Kurtie","steam_id":76561198144737876,"connected_time":6197000000000,"state":"active","ping":64},{"user_id":513,"name":"ZCary","steam_id":76561198173516050,"connected_time":3473000000000,"state":"active","ping":82},{"user_id":480,"name":"Krayken","steam_id":76561197997933283,"connected_time":7887000000000,"state":"active","ping":93},{"user_id":441,"name":"deadass sleepless","steam_id":76561198255521007,"connected_time":11764000000000,"state":"active","ping":46},{"user_id":526,"name":"can we get much higher","steam_id":76561199390507975,"connected_time":423000000000,"state":"active","ping":52},{"user_id":493,"name":"ZUdolph, the Robo-reindeer","steam_id":76561198179320563,"connected_time":6806000000000,"state":"active","ping":91}]},{"server_id":1,"name":"Uncletopia | Los Angeles | 1 | All Maps","name_short":"lax-1","host":"lax-1.us.uncletopia.com","port":27015,"enabled":true,"region":"us-west","cc":"us","latitude":33.94279,"longitude":-118.41004,"reserved":0,"last_update":"0001-01-01T00:00:00Z","name_a2s":"Uncletopia | Los Angeles | 1 | All Maps","protocol":17,"map":"pl_pier","folder":"tf","game":"Team Fortress","app_id":440,"player_count":0,"max_players":24,"Bots":0,"server_type":"Dedicated","server_os":"Linux","password":true,"vac":true,"version":"7723704","steam_id":85568392924469991,"keywords":["nocrits","nodmgspread","payload","uncletopia"],"game_id":440,"stv_port":27016,"stv_name":"Uncletopia | Los Angeles | 1 | All Maps | STV","players":null},{"server_id":112,"name":"Uncletopia | Los Angeles | 2 | All Maps","name_short":"lax-2","host":"lax-1.us.uncletopia.com","port":27025,"enabled":true,"region":"us-west","cc":"us","latitude":33.94279,"longitude":-118.41004,"reserved":0,"last_update":"0001-01-01T00:00:00Z","name_a2s":"Uncletopia | Los Angeles | 2 | All Maps","protocol":17,"map":"koth_viaduct","folder":"tf","game":"Team Fortress","app_id":440,"player_count":0,"max_players":24,"Bots":0,"server_type":"Dedicated","server_os":"Linux","password":true,"vac":true,"version":"7723704","steam_id":85568392924469992,"keywords":["cp","nocrits","nodmgspread","uncletopia"],"game_id":440,"stv_port":27026,"stv_name":"Uncletopia | Los Angeles | 2 | All Maps | STV","players":null},{"server_id":324,"name":"Uncletopia | Los Angeles | 3 | All Maps","name_short":"lax-3","host":"lax-1.us.uncletopia.com","port":27035,"enabled":true,"region":"us-west","cc":"us","latitude":33.94279,"longitude":-118.41004,"reserved":0,"last_update":"0001-01-01T00:00:00Z","name_a2s":"Uncletopia | Los Angeles | 3 | All Maps","protocol":17,"map":"koth_viaduct","folder":"tf","game":"Team Fortress","app_id":440,"player_count":0,"max_players":24,"Bots":0,"server_type":"Dedicated","server_os":"Linux","password":true,"vac":true,"version":"7723704","steam_id":85568392924510198,"keywords":["cp","nocrits","nodmgspread","uncletopia"],"game_id":440,"stv_port":27036,"stv_name":"Uncletopia | Los Angeles | 3 | All Maps | STV","players":null},{"server_id":25,"name":"Uncletopia | Los Angeles | 4 | Stopwatch Beta","name_short":"lax-4","host":"lax-1.us.uncletopia.com","port":27045,"enabled":true,"region":"us-west","cc":"us","latitude":33.94279,"longitude":-118.41004,"reserved":0,"last_update":"0001-01-01T00:00:00Z","name_a2s":"Uncletopia | Los Angeles | 4 | Stopwatch Beta","protocol":17,"map":"cp_sunshine","folder":"tf","game":"Team Fortress","app_id":440,"player_count":1,"max_players":24,"Bots":0,"server_type":"Dedicated","server_os":"Linux","password":true,"vac":true,"version":"7723704","steam_id":85568392924510199,"keywords":["cp","nocrits","nodmgspread","uncletopia"],"game_id":440,"stv_port":27046,"stv_name":"Uncletopia | Los Angeles | 4 | Stopwatch Beta | STV","players":[{"user_id":3,"name":"Super Mario","steam_id":76561199023245804,"connected_time":123000000000,"state":"active","ping":117}]},{"server_id":11,"name":"Uncletopia | London | 1 | All Maps","name_short":"lon-1","host":"lon-1.uk.uncletopia.com","port":27015,"enabled":true,"region":"eu","cc":"gb","latitude":51.509865,"longitude":-0.118092,"reserved":0,"last_update":"0001-01-01T00:00:00Z","name_a2s":"Uncletopia | London | 1 | All Maps","protocol":17,"map":"pl_badwater","folder":"tf","game":"Team Fortress","app_id":440,"player_count":24,"max_players":24,"Bots":0,"server_type":"Dedicated","server_os":"Linux","password":true,"vac":true,"version":"7723704","steam_id":85568392924367362,"keywords":["nocrits","nodmgspread","payload","uncletopia"],"game_id":440,"stv_port":27016,"stv_name":"Uncletopia | London | 1 | All Maps | STV","players":[{"user_id":289,"name":"BroHood(active only in weekends","steam_id":76561198044766151,"connected_time":11103000000000,"state":"active","ping":99},{"user_id":368,"name":"Carmine","steam_id":76561198426477450,"connected_time":2119000000000,"state":"active","ping":34},{"user_id":325,"name":"Nexosert","steam_id":76561198941142018,"connected_time":7768000000000,"state":"active","ping":71},{"user_id":397,"name":"NALA","steam_id":76561198039806469,"connected_time":467000000000,"state":"active","ping":75},{"user_id":394,"name":"Leviopterix","steam_id":76561198172397734,"connected_time":588000000000,"state":"active","ping":63},{"user_id":384,"name":"jaime8D","steam_id":76561197980590671,"connected_time":1343000000000,"state":"active","ping":90},{"user_id":304,"name":"TheGreenWolf","steam_id":76561198170607033,"connected_time":9913000000000,"state":"active","ping":60},{"user_id":391,"name":"quentu-","steam_id":76561198087457220,"connected_time":694000000000,"state":"active","ping":74},{"user_id":358,"name":"Fluke","steam_id":76561199006077551,"connected_time":2941000000000,"state":"active","ping":60},{"user_id":345,"name":"Coac","steam_id":76561198085265740,"connected_time":4658000000000,"state":"active","ping":69},{"user_id":395,"name":"Dr. WAH","steam_id":76561198297778149,"connected_time":570000000000,"state":"active","ping":64},{"user_id":291,"name":":)","steam_id":76561198103988618,"connected_time":11092000000000,"state":"active","ping":60},{"user_id":401,"name":"Elix","steam_id":76561199072306920,"connected_time":105000000000,"state":"active","ping":98},{"user_id":356,"name":"ciliorkun18","steam_id":76561198228942500,"connected_time":3337000000000,"state":"active","ping":101},{"user_id":393,"name":"Bob_Tostas","steam_id":76561198249006560,"connected_time":626000000000,"state":"active","ping":82},{"user_id":399,"name":"Bart simpson","steam_id":76561198380666998,"connected_time":435000000000,"state":"active","ping":135},{"user_id":400,"name":"sentry man","steam_id":76561197993103138,"connected_time":426000000000,"state":"active","ping":37},{"user_id":396,"name":"TheHacker-","steam_id":76561198091867843,"connected_time":566000000000,"state":"active","ping":134},{"user_id":403,"name":"Oak","steam_id":76561198067315672,"connected_time":1000000000,"state":"spawning","ping":39},{"user_id":374,"name":"After8","steam_id":76561198090750865,"connected_time":1991000000000,"state":"active","ping":74},{"user_id":385,"name":"Spageti","steam_id":76561198074122906,"connected_time":1339000000000,"state":"active","ping":90},{"user_id":363,"name":"Sorky","steam_id":76561198007502339,"connected_time":2801000000000,"state":"active","ping":74},{"user_id":389,"name":"Ancient Mariner","steam_id":76561198209101861,"connected_time":718000000000,"state":"active","ping":84},{"user_id":390,"name":"dAg","steam_id":76561198047819527,"connected_time":718000000000,"state":"active","ping":99}]},{"server_id":114,"name":"Uncletopia | London | 2 | All Maps","name_short":"lon-2","host":"lon-1.uk.uncletopia.com","port":27025,"enabled":true,"region":"eu","cc":"gb","latitude":51.509865,"longitude":-0.118092,"reserved":0,"last_update":"0001-01-01T00:00:00Z","name_a2s":"Uncletopia | London | 2 | All Maps","protocol":17,"map":"cp_sunshine","folder":"tf","game":"Team Fortress","app_id":440,"player_count":24,"max_players":24,"Bots":0,"server_type":"Dedicated","server_os":"Linux","password":true,"vac":true,"version":"7723704","steam_id":85568392924470941,"keywords":["cp","nocrits","nodmgspread","uncletopia"],"game_id":440,"stv_port":27026,"stv_name":"Uncletopia | London | 2 | All Maps | STV","players":[{"user_id":207,"name":"Nedge","steam_id":76561197963549701,"connected_time":5934000000000,"state":"active","ping":50},{"user_id":255,"name":"YourDoom","steam_id":76561198080790857,"connected_time":2830000000000,"state":"active","ping":39},{"user_id":269,"name":"T_G_G","steam_id":76561199114568070,"connected_time":1821000000000,"state":"active","ping":76},{"user_id":276,"name":"Honey_Darlin","steam_id":76561199437522058,"connected_time":1466000000000,"state":"active","ping":143},{"user_id":266,"name":"Caesium_R4","steam_id":76561198432410602,"connected_time":2519000000000,"state":"active","ping":45},{"user_id":277,"name":"Bongo Player","steam_id":76561198839688800,"connected_time":1454000000000,"state":"active","ping":150},{"user_id":285,"name":"Thesis","steam_id":76561199308784371,"connected_time":852000000000,"state":"active","ping":54},{"user_id":271,"name":"Zazou","steam_id":76561198028076362,"connected_time":1769000000000,"state":"active","ping":55},{"user_id":288,"name":"Brinier","steam_id":76561199012604288,"connected_time":579000000000,"state":"active","ping":75},{"user_id":247,"name":"big al","steam_id":76561198800662675,"connected_time":3742000000000,"state":"active","ping":59},{"user_id":297,"name":"Quack","steam_id":76561198048712219,"connected_time":211000000000,"state":"active","ping":56},{"user_id":299,"name":"lant420","steam_id":76561198206673920,"connected_time":177000000000,"state":"active","ping":85},{"user_id":286,"name":"Jughead","steam_id":76561198000355410,"connected_time":597000000000,"state":"active","ping":38},{"user_id":300,"name":"clems17","steam_id":76561199420685482,"connected_time":168000000000,"state":"active","ping":65},{"user_id":289,"name":"gaming","steam_id":76561199015038728,"connected_time":531000000000,"state":"active","ping":47},{"user_id":287,"name":"The Funny Cat-Heaby","steam_id":76561198439978112,"connected_time":596000000000,"state":"active","ping":99},{"user_id":95,"name":"wombat","steam_id":76561198076219289,"connected_time":13539000000000,"state":"active","ping":51},{"user_id":295,"name":"soar","steam_id":76561198010662796,"connected_time":325000000000,"state":"active","ping":46},{"user_id":272,"name":"Perämiehenä","steam_id":76561197968945306,"connected_time":1729000000000,"state":"active","ping":72},{"user_id":279,"name":"yes","steam_id":76561198088924666,"connected_time":1446000000000,"state":"active","ping":88},{"user_id":296,"name":"Tobleroney","steam_id":76561198154402655,"connected_time":226000000000,"state":"active","ping":32},{"user_id":293,"name":"rosepinkyfuzz","steam_id":76561198018546334,"connected_time":418000000000,"state":"active","ping":74},{"user_id":115,"name":"wombatty","steam_id":76561198046873337,"connected_time":12562000000000,"state":"active","ping":55},{"user_id":301,"name":"Pain in a Box","steam_id":76561197990777173,"connected_time":163000000000,"state":"active","ping":73}]},{"server_id":320,"name":"Uncletopia | London | 3 | All Maps","name_short":"lon-3","host":"lon-1.uk.uncletopia.com","port":27035,"enabled":true,"region":"eu","cc":"gb","latitude":51.509865,"longitude":-0.118092,"reserved":0,"last_update":"0001-01-01T00:00:00Z","name_a2s":"Uncletopia | London | 3 | All Maps","protocol":17,"map":"pl_badwater","folder":"tf","game":"Team Fortress","app_id":440,"player_count":24,"max_players":24,"Bots":0,"server_type":"Dedicated","server_os":"Linux","password":true,"vac":true,"version":"7723704","steam_id":85568392924510192,"keywords":["nocrits","nodmgspread","payload","uncletopia"],"game_id":440,"stv_port":27036,"stv_name":"Uncletopia | London | 3 | All Maps | STV","players":[{"user_id":201,"name":"Dos","steam_id":76561199088579207,"connected_time":812000000000,"state":"active","ping":156},{"user_id":211,"name":"A fish and sea","steam_id":76561198194745827,"connected_time":219000000000,"state":"active","ping":61},{"user_id":202,"name":"InsectKing","steam_id":76561199013519071,"connected_time":809000000000,"state":"active","ping":41},{"user_id":208,"name":"goofy goober","steam_id":76561198013237629,"connected_time":732000000000,"state":"active","ping":88},{"user_id":183,"name":"Virgil","steam_id":76561198248786778,"connected_time":2918000000000,"state":"active","ping":115},{"user_id":196,"name":"Toscorp","steam_id":76561198353760522,"connected_time":1156000000000,"state":"active","ping":56},{"user_id":213,"name":"moon","steam_id":76561199212557251,"connected_time":144000000000,"state":"active","ping":127},{"user_id":204,"name":"FeminineAtom","steam_id":76561198311208470,"connected_time":790000000000,"state":"active","ping":58},{"user_id":164,"name":"YILK","steam_id":76561198077913307,"connected_time":4528000000000,"state":"active","ping":45},{"user_id":206,"name":"Vi","steam_id":76561198036546142,"connected_time":761000000000,"state":"active","ping":38},{"user_id":166,"name":"Ghilly","steam_id":76561198800993575,"connected_time":3783000000000,"state":"active","ping":46},{"user_id":199,"name":"Higgsgeek","steam_id":76561198984900287,"connected_time":979000000000,"state":"active","ping":78},{"user_id":207,"name":"Cha0s💀","steam_id":76561198310277578,"connected_time":761000000000,"state":"active","ping":50},{"user_id":187,"name":"Vezage","steam_id":76561198064916164,"connected_time":2493000000000,"state":"active","ping":78},{"user_id":198,"name":"WHUSSKEY","steam_id":76561198137827441,"connected_time":989000000000,"state":"active","ping":64},{"user_id":197,"name":"МЕДИК!","steam_id":76561198803488036,"connected_time":1118000000000,"state":"active","ping":104},{"user_id":192,"name":"Shortyyy","steam_id":76561198059005030,"connected_time":2224000000000,"state":"active","ping":49},{"user_id":194,"name":"Hubba","steam_id":76561199447136263,"connected_time":1506000000000,"state":"active","ping":75},{"user_id":186,"name":"C0d3s","steam_id":76561198093907544,"connected_time":2614000000000,"state":"active","ping":100},{"user_id":163,"name":"varjeniks viena gabala","steam_id":76561198117322354,"connected_time":4810000000000,"state":"active","ping":86},{"user_id":174,"name":"arcticcu the croc","steam_id":76561198002435882,"connected_time":3651000000000,"state":"active","ping":103},{"user_id":181,"name":"Meff","steam_id":76561197970610839,"connected_time":2975000000000,"state":"active","ping":47},{"user_id":191,"name":"Untermenshh","steam_id":76561198284636705,"connected_time":2333000000000,"state":"active","ping":93},{"user_id":159,"name":"fierce_A2","steam_id":76561198301836443,"connected_time":5028000000000,"state":"active","ping":120}]},{"server_id":321,"name":"Uncletopia | London | 4 | All Maps","name_short":"lon-4","host":"lon-1.uk.uncletopia.com","port":27045,"enabled":true,"region":"eu","cc":"gb","latitude":51.509865,"longitude":-0.118092,"reserved":0,"last_update":"0001-01-01T00:00:00Z","name_a2s":"Uncletopia | London | 4 | All Maps","protocol":17,"map":"koth_lakeside_final","folder":"tf","game":"Team Fortress","app_id":440,"player_count":0,"max_players":24,"Bots":0,"server_type":"Dedicated","server_os":"Linux","password":true,"vac":true,"version":"7723704","steam_id":85568392924510193,"keywords":["cp","nocrits","nodmgspread","uncletopia"],"game_id":440,"stv_port":27046,"stv_name":"Uncletopia | London | 4 | All Maps | STV","players":null},{"server_id":21,"name":"Uncletopia | London | 5 | All Maps","name_short":"lon-5","host":"lon-1.uk.uncletopia.com","port":27055,"enabled":true,"region":"eu","cc":"gb","latitude":51.509865,"longitude":-0.118092,"reserved":0,"last_update":"0001-01-01T00:00:00Z","name_a2s":"Uncletopia | London | 5 | All Maps","protocol":17,"map":"pl_snowycoast","folder":"tf","game":"Team Fortress","app_id":440,"player_count":0,"max_players":24,"Bots":0,"server_type":"Dedicated","server_os":"Linux","password":true,"vac":true,"version":"7723704","steam_id":85568392924742829,"keywords":["nocrits","nodmgspread","payload","uncletopia"],"game_id":440,"stv_port":27056,"stv_name":"Uncletopia | London | 5 | All Maps | STV","players":null},{"server_id":22,"name":"Uncletopia | London | 6 | All Maps","name_short":"lon-6","host":"lon-1.uk.uncletopia.com","port":27065,"enabled":true,"region":"eu","cc":"gb","latitude":51.509865,"longitude":-0.118092,"reserved":0,"last_update":"0001-01-01T00:00:00Z","name_a2s":"Uncletopia | London | 6 | All Maps","protocol":17,"map":"koth_lakeside_final","folder":"tf","game":"Team Fortress","app_id":440,"player_count":0,"max_players":24,"Bots":0,"server_type":"Dedicated","server_os":"Linux","password":true,"vac":true,"version":"7723704","steam_id":85568392924742830,"keywords":["cp","nocrits","nodmgspread","uncletopia"],"game_id":440,"stv_port":27066,"stv_name":"Uncletopia | London | 6 | All Maps | STV","players":null},{"server_id":40,"name":"Uncletopia | London | 7 | No Payload","name_short":"lon-7","host":"lon-1.uk.uncletopia.com","port":27075,"enabled":true,"region":"eu","cc":"gb","latitude":51.509865,"longitude":-0.118092,"reserved":0,"last_update":"0001-01-01T00:00:00Z","name_a2s":"Uncletopia | London | 7 | No Payload","protocol":17,"map":"koth_viaduct","folder":"tf","game":"Team Fortress","app_id":440,"player_count":0,"max_players":24,"Bots":0,"server_type":"Dedicated","server_os":"Linux","password":true,"vac":true,"version":"7723704","steam_id":85568392924964314,"keywords":["cp","nocrits","nodmgspread","uncletopia"],"game_id":440,"stv_port":27076,"stv_name":"Uncletopia | London | 7 | No Payload | STV","players":null},{"server_id":41,"name":"Uncletopia | London | 8 | Community","name_short":"lon-8","host":"lon-1.uk.uncletopia.com","port":27085,"enabled":true,"region":"eu","cc":"gb","latitude":51.509865,"longitude":-0.118092,"reserved":0,"last_update":"0001-01-01T00:00:00Z","name_a2s":"Uncletopia | London | 8 | Community","protocol":17,"map":"koth_highpass","folder":"tf","game":"Team Fortress","app_id":440,"player_count":0,"max_players":24,"Bots":0,"server_type":"Dedicated","server_os":"Linux","password":true,"vac":true,"version":"7723704","steam_id":85568392924964315,"keywords":["cp","nocrits","nodmgspread","uncletopia"],"game_id":440,"stv_port":27086,"stv_name":"Uncletopia | London | 8 | Community | STV","players":null},{"server_id":300,"name":"Uncletopia | Montréal | 1 | All Maps","name_short":"mtl-1","host":"mtl-1.ca.uncletopia.com","port":27015,"enabled":true,"region":"us-east","cc":"ca","latitude":45.50889,"longitude":-73.56167,"reserved":0,"last_update":"0001-01-01T00:00:00Z","name_a2s":"Uncletopia | Montréal | 1 | All Maps","protocol":17,"map":"pl_snowycoast","folder":"tf","game":"Team Fortress","app_id":440,"player_count":0,"max_players":24,"Bots":0,"server_type":"Dedicated","server_os":"Linux","password":true,"vac":true,"version":"7723704","steam_id":85568392924500087,"keywords":["nocrits","nodmgspread","payload","uncletopia"],"game_id":440,"stv_port":27016,"stv_name":"Uncletopia | Montréal | 1 | All Maps | STV","players":null},{"server_id":301,"name":"Uncletopia | Montréal | 2 | All Maps","name_short":"mtl-2","host":"mtl-1.ca.uncletopia.com","port":27025,"enabled":true,"region":"us-east","cc":"ca","latitude":45.50889,"longitude":-73.56167,"reserved":0,"last_update":"0001-01-01T00:00:00Z","name_a2s":"Uncletopia | Montréal | 2 | All Maps","protocol":17,"map":"cp_process_final","folder":"tf","game":"Team Fortress","app_id":440,"player_count":0,"max_players":24,"Bots":0,"server_type":"Dedicated","server_os":"Linux","password":true,"vac":true,"version":"7723704","steam_id":85568392924500088,"keywords":["cp","nocrits","nodmgspread","uncletopia"],"game_id":440,"stv_port":27026,"stv_name":"Uncletopia | Montréal | 2 | All Maps | STV","players":null},{"server_id":302,"name":"Uncletopia | Montréal | 3 | All Maps","name_short":"mtl-3","host":"mtl-1.ca.uncletopia.com","port":27035,"enabled":true,"region":"us-east","cc":"ca","latitude":45.50889,"longitude":-73.56167,"reserved":0,"last_update":"0001-01-01T00:00:00Z","name_a2s":"Uncletopia | Montréal | 3 | All Maps","protocol":17,"map":"pl_barnblitz","folder":"tf","game":"Team Fortress","app_id":440,"player_count":0,"max_players":24,"Bots":0,"server_type":"Dedicated","server_os":"Linux","password":true,"vac":true,"version":"7723704","steam_id":85568392924500089,"keywords":["nocrits","nodmgspread","payload","uncletopia"],"game_id":440,"stv_port":27036,"stv_name":"Uncletopia | Montréal | 3 | All Maps | STV","players":null},{"server_id":303,"name":"Uncletopia | Montréal | 4 | No Payload","name_short":"mtl-4","host":"mtl-1.ca.uncletopia.com","port":27045,"enabled":true,"region":"us-east","cc":"ca","latitude":45.50889,"longitude":-73.56167,"reserved":0,"last_update":"0001-01-01T00:00:00Z","name_a2s":"Uncletopia | Montréal | 4 | No Payload","protocol":17,"map":"koth_cascade","folder":"tf","game":"Team Fortress","app_id":440,"player_count":0,"max_players":24,"Bots":0,"server_type":"Dedicated","server_os":"Linux","password":true,"vac":true,"version":"7723704","steam_id":85568392924500090,"keywords":["cp","nocrits","nodmgspread","uncletopia"],"game_id":440,"stv_port":27046,"stv_name":"Uncletopia | Montréal | 4 | No Payload | STV","players":null},{"server_id":13,"name":"Uncletopia | New York City | 1 | All Maps","name_short":"nyc-1","host":"nyc-1.us.uncletopia.com","port":27015,"enabled":true,"region":"us-east","cc":"us","latitude":40.73061,"longitude":-73.93524,"reserved":0,"last_update":"0001-01-01T00:00:00Z","name_a2s":"Uncletopia | New York City | 1 | All Maps","protocol":17,"map":"koth_highpass","folder":"tf","game":"Team Fortress","app_id":440,"player_count":0,"max_players":24,"Bots":0,"server_type":"Dedicated","server_os":"Linux","password":true,"vac":true,"version":"7723704","steam_id":85568392924469993,"keywords":["cp","nocrits","nodmgspread","uncletopia"],"game_id":440,"stv_port":27016,"stv_name":"Uncletopia | New York City | 1 | All Maps | STV","players":null},{"server_id":14,"name":"Uncletopia | New York City | 2 | All Maps","name_short":"nyc-2","host":"nyc-1.us.uncletopia.com","port":27025,"enabled":true,"region":"us-east","cc":"us","latitude":40.73061,"longitude":-73.93524,"reserved":0,"last_update":"0001-01-01T00:00:00Z","name_a2s":"Uncletopia | New York City | 2 | All Maps","protocol":17,"map":"pl_barnblitz","folder":"tf","game":"Team Fortress","app_id":440,"player_count":0,"max_players":24,"Bots":0,"server_type":"Dedicated","server_os":"Linux","password":true,"vac":true,"version":"7723704","steam_id":85568392924469994,"keywords":["nocrits","nodmgspread","payload","uncletopia"],"game_id":440,"stv_port":27026,"stv_name":"Uncletopia | New York City | 2 | All Maps | STV","players":null},{"server_id":15,"name":"Uncletopia | New York City | 3 | Stopwatch Beta","name_short":"nyc-3","host":"nyc-1.us.uncletopia.com","port":27035,"enabled":true,"region":"us-east","cc":"us","latitude":40.73061,"longitude":-73.93524,"reserved":0,"last_update":"0001-01-01T00:00:00Z","name_a2s":"Uncletopia | New York City | 3 | Stopwatch Beta","protocol":17,"map":"cp_sunshine","folder":"tf","game":"Team Fortress","app_id":440,"player_count":1,"max_players":24,"Bots":0,"server_type":"Dedicated","server_os":"Linux","password":true,"vac":true,"version":"7723704","steam_id":85568392924742820,"keywords":["cp","nocrits","nodmgspread","uncletopia"],"game_id":440,"stv_port":27036,"stv_name":"Uncletopia | New York City | 3 | Stopwatch Beta | STV","players":[{"user_id":3,"name":"raspy","steam_id":76561198027298961,"connected_time":27000000000,"state":"active","ping":39}]},{"server_id":16,"name":"Uncletopia | New York City | 4 | Community","name_short":"nyc-4","host":"nyc-1.us.uncletopia.com","port":27045,"enabled":true,"region":"us-east","cc":"us","latitude":40.73061,"longitude":-73.93524,"reserved":0,"last_update":"0001-01-01T00:00:00Z","name_a2s":"Uncletopia | New York City | 4 | Community","protocol":17,"map":"pl_frontier_final","folder":"tf","game":"Team Fortress","app_id":440,"player_count":0,"max_players":24,"Bots":0,"server_type":"Dedicated","server_os":"Linux","password":true,"vac":true,"version":"7723704","steam_id":85568392924742821,"keywords":["nocrits","nodmgspread","payload","uncletopia"],"game_id":440,"stv_port":27046,"stv_name":"Uncletopia | New York City | 4 | Community | STV","players":null},{"server_id":142,"name":"Uncletopia | São Paulo | 1 | All Maps","name_short":"sao-1","host":"sao-1.br.uncletopia.com","port":27015,"enabled":true,"region":"sa","cc":"br","latitude":-23.533773,"longitude":-46.62529,"reserved":0,"last_update":"0001-01-01T00:00:00Z","name_a2s":"Uncletopia | São Paulo | 1 | All Maps","protocol":17,"map":"koth_cascade","folder":"tf","game":"Team Fortress","app_id":440,"player_count":0,"max_players":24,"Bots":0,"server_type":"Dedicated","server_os":"Linux","password":true,"vac":true,"version":"7723704","steam_id":85568392924469996,"keywords":["cp","nocrits","nodmgspread","uncletopia"],"game_id":440,"stv_port":27016,"stv_name":"Uncletopia | São Paulo | 1 | All Maps | STV","players":null},{"server_id":143,"name":"Uncletopia | São Paulo | 2 | All Maps","name_short":"sao-2","host":"sao-2.br.uncletopia.com","port":27015,"enabled":true,"region":"sa","cc":"br","latitude":-23.533773,"longitude":-46.62529,"reserved":0,"last_update":"0001-01-01T00:00:00Z","name_a2s":"Uncletopia | São Paulo | 2 | All Maps","protocol":17,"map":"koth_viaduct","folder":"tf","game":"Team Fortress","app_id":440,"player_count":0,"max_players":24,"Bots":0,"server_type":"Dedicated","server_os":"Linux","password":true,"vac":true,"version":"7723704","steam_id":85568392924485349,"keywords":["cp","nocrits","nodmgspread","uncletopia"],"game_id":440,"stv_port":27016,"stv_name":"Uncletopia | São Paulo | 2 | All Maps | STV","players":null},{"server_id":7,"name":"Uncletopia | Seattle | 1 | All Maps","name_short":"sea-1","host":"sea-1.us.uncletopia.com","port":27015,"enabled":true,"region":"us-west","cc":"us","latitude":47.608013,"longitude":-122.33517,"reserved":0,"last_update":"0001-01-01T00:00:00Z","name_a2s":"Uncletopia | Seattle | 1 | All Maps","protocol":17,"map":"cp_gorge","folder":"tf","game":"Team Fortress","app_id":440,"player_count":24,"max_players":24,"Bots":0,"server_type":"Dedicated","server_os":"Linux","password":true,"vac":true,"version":"7723704","steam_id":85568392924469997,"keywords":["cp","nocrits","nodmgspread","uncletopia"],"game_id":440,"stv_port":27016,"stv_name":"Uncletopia | Seattle | 1 | All Maps | STV","players":[{"user_id":3,"name":"PoobMann6","steam_id":76561198411029238,"connected_time":4464000000000,"state":"active","ping":88},{"user_id":65,"name":"duneblaster0","steam_id":76561198040364680,"connected_time":1641000000000,"state":"active","ping":90},{"user_id":68,"name":"BIG HOG","steam_id":76561198079923652,"connected_time":1405000000000,"state":"active","ping":105},{"user_id":38,"name":"Zero","steam_id":76561199383267408,"connected_time":2861000000000,"state":"active","ping":100},{"user_id":80,"name":"EDGY-EDGE-MAN","steam_id":76561198414451381,"connected_time":255000000000,"state":"active","ping":97},{"user_id":82,"name":"dog water","steam_id":76561198210322871,"connected_time":118000000000,"state":"active","ping":64},{"user_id":78,"name":"gal who needs more pals","steam_id":76561198271772995,"connected_time":343000000000,"state":"active","ping":68},{"user_id":14,"name":"CassandraRC7 (She/her)","steam_id":76561198094123940,"connected_time":4273000000000,"state":"active","ping":108},{"user_id":42,"name":"Bubbamanme","steam_id":76561198119778504,"connected_time":2547000000000,"state":"active","ping":54},{"user_id":75,"name":"Ted_Furgison","steam_id":76561197985136884,"connected_time":373000000000,"state":"active","ping":85},{"user_id":49,"name":"Sir Loincloth","steam_id":76561198033073991,"connected_time":2203000000000,"state":"active","ping":62},{"user_id":83,"name":"Hanzo P.C.H.U","steam_id":76561199130917163,"connected_time":104000000000,"state":"active","ping":92},{"user_id":48,"name":"Eleanor Skittle","steam_id":76561198116903554,"connected_time":2241000000000,"state":"active","ping":48},{"user_id":72,"name":"Mystic man of potatoe","steam_id":76561198027267207,"connected_time":895000000000,"state":"active","ping":74},{"user_id":69,"name":"catgirl giantess in heat","steam_id":76561198439042583,"connected_time":1192000000000,"state":"active","ping":112},{"user_id":81,"name":"ChingaTuMadre.com","steam_id":76561199003163608,"connected_time":140000000000,"state":"active","ping":115},{"user_id":46,"name":"LORD MC CHUBS","steam_id":76561199396661854,"connected_time":2345000000000,"state":"active","ping":93},{"user_id":79,"name":"bibliomaniac","steam_id":76561198290256750,"connected_time":331000000000,"state":"active","ping":79},{"user_id":52,"name":"ermit the claus","steam_id":76561199230929836,"connected_time":2145000000000,"state":"active","ping":106},{"user_id":74,"name":"♥ PsychicCellar ♥","steam_id":76561198045923020,"connected_time":531000000000,"state":"active","ping":85},{"user_id":54,"name":"yo quiero bacon","steam_id":76561198875054696,"connected_time":2094000000000,"state":"active","ping":70},{"user_id":71,"name":"Alexthegreat","steam_id":76561197996796222,"connected_time":1124000000000,"state":"active","ping":115},{"user_id":66,"name":"Anxious Nerd Bird","steam_id":76561198112178602,"connected_time":1641000000000,"state":"active","ping":87}]},{"server_id":119,"name":"Uncletopia | Seattle | 2 | All Maps","name_short":"sea-2","host":"sea-1.us.uncletopia.com","port":27025,"enabled":true,"region":"us-west","cc":"us","latitude":47.608013,"longitude":-122.33517,"reserved":0,"last_update":"0001-01-01T00:00:00Z","name_a2s":"Uncletopia | Seattle | 2 | All Maps","protocol":17,"map":"pl_barnblitz","folder":"tf","game":"Team Fortress","app_id":440,"player_count":0,"max_players":24,"Bots":0,"server_type":"Dedicated","server_os":"Linux","password":true,"vac":true,"version":"7723704","steam_id":85568392924469998,"keywords":["nocrits","nodmgspread","payload","uncletopia"],"game_id":440,"stv_port":27026,"stv_name":"Uncletopia | Seattle | 2 | All Maps | STV","players":null},{"server_id":406,"name":"Uncletopia | Seattle | 3 | Stopwatch Beta","name_short":"sea-3","host":"sea-1.us.uncletopia.com","port":27035,"enabled":true,"region":"us-west","cc":"us","latitude":47.608013,"longitude":-122.33517,"reserved":0,"last_update":"0001-01-01T00:00:00Z","name_a2s":"Uncletopia | Seattle | 3 | Stopwatch Beta","protocol":17,"map":"cp_altitude","folder":"tf","game":"Team Fortress","app_id":440,"player_count":0,"max_players":24,"Bots":0,"server_type":"Dedicated","server_os":"Linux","password":true,"vac":false,"version":"7723704","steam_id":0,"keywords":["cp","nocrits","nodmgspread","uncletopia"],"game_id":440,"stv_port":27036,"stv_name":"Uncletopia | Seattle | 3 | Stopwatch Beta | STV","players":null},{"server_id":17,"name":"Uncletopia | San Francisco | 1 | All Maps","name_short":"sfo-1","host":"sfo-1.us.uncletopia.com","port":27015,"enabled":true,"region":"us-west","cc":"us","latitude":37.77397,"longitude":-122.4313,"reserved":0,"last_update":"0001-01-01T00:00:00Z","name_a2s":"Uncletopia | San Francisco | 1 | All Maps","protocol":17,"map":"pl_swiftwater_final1","folder":"tf","game":"Team Fortress","app_id":440,"player_count":0,"max_players":24,"Bots":0,"server_type":"Dedicated","server_os":"Linux","password":true,"vac":true,"version":"7723704","steam_id":85568392924469999,"keywords":["nocrits","nodmgspread","payload","uncletopia"],"game_id":440,"stv_port":27016,"stv_name":"Uncletopia | San Francisco | 1 | All Maps | STV","players":null},{"server_id":18,"name":"Uncletopia | San Francisco | 2 | All Maps","name_short":"sfo-2","host":"sfo-1.us.uncletopia.com","port":27025,"enabled":true,"region":"us-west","cc":"us","latitude":37.77397,"longitude":-122.4313,"reserved":0,"last_update":"0001-01-01T00:00:00Z","name_a2s":"Uncletopia | San Francisco | 2 | All Maps","protocol":17,"map":"pl_upward","folder":"tf","game":"Team Fortress","app_id":440,"player_count":0,"max_players":24,"Bots":0,"server_type":"Dedicated","server_os":"Linux","password":true,"vac":true,"version":"7723704","steam_id":85568392924470000,"keywords":["nocrits","nodmgspread","payload","uncletopia"],"game_id":440,"stv_port":27026,"stv_name":"Uncletopia | San Francisco | 2 | All Maps | STV","players":null},{"server_id":19,"name":"Uncletopia | San Francisco | 3 | Stopwatch Beta","name_short":"sfo-3","host":"sfo-1.us.uncletopia.com","port":27035,"enabled":true,"region":"us-west","cc":"us","latitude":37.77397,"longitude":-122.4313,"reserved":0,"last_update":"0001-01-01T00:00:00Z","name_a2s":"Uncletopia | San Francisco | 3 | Stopwatch Beta","protocol":17,"map":"pl_pier","folder":"tf","game":"Team Fortress","app_id":440,"player_count":0,"max_players":24,"Bots":0,"server_type":"Dedicated","server_os":"Linux","password":true,"vac":true,"version":"7723704","steam_id":85568392924742824,"keywords":["nocrits","nodmgspread","payload","uncletopia"],"game_id":440,"stv_port":27036,"stv_name":"Uncletopia | San Francisco | 3 | Stopwatch Beta | STV","players":null},{"server_id":20,"name":"Uncletopia | San Francisco | 4 | Community","name_short":"sfo-4","host":"sfo-1.us.uncletopia.com","port":27045,"enabled":true,"region":"us-west","cc":"us","latitude":37.77397,"longitude":-122.4313,"reserved":0,"last_update":"0001-01-01T00:00:00Z","name_a2s":"Uncletopia | San Francisco | 4 | Community","protocol":17,"map":"koth_cascade","folder":"tf","game":"Team Fortress","app_id":440,"player_count":0,"max_players":24,"Bots":0,"server_type":"Dedicated","server_os":"Linux","password":true,"vac":true,"version":"7723704","steam_id":85568392924742826,"keywords":["cp","nocrits","nodmgspread","uncletopia"],"game_id":440,"stv_port":27046,"stv_name":"Uncletopia | San Francisco | 4 | Community | STV","players":null},{"server_id":141,"name":"Uncletopia | Sydney | 1 | All Maps","name_short":"syd-1","host":"syd-1.au.uncletopia.com","port":27015,"enabled":true,"region":"au","cc":"au","latitude":-33.865143,"longitude":151.2099,"reserved":0,"last_update":"0001-01-01T00:00:00Z","name_a2s":"Uncletopia | Sydney | 1 | All Maps","protocol":17,"map":"cp_altitude","folder":"tf","game":"Team Fortress","app_id":440,"player_count":0,"max_players":24,"Bots":0,"server_type":"Dedicated","server_os":"Linux","password":true,"vac":true,"version":"7723704","steam_id":85568392924470001,"keywords":["cp","nocrits","nodmgspread","uncletopia"],"game_id":440,"stv_port":27016,"stv_name":"Uncletopia | Sydney | 1 | All Maps | STV","players":null},{"server_id":123,"name":"Uncletopia | Sydney | 2 | All Maps","name_short":"syd-2","host":"syd-1.au.uncletopia.com","port":27025,"enabled":true,"region":"au","cc":"au","latitude":-33.865143,"longitude":151.2099,"reserved":0,"last_update":"0001-01-01T00:00:00Z","name_a2s":"Uncletopia | Sydney | 2 | All Maps","protocol":17,"map":"koth_king","folder":"tf","game":"Team Fortress","app_id":440,"player_count":0,"max_players":24,"Bots":0,"server_type":"Dedicated","server_os":"Linux","password":true,"vac":true,"version":"7723704","steam_id":85568392924470002,"keywords":["cp","nocrits","nodmgspread","uncletopia"],"game_id":440,"stv_port":27026,"stv_name":"Uncletopia | Sydney | 2 | All Maps | STV","players":null},{"server_id":395,"name":"Uncletopia | Sydney | 3 | All Maps","name_short":"syd-3","host":"syd-1.au.uncletopia.com","port":27035,"enabled":true,"region":"au","cc":"au","latitude":-33.865143,"longitude":151.2099,"reserved":0,"last_update":"0001-01-01T00:00:00Z","name_a2s":"Uncletopia | Sydney | 3 | All Maps","protocol":17,"map":"pl_borneo","folder":"tf","game":"Team Fortress","app_id":440,"player_count":0,"max_players":24,"Bots":0,"server_type":"Dedicated","server_os":"Linux","password":true,"vac":true,"version":"7723704","steam_id":85568392925194467,"keywords":["nocrits","nodmgspread","payload","uncletopia"],"game_id":440,"stv_port":27036,"stv_name":"Uncletopia | Sydney | 3 | All Maps | STV","players":null},{"server_id":396,"name":"Uncletopia | Sydney | 4 | All Maps","name_short":"syd-4","host":"syd-1.au.uncletopia.com","port":27045,"enabled":true,"region":"au","cc":"au","latitude":-33.865143,"longitude":151.2099,"reserved":0,"last_update":"0001-01-01T00:00:00Z","name_a2s":"Uncletopia | Sydney | 4 | All Maps","protocol":17,"map":"koth_viaduct","folder":"tf","game":"Team Fortress","app_id":440,"player_count":0,"max_players":24,"Bots":0,"server_type":"Dedicated","server_os":"Linux","password":true,"vac":true,"version":"7723704","steam_id":85568392925397958,"keywords":["cp","nocrits","nodmgspread","uncletopia"],"game_id":440,"stv_port":27046,"stv_name":"Uncletopia | Sydney | 4 | All Maps | STV","players":null},{"server_id":58,"name":"Uncletopia | Sydney | 5 | Stopwatch Beta","name_short":"syd-5","host":"syd-1.au.uncletopia.com","port":27055,"enabled":true,"region":"au","cc":"au","latitude":-33.865143,"longitude":151.2099,"reserved":0,"last_update":"0001-01-01T00:00:00Z","name_a2s":"Uncletopia | Sydney | 5 | Stopwatch Beta","protocol":17,"map":"cp_altitude","folder":"tf","game":"Team Fortress","app_id":440,"player_count":0,"max_players":24,"Bots":0,"server_type":"Dedicated","server_os":"Linux","password":true,"vac":true,"version":"7723704","steam_id":85568392925397959,"keywords":["cp","nocrits","nodmgspread","uncletopia"],"game_id":440,"stv_port":27056,"stv_name":"Uncletopia | Sydney | 5 | Stopwatch Beta | STV","players":null},{"server_id":59,"name":"Uncletopia | Sydney | 6 | Community","name_short":"syd-6","host":"syd-1.au.uncletopia.com","port":27065,"enabled":true,"region":"au","cc":"au","latitude":-33.865143,"longitude":151.2099,"reserved":0,"last_update":"0001-01-01T00:00:00Z","name_a2s":"Uncletopia | Sydney | 6 | Community","protocol":17,"map":"workshop/koth_ramjam_v2_b2.ugc2865676487","folder":"tf","game":"Team Fortress","app_id":440,"player_count":0,"max_players":24,"Bots":0,"server_type":"Dedicated","server_os":"Linux","password":true,"vac":true,"version":"7723704","steam_id":85568392925397960,"keywords":["cp","nocrits","nodmgspread","uncletopia"],"game_id":440,"stv_port":27066,"stv_name":"Uncletopia | Sydney | 6 | Community | STV","players":null},{"server_id":49,"name":"Uncletopia | Warsaw | 1 | All Maps","name_short":"waw-1","host":"waw-1.pl.uncletopia.com","port":27015,"enabled":true,"region":"eu","cc":"pl","latitude":52.2297,"longitude":21.017532,"reserved":0,"last_update":"0001-01-01T00:00:00Z","name_a2s":"Uncletopia | Warsaw | 1 | All Maps","protocol":17,"map":"koth_cascade","folder":"tf","game":"Team Fortress","app_id":440,"player_count":0,"max_players":24,"Bots":0,"server_type":"Dedicated","server_os":"Linux","password":true,"vac":true,"version":"7723704","steam_id":85568392925397850,"keywords":["cp","nocrits","nodmgspread","uncletopia"],"game_id":440,"stv_port":27016,"stv_name":"Uncletopia | Warsaw | 1 | All Maps | STV","players":null},{"server_id":50,"name":"Uncletopia | Warsaw | 2 | All Maps","name_short":"waw-2","host":"waw-1.pl.uncletopia.com","port":27025,"enabled":true,"region":"eu","cc":"pl","latitude":52.2297,"longitude":21.017532,"reserved":0,"last_update":"0001-01-01T00:00:00Z","name_a2s":"Uncletopia | Warsaw | 2 | All Maps","protocol":17,"map":"pl_barnblitz","folder":"tf","game":"Team Fortress","app_id":440,"player_count":1,"max_players":24,"Bots":0,"server_type":"Dedicated","server_os":"Linux","password":true,"vac":true,"version":"7723704","steam_id":85568392925397851,"keywords":["nocrits","nodmgspread","payload","uncletopia"],"game_id":440,"stv_port":27026,"stv_name":"Uncletopia | Warsaw | 2 | All Maps | STV","players":[{"user_id":3,"name":"Pablo.gonzales2009","steam_id":76561199276480598,"connected_time":36000000000,"state":"active","ping":83}]},{"server_id":51,"name":"Uncletopia | Warsaw | 3 | All Maps","name_short":"waw-3","host":"waw-1.pl.uncletopia.com","port":27035,"enabled":true,"region":"eu","cc":"pl","latitude":52.2297,"longitude":21.017532,"reserved":0,"last_update":"0001-01-01T00:00:00Z","name_a2s":"Uncletopia | Warsaw | 3 | All Maps","protocol":17,"map":"pl_barnblitz","folder":"tf","game":"Team Fortress","app_id":440,"player_count":0,"max_players":24,"Bots":0,"server_type":"Dedicated","server_os":"Linux","password":true,"vac":true,"version":"7723704","steam_id":85568392925397852,"keywords":["nocrits","nodmgspread","payload","uncletopia"],"game_id":440,"stv_port":27036,"stv_name":"Uncletopia | Warsaw | 3 | All Maps | STV","players":null},{"server_id":52,"name":"Uncletopia | Warsaw | 4 | All Maps","name_short":"waw-4","host":"waw-1.pl.uncletopia.com","port":27045,"enabled":true,"region":"eu","cc":"pl","latitude":52.2297,"longitude":21.017532,"reserved":0,"last_update":"0001-01-01T00:00:00Z","name_a2s":"Uncletopia | Warsaw | 4 | All Maps","protocol":17,"map":"koth_lakeside_final","folder":"tf","game":"Team Fortress","app_id":440,"player_count":0,"max_players":24,"Bots":0,"server_type":"Dedicated","server_os":"Linux","password":true,"vac":true,"version":"7723704","steam_id":85568392925397853,"keywords":["cp","nocrits","nodmgspread","uncletopia"],"game_id":440,"stv_port":27046,"stv_name":"Uncletopia | Warsaw | 4 | All Maps | STV","players":null},{"server_id":53,"name":"Uncletopia | Warsaw | 5 | Stopwatch Beta","name_short":"waw-5","host":"waw-1.pl.uncletopia.com","port":27055,"enabled":true,"region":"eu","cc":"pl","latitude":52.2297,"longitude":21.017532,"reserved":0,"last_update":"0001-01-01T00:00:00Z","name_a2s":"Uncletopia | Warsaw | 5 | Stopwatch Beta","protocol":17,"map":"cp_sunshine","folder":"tf","game":"Team Fortress","app_id":440,"player_count":0,"max_players":24,"Bots":0,"server_type":"Dedicated","server_os":"Linux","password":true,"vac":true,"version":"7723704","steam_id":85568392925397854,"keywords":["cp","nocrits","nodmgspread","uncletopia"],"game_id":440,"stv_port":27056,"stv_name":"Uncletopia | Warsaw | 5 | Stopwatch Beta | STV","players":null},{"server_id":54,"name":"Uncletopia | Warsaw | 6 | Community","name_short":"waw-6","host":"waw-1.pl.uncletopia.com","port":27065,"enabled":true,"region":"eu","cc":"pl","latitude":52.2297,"longitude":21.017532,"reserved":0,"last_update":"0001-01-01T00:00:00Z","name_a2s":"Uncletopia | Warsaw | 6 | Community","protocol":17,"map":"workshop/koth_slaughter_rc1.ugc1712845210","folder":"tf","game":"Team Fortress","app_id":440,"player_count":0,"max_players":24,"Bots":0,"server_type":"Dedicated","server_os":"Linux","password":true,"vac":true,"version":"7723704","steam_id":85568392925397856,"keywords":["cp","nocrits","nodmgspread","uncletopia"],"game_id":440,"stv_port":27066,"stv_name":"Uncletopia | Warsaw | 6 | Community | STV","players":null}]}