{"status":true,"message":"","result":[{"server_id":9,"name":"Uncletopia | Atlanta | 1 | All Maps","name_short":"atl-1","host":"atl-1.us.uncletopia.com","port":27015,"enabled":true,"region":"us-east","cc":"us","latitude":33.753746,"longitude":-84.38633,"reserved":0,"last_update":"0001-01-01T00:00:00Z","name_a2s":"Uncletopia | Atlanta | 1 | All Maps","protocol":17,"map":"koth_highpass","folder":"tf","game":"Team Fortress","app_id":440,"player_count":21,"max_players":24,"Bots":0,"server_type":"Dedicated","server_os":"Linux","password":true,"vac":true,"version":"7961495","steam_id":85568392924469982,"keywords":["cp","nocrits","nodmgspread","uncletopia"],"game_id":440,"stv_port":27016,"stv_name":"Uncletopia | Atlanta | 1 | All Maps | STV","players":null},{"server_id":104,"name":"Uncletopia | Atlanta | 2 | All Maps","name_short":"atl-2","host":"atl-1.us.uncletopia.com","port":27025,"enabled":true,"region":"us-east","cc":"us","latitude":33.753746,"longitude":-84.38633,"reserved":0,"last_update":"0001-01-01T00:00:00Z","name_a2s":"Uncletopia | Atlanta | 2 | All Maps","protocol":17,"map":"cp_dustbowl","folder":"tf","game":"Team Fortress","app_id":440,"player_count":24,"max_players":24,"Bots":0,"server_type":"Dedicated","server_os":"Linux","password":true,"vac":true,"version":"7961495","steam_id":85568392924469983,"keywords":["cp","nocrits","nodmgspread","uncletopia"],"game_id":440,"stv_port":27026,"stv_name":"Uncletopia | Atlanta | 2 | All Maps | STV","players":null},{"server_id":400,"name":"Uncletopia | Atlanta | 3 | Stopwatch","name_short":"atl-3","host":"atl-1.us.uncletopia.com","port":27035,"enabled":true,"region":"us-east","cc":"us","latitude":33.753746,"longitude":-84.38633,"reserved":0,"last_update":"0001-01-01T00:00:00Z","name_a2s":"Uncletopia | Atlanta | 3 | Stopwatch","protocol":17,"map":"cp_process_f12","folder":"tf","game":"Team Fortress","app_id":440,"player_count":24,"max_players":24,"Bots":0,"server_type":"Dedicated","server_os":"Linux","password":true,"vac":true,"version":"7961495","steam_id":85568392924515187,"keywords":["cp","nocrits","nodmgspread","uncletopia"],"game_id":440,"stv_port":27036,"stv_name":"Uncletopia | Atlanta | 3 | Stopwatch | STV","players":null},{"server_id":401,"name":"Uncletopia | Atlanta | 4 | Community","name_short":"atl-4","host":"atl-1.us.uncletopia.com","port":27045,"enabled":true,"region":"us-east","cc":"us","latitude":33.753746,"longitude":-84.38633,"reserved":0,"last_update":"0001-01-01T00:00:00Z","name_a2s":"Uncletopia | Atlanta | 4 | Community","protocol":17,"map":"pl_cashworks_final1","folder":"tf","game":"Team Fortress","app_id":440,"player_count":0,"max_players":24,"Bots":0,"server_type":"Dedicated","server_os":"Linux","password":true,"vac":true,"version":"7961495","steam_id":85568392924515188,"keywords":["nocrits","nodmgspread","payload","uncletopia"],"game_id":440,"stv_port":27046,"stv_name":"Uncletopia | Atlanta | 4 | Community | STV","players":null},{"server_id":2,"name":"Uncletopia | Chicago | 1 | All Maps","name_short":"chi-1","host":"chi-1.us.uncletopia.com","port":27015,"enabled":true,"region":"us-central","cc":"us","latitude":41.881832,"longitude":-87.62318,"reserved":0,"last_update":"0001-01-01T00:00:00Z","name_a2s":"Uncletopia | Chicago | 1 | All Maps","protocol":17,"map":"pl_barnblitz","folder":"tf","game":"Team Fortress","app_id":440,"player_count":24,"max_players":24,"Bots":0,"server_type":"Dedicated","server_os":"Linux","password":true,"vac":true,"version":"7961495","steam_id":85568392924469984,"keywords":["nocrits","nodmgspread","payload","uncletopia"],"game_id":440,"stv_port":27016,"stv_name":"Uncletopia | Chicago | 1 | All Maps | STV","players":[{"user_id":350,"name":"SomeScuffedKid","steam_id":76561198086113234,"connected_time":512000000000,"state":"active","ping":65},{"user_id":358,"name":"Mighty","steam_id":76561198096569755,"connected_time":1000000000,"state":"spawning","ping":63},{"user_id":324,"name":"howiredot","steam_id":76561198256931961,"connected_time":3354000000000,"state":"active","ping":55},{"user_id":330,"name":"corned beef","steam_id":76561199366782761,"connected_time":2452000000000,"state":"active","ping":143},{"user_id":268,"name":"Ras","steam_id":76561198123546775,"connected_time":7115000000000,"state":"active","ping":61},{"user_id":344,"name":"Pawn Cushman","steam_id":76561198221635676,"connected_time":1153000000000,"state":"active","ping":69},{"user_id":336,"name":"Forossa","steam_id":76561198108085345,"connected_time":1657000000000,"state":"active","ping":67},{"user_id":299,"name":"super clickteam fusion","steam_id":76561198275101482,"connected_time":5278000000000,"state":"active","ping":150},{"user_id":345,"name":"Notsocreative","steam_id":76561198236372202,"connected_time":1060000000000,"state":"active","ping":80},{"user_id":349,"name":"Spy Gaming","steam_id":76561198453295613,"connected_time":514000000000,"state":"active","ping":112},{"user_id":329,"name":"Chernov","steam_id":76561198014463424,"connected_time":2606000000000,"state":"active","ping":60},{"user_id":292,"name":"paypur -rng","steam_id":76561198214370515,"connected_time":5379000000000,"state":"active","ping":80},{"user_id":357,"name":"breezewax","steam_id":76561198121702006,"connected_time":67000000000,"state":"active","ping":71},{"user_id":294,"name":"RedManAwesome","steam_id":76561198347691408,"connected_time":5368000000000,"state":"active","ping":91},{"user_id":355,"name":"Weasel","steam_id":76561198142461397,"connected_time":359000000000,"state":"active","ping":89},{"user_id":309,"name":"stormfoam","steam_id":76561198936871387,"connected_time":4510000000000,"state":"active","ping":76},{"user_id":304,"name":"Naked","steam_id":76561198062763756,"connected_time":5064000000000,"state":"active","ping":51},{"user_id":334,"name":"Adam (Cursed Confetti Creature)","steam_id":76561198317690197,"connected_time":1665000000000,"state":"active","ping":48},{"user_id":341,"name":"munch","steam_id":76561198820480684,"connected_time":1478000000000,"state":"active","ping":68},{"user_id":356,"name":"latex pyro","steam_id":76561198057076267,"connected_time":266000000000,"state":"active","ping":73},{"user_id":346,"name":"purple diesel","steam_id":76561197976548449,"connected_time":968000000000,"state":"active","ping":94},{"user_id":343,"name":"WarMace","steam_id":76561198395937853,"connected_time":1253000000000,"state":"active","ping":70},{"user_id":348,"name":"Joker","steam_id":76561198108480348,"connected_time":761000000000,"state":"active","ping":112},{"user_id":326,"name":"Thundermonkey (SMOKE)","steam_id":76561198017631728,"connected_time":3035000000000,"state":"active","ping":65}]},{"server_id":106,"name":"Uncletopia | Chicago | 2 | All Maps","name_short":"chi-2","host":"chi-1.us.uncletopia.com","port":27025,"enabled":true,"region":"us-central","cc":"us","latitude":41.881832,"longitude":-87.62318,"reserved":0,"last_update":"0001-01-01T00:00:00Z","name_a2s":"Uncletopia | Chicago | 2 | All Maps","protocol":17,"map":"pl_barnblitz","folder":"tf","game":"Team Fortress","app_id":440,"player_count":24,"max_players":24,"Bots":0,"server_type":"Dedicated","server_os":"Linux","password":true,"vac":true,"version":"7961495","steam_id":85568392924469985,"keywords":["nocrits","nodmgspread","payload","uncletopia"],"game_id":440,"stv_port":27026,"stv_name":"Uncletopia | Chicago | 2 | All Maps | STV","players":[{"user_id":224,"name":"og biden pack cart","steam_id":76561198253731826,"connected_time":180000000000,"state":"active","ping":61},{"user_id":221,"name":"anonion","steam_id":76561198056477584,"connected_time":257000000000,"state":"active","ping":89},{"user_id":171,"name":"Flowers","steam_id":76561198031669899,"connected_time":3872000000000,"state":"active","ping":87},{"user_id":164,"name":"Diesel","steam_id":76561198448815852,"connected_time":4869000000000,"state":"active","ping":91},{"user_id":155,"name":"Grop Noise","steam_id":76561198145445403,"connected_time":5553000000000,"state":"active","ping":55},{"user_id":215,"name":"Jamersjam","steam_id":76561198055322344,"connected_time":515000000000,"state":"active","ping":76},{"user_id":213,"name":"Lyathan","steam_id":76561198062773218,"connected_time":684000000000,"state":"active","ping":70},{"user_id":219,"name":"diamondskyir","steam_id":76561199223952268,"connected_time":283000000000,"state":"active","ping":102},{"user_id":218,"name":"Junkan","steam_id":76561198127676420,"connected_time":308000000000,"state":"active","ping":81},{"user_id":174,"name":"joebot","steam_id":76561197975606100,"connected_time":3722000000000,"state":"active","ping":69},{"user_id":203,"name":"fish","steam_id":76561198303575607,"connected_time":1283000000000,"state":"active","ping":88},{"user_id":204,"name":"Mediocre Gaming","steam_id":76561199230467980,"connected_time":1271000000000,"state":"active","ping":69},{"user_id":191,"name":"eWVra2Vy","steam_id":76561198453565942,"connected_time":2659000000000,"state":"active","ping":80},{"user_id":216,"name":"hej","steam_id":76561197996366940,"connected_time":496000000000,"state":"active","ping":62},{"user_id":181,"name":"Ammo","steam_id":76561199365904488,"connected_time":3213000000000,"state":"active","ping":61},{"user_id":206,"name":"Papillon","steam_id":76561198049725849,"connected_time":1244000000000,"state":"active","ping":75},{"user_id":212,"name":"Duckman","steam_id":76561199075764806,"connected_time":747000000000,"state":"active","ping":80},{"user_id":214,"name":"Ceige LFT","steam_id":76561198068538473,"connected_time":683000000000,"state":"active","ping":80},{"user_id":196,"name":"AJTarcza","steam_id":76561198070800190,"connected_time":1830000000000,"state":"active","ping":85},{"user_id":146,"name":"Will5550","steam_id":76561198273838135,"connected_time":6438000000000,"state":"active","ping":101},{"user_id":200,"name":"Kduck","steam_id":76561198092171095,"connected_time":1365000000000,"state":"active","ping":66},{"user_id":222,"name":"Cedric","steam_id":76561198072090580,"connected_time":233000000000,"state":"active","ping":96},{"user_id":208,"name":"the keebler","steam_id":76561199486326945,"connected_time":1202000000000,"state":"active","ping":75},{"user_id":140,"name":"potatoes or potatoes","steam_id":76561198268384671,"connected_time":7003000000000,"state":"active","ping":79}]},{"server_id":402,"name":"Uncletopia | Chicago | 3 | All Maps","name_short":"chi-3","host":"chi-1.us.uncletopia.com","port":27035,"enabled":true,"region":"us-central","cc":"us","latitude":41.881832,"longitude":-87.62318,"reserved":0,"last_update":"0001-01-01T00:00:00Z","name_a2s":"Uncletopia | Chicago | 3 | All Maps","protocol":17,"map":"cp_steel","folder":"tf","game":"Team Fortress","app_id":440,"player_count":24,"max_players":24,"Bots":0,"server_type":"Dedicated","server_os":"Linux","password":true,"vac":true,"version":"7961495","steam_id":85568392924515191,"keywords":["cp","nocrits","nodmgspread","uncletopia"],"game_id":440,"stv_port":27036,"stv_name":"Uncletopia | Chicago | 3 | All Maps | STV","players":[{"user_id":190,"name":"wilian","steam_id":76561198085614455,"connected_time":1310000000000,"state":"active","ping":79},{"user_id":197,"name":"Goldoche","steam_id":76561197995065045,"connected_time":772000000000,"state":"active","ping":81},{"user_id":182,"name":"JKEEPS","steam_id":76561198289104880,"connected_time":1602000000000,"state":"active","ping":164},{"user_id":183,"name":"Hexadecatrack","steam_id":76561198044480181,"connected_time":1545000000000,"state":"active","ping":48},{"user_id":194,"name":"pinguez","steam_id":76561199003447981,"connected_time":991000000000,"state":"active","ping":85},{"user_id":191,"name":"THE Shovel Knight","steam_id":76561198306811759,"connected_time":1071000000000,"state":"active","ping":119},{"user_id":89,"name":"teaspinator","steam_id":76561199069748074,"connected_time":9476000000000,"state":"active","ping":51},{"user_id":161,"name":"(no monitor) ayylien","steam_id":76561198042127970,"connected_time":3617000000000,"state":"active","ping":74},{"user_id":159,"name":"NooseNeck","steam_id":76561198202416199,"connected_time":3832000000000,"state":"active","ping":66},{"user_id":171,"name":"Geesemans","steam_id":76561199478892816,"connected_time":2169000000000,"state":"active","ping":148},{"user_id":192,"name":"Bobbn","steam_id":76561198876124683,"connected_time":1057000000000,"state":"active","ping":76},{"user_id":160,"name":"tim","steam_id":76561198075510786,"connected_time":3831000000000,"state":"active","ping":71},{"user_id":185,"name":"Hero Smasher","steam_id":76561198150681669,"connected_time":1472000000000,"state":"active","ping":91},{"user_id":174,"name":"Mr. Nickel","steam_id":76561198108722399,"connected_time":2041000000000,"state":"active","ping":146},{"user_id":195,"name":"FlexTape","steam_id":76561198871834867,"connected_time":983000000000,"state":"active","ping":133},{"user_id":130,"name":"Polar","steam_id":76561198271964253,"connected_time":6214000000000,"state":"active","ping":77},{"user_id":168,"name":"Vaudeville Villain","steam_id":76561199212093339,"connected_time":2197000000000,"state":"active","ping":69},{"user_id":124,"name":"the archmage","steam_id":76561198380018244,"connected_time":6996000000000,"state":"active","ping":73},{"user_id":165,"name":"SPOOKY_","steam_id":76561198073395404,"connected_time":2573000000000,"state":"active","ping":157},{"user_id":175,"name":"BrendenMad","steam_id":76561198031250581,"connected_time":2041000000000,"state":"active","ping":53},{"user_id":167,"name":"Kuber_Streamz","steam_id":76561198046008453,"connected_time":2207000000000,"state":"active","ping":56},{"user_id":189,"name":"the222attacker","steam_id":76561198969690191,"connected_time":1327000000000,"state":"active","ping":64},{"user_id":196,"name":"Cowboyfos","steam_id":76561199055740230,"connected_time":982000000000,"state":"active","ping":104},{"user_id":177,"name":"Name's Spenser. Dispenser.","steam_id":76561199125239140,"connected_time":2009000000000,"state":"active","ping":70}]},{"server_id":403,"name":"Uncletopia | Chicago | 4 | All Maps","name_short":"chi-4","host":"chi-1.us.uncletopia.com","port":27045,"enabled":true,"region":"us-central","cc":"us","latitude":41.881832,"longitude":-87.62318,"reserved":0,"last_update":"0001-01-01T00:00:00Z","name_a2s":"Uncletopia | Chicago | 4 | All Maps","protocol":17,"map":"ctf_2fort","folder":"tf","game":"Team Fortress","app_id":440,"player_count":23,"max_players":24,"Bots":0,"server_type":"Dedicated","server_os":"Linux","password":true,"vac":true,"version":"7961495","steam_id":85568392924515193,"keywords":["ctf","nocrits","nodmgspread","uncletopia"],"game_id":440,"stv_port":27046,"stv_name":"Uncletopia | Chicago | 4 | All Maps | STV","players":[{"user_id":327,"name":"Sergeant Snowflake","steam_id":76561198041474489,"connected_time":241000000000,"state":"active","ping":55},{"user_id":318,"name":"Thelonious Prime, King of Jazz","steam_id":76561198077785482,"connected_time":538000000000,"state":"active","ping":67},{"user_id":308,"name":"time traveling dick balls","steam_id":76561198025029804,"connected_time":1202000000000,"state":"active","ping":47},{"user_id":319,"name":"cognitiveAfflatus","steam_id":76561198295181426,"connected_time":535000000000,"state":"active","ping":73},{"user_id":313,"name":"Oni","steam_id":76561198112066584,"connected_time":824000000000,"state":"active","ping":62},{"user_id":320,"name":"funny man","steam_id":76561198435286999,"connected_time":533000000000,"state":"active","ping":62},{"user_id":240,"name":"katryna","steam_id":76561198023440304,"connected_time":4865000000000,"state":"active","ping":65},{"user_id":311,"name":"tA.CHRONIC","steam_id":76561197960760990,"connected_time":1117000000000,"state":"active","ping":50},{"user_id":321,"name":"Crazy Dave!","steam_id":76561198951414566,"connected_time":504000000000,"state":"active","ping":73},{"user_id":314,"name":"Xatheys","steam_id":76561198082458255,"connected_time":729000000000,"state":"active","ping":46},{"user_id":330,"name":"Tick","steam_id":76561198184161214,"connected_time":210000000000,"state":"active","ping":43},{"user_id":243,"name":"IMM0RTAL","steam_id":76561198013747901,"connected_time":4804000000000,"state":"active","ping":76},{"user_id":328,"name":"uneducated guess","steam_id":76561198140846580,"connected_time":232000000000,"state":"active","ping":61},{"user_id":300,"name":"Bread","steam_id":76561198251896612,"connected_time":1483000000000,"state":"active","ping":43},{"user_id":324,"name":"menonamed","steam_id":76561198199564382,"connected_time":445000000000,"state":"active","ping":70},{"user_id":293,"name":"lowqualitymemes","steam_id":76561198826232868,"connected_time":1738000000000,"state":"active","ping":95},{"user_id":325,"name":"porfer","steam_id":76561199118049168,"connected_time":373000000000,"state":"active","ping":98},{"user_id":107,"name":"schnedwob","steam_id":76561197999146588,"connected_time":16405000000000,"state":"active","ping":73},{"user_id":332,"name":"mousecake","steam_id":76561198046870291,"connected_time":143000000000,"state":"active","ping":60},{"user_id":333,"name":"lampin","steam_id":76561197964367078,"connected_time":76000000000,"state":"active","ping":54},{"user_id":305,"name":"thecal","steam_id":76561198307893384,"connected_time":1337000000000,"state":"active","ping":59},{"user_id":296,"name":"Mojave Mo'Problem","steam_id":76561198021706593,"connected_time":1671000000000,"state":"active","ping":77},{"user_id":269,"name":"Shaby_Frost","steam_id":76561198401334563,"connected_time":2910000000000,"state":"active","ping":56}]},{"server_id":36,"name":"Uncletopia | Chicago | 5 | All Maps","name_short":"chi-5","host":"chi-2.us.uncletopia.com","port":27015,"enabled":true,"region":"us-central","cc":"us","latitude":41.881832,"longitude":-87.62318,"reserved":0,"last_update":"0001-01-01T00:00:00Z","name_a2s":"Uncletopia | Chicago | 5 | All Maps","protocol":17,"map":"cp_sunshine","folder":"tf","game":"Team Fortress","app_id":440,"player_count":23,"max_players":24,"Bots":0,"server_type":"Dedicated","server_os":"Linux","password":true,"vac":true,"version":"7961495","steam_id":85568392924866362,"keywords":["cp","nocrits","nodmgspread","uncletopia"],"game_id":440,"stv_port":27016,"stv_name":"Uncletopia | Chicago | 5 | All Maps | STV","players":[{"user_id":181,"name":"Synthic","steam_id":76561198999659192,"connected_time":780000000000,"state":"active","ping":63},{"user_id":179,"name":"fatherrbertrum","steam_id":76561198156538484,"connected_time":856000000000,"state":"active","ping":54},{"user_id":186,"name":"Your Alcoholic Dad","steam_id":76561198214494745,"connected_time":396000000000,"state":"active","ping":52},{"user_id":166,"name":"ThePatheticMedic","steam_id":76561198873083105,"connected_time":1592000000000,"state":"active","ping":58},{"user_id":183,"name":"I Like Cheese","steam_id":76561198006265659,"connected_time":614000000000,"state":"active","ping":73},{"user_id":178,"name":"Melaza Madera","steam_id":76561199031977210,"connected_time":943000000000,"state":"active","ping":72},{"user_id":191,"name":"Coolman3214","steam_id":76561198443366140,"connected_time":145000000000,"state":"active","ping":74},{"user_id":161,"name":"Mosquito Born Illness Survivor","steam_id":76561198097300909,"connected_time":2030000000000,"state":"active","ping":61},{"user_id":147,"name":"GOLDIE","steam_id":76561199375258674,"connected_time":2615000000000,"state":"active","ping":101},{"user_id":184,"name":"jaytheking05","steam_id":76561198856419769,"connected_time":554000000000,"state":"active","ping":70},{"user_id":75,"name":"Cranial Brain Trauma","steam_id":76561198055876398,"connected_time":8748000000000,"state":"active","ping":60},{"user_id":185,"name":"mcjuice","steam_id":76561198087730829,"connected_time":411000000000,"state":"active","ping":67},{"user_id":188,"name":"Panic Opossum","steam_id":76561198043838227,"connected_time":322000000000,"state":"active","ping":42},{"user_id":180,"name":"AllHailTMG","steam_id":76561198447338140,"connected_time":851000000000,"state":"active","ping":125},{"user_id":176,"name":"Church","steam_id":76561199214866732,"connected_time":978000000000,"state":"active","ping":71},{"user_id":192,"name":"Retro Phoenix","steam_id":76561198077176271,"connected_time":6000000000,"state":"spawning","ping":59},{"user_id":141,"name":"dullahan","steam_id":76561198278736434,"connected_time":2774000000000,"state":"active","ping":61},{"user_id":153,"name":"Loud The Taken King","steam_id":76561198011890196,"connected_time":2509000000000,"state":"active","ping":60},{"user_id":118,"name":"Kitchen Sink Gaming","steam_id":76561198930293420,"connected_time":3788000000000,"state":"active","ping":70},{"user_id":189,"name":"sugoiboi48","steam_id":76561198060056280,"connected_time":319000000000,"state":"active","ping":51},{"user_id":175,"name":"Goober","steam_id":76561198988863807,"connected_time":1088000000000,"state":"active","ping":80},{"user_id":165,"name":"M249 | Spectre","steam_id":76561198118334485,"connected_time":1785000000000,"state":"active","ping":74},{"user_id":130,"name":"brotalium","steam_id":76561198055439054,"connected_time":3450000000000,"state":"active","ping":80}]},{"server_id":37,"name":"Uncletopia | Chicago | 6 | All Maps","name_short":"chi-6","host":"chi-2.us.uncletopia.com","port":27025,"enabled":true,"region":"us-central","cc":"us","latitude":41.881832,"longitude":-87.62318,"reserved":0,"last_update":"0001-01-01T00:00:00Z","name_a2s":"Uncletopia | Chicago | 6 | All Maps","protocol":17,"map":"pl_barnblitz","folder":"tf","game":"Team Fortress","app_id":440,"player_count":24,"max_players":24,"Bots":0,"server_type":"Dedicated","server_os":"Linux","password":true,"vac":true,"version":"7961495","steam_id":85568392924866363,"keywords":["nocrits","nodmgspread","payload","uncletopia"],"game_id":440,"stv_port":27026,"stv_name":"Uncletopia | Chicago | 6 | All Maps | STV","players":[{"user_id":99,"name":"Syynth","steam_id":76561198161328298,"connected_time":2971000000000,"state":"active","ping":73},{"user_id":132,"name":"Dutchman3201","steam_id":76561198064387593,"connected_time":881000000000,"state":"active","ping":85},{"user_id":74,"name":"Dyson","steam_id":76561199081837220,"connected_time":4885000000000,"state":"active","ping":93},{"user_id":131,"name":"Nephi","steam_id":76561198031525122,"connected_time":1013000000000,"state":"active","ping":81},{"user_id":113,"name":"Steve Jobs' cousin Hand Jobs","steam_id":76561198282766831,"connected_time":2083000000000,"state":"active","ping":58},{"user_id":129,"name":"otcu","steam_id":76561198339644583,"connected_time":1313000000000,"state":"active","ping":57},{"user_id":53,"name":"Dragus","steam_id":76561198032967285,"connected_time":6729000000000,"state":"active","ping":52},{"user_id":116,"name":"Tokey","steam_id":76561198825943127,"connected_time":2021000000000,"state":"active","ping":94},{"user_id":67,"name":"Mug Moment Gaming","steam_id":76561198233098136,"connected_time":6033000000000,"state":"active","ping":55},{"user_id":94,"name":"Kart","steam_id":76561198045307014,"connected_time":3561000000000,"state":"active","ping":90},{"user_id":97,"name":"Sigo Chambeando","steam_id":76561198025668771,"connected_time":3456000000000,"state":"active","ping":132},{"user_id":133,"name":"Sunshine","steam_id":76561198885528098,"connected_time":819000000000,"state":"active","ping":74},{"user_id":118,"name":"Mr_Frosty","steam_id":76561199380389079,"connected_time":1981000000000,"state":"active","ping":89},{"user_id":122,"name":"hi ping","steam_id":76561198383636396,"connected_time":1858000000000,"state":"active","ping":131},{"user_id":92,"name":"Certi","steam_id":76561198087548591,"connected_time":3730000000000,"state":"active","ping":63},{"user_id":80,"name":"J The Jounin","steam_id":76561198034583622,"connected_time":4620000000000,"state":"active","ping":72},{"user_id":76,"name":"Beast_727","steam_id":76561198390289197,"connected_time":4825000000000,"state":"active","ping":55},{"user_id":91,"name":"Flap","steam_id":76561198078889633,"connected_time":3766000000000,"state":"active","ping":59},{"user_id":125,"name":"weak-man","steam_id":76561199379738409,"connected_time":1839000000000,"state":"active","ping":110},{"user_id":65,"name":"1985 Toyota Sprinter Trueno","steam_id":76561198436383373,"connected_time":6057000000000,"state":"active","ping":123},{"user_id":103,"name":"Big Puff","steam_id":76561198209820681,"connected_time":2635000000000,"state":"active","ping":72},{"user_id":109,"name":"Penrose42","steam_id":76561198288577396,"connected_time":2454000000000,"state":"active","ping":93},{"user_id":127,"name":"SpookedYa","steam_id":76561198100124291,"connected_time":1754000000000,"state":"active","ping":80},{"user_id":128,"name":"SoldMyKidneyForCollege","steam_id":76561198096329559,"connected_time":1573000000000,"state":"active","ping":95}]},{"server_id":38,"name":"Uncletopia | Chicago | 7 | Stopwatch","name_short":"chi-7","host":"chi-2.us.uncletopia.com","port":27035,"enabled":true,"region":"us-central","cc":"us","latitude":41.881832,"longitude":-87.62318,"reserved":0,"last_update":"0001-01-01T00:00:00Z","name_a2s":"Uncletopia | Chicago | 7 | Stopwatch","protocol":17,"map":"workshop/koth_product_final.ugc454272353","folder":"tf","game":"Team Fortress","app_id":440,"player_count":0,"max_players":24,"Bots":0,"server_type":"Dedicated","server_os":"Linux","password":true,"vac":true,"version":"7961495","steam_id":85568392924866364,"keywords":["cp","nocrits","nodmgspread","uncletopia"],"game_id":440,"stv_port":27036,"stv_name":"Uncletopia | Chicago | 7 | Stopwatch | STV","players":null},{"server_id":39,"name":"Uncletopia | Chicago | 8 | Community","name_short":"chi-8","host":"chi-2.us.uncletopia.com","port":27045,"enabled":true,"region":"us-central","cc":"us","latitude":41.881832,"longitude":-87.62318,"reserved":0,"last_update":"0001-01-01T00:00:00Z","name_a2s":"Uncletopia | Chicago | 8 | Community","protocol":17,"map":"workshop/koth_ramjam_rc1.ugc459778887","folder":"tf","game":"Team Fortress","app_id":440,"player_count":3,"max_players":24,"Bots":0,"server_type":"Dedicated","server_os":"Linux","password":true,"vac":true,"version":"7961495","steam_id":85568392924866365,"keywords":["cp","nocrits","nodmgspread","uncletopia"],"game_id":440,"stv_port":27046,"stv_name":"Uncletopia | Chicago | 8 | Community | STV","players":[{"user_id":24,"name":"American Dad","steam_id":76561198059711448,"connected_time":90000000000,"state":"active","ping":58},{"user_id":23,"name":"PizzaFratello","steam_id":76561199059951970,"connected_time":272000000000,"state":"active","ping":84},{"user_id":25,"name":"Gason Homoa","steam_id":76561199000180522,"connected_time":62000000000,"state":"active","ping":73}]},{"server_id":8,"name":"Uncletopia | Dallas | 1 | All Maps","name_short":"dal-1","host":"dal-1.us.uncletopia.com","port":27015,"enabled":true,"region":"us-central","cc":"us","latitude":32.779167,"longitude":-96.80889,"reserved":0,"last_update":"0001-01-01T00:00:00Z","name_a2s":"Uncletopia | Dallas | 1 | All Maps","protocol":17,"map":"koth_nucleus","folder":"tf","game":"Team Fortress","app_id":440,"player_count":24,"max_players":24,"Bots":0,"server_type":"Dedicated","server_os":"Linux","password":true,"vac":true,"version":"7961495","steam_id":85568392924469986,"keywords":["cp","nocrits","nodmgspread","uncletopia"],"game_id":440,"stv_port":27016,"stv_name":"Uncletopia | Dallas | 1 | All Maps | STV","players":[{"user_id":300,"name":"merlin","steam_id":76561198334511480,"connected_time":294000000000,"state":"active","ping":61},{"user_id":287,"name":"Argeyxdxd","steam_id":76561199240057851,"connected_time":1020000000000,"state":"active","ping":66},{"user_id":282,"name":"Umbra","steam_id":76561198122650609,"connected_time":1582000000000,"state":"active","ping":62},{"user_id":250,"name":"leesh","steam_id":76561198079603938,"connected_time":2506000000000,"state":"active","ping":62},{"user_id":239,"name":"THRONGLER","steam_id":76561198198563466,"connected_time":3867000000000,"state":"active","ping":41},{"user_id":274,"name":"AureateAura","steam_id":76561198046902265,"connected_time":1991000000000,"state":"active","ping":91},{"user_id":224,"name":"1998 Mazda b2500","steam_id":76561198883172857,"connected_time":5362000000000,"state":"active","ping":101},{"user_id":294,"name":"CoolOpossum77","steam_id":76561198085047501,"connected_time":531000000000,"state":"active","ping":50},{"user_id":281,"name":"Lex","steam_id":76561198069948353,"connected_time":1772000000000,"state":"active","ping":72},{"user_id":245,"name":"the munch","steam_id":76561199164347838,"connected_time":3298000000000,"state":"active","ping":67},{"user_id":295,"name":"Lamb Shepard","steam_id":76561198031674607,"connected_time":519000000000,"state":"active","ping":71},{"user_id":243,"name":"Easey","steam_id":76561198230316868,"connected_time":3487000000000,"state":"active","ping":61},{"user_id":263,"name":"Mainyx","steam_id":76561198811844438,"connected_time":2409000000000,"state":"active","ping":87},{"user_id":284,"name":"Ryzema","steam_id":76561198165594229,"connected_time":1345000000000,"state":"active","ping":87},{"user_id":293,"name":"BNTF","steam_id":76561198062740087,"connected_time":566000000000,"state":"active","ping":78},{"user_id":280,"name":"SEER","steam_id":76561198075116015,"connected_time":1851000000000,"state":"active","ping":72},{"user_id":278,"name":"Burny Sanders","steam_id":76561197961879048,"connected_time":1906000000000,"state":"active","ping":45},{"user_id":285,"name":"TrashPanda (she/her)","steam_id":76561198447864095,"connected_time":1316000000000,"state":"active","ping":62},{"user_id":297,"name":"schmuck","steam_id":76561198143789773,"connected_time":512000000000,"state":"active","ping":57},{"user_id":240,"name":"Svepport","steam_id":76561198071373137,"connected_time":3746000000000,"state":"active","ping":60},{"user_id":269,"name":"K.O. Stradivarius","steam_id":76561198974913245,"connected_time":2353000000000,"state":"active","ping":94},{"user_id":298,"name":"sans undertale","steam_id":76561199128903858,"connected_time":492000000000,"state":"active","ping":99},{"user_id":302,"name":"Shady Kitty","steam_id":76561198056312200,"connected_time":247000000000,"state":"active","ping":87},{"user_id":279,"name":"Bean Boy","steam_id":76561198279184347,"connected_time":1879000000000,"state":"active","ping":69}]},{"server_id":108,"name":"Uncletopia | Dallas | 2 | All Maps","name_short":"dal-2","host":"dal-1.us.uncletopia.com","port":27025,"enabled":true,"region":"us-central","cc":"us","latitude":32.779167,"longitude":-96.80889,"reserved":0,"last_update":"0001-01-01T00:00:00Z","name_a2s":"Uncletopia | Dallas | 2 | All Maps","protocol":17,"map":"pl_snowycoast","folder":"tf","game":"Team Fortress","app_id":440,"player_count":23,"max_players":24,"Bots":0,"server_type":"Dedicated","server_os":"Linux","password":true,"vac":true,"version":"7961495","steam_id":85568392924469988,"keywords":["nocrits","nodmgspread","payload","uncletopia"],"game_id":440,"stv_port":27026,"stv_name":"Uncletopia | Dallas | 2 | All Maps | STV","players":[{"user_id":198,"name":"7thelden","steam_id":76561198297428761,"connected_time":1806000000000,"state":"active","ping":83},{"user_id":209,"name":"The Noise","steam_id":76561199390353195,"connected_time":316000000000,"state":"active","ping":46},{"user_id":142,"name":"Bobby Ray","steam_id":76561198044131188,"connected_time":6660000000000,"state":"active","ping":64},{"user_id":215,"name":"crayonnipple","steam_id":76561198070253331,"connected_time":61000000000,"state":"active","ping":89},{"user_id":200,"name":"Grumby","steam_id":76561198149175262,"connected_time":1468000000000,"state":"active","ping":58},{"user_id":182,"name":"mrthugpug1732","steam_id":76561198881200768,"connected_time":2717000000000,"state":"active","ping":95},{"user_id":179,"name":"Shitty Pilot","steam_id":76561198042723469,"connected_time":3176000000000,"state":"active","ping":54},{"user_id":189,"name":"Ventastega","steam_id":76561197999366317,"connected_time":2479000000000,"state":"active","ping":103},{"user_id":208,"name":"kn0n2999","steam_id":76561198249172818,"connected_time":726000000000,"state":"active","ping":97},{"user_id":188,"name":"E4Estrogen","steam_id":76561198085813708,"connected_time":2514000000000,"state":"active","ping":73},{"user_id":201,"name":"2014","steam_id":76561199066684927,"connected_time":1414000000000,"state":"active","ping":105},{"user_id":163,"name":"Javaris Jamar Javarison-Lamar","steam_id":76561197974907012,"connected_time":4765000000000,"state":"active","ping":74},{"user_id":213,"name":"Dabbledornk","steam_id":76561198065241300,"connected_time":83000000000,"state":"active","ping":76},{"user_id":195,"name":"tae","steam_id":76561198294360662,"connected_time":2284000000000,"state":"active","ping":82},{"user_id":197,"name":"roto","steam_id":76561198138735860,"connected_time":2065000000000,"state":"active","ping":93},{"user_id":204,"name":"artichoke","steam_id":76561198980994364,"connected_time":1007000000000,"state":"active","ping":103},{"user_id":191,"name":"[Bandit]","steam_id":76561197986919852,"connected_time":2437000000000,"state":"active","ping":95},{"user_id":207,"name":"CDRW Enjoyer","steam_id":76561198119393205,"connected_time":752000000000,"state":"active","ping":48},{"user_id":210,"name":"Chunk Stuffer","steam_id":76561198856508573,"connected_time":226000000000,"state":"active","ping":47},{"user_id":199,"name":"C∅RVUS","steam_id":76561198100640019,"connected_time":1678000000000,"state":"active","ping":111},{"user_id":180,"name":"rAnch","steam_id":76561198024562587,"connected_time":2904000000000,"state":"active","ping":41},{"user_id":176,"name":"soft and wet","steam_id":76561198081974528,"connected_time":3608000000000,"state":"active","ping":72},{"user_id":206,"name":"intek","steam_id":76561198052705291,"connected_time":777000000000,"state":"active","ping":79}]},{"server_id":404,"name":"Uncletopia | Dallas | 3 | All Maps","name_short":"dal-3","host":"dal-1.us.uncletopia.com","port":27035,"enabled":true,"region":"us-central","cc":"us","latitude":32.779167,"longitude":-96.80889,"reserved":0,"last_update":"0001-01-01T00:00:00Z","name_a2s":"Uncletopia | Dallas | 3 | All Maps","protocol":17,"map":"koth_lakeside_final","folder":"tf","game":"Team Fortress","app_id":440,"player_count":24,"max_players":24,"Bots":0,"server_type":"Dedicated","server_os":"Linux","password":true,"vac":true,"version":"7961495","steam_id":85568392924515219,"keywords":["cp","nocrits","nodmgspread","uncletopia"],"game_id":440,"stv_port":27036,"stv_name":"Uncletopia | Dallas | 3 | All Maps | STV","players":[{"user_id":57,"name":"Snoopy","steam_id":76561198273735974,"connected_time":3022000000000,"state":"active","ping":75},{"user_id":58,"name":"muck","steam_id":76561198120437909,"connected_time":2969000000000,"state":"active","ping":44},{"user_id":83,"name":"maccthew","steam_id":76561199035058771,"connected_time":1070000000000,"state":"active","ping":55},{"user_id":87,"name":"malarkeyman","steam_id":76561198844473584,"connected_time":896000000000,"state":"active","ping":64},{"user_id":44,"name":"Rustyorion","steam_id":76561198439186347,"connected_time":4332000000000,"state":"active","ping":104},{"user_id":89,"name":"vcx","steam_id":76561198139371143,"connected_time":538000000000,"state":"active","ping":71},{"user_id":17,"name":"mkl","steam_id":76561197986401685,"connected_time":5959000000000,"state":"active","ping":59},{"user_id":96,"name":"Encore","steam_id":76561198029433812,"connected_time":103000000000,"state":"active","ping":133},{"user_id":35,"name":"Hart","steam_id":76561199118241286,"connected_time":5372000000000,"state":"active","ping":71},{"user_id":49,"name":"Sup m8","steam_id":76561198081659121,"connected_time":3985000000000,"state":"active","ping":41},{"user_id":77,"name":"Axl™","steam_id":76561198865457341,"connected_time":1333000000000,"state":"active","ping":94},{"user_id":72,"name":"Hector Salamanca","steam_id":76561198438876215,"connected_time":1749000000000,"state":"active","ping":85},{"user_id":90,"name":"w a o w","steam_id":76561198060769385,"connected_time":510000000000,"state":"active","ping":94},{"user_id":98,"name":"Nemir","steam_id":76561198063123150,"connected_time":7000000000,"state":"spawning","ping":41},{"user_id":84,"name":"twitch.tv/kegaman_","steam_id":76561198043632775,"connected_time":1026000000000,"state":"active","ping":75},{"user_id":99,"name":"reko","steam_id":76561198278020887,"connected_time":3000000000,"state":"spawning","ping":44},{"user_id":94,"name":"Queuetimeevent","steam_id":76561198079438423,"connected_time":242000000000,"state":"active","ping":54},{"user_id":85,"name":"UFQ NARRATIVE","steam_id":76561197995211570,"connected_time":1024000000000,"state":"active","ping":51},{"user_id":95,"name":"what're ya buyin","steam_id":76561199277633460,"connected_time":222000000000,"state":"active","ping":57},{"user_id":50,"name":"(202) 456 - 1414","steam_id":76561198101465748,"connected_time":3844000000000,"state":"active","ping":58},{"user_id":78,"name":"InMyThinkingCapThinkingCap","steam_id":76561198074678273,"connected_time":1298000000000,"state":"active","ping":74},{"user_id":88,"name":"moe","steam_id":76561198929586245,"connected_time":728000000000,"state":"active","ping":83},{"user_id":74,"name":"Evaporated_373k","steam_id":76561199435266743,"connected_time":1517000000000,"state":"active","ping":68},{"user_id":93,"name":"Liver stealer","steam_id":76561199029954287,"connected_time":488000000000,"state":"active","ping":152}]},{"server_id":405,"name":"Uncletopia | Dallas | 4 | Community","name_short":"dal-4","host":"dal-1.us.uncletopia.com","port":27045,"enabled":true,"region":"us-central","cc":"us","latitude":32.779167,"longitude":-96.80889,"reserved":0,"last_update":"0001-01-01T00:00:00Z","name_a2s":"Uncletopia | Dallas | 4 | Community","protocol":17,"map":"pl_pier","folder":"tf","game":"Team Fortress","app_id":440,"player_count":0,"max_players":24,"Bots":0,"server_type":"Dedicated","server_os":"Linux","password":true,"vac":true,"version":"7961495","steam_id":85568392924515220,"keywords":["nocrits","nodmgspread","payload","uncletopia"],"game_id":440,"stv_port":27046,"stv_name":"Uncletopia | Dallas | 4 | Community | STV","players":null},{"server_id":5,"name":"Uncletopia | Frankfurt | 1 | All Maps","name_short":"frk-1","host":"frk-1.de.uncletopia.com","port":27015,"enabled":true,"region":"eu","cc":"de","latitude":50.110924,"longitude":8.682127,"reserved":0,"last_update":"0001-01-01T00:00:00Z","name_a2s":"Uncletopia | Frankfurt | 1 | All Maps","protocol":17,"map":"cp_sunshine","folder":"tf","game":"Team Fortress","app_id":440,"player_count":23,"max_players":24,"Bots":0,"server_type":"Dedicated","server_os":"Linux","password":true,"vac":true,"version":"7961495","steam_id":85568392924469989,"keywords":["cp","nocrits","nodmgspread","uncletopia"],"game_id":440,"stv_port":27016,"stv_name":"Uncletopia | Frankfurt | 1 | All Maps | STV","players":[{"user_id":843,"name":"r4s1","steam_id":76561198024034917,"connected_time":91000000000,"state":"active","ping":56},{"user_id":842,"name":"Akisян","steam_id":76561198078706435,"connected_time":115000000000,"state":"active","ping":75},{"user_id":847,"name":"waZywoo","steam_id":76561198313253111,"connected_time":78000000000,"state":"active","ping":68},{"user_id":819,"name":"EwyPig","steam_id":76561198104051370,"connected_time":1746000000000,"state":"active","ping":69},{"user_id":799,"name":"Demoknight is insane","steam_id":76561198390727328,"connected_time":3317000000000,"state":"active","ping":55},{"user_id":791,"name":"Chucky.","steam_id":76561197969361063,"connected_time":3563000000000,"state":"active","ping":89},{"user_id":841,"name":"John Doe","steam_id":76561198808372725,"connected_time":140000000000,"state":"active","ping":61},{"user_id":703,"name":"Reljadin","steam_id":76561198054997553,"connected_time":9979000000000,"state":"active","ping":84},{"user_id":831,"name":"Bobo","steam_id":76561198052308399,"connected_time":496000000000,"state":"active","ping":59},{"user_id":835,"name":"Stupid Backburner Pyro","steam_id":76561199057422095,"connected_time":278000000000,"state":"active","ping":75},{"user_id":757,"name":"Safe Joint","steam_id":76561198017799687,"connected_time":5641000000000,"state":"active","ping":108},{"user_id":815,"name":"Kepucz","steam_id":76561197977634244,"connected_time":2053000000000,"state":"active","ping":60},{"user_id":771,"name":"spy in the base","steam_id":76561198284570752,"connected_time":4534000000000,"state":"active","ping":59},{"user_id":838,"name":"Aspartus","steam_id":76561198101385763,"connected_time":211000000000,"state":"active","ping":47},{"user_id":820,"name":"angry russian man","steam_id":76561198386712795,"connected_time":1691000000000,"state":"active","ping":60},{"user_id":844,"name":"ScaryTree","steam_id":76561199384362833,"connected_time":86000000000,"state":"active","ping":56},{"user_id":845,"name":"MEGOS","steam_id":76561198172740637,"connected_time":82000000000,"state":"active","ping":52},{"user_id":836,"name":"i hack smart refrigerators","steam_id":76561199265289808,"connected_time":261000000000,"state":"active","ping":112},{"user_id":846,"name":"DETERR","steam_id":76561198223088296,"connected_time":81000000000,"state":"active","ping":57},{"user_id":823,"name":"Mr_Pulse_","steam_id":76561198095001602,"connected_time":1608000000000,"state":"active","ping":83},{"user_id":848,"name":"Vesoljček Dino","steam_id":76561198117141034,"connected_time":43000000000,"state":"active","ping":79},{"user_id":827,"name":"humble genius","steam_id":76561198243808680,"connected_time":797000000000,"state":"active","ping":53},{"user_id":849,"name":"idenburg","steam_id":76561198063574956,"connected_time":33000000000,"state":"active","ping":66}]},{"server_id":110,"name":"Uncletopia | Frankfurt | 2 | All Maps","name_short":"frk-2","host":"frk-1.de.uncletopia.com","port":27025,"enabled":true,"region":"eu","cc":"de","latitude":50.110924,"longitude":8.682127,"reserved":0,"last_update":"0001-01-01T00:00:00Z","name_a2s":"Uncletopia | Frankfurt | 2 | All Maps","protocol":17,"map":"pl_pier","folder":"tf","game":"Team Fortress","app_id":440,"player_count":24,"max_players":24,"Bots":0,"server_type":"Dedicated","server_os":"Linux","password":true,"vac":true,"version":"7961495","steam_id":85568392924469990,"keywords":["nocrits","nodmgspread","payload","uncletopia"],"game_id":440,"stv_port":27026,"stv_name":"Uncletopia | Frankfurt | 2 | All Maps | STV","players":[{"user_id":254,"name":"Gaii Cheeeseey","steam_id":76561198196336311,"connected_time":710000000000,"state":"active","ping":55},{"user_id":223,"name":"MeleeMeta","steam_id":76561198237963558,"connected_time":3933000000000,"state":"active","ping":66},{"user_id":224,"name":"Scrubbler","steam_id":76561198055611048,"connected_time":3885000000000,"state":"active","ping":105},{"user_id":231,"name":"anders McFlanders","steam_id":76561198022811995,"connected_time":2446000000000,"state":"active","ping":62},{"user_id":245,"name":"DaveOfTheNorthStar","steam_id":76561198799230290,"connected_time":1474000000000,"state":"active","ping":72},{"user_id":261,"name":"VATNIK | RAMA","steam_id":76561198040423618,"connected_time":258000000000,"state":"active","ping":75},{"user_id":177,"name":"Rimx","steam_id":76561198053034840,"connected_time":7991000000000,"state":"active","ping":92},{"user_id":248,"name":"Not Sussy Tanuki","steam_id":76561198137289375,"connected_time":1262000000000,"state":"active","ping":93},{"user_id":234,"name":"Finem Belli","steam_id":76561198227177976,"connected_time":2401000000000,"state":"active","ping":47},{"user_id":110,"name":"SocialistBacon","steam_id":76561198055872267,"connected_time":12526000000000,"state":"active","ping":101},{"user_id":173,"name":"Toasty5050","steam_id":76561198073540881,"connected_time":8471000000000,"state":"active","ping":45},{"user_id":241,"name":"XxBenShapiro420xX","steam_id":76561199229373972,"connected_time":1698000000000,"state":"active","ping":77},{"user_id":154,"name":"Finnish Farmer","steam_id":76561198205366043,"connected_time":9857000000000,"state":"active","ping":85},{"user_id":235,"name":"Lennox","steam_id":76561198069063554,"connected_time":2400000000000,"state":"active","ping":43},{"user_id":256,"name":"Daniluck23","steam_id":76561199070594080,"connected_time":620000000000,"state":"active","ping":60},{"user_id":226,"name":"Asmodeus","steam_id":76561198283156425,"connected_time":3374000000000,"state":"active","ping":79},{"user_id":205,"name":"Kitfist","steam_id":76561198048559338,"connected_time":5514000000000,"state":"active","ping":59},{"user_id":238,"name":"Cioly","steam_id":76561198257791981,"connected_time":1858000000000,"state":"active","ping":60},{"user_id":260,"name":"NG mathhead","steam_id":76561198429138254,"connected_time":444000000000,"state":"active","ping":61},{"user_id":97,"name":"Space","steam_id":76561198021572167,"connected_time":13130000000000,"state":"active","ping":60},{"user_id":236,"name":"Burrito","steam_id":76561198023919089,"connected_time":2367000000000,"state":"active","ping":84},{"user_id":228,"name":"PIGs","steam_id":76561197998963483,"connected_time":2607000000000,"state":"active","ping":95},{"user_id":258,"name":"TJ1212","steam_id":76561199013575313,"connected_time":582000000000,"state":"active","ping":61},{"user_id":251,"name":"SalCrabber deluxe","steam_id":76561198275942961,"connected_time":932000000000,"state":"active","ping":45}]},{"server_id":308,"name":"Uncletopia | Frankfurt | 3 | All Maps","name_short":"frk-3","host":"frk-1.de.uncletopia.com","port":27035,"enabled":true,"region":"eu","cc":"de","latitude":50.110924,"longitude":8.682127,"reserved":0,"last_update":"0001-01-01T00:00:00Z","name_a2s":"Uncletopia | Frankfurt | 3 | All Maps","protocol":17,"map":"pl_upward","folder":"tf","game":"Team Fortress","app_id":440,"player_count":24,"max_players":24,"Bots":0,"server_type":"Dedicated","server_os":"Linux","password":true,"vac":true,"version":"7961495","steam_id":85568392924504274,"keywords":["nocrits","nodmgspread","payload","uncletopia"],"game_id":440,"stv_port":27036,"stv_name":"Uncletopia | Frankfurt | 3 | All Maps | STV","players":[{"user_id":540,"name":"rummy","steam_id":76561197997573379,"connected_time":239000000000,"state":"active","ping":59},{"user_id":453,"name":"Red Dynamite","steam_id":76561199073167935,"connected_time":8212000000000,"state":"active","ping":170},{"user_id":541,"name":"Towercat","steam_id":76561198013141793,"connected_time":207000000000,"state":"active","ping":72},{"user_id":543,"name":"Baba Sraka","steam_id":76561198128292318,"connected_time":87000000000,"state":"active","ping":144},{"user_id":504,"name":"Shine","steam_id":76561198136297981,"connected_time":3710000000000,"state":"active","ping":63},{"user_id":523,"name":"grr","steam_id":76561199429407130,"connected_time":1660000000000,"state":"active","ping":89},{"user_id":508,"name":"Archive","steam_id":76561198071255385,"connected_time":3569000000000,"state":"active","ping":88},{"user_id":494,"name":"DanonArmagedon","steam_id":76561199448191521,"connected_time":4326000000000,"state":"active","ping":99},{"user_id":535,"name":"zak","steam_id":76561197998895428,"connected_time":994000000000,"state":"active","ping":49},{"user_id":517,"name":"Negan Smith","steam_id":76561199114463463,"connected_time":2073000000000,"state":"active","ping":86},{"user_id":462,"name":"cheddar","steam_id":76561199072919985,"connected_time":7053000000000,"state":"active","ping":85},{"user_id":463,"name":"Master Of Noob","steam_id":76561198217926783,"connected_time":7053000000000,"state":"active","ping":65},{"user_id":537,"name":"REN","steam_id":76561198000596385,"connected_time":369000000000,"state":"active","ping":86},{"user_id":538,"name":"o","steam_id":76561198066799770,"connected_time":347000000000,"state":"active","ping":57},{"user_id":490,"name":"Xtis","steam_id":76561198043837480,"connected_time":4778000000000,"state":"active","ping":75},{"user_id":532,"name":"Watermelon","steam_id":76561198078349914,"connected_time":1071000000000,"state":"active","ping":62},{"user_id":487,"name":"Fat Pigeon","steam_id":76561198817940142,"connected_time":5151000000000,"state":"active","ping":51},{"user_id":539,"name":"KAMIL","steam_id":76561198014578785,"connected_time":332000000000,"state":"active","ping":64},{"user_id":536,"name":"Alice in Rubberland","steam_id":76561198087328346,"connected_time":698000000000,"state":"active","ping":146},{"user_id":518,"name":"gaming gamer","steam_id":76561198212488780,"connected_time":2067000000000,"state":"active","ping":58},{"user_id":475,"name":"Nittugai","steam_id":76561198067366462,"connected_time":5934000000000,"state":"active","ping":61},{"user_id":542,"name":"Mr.TEA","steam_id":76561198014381591,"connected_time":187000000000,"state":"active","ping":55},{"user_id":521,"name":"Hoff","steam_id":76561198138540938,"connected_time":1944000000000,"state":"active","ping":77},{"user_id":511,"name":"I sell exotic parrots","steam_id":76561199192434258,"connected_time":3208000000000,"state":"active","ping":77}]},{"server_id":309,"name":"Uncletopia | Frankfurt | 4 | All Maps","name_short":"frk-4","host":"frk-1.de.uncletopia.com","port":27045,"enabled":true,"region":"eu","cc":"de","latitude":50.110924,"longitude":8.682127,"reserved":0,"last_update":"0001-01-01T00:00:00Z","name_a2s":"Uncletopia | Frankfurt | 4 | All Maps","protocol":17,"map":"pl_rumford_event","folder":"tf","game":"Team Fortress","app_id":440,"player_count":24,"max_players":24,"Bots":0,"server_type":"Dedicated","server_os":"Linux","password":true,"vac":true,"version":"7961495","steam_id":85568392924504275,"keywords":["nocrits","nodmgspread","payload","uncletopia"],"game_id":440,"stv_port":27046,"stv_name":"Uncletopia | Frankfurt | 4 | All Maps | STV","players":[{"user_id":697,"name":"DeCypher \u003c3","steam_id":76561198171992619,"connected_time":39000000000,"state":"active","ping":79},{"user_id":656,"name":"Hercules","steam_id":76561198041164170,"connected_time":3145000000000,"state":"active","ping":80},{"user_id":689,"name":"tony","steam_id":76561199382978934,"connected_time":1055000000000,"state":"active","ping":148},{"user_id":698,"name":"Swank","steam_id":76561198110829070,"connected_time":0,"state":"spawning","ping":19},{"user_id":617,"name":"DreamVerse","steam_id":76561198182153475,"connected_time":5853000000000,"state":"active","ping":57},{"user_id":618,"name":"Franco21","steam_id":76561198829840235,"connected_time":5845000000000,"state":"active","ping":68},{"user_id":673,"name":"the","steam_id":76561199105950410,"connected_time":1996000000000,"state":"spawning","ping":60},{"user_id":685,"name":"b.golubovic","steam_id":76561198403986920,"connected_time":1305000000000,"state":"spawning","ping":154},{"user_id":659,"name":"Mza28","steam_id":76561198873993324,"connected_time":2884000000000,"state":"spawning","ping":76},{"user_id":693,"name":"Just Navlis (on the scoreboard)","steam_id":76561198090479609,"connected_time":592000000000,"state":"active","ping":46},{"user_id":690,"name":"AnGrad","steam_id":76561198237924146,"connected_time":1002000000000,"state":"active","ping":96},{"user_id":672,"name":"Vershal Smershal","steam_id":76561198116223995,"connected_time":2039000000000,"state":"active","ping":138},{"user_id":664,"name":"Predrag218","steam_id":76561199242439630,"connected_time":2356000000000,"state":"spawning","ping":120},{"user_id":674,"name":"Pilaarius","steam_id":76561198120273212,"connected_time":1994000000000,"state":"active","ping":101},{"user_id":675,"name":"the candy dealer :)","steam_id":76561199223214344,"connected_time":1965000000000,"state":"spawning","ping":76},{"user_id":676,"name":"elijah (real)","steam_id":76561199067986782,"connected_time":1906000000000,"state":"active","ping":107},{"user_id":694,"name":"Angry the lime","steam_id":76561199012566222,"connected_time":290000000000,"state":"spawning","ping":49},{"user_id":647,"name":"Syd","steam_id":76561198020515027,"connected_time":3793000000000,"state":"spawning","ping":528},{"user_id":684,"name":"Gen","steam_id":76561198021775885,"connected_time":1575000000000,"state":"active","ping":72},{"user_id":691,"name":"Uselss Joe","steam_id":76561198275853629,"connected_time":910000000000,"state":"active","ping":52},{"user_id":687,"name":"agent youppii","steam_id":76561198055264447,"connected_time":1238000000000,"state":"active","ping":68},{"user_id":692,"name":"waddle dork","steam_id":76561198297349985,"connected_time":694000000000,"state":"active","ping":80},{"user_id":696,"name":"Kappa","steam_id":76561198089341471,"connected_time":76000000000,"state":"active","ping":73},{"user_id":537,"name":"KFD","steam_id":76561198157183003,"connected_time":13568000000000,"state":"spawning","ping":77}]},{"server_id":310,"name":"Uncletopia | Frankfurt | 5 | All Maps","name_short":"frk-5","host":"frk-1.de.uncletopia.com","port":27055,"enabled":true,"region":"eu","cc":"de","latitude":50.110924,"longitude":8.682127,"reserved":0,"last_update":"0001-01-01T00:00:00Z","name_a2s":"Uncletopia | Frankfurt | 5 | All Maps","protocol":17,"map":"pl_snowycoast","folder":"tf","game":"Team Fortress","app_id":440,"player_count":8,"max_players":24,"Bots":0,"server_type":"Dedicated","server_os":"Linux","password":true,"vac":true,"version":"7961495","steam_id":85568392924504277,"keywords":["nocrits","nodmgspread","payload","uncletopia"],"game_id":440,"stv_port":27056,"stv_name":"Uncletopia | Frankfurt | 5 | All Maps | STV","players":[{"user_id":637,"name":"VK2124 :D","steam_id":76561198111130688,"connected_time":109000000000,"state":"active","ping":45},{"user_id":636,"name":"oskaroku00","steam_id":76561199025360128,"connected_time":479000000000,"state":"active","ping":77},{"user_id":620,"name":"Baron","steam_id":76561198021901783,"connected_time":1316000000000,"state":"active","ping":64},{"user_id":548,"name":"Xiqui","steam_id":76561198818386611,"connected_time":5445000000000,"state":"active","ping":84},{"user_id":615,"name":"Jessica","steam_id":76561198342993279,"connected_time":1534000000000,"state":"active","ping":112},{"user_id":573,"name":"elmstJP ₪ F4.exe","steam_id":76561197997909480,"connected_time":3794000000000,"state":"active","ping":68},{"user_id":577,"name":"F4.exe","steam_id":76561198278822807,"connected_time":3779000000000,"state":"active","ping":60},{"user_id":627,"name":"Teecho","steam_id":76561197995269610,"connected_time":1179000000000,"state":"active","ping":63}]},{"server_id":311,"name":"Uncletopia | Frankfurt | 6 | All Maps","name_short":"frk-6","host":"frk-1.de.uncletopia.com","port":27065,"enabled":true,"region":"eu","cc":"de","latitude":50.110924,"longitude":8.682127,"reserved":0,"last_update":"0001-01-01T00:00:00Z","name_a2s":"Uncletopia | Frankfurt | 6 | All Maps","protocol":17,"map":"pl_swiftwater_final1","folder":"tf","game":"Team Fortress","app_id":440,"player_count":24,"max_players":24,"Bots":0,"server_type":"Dedicated","server_os":"Linux","password":true,"vac":true,"version":"7961495","steam_id":85568392924504278,"keywords":["nocrits","nodmgspread","payload","uncletopia"],"game_id":440,"stv_port":27066,"stv_name":"Uncletopia | Frankfurt | 6 | All Maps | STV","players":[{"user_id":511,"name":"虾扯蛋.Lonely","steam_id":76561198022989560,"connected_time":1551000000000,"state":"active","ping":75},{"user_id":399,"name":"BoPoe (omniphobic)","steam_id":76561198093333882,"connected_time":8005000000000,"state":"active","ping":115},{"user_id":487,"name":"playvol ambient/misc/flush1 1","steam_id":76561198336955997,"connected_time":3367000000000,"state":"active","ping":48},{"user_id":522,"name":"Megatron","steam_id":76561198124927367,"connected_time":250000000000,"state":"active","ping":186},{"user_id":489,"name":"froglids","steam_id":76561198045466919,"connected_time":2903000000000,"state":"active","ping":62},{"user_id":512,"name":"pizzaboob (im funny)","steam_id":76561198097507847,"connected_time":1524000000000,"state":"active","ping":72},{"user_id":486,"name":"Dr Bondus Bolongus Dongus","steam_id":76561198378657692,"connected_time":3621000000000,"state":"active","ping":57},{"user_id":502,"name":"@tf2blayer on twitter","steam_id":76561198027033926,"connected_time":1876000000000,"state":"active","ping":63},{"user_id":513,"name":"SpyCrab  Erik Twice","steam_id":76561198009710309,"connected_time":1508000000000,"state":"active","ping":65},{"user_id":505,"name":"El Wiwi","steam_id":76561198134378108,"connected_time":1662000000000,"state":"active","ping":103},{"user_id":509,"name":"hhhhhh","steam_id":76561198031982574,"connected_time":1583000000000,"state":"active","ping":58},{"user_id":521,"name":"flange","steam_id":76561198040182692,"connected_time":308000000000,"state":"active","ping":50},{"user_id":496,"name":"John","steam_id":76561198121630215,"connected_time":2432000000000,"state":"active","ping":65},{"user_id":469,"name":"Oceanic | tuesday maybe","steam_id":76561197979741827,"connected_time":4842000000000,"state":"active","ping":70},{"user_id":381,"name":"paypig","steam_id":76561198035137115,"connected_time":9517000000000,"state":"active","ping":59},{"user_id":514,"name":"Der ewige Boomer","steam_id":76561198254812703,"connected_time":1507000000000,"state":"active","ping":70},{"user_id":515,"name":"hipster_doofus","steam_id":76561197970902697,"connected_time":1465000000000,"state":"active","ping":73},{"user_id":501,"name":"Sorry","steam_id":76561198040722720,"connected_time":2237000000000,"state":"active","ping":141},{"user_id":485,"name":"pepper","steam_id":76561198059782462,"connected_time":3714000000000,"state":"active","ping":55},{"user_id":508,"name":"One-Face","steam_id":76561197999384826,"connected_time":1586000000000,"state":"active","ping":53},{"user_id":517,"name":"endlesshills","steam_id":76561198081908373,"connected_time":1321000000000,"state":"active","ping":59},{"user_id":500,"name":"DutchGamingRoy","steam_id":76561198131834085,"connected_time":2321000000000,"state":"active","ping":54},{"user_id":479,"name":"Hey, I´m Andy!","steam_id":76561198060337777,"connected_time":4154000000000,"state":"active","ping":78},{"user_id":519,"name":"Sabour","steam_id":76561197963965445,"connected_time":439000000000,"state":"active","ping":59}]},{"server_id":23,"name":"Uncletopia | Frankfurt | 7 | Stopwatch","name_short":"frk-7","host":"frk-1.de.uncletopia.com","port":27075,"enabled":true,"region":"eu","cc":"de","latitude":50.110924,"longitude":8.682127,"reserved":0,"last_update":"0001-01-01T00:00:00Z","name_a2s":"Uncletopia | Frankfurt | 7 | Stopwatch","protocol":17,"map":"workshop/koth_ashville_final.ugc2130459942","folder":"tf","game":"Team Fortress","app_id":440,"player_count":0,"max_players":24,"Bots":0,"server_type":"Dedicated","server_os":"Linux","password":true,"vac":true,"version":"7961495","steam_id":85568392924742827,"keywords":["cp","nocrits","nodmgspread","uncletopia"],"game_id":440,"stv_port":27076,"stv_name":"Uncletopia | Frankfurt | 7 | Stopwatch | STV","players":null},{"server_id":24,"name":"Uncletopia | Frankfurt | 8 | Community","name_short":"frk-8","host":"frk-1.de.uncletopia.com","port":27085,"enabled":true,"region":"eu","cc":"de","latitude":50.110924,"longitude":8.682127,"reserved":0,"last_update":"0001-01-01T00:00:00Z","name_a2s":"Uncletopia | Frankfurt | 8 | Community","protocol":17,"map":"workshop/pl_corrode_rc2.ugc546577989","folder":"tf","game":"Team Fortress","app_id":440,"player_count":0,"max_players":24,"Bots":0,"server_type":"Dedicated","server_os":"Linux","password":true,"vac":true,"version":"7961495","steam_id":85568392924742828,"keywords":["nocrits","nodmgspread","payload","uncletopia"],"game_id":440,"stv_port":27086,"stv_name":"Uncletopia | Frankfurt | 8 | Community | STV","players":null},{"server_id":202,"name":"Uncletopia | Hong Kong | 1 | All Maps","name_short":"hgk-1","host":"hgk-1.hk.uncletopia.com","port":27015,"enabled":true,"region":"asia","cc":"hk","latitude":22.302711,"longitude":114.177216,"reserved":0,"last_update":"0001-01-01T00:00:00Z","name_a2s":"Uncletopia | Hong Kong | 1 | All Maps","protocol":17,"map":"pl_snowycoast","folder":"tf","game":"Team Fortress","app_id":440,"player_count":0,"max_players":24,"Bots":0,"server_type":"Dedicated","server_os":"Linux","password":true,"vac":true,"version":"7961495","steam_id":85568392924494504,"keywords":["nocrits","nodmgspread","payload","uncletopia"],"game_id":440,"stv_port":27016,"stv_name":"Uncletopia | Hong Kong | 1 | All Maps | STV","players":null},{"server_id":1,"name":"Uncletopia | Los Angeles | 1 | All Maps","name_short":"lax-1","host":"lax-1.us.uncletopia.com","port":27015,"enabled":true,"region":"us-west","cc":"us","latitude":33.94279,"longitude":-118.41004,"reserved":0,"last_update":"0001-01-01T00:00:00Z","name_a2s":"Uncletopia | Los Angeles | 1 | All Maps","protocol":17,"map":"cp_sunshine","folder":"tf","game":"Team Fortress","app_id":440,"player_count":24,"max_players":24,"Bots":0,"server_type":"Dedicated","server_os":"Linux","password":true,"vac":true,"version":"7961495","steam_id":85568392924469991,"keywords":["cp","nocrits","nodmgspread","uncletopia"],"game_id":440,"stv_port":27016,"stv_name":"Uncletopia | Los Angeles | 1 | All Maps | STV","players":[{"user_id":371,"name":"Master John Thursday","steam_id":76561197987593154,"connected_time":3017000000000,"state":"active","ping":68},{"user_id":388,"name":"AT✪MIC","steam_id":76561198100385184,"connected_time":1741000000000,"state":"active","ping":53},{"user_id":400,"name":"Gerbias","steam_id":76561198001002427,"connected_time":829000000000,"state":"active","ping":61},{"user_id":309,"name":"mr555","steam_id":76561199128375354,"connected_time":7589000000000,"state":"active","ping":148},{"user_id":344,"name":"Loogus","steam_id":76561198811561721,"connected_time":5248000000000,"state":"active","ping":60},{"user_id":385,"name":"Captain Bong Rips","steam_id":76561198065946939,"connected_time":1828000000000,"state":"active","ping":72},{"user_id":397,"name":"Giantbob","steam_id":76561199043760220,"connected_time":869000000000,"state":"active","ping":67},{"user_id":373,"name":"selvhat","steam_id":76561198114225509,"connected_time":2906000000000,"state":"active","ping":56},{"user_id":369,"name":"Canned Bread","steam_id":76561198354916213,"connected_time":3181000000000,"state":"active","ping":73},{"user_id":398,"name":":D","steam_id":76561198049258493,"connected_time":867000000000,"state":"active","ping":89},{"user_id":350,"name":"kaputis","steam_id":76561198127468114,"connected_time":4921000000000,"state":"active","ping":89},{"user_id":372,"name":"KevinKendrick","steam_id":76561198364706359,"connected_time":2954000000000,"state":"active","ping":78},{"user_id":377,"name":"dekemori","steam_id":76561198373889573,"connected_time":2440000000000,"state":"active","ping":64},{"user_id":386,"name":"Sunkenthree51","steam_id":76561198300781307,"connected_time":1802000000000,"state":"active","ping":51},{"user_id":402,"name":"All Tomorrow's Parties","steam_id":76561197995936212,"connected_time":533000000000,"state":"active","ping":75},{"user_id":401,"name":"FI LO","steam_id":76561198976530881,"connected_time":803000000000,"state":"active","ping":43},{"user_id":378,"name":"a chicken","steam_id":76561198313121580,"connected_time":2381000000000,"state":"active","ping":46},{"user_id":375,"name":"Sleezy","steam_id":76561198839500707,"connected_time":2870000000000,"state":"active","ping":45},{"user_id":367,"name":"bottom pride burger","steam_id":76561198322247602,"connected_time":3238000000000,"state":"active","ping":58},{"user_id":399,"name":"Freyja","steam_id":76561198207412177,"connected_time":859000000000,"state":"active","ping":73},{"user_id":395,"name":"......","steam_id":76561198067612741,"connected_time":1005000000000,"state":"active","ping":70},{"user_id":394,"name":"Grim","steam_id":76561198016978310,"connected_time":1065000000000,"state":"active","ping":67},{"user_id":403,"name":"Silverman_Cam","steam_id":76561198936168937,"connected_time":178000000000,"state":"active","ping":60},{"user_id":393,"name":"yellow ᗜˬᗜ","steam_id":76561198366474647,"connected_time":1180000000000,"state":"active","ping":44}]},{"server_id":112,"name":"Uncletopia | Los Angeles | 2 | All Maps","name_short":"lax-2","host":"lax-1.us.uncletopia.com","port":27025,"enabled":true,"region":"us-west","cc":"us","latitude":33.94279,"longitude":-118.41004,"reserved":0,"last_update":"0001-01-01T00:00:00Z","name_a2s":"Uncletopia | Los Angeles | 2 | All Maps","protocol":17,"map":"koth_viaduct","folder":"tf","game":"Team Fortress","app_id":440,"player_count":0,"max_players":24,"Bots":0,"server_type":"Dedicated","server_os":"Linux","password":true,"vac":true,"version":"7961495","steam_id":85568392924469992,"keywords":["cp","nocrits","nodmgspread","uncletopia"],"game_id":440,"stv_port":27026,"stv_name":"Uncletopia | Los Angeles | 2 | All Maps | STV","players":null},{"server_id":324,"name":"Uncletopia | Los Angeles | 3 | All Maps","name_short":"lax-3","host":"lax-1.us.uncletopia.com","port":27035,"enabled":true,"region":"us-west","cc":"us","latitude":33.94279,"longitude":-118.41004,"reserved":0,"last_update":"0001-01-01T00:00:00Z","name_a2s":"Uncletopia | Los Angeles | 3 | All Maps","protocol":17,"map":"pl_frontier_final","folder":"tf","game":"Team Fortress","app_id":440,"player_count":0,"max_players":24,"Bots":0,"server_type":"Dedicated","server_os":"Linux","password":true,"vac":true,"version":"7961495","steam_id":85568392924510198,"keywords":["nocrits","nodmgspread","payload","uncletopia"],"game_id":440,"stv_port":27036,"stv_name":"Uncletopia | Los Angeles | 3 | All Maps | STV","players":null},{"server_id":25,"name":"Uncletopia | Los Angeles | 4 | Stopwatch","name_short":"lax-4","host":"lax-1.us.uncletopia.com","port":27045,"enabled":true,"region":"us-west","cc":"us","latitude":33.94279,"longitude":-118.41004,"reserved":0,"last_update":"0001-01-01T00:00:00Z","name_a2s":"Uncletopia | Los Angeles | 4 | Stopwatch","protocol":17,"map":"pl_barnblitz","folder":"tf","game":"Team Fortress","app_id":440,"player_count":0,"max_players":24,"Bots":0,"server_type":"Dedicated","server_os":"Linux","password":true,"vac":true,"version":"7961495","steam_id":85568392924510199,"keywords":["nocrits","nodmgspread","payload","uncletopia"],"game_id":440,"stv_port":27046,"stv_name":"Uncletopia | Los Angeles | 4 | Stopwatch | STV","players":null},{"server_id":11,"name":"Uncletopia | London | 1 | All Maps","name_short":"lon-1","host":"lon-1.uk.uncletopia.com","port":27015,"enabled":true,"region":"eu","cc":"gb","latitude":51.509865,"longitude":-0.118092,"reserved":0,"last_update":"0001-01-01T00:00:00Z","name_a2s":"Uncletopia | London | 1 | All Maps","protocol":17,"map":"pl_badwater","folder":"tf","game":"Team Fortress","app_id":440,"player_count":24,"max_players":24,"Bots":0,"server_type":"Dedicated","server_os":"Linux","password":true,"vac":true,"version":"7961495","steam_id":85568392924367362,"keywords":["nocrits","nodmgspread","payload","uncletopia"],"game_id":440,"stv_port":27016,"stv_name":"Uncletopia | London | 1 | All Maps | STV","players":[{"user_id":564,"name":"Amandus","steam_id":76561198036281079,"connected_time":734000000000,"state":"active","ping":61},{"user_id":553,"name":"femboy enjoyer","steam_id":76561199041737814,"connected_time":2035000000000,"state":"active","ping":44},{"user_id":565,"name":"AsuX","steam_id":76561197990333289,"connected_time":730000000000,"state":"active","ping":60},{"user_id":509,"name":"Kahvi","steam_id":76561198723244199,"connected_time":6185000000000,"state":"active","ping":75},{"user_id":585,"name":"Cuthbert","steam_id":76561198204649481,"connected_time":51000000000,"state":"active","ping":104},{"user_id":586,"name":"Stunner John Mode! ツ","steam_id":76561199085822219,"connected_time":31000000000,"state":"active","ping":76},{"user_id":533,"name":"Kphi(i)","steam_id":76561198970587061,"connected_time":3408000000000,"state":"active","ping":62},{"user_id":575,"name":"MakeItRainbow","steam_id":76561198045098064,"connected_time":500000000000,"state":"active","ping":70},{"user_id":518,"name":"Nessieling","steam_id":76561198083556891,"connected_time":5223000000000,"state":"active","ping":83},{"user_id":560,"name":"đarth","steam_id":76561198061241585,"connected_time":1093000000000,"state":"active","ping":99},{"user_id":511,"name":"I'm only human after all","steam_id":76561198048453764,"connected_time":6095000000000,"state":"active","ping":48},{"user_id":538,"name":"Carbon Monoxide Detector","steam_id":76561198055608801,"connected_time":3316000000000,"state":"active","ping":70},{"user_id":562,"name":"R0mulone","steam_id":76561198352513792,"connected_time":777000000000,"state":"active","ping":65},{"user_id":546,"name":"MeowMaster","steam_id":76561198284605819,"connected_time":2619000000000,"state":"active","ping":88},{"user_id":555,"name":"Ozzie","steam_id":76561197992915315,"connected_time":1889000000000,"state":"active","ping":61},{"user_id":580,"name":"MoistMomMauler","steam_id":76561198069359049,"connected_time":369000000000,"state":"active","ping":75},{"user_id":558,"name":"呂さんのリージョン","steam_id":76561198248239796,"connected_time":1404000000000,"state":"active","ping":57},{"user_id":576,"name":"STiNGHAN","steam_id":76561198023989090,"connected_time":497000000000,"state":"active","ping":75},{"user_id":581,"name":"Scobra","steam_id":76561198000734400,"connected_time":303000000000,"state":"active","ping":110},{"user_id":541,"name":"Sam04","steam_id":76561199004535941,"connected_time":3173000000000,"state":"active","ping":98},{"user_id":507,"name":"Trapezoid","steam_id":76561198059369295,"connected_time":6260000000000,"state":"active","ping":75},{"user_id":569,"name":"Tekky☻","steam_id":76561197990987315,"connected_time":690000000000,"state":"active","ping":42},{"user_id":573,"name":"❤︎WarMole❤","steam_id":76561198104248760,"connected_time":558000000000,"state":"active","ping":69},{"user_id":584,"name":"♛C4xSupreme♛","steam_id":76561199246030190,"connected_time":113000000000,"state":"active","ping":70}]},{"server_id":114,"name":"Uncletopia | London | 2 | All Maps","name_short":"lon-2","host":"lon-1.uk.uncletopia.com","port":27025,"enabled":true,"region":"eu","cc":"gb","latitude":51.509865,"longitude":-0.118092,"reserved":0,"last_update":"0001-01-01T00:00:00Z","name_a2s":"Uncletopia | London | 2 | All Maps","protocol":17,"map":"pl_swiftwater_final1","folder":"tf","game":"Team Fortress","app_id":440,"player_count":25,"max_players":24,"Bots":0,"server_type":"Dedicated","server_os":"Linux","password":true,"vac":true,"version":"7961495","steam_id":85568392924470941,"keywords":["nocrits","nodmgspread","payload","uncletopia"],"game_id":440,"stv_port":27026,"stv_name":"Uncletopia | London | 2 | All Maps | STV","players":[{"user_id":576,"name":"Mayor Wank from Wanker Town","steam_id":76561197998253588,"connected_time":786000000000,"state":"active","ping":58},{"user_id":577,"name":"♿1-800-225-5324♿","steam_id":76561198017032525,"connected_time":778000000000,"state":"active","ping":66},{"user_id":578,"name":"LizaЯdlЧ","steam_id":76561198176750238,"connected_time":753000000000,"state":"active","ping":65},{"user_id":455,"name":"soap lore 20","steam_id":76561198058879767,"connected_time":10051000000000,"state":"active","ping":42},{"user_id":579,"name":"Абсолютная водка","steam_id":76561198886250433,"connected_time":711000000000,"state":"active","ping":75},{"user_id":580,"name":"StingyLettuce","steam_id":76561199010337406,"connected_time":685000000000,"state":"active","ping":116},{"user_id":574,"name":"remi, she wrote.","steam_id":76561198044045655,"connected_time":1413000000000,"state":"active","ping":77},{"user_id":546,"name":"NoPfizer","steam_id":76561198307914381,"connected_time":3421000000000,"state":"active","ping":59},{"user_id":523,"name":"Silverbolt","steam_id":76561198153165763,"connected_time":5118000000000,"state":"active","ping":59},{"user_id":564,"name":"Explosive Poptart","steam_id":76561198023918830,"connected_time":2030000000000,"state":"active","ping":44},{"user_id":596,"name":"Geese Goose","steam_id":76561198070903248,"connected_time":143000000000,"state":"active","ping":52},{"user_id":569,"name":"Raulca25","steam_id":76561199068256964,"connected_time":1822000000000,"state":"active","ping":79},{"user_id":324,"name":"dash.","steam_id":76561198084796149,"connected_time":20274000000000,"state":"active","ping":47},{"user_id":583,"name":"Cloud03","steam_id":76561199010969848,"connected_time":531000000000,"state":"active","ping":91},{"user_id":449,"name":"Jams","steam_id":76561198118316970,"connected_time":11333000000000,"state":"active","ping":76},{"user_id":602,"name":"H2n9","steam_id":76561198055811259,"connected_time":40000000000,"state":"active","ping":49},{"user_id":571,"name":"FriendlyHotdog","steam_id":76561199060628836,"connected_time":1736000000000,"state":"active","ping":65},{"user_id":572,"name":"piper","steam_id":76561198112687349,"connected_time":1602000000000,"state":"active","ping":51},{"user_id":603,"name":"Gubbly Bubbins","steam_id":76561198101451654,"connected_time":27000000000,"state":"spawning","ping":45},{"user_id":585,"name":"❤ Sparx ❤","steam_id":76561198095009261,"connected_time":467000000000,"state":"active","ping":81},{"user_id":586,"name":"Lanz","steam_id":76561198126356394,"connected_time":450000000000,"state":"active","ping":72},{"user_id":599,"name":"sp00ky","steam_id":76561198809887201,"connected_time":82000000000,"state":"active","ping":48},{"user_id":588,"name":"V0iDZMAX","steam_id":76561198153592566,"connected_time":408000000000,"state":"active","ping":36},{"user_id":589,"name":"tired medic main","steam_id":76561198255340533,"connected_time":393000000000,"state":"active","ping":90},{"user_id":591,"name":"Jasperatus","steam_id":76561198196733750,"connected_time":294000000000,"state":"active","ping":77}]},{"server_id":320,"name":"Uncletopia | London | 3 | All Maps","name_short":"lon-3","host":"lon-1.uk.uncletopia.com","port":27035,"enabled":true,"region":"eu","cc":"gb","latitude":51.509865,"longitude":-0.118092,"reserved":0,"last_update":"0001-01-01T00:00:00Z","name_a2s":"Uncletopia | London | 3 | All Maps","protocol":17,"map":"pl_snowycoast","folder":"tf","game":"Team Fortress","app_id":440,"player_count":24,"max_players":24,"Bots":0,"server_type":"Dedicated","server_os":"Linux","password":true,"vac":true,"version":"7961495","steam_id":85568392924510192,"keywords":["nocrits","nodmgspread","payload","uncletopia"],"game_id":440,"stv_port":27036,"stv_name":"Uncletopia | London | 3 | All Maps | STV","players":[{"user_id":484,"name":"dumb","steam_id":76561198181134706,"connected_time":542000000000,"state":"active","ping":61},{"user_id":458,"name":"Brrpstr","steam_id":76561198394221491,"connected_time":1995000000000,"state":"active","ping":66},{"user_id":471,"name":"Weegad Wobus","steam_id":76561199429562693,"connected_time":1223000000000,"state":"active","ping":74},{"user_id":486,"name":"Blar","steam_id":76561198042438229,"connected_time":498000000000,"state":"active","ping":61},{"user_id":447,"name":"The Lady","steam_id":76561198029895809,"connected_time":2815000000000,"state":"active","ping":85},{"user_id":487,"name":"Hoxton","steam_id":76561198058847428,"connected_time":467000000000,"state":"active","ping":51},{"user_id":485,"name":"Suetolog","steam_id":76561199053090212,"connected_time":533000000000,"state":"active","ping":62},{"user_id":488,"name":"\u003e:3","steam_id":76561198368312026,"connected_time":453000000000,"state":"active","ping":63},{"user_id":470,"name":"Michal Jordan (real)","steam_id":76561199106262610,"connected_time":1290000000000,"state":"active","ping":65},{"user_id":460,"name":"Verggy","steam_id":76561198068565268,"connected_time":1959000000000,"state":"active","ping":97},{"user_id":445,"name":"Star Throne","steam_id":76561198132171027,"connected_time":3166000000000,"state":"active","ping":58},{"user_id":472,"name":"SKY_","steam_id":76561198080980508,"connected_time":1205000000000,"state":"active","ping":68},{"user_id":429,"name":"hyvakii705","steam_id":76561198086630552,"connected_time":5394000000000,"state":"active","ping":76},{"user_id":479,"name":"=flashpoint=","steam_id":76561197976774456,"connected_time":930000000000,"state":"active","ping":45},{"user_id":476,"name":"doctwoeight","steam_id":76561198153488940,"connected_time":1124000000000,"state":"active","ping":75},{"user_id":474,"name":"hasky","steam_id":76561197986052798,"connected_time":1163000000000,"state":"active","ping":73},{"user_id":464,"name":"hieronimus","steam_id":76561198085900150,"connected_time":1789000000000,"state":"active","ping":71},{"user_id":433,"name":"♂ MGE ♂ PUPSIK ♂","steam_id":76561198308302932,"connected_time":5169000000000,"state":"active","ping":102},{"user_id":481,"name":"AlfonsoM","steam_id":76561198138832894,"connected_time":730000000000,"state":"active","ping":86},{"user_id":477,"name":"Vexu","steam_id":76561198113145846,"connected_time":1123000000000,"state":"active","ping":88},{"user_id":490,"name":"Anri Okita's Massive Milkers","steam_id":76561199186352720,"connected_time":419000000000,"state":"active","ping":61},{"user_id":462,"name":"A literal heavy","steam_id":76561199219233587,"connected_time":1906000000000,"state":"active","ping":78},{"user_id":442,"name":"A Succulent Chinese Meal","steam_id":76561198069472440,"connected_time":3857000000000,"state":"active","ping":65},{"user_id":489,"name":"herr_p","steam_id":76561198033072222,"connected_time":450000000000,"state":"active","ping":61}]},{"server_id":321,"name":"Uncletopia | London | 4 | All Maps","name_short":"lon-4","host":"lon-1.uk.uncletopia.com","port":27045,"enabled":true,"region":"eu","cc":"gb","latitude":51.509865,"longitude":-0.118092,"reserved":0,"last_update":"0001-01-01T00:00:00Z","name_a2s":"Uncletopia | London | 4 | All Maps","protocol":17,"map":"pl_pier","folder":"tf","game":"Team Fortress","app_id":440,"player_count":24,"max_players":24,"Bots":0,"server_type":"Dedicated","server_os":"Linux","password":true,"vac":true,"version":"7961495","steam_id":85568392924510193,"keywords":["nocrits","nodmgspread","payload","uncletopia"],"game_id":440,"stv_port":27046,"stv_name":"Uncletopia | London | 4 | All Maps | STV","players":[{"user_id":332,"name":"The Power","steam_id":76561198060566884,"connected_time":644000000000,"state":"active","ping":31},{"user_id":295,"name":"๑ï","steam_id":76561198147277460,"connected_time":2127000000000,"state":"active","ping":63},{"user_id":266,"name":"Bylbameat","steam_id":76561199146468626,"connected_time":4493000000000,"state":"active","ping":240},{"user_id":335,"name":"japjao","steam_id":76561199230386527,"connected_time":468000000000,"state":"active","ping":54},{"user_id":275,"name":"Cheese Goblin","steam_id":76561198102366281,"connected_time":4069000000000,"state":"active","ping":43},{"user_id":316,"name":"katten","steam_id":76561198163615254,"connected_time":1345000000000,"state":"active","ping":61},{"user_id":337,"name":"3-//","steam_id":76561197991837764,"connected_time":201000000000,"state":"active","ping":75},{"user_id":277,"name":"Acceonit","steam_id":76561199089797619,"connected_time":3999000000000,"state":"active","ping":123},{"user_id":324,"name":"quickfast","steam_id":76561199438900919,"connected_time":1009000000000,"state":"active","ping":45},{"user_id":291,"name":"GamerPanda","steam_id":76561198061454277,"connected_time":2703000000000,"state":"active","ping":76},{"user_id":298,"name":"armadillo","steam_id":76561198324656652,"connected_time":2079000000000,"state":"active","ping":69},{"user_id":327,"name":"Shovelhalfrusty","steam_id":76561198346447513,"connected_time":915000000000,"state":"active","ping":78},{"user_id":297,"name":"noot","steam_id":76561198148074472,"connected_time":2115000000000,"state":"active","ping":39},{"user_id":325,"name":"Cookoo","steam_id":76561197999127438,"connected_time":1001000000000,"state":"active","ping":60},{"user_id":304,"name":"raviospagetio","steam_id":76561199121128962,"connected_time":1735000000000,"state":"active","ping":55},{"user_id":311,"name":"Dīng.Zhèn1996","steam_id":76561198152681460,"connected_time":1475000000000,"state":"active","ping":77},{"user_id":292,"name":"12Adam12","steam_id":76561198037882443,"connected_time":2692000000000,"state":"active","ping":59},{"user_id":312,"name":"✘Fenix✘","steam_id":76561198078987453,"connected_time":1466000000000,"state":"active","ping":44},{"user_id":320,"name":"Aida","steam_id":76561198311044984,"connected_time":1265000000000,"state":"active","ping":71},{"user_id":328,"name":"DavidRcv","steam_id":76561198119522337,"connected_time":902000000000,"state":"active","ping":97},{"user_id":322,"name":"Kamanie","steam_id":76561198135448255,"connected_time":1198000000000,"state":"active","ping":75},{"user_id":294,"name":"David \"Crash\" Murphy","steam_id":76561198292845505,"connected_time":2224000000000,"state":"active","ping":99},{"user_id":336,"name":"Economic crisis","steam_id":76561198063562843,"connected_time":358000000000,"state":"active","ping":74},{"user_id":309,"name":"Dan Dan the Furious","steam_id":76561198091032527,"connected_time":1580000000000,"state":"active","ping":54}]},{"server_id":21,"name":"Uncletopia | London | 5 | All Maps","name_short":"lon-5","host":"lon-1.uk.uncletopia.com","port":27055,"enabled":true,"region":"eu","cc":"gb","latitude":51.509865,"longitude":-0.118092,"reserved":0,"last_update":"0001-01-01T00:00:00Z","name_a2s":"Uncletopia | London | 5 | All Maps","protocol":17,"map":"pl_frontier_final","folder":"tf","game":"Team Fortress","app_id":440,"player_count":24,"max_players":24,"Bots":0,"server_type":"Dedicated","server_os":"Linux","password":true,"vac":true,"version":"7961495","steam_id":85568392924742829,"keywords":["nocrits","nodmgspread","payload","uncletopia"],"game_id":440,"stv_port":27056,"stv_name":"Uncletopia | London | 5 | All Maps | STV","players":[{"user_id":240,"name":"A Precious Spap","steam_id":76561199186496740,"connected_time":835000000000,"state":"active","ping":162},{"user_id":222,"name":"Moon","steam_id":76561198808108594,"connected_time":1557000000000,"state":"active","ping":92},{"user_id":220,"name":"omnibombulator","steam_id":76561198025858897,"connected_time":1755000000000,"state":"active","ping":46},{"user_id":223,"name":"Mobster Tortoise","steam_id":76561199036837091,"connected_time":1557000000000,"state":"active","ping":96},{"user_id":144,"name":"niandits","steam_id":76561198419798900,"connected_time":7753000000000,"state":"active","ping":153},{"user_id":252,"name":"cactus varo","steam_id":76561198968770670,"connected_time":300000000000,"state":"active","ping":78},{"user_id":224,"name":"63756d","steam_id":76561198808699024,"connected_time":1520000000000,"state":"active","ping":70},{"user_id":247,"name":"Fridge","steam_id":76561198071665589,"connected_time":572000000000,"state":"active","ping":100},{"user_id":227,"name":"TrickyTriumph","steam_id":76561197995681057,"connected_time":1369000000000,"state":"active","ping":46},{"user_id":255,"name":"SPORKULES","steam_id":76561198035540562,"connected_time":78000000000,"state":"active","ping":54},{"user_id":232,"name":"Futatsuiwa Mamizou","steam_id":76561198799303596,"connected_time":1154000000000,"state":"active","ping":108},{"user_id":233,"name":"bignazzer","steam_id":76561199472149697,"connected_time":1150000000000,"state":"active","ping":59},{"user_id":234,"name":"threedb","steam_id":76561198087626806,"connected_time":1026000000000,"state":"active","ping":185},{"user_id":164,"name":"carrot enjoyer","steam_id":76561198069649097,"connected_time":6125000000000,"state":"active","ping":61},{"user_id":235,"name":"Bahaanin","steam_id":76561199001587424,"connected_time":1006000000000,"state":"active","ping":61},{"user_id":249,"name":"Juan Solo","steam_id":76561198018688536,"connected_time":548000000000,"state":"active","ping":131},{"user_id":238,"name":"a hoovy","steam_id":76561199259786987,"connected_time":896000000000,"state":"active","ping":59},{"user_id":253,"name":"TheEmeraldStar","steam_id":76561198072942529,"connected_time":173000000000,"state":"active","ping":75},{"user_id":254,"name":"Woman (Real)","steam_id":76561199151823932,"connected_time":164000000000,"state":"active","ping":82},{"user_id":246,"name":"bladerunner | Trade.tf","steam_id":76561198272175230,"connected_time":668000000000,"state":"active","ping":56},{"user_id":256,"name":"Logern","steam_id":76561198085243794,"connected_time":67000000000,"state":"active","ping":58},{"user_id":244,"name":"jawA","steam_id":76561198070341774,"connected_time":751000000000,"state":"active","ping":86},{"user_id":250,"name":"pepper","steam_id":76561198852650589,"connected_time":473000000000,"state":"active","ping":75},{"user_id":198,"name":"Bruschetta","steam_id":76561198251927162,"connected_time":4259000000000,"state":"active","ping":74}]},{"server_id":22,"name":"Uncletopia | London | 6 | All Maps","name_short":"lon-6","host":"lon-1.uk.uncletopia.com","port":27065,"enabled":true,"region":"eu","cc":"gb","latitude":51.509865,"longitude":-0.118092,"reserved":0,"last_update":"0001-01-01T00:00:00Z","name_a2s":"Uncletopia | London | 6 | All Maps","protocol":17,"map":"pl_upward","folder":"tf","game":"Team Fortress","app_id":440,"player_count":24,"max_players":24,"Bots":0,"server_type":"Dedicated","server_os":"Linux","password":true,"vac":true,"version":"7961495","steam_id":85568392924742830,"keywords":["nocrits","nodmgspread","payload","uncletopia"],"game_id":440,"stv_port":27066,"stv_name":"Uncletopia | London | 6 | All Maps | STV","players":[{"user_id":331,"name":"R1CO#8624","steam_id":76561198141828284,"connected_time":575000000000,"state":"active","ping":72},{"user_id":332,"name":"Qwerty","steam_id":76561198023525894,"connected_time":575000000000,"state":"active","ping":79},{"user_id":252,"name":"cock dick gaming","steam_id":76561199042470246,"connected_time":8519000000000,"state":"active","ping":74},{"user_id":304,"name":"Dungdil","steam_id":76561198351930639,"connected_time":2868000000000,"state":"active","ping":62},{"user_id":310,"name":"ExtraFlames","steam_id":76561199136146246,"connected_time":1999000000000,"state":"active","ping":60},{"user_id":337,"name":"Prototype M.A.K","steam_id":76561198416932796,"connected_time":7000000000,"state":"active","ping":133},{"user_id":155,"name":"Fuck it (unhandicaps)","steam_id":76561197983095579,"connected_time":14132000000000,"state":"active","ping":85},{"user_id":296,"name":"Son Goku","steam_id":76561199383437138,"connected_time":3834000000000,"state":"active","ping":362},{"user_id":312,"name":"irritable vowel syndrome","steam_id":76561198117033273,"connected_time":1723000000000,"state":"active","ping":56},{"user_id":292,"name":"Kernel Panic","steam_id":76561198215811047,"connected_time":4339000000000,"state":"active","ping":39},{"user_id":329,"name":"free back real estate","steam_id":76561197999437155,"connected_time":812000000000,"state":"active","ping":50},{"user_id":327,"name":"I Love Filtered Water","steam_id":76561198016042113,"connected_time":1016000000000,"state":"active","ping":89},{"user_id":269,"name":"Coq Consumer","steam_id":76561198450526083,"connected_time":6533000000000,"state":"active","ping":71},{"user_id":288,"name":"hazy","steam_id":76561198189686075,"connected_time":5081000000000,"state":"active","ping":45},{"user_id":268,"name":"Gluttony","steam_id":76561198243258784,"connected_time":6537000000000,"state":"active","ping":75},{"user_id":293,"name":"⸸aura⸸","steam_id":76561198066258544,"connected_time":4184000000000,"state":"active","ping":62},{"user_id":276,"name":"Pyrolander","steam_id":76561198050785450,"connected_time":6266000000000,"state":"active","ping":39},{"user_id":235,"name":"Sza","steam_id":76561198022132105,"connected_time":9807000000000,"state":"active","ping":63},{"user_id":324,"name":"Demifletch","steam_id":76561199468472941,"connected_time":1107000000000,"state":"active","ping":132},{"user_id":338,"name":"Strix","steam_id":76561198015322735,"connected_time":3000000000,"state":"spawning","ping":34},{"user_id":328,"name":"Mircoxi","steam_id":76561199407632710,"connected_time":905000000000,"state":"active","ping":56},{"user_id":333,"name":"Korvahkh","steam_id":76561198152127949,"connected_time":556000000000,"state":"active","ping":159},{"user_id":335,"name":"Nooters","steam_id":76561198154576395,"connected_time":143000000000,"state":"active","ping":91},{"user_id":117,"name":"transgender e-girl","steam_id":76561198168589809,"connected_time":17624000000000,"state":"active","ping":60}]},{"server_id":40,"name":"Uncletopia | London | 7 | Stopwatch","name_short":"lon-7","host":"lon-1.uk.uncletopia.com","port":27075,"enabled":true,"region":"eu","cc":"gb","latitude":51.509865,"longitude":-0.118092,"reserved":0,"last_update":"0001-01-01T00:00:00Z","name_a2s":"Uncletopia | London | 7 | Stopwatch","protocol":17,"map":"pl_upward","folder":"tf","game":"Team Fortress","app_id":440,"player_count":24,"max_players":24,"Bots":0,"server_type":"Dedicated","server_os":"Linux","password":true,"vac":true,"version":"7961495","steam_id":85568392924964314,"keywords":["nocrits","nodmgspread","payload","uncletopia"],"game_id":440,"stv_port":27076,"stv_name":"Uncletopia | London | 7 | Stopwatch | STV","players":[{"user_id":206,"name":"pibel","steam_id":76561199139066133,"connected_time":324000000000,"state":"active","ping":73},{"user_id":202,"name":"Atlas#SaveTf2","steam_id":76561198876084253,"connected_time":561000000000,"state":"active","ping":73},{"user_id":207,"name":"Rohnus","steam_id":76561198074049934,"connected_time":266000000000,"state":"active","ping":57},{"user_id":208,"name":"Eric Catman","steam_id":76561198802117294,"connected_time":241000000000,"state":"active","ping":66},{"user_id":197,"name":"Hinojo","steam_id":76561198015573257,"connected_time":940000000000,"state":"active","ping":72},{"user_id":204,"name":"oskar.collins2","steam_id":76561199092232637,"connected_time":507000000000,"state":"active","ping":78},{"user_id":161,"name":"JonnyBrein_PT","steam_id":76561199077044609,"connected_time":3449000000000,"state":"active","ping":80},{"user_id":180,"name":"padillacampos","steam_id":76561198161923970,"connected_time":2214000000000,"state":"active","ping":81},{"user_id":199,"name":"Battlefield Medic","steam_id":76561198167539381,"connected_time":827000000000,"state":"active","ping":80},{"user_id":205,"name":"R8N - Obismal","steam_id":76561198007482714,"connected_time":499000000000,"state":"active","ping":81},{"user_id":187,"name":"ran is running","steam_id":76561199443185667,"connected_time":1438000000000,"state":"active","ping":134},{"user_id":136,"name":"Unreliable, funny and dangerous","steam_id":76561198050709790,"connected_time":4366000000000,"state":"active","ping":99},{"user_id":200,"name":"Kean","steam_id":76561198147081884,"connected_time":825000000000,"state":"active","ping":136},{"user_id":214,"name":"Burgoo_King","steam_id":76561198133572225,"connected_time":2000000000,"state":"spawning","ping":88},{"user_id":210,"name":"Jennyprx","steam_id":76561199105538121,"connected_time":190000000000,"state":"active","ping":56},{"user_id":141,"name":"Katsu!","steam_id":76561198082570310,"connected_time":4201000000000,"state":"active","ping":90},{"user_id":194,"name":"Mister","steam_id":76561199049647854,"connected_time":1097000000000,"state":"active","ping":49},{"user_id":188,"name":"Xerer","steam_id":76561197997939767,"connected_time":1435000000000,"state":"active","ping":64},{"user_id":174,"name":"MEDiUM","steam_id":76561198112328561,"connected_time":2514000000000,"state":"active","ping":86},{"user_id":211,"name":"Captain Cockadoo","steam_id":76561198406491336,"connected_time":190000000000,"state":"active","ping":141},{"user_id":213,"name":"Sylvanas","steam_id":76561198154904165,"connected_time":75000000000,"state":"active","ping":118},{"user_id":212,"name":"Flying skyhigh","steam_id":76561198372971096,"connected_time":172000000000,"state":"active","ping":90},{"user_id":195,"name":"Sloth","steam_id":76561198030577957,"connected_time":1089000000000,"state":"active","ping":77},{"user_id":201,"name":"Roboolet","steam_id":76561198107353953,"connected_time":813000000000,"state":"active","ping":52}]},{"server_id":41,"name":"Uncletopia | London | 8 | Community","name_short":"lon-8","host":"lon-1.uk.uncletopia.com","port":27085,"enabled":true,"region":"eu","cc":"gb","latitude":51.509865,"longitude":-0.118092,"reserved":0,"last_update":"0001-01-01T00:00:00Z","name_a2s":"Uncletopia | London | 8 | Community","protocol":17,"map":"workshop/koth_trenchfoot_b1a.ugc731436616","folder":"tf","game":"Team Fortress","app_id":440,"player_count":6,"max_players":24,"Bots":0,"server_type":"Dedicated","server_os":"Linux","password":true,"vac":true,"version":"7961495","steam_id":85568392924964315,"keywords":["cp","nocrits","nodmgspread","uncletopia"],"game_id":440,"stv_port":27086,"stv_name":"Uncletopia | London | 8 | Community | STV","players":[{"user_id":21,"name":"ninxl","steam_id":76561198872900838,"connected_time":732000000000,"state":"active","ping":42},{"user_id":23,"name":"RyanXcAp","steam_id":76561198107919703,"connected_time":719000000000,"state":"active","ping":45},{"user_id":24,"name":"Pingu","steam_id":76561198131719032,"connected_time":705000000000,"state":"active","ping":34},{"user_id":25,"name":"sjmay","steam_id":76561198264054811,"connected_time":703000000000,"state":"active","ping":77},{"user_id":26,"name":"Mongcrete Cow","steam_id":76561198111736997,"connected_time":698000000000,"state":"active","ping":42},{"user_id":27,"name":"Indigo","steam_id":76561197988643601,"connected_time":535000000000,"state":"active","ping":44}]},{"server_id":300,"name":"Uncletopia | Montréal | 1 | One Thousand Uncles","name_short":"mtl-1","host":"mtl-1.ca.uncletopia.com","port":27015,"enabled":true,"region":"us-east","cc":"ca","latitude":45.50889,"longitude":-73.56167,"reserved":0,"last_update":"0001-01-01T00:00:00Z","name_a2s":"","protocol":0,"map":"","folder":"","game":"","app_id":0,"player_count":5,"max_players":0,"Bots":0,"server_type":"","server_os":"","password":false,"vac":false,"version":"","steam_id":0,"keywords":null,"game_id":0,"stv_port":0,"stv_name":"","players":[{"user_id":147,"name":"DrMisteryous2","steam_id":76561198336307012,"connected_time":6568000000000,"state":"active","ping":161},{"user_id":188,"name":"i eat glue","steam_id":76561198827026673,"connected_time":1012000000000,"state":"active","ping":47},{"user_id":182,"name":"Goose of Wisdom","steam_id":76561198233465044,"connected_time":5102000000000,"state":"active","ping":51},{"user_id":187,"name":"Wafflehead","steam_id":76561198053539741,"connected_time":2748000000000,"state":"active","ping":45},{"user_id":185,"name":"kdhbuilder","steam_id":76561199058095193,"connected_time":3585000000000,"state":"active","ping":89}]},{"server_id":301,"name":"Uncletopia | Montréal | 2 | One Thousand Uncles","name_short":"mtl-2","host":"mtl-1.ca.uncletopia.com","port":27025,"enabled":true,"region":"us-east","cc":"ca","latitude":45.50889,"longitude":-73.56167,"reserved":0,"last_update":"0001-01-01T00:00:00Z","name_a2s":"","protocol":0,"map":"","folder":"","game":"","app_id":0,"player_count":10,"max_players":0,"Bots":0,"server_type":"","server_os":"","password":false,"vac":false,"version":"","steam_id":0,"keywords":null,"game_id":0,"stv_port":0,"stv_name":"","players":[{"user_id":112,"name":"Yep","steam_id":76561198041437251,"connected_time":1461000000000,"state":"active","ping":62},{"user_id":134,"name":"Ralsei the fluffy boi","steam_id":76561199013540561,"connected_time":677000000000,"state":"active","ping":137},{"user_id":108,"name":"02boots","steam_id":76561198082060694,"connected_time":1792000000000,"state":"active","ping":104},{"user_id":109,"name":"Misfit","steam_id":76561198365692745,"connected_time":1784000000000,"state":"active","ping":56},{"user_id":74,"name":"Sergeant_Umbreon","steam_id":76561198084188758,"connected_time":7049000000000,"state":"active","ping":121},{"user_id":110,"name":"Soop64","steam_id":76561198866546807,"connected_time":1773000000000,"state":"active","ping":79},{"user_id":132,"name":"Brison","steam_id":76561198051370524,"connected_time":983000000000,"state":"active","ping":102},{"user_id":135,"name":"Diplomatic Dentist","steam_id":76561198203304151,"connected_time":597000000000,"state":"active","ping":226},{"user_id":113,"name":"leumas","steam_id":76561198240408540,"connected_time":1441000000000,"state":"active","ping":58},{"user_id":137,"name":"TheGuy101","steam_id":76561199201772624,"connected_time":520000000000,"state":"active","ping":114}]},{"server_id":302,"name":"Uncletopia | Montréal | 3 | One Thousand Uncles","name_short":"mtl-3","host":"mtl-1.ca.uncletopia.com","port":27035,"enabled":true,"region":"us-east","cc":"ca","latitude":45.50889,"longitude":-73.56167,"reserved":0,"last_update":"0001-01-01T00:00:00Z","name_a2s":"","protocol":0,"map":"","folder":"","game":"","app_id":0,"player_count":0,"max_players":0,"Bots":0,"server_type":"","server_os":"","password":false,"vac":false,"version":"","steam_id":0,"keywords":null,"game_id":0,"stv_port":0,"stv_name":"","players":null},{"server_id":13,"name":"Uncletopia | New York City | 1 | All Maps","name_short":"nyc-1","host":"nyc-1.us.uncletopia.com","port":27015,"enabled":true,"region":"us-east","cc":"us","latitude":40.73061,"longitude":-73.93524,"reserved":0,"last_update":"0001-01-01T00:00:00Z","name_a2s":"Uncletopia | New York City | 1 | All Maps","protocol":17,"map":"cp_dustbowl","folder":"tf","game":"Team Fortress","app_id":440,"player_count":24,"max_players":24,"Bots":0,"server_type":"Dedicated","server_os":"Linux","password":true,"vac":true,"version":"7961495","steam_id":85568392924469993,"keywords":["cp","nocrits","nodmgspread","uncletopia"],"game_id":440,"stv_port":27016,"stv_name":"Uncletopia | New York City | 1 | All Maps | STV","players":[{"user_id":297,"name":"Mog","steam_id":76561198025575870,"connected_time":5000000000,"state":"spawning","ping":46},{"user_id":290,"name":"Endark","steam_id":76561199118160482,"connected_time":101000000000,"state":"active","ping":129},{"user_id":292,"name":"AddonFails","steam_id":76561199122241547,"connected_time":98000000000,"state":"spawning","ping":3486},{"user_id":262,"name":"Rigby","steam_id":76561198258121396,"connected_time":2372000000000,"state":"active","ping":81},{"user_id":182,"name":"Wique","steam_id":76561198071217597,"connected_time":7171000000000,"state":"active","ping":70},{"user_id":291,"name":"Hemiphix","steam_id":76561198329316429,"connected_time":100000000000,"state":"active","ping":63},{"user_id":235,"name":"PossumSpaghetti","steam_id":76561198407385321,"connected_time":4025000000000,"state":"active","ping":131},{"user_id":264,"name":"dipp","steam_id":76561198395577807,"connected_time":2276000000000,"state":"active","ping":59},{"user_id":280,"name":"remanedur","steam_id":76561198059459507,"connected_time":1704000000000,"state":"active","ping":70},{"user_id":288,"name":"Cimbasso","steam_id":76561198968050004,"connected_time":800000000000,"state":"active","ping":73},{"user_id":267,"name":"Cheeki","steam_id":76561198024375176,"connected_time":2194000000000,"state":"active","ping":39},{"user_id":285,"name":"ndvr","steam_id":76561199379200102,"connected_time":1012000000000,"state":"active","ping":53},{"user_id":296,"name":"theartistnathan","steam_id":76561198833787452,"connected_time":19000000000,"state":"spawning","ping":78},{"user_id":281,"name":"Cheesi","steam_id":76561199417190840,"connected_time":1440000000000,"state":"active","ping":85},{"user_id":294,"name":"Indigolake","steam_id":76561198202215807,"connected_time":45000000000,"state":"active","ping":70},{"user_id":287,"name":"Top Frog","steam_id":76561198072793446,"connected_time":887000000000,"state":"active","ping":70},{"user_id":232,"name":"Bert.","steam_id":76561198140666346,"connected_time":4494000000000,"state":"active","ping":46},{"user_id":83,"name":"A Puppy","steam_id":76561198828184456,"connected_time":14794000000000,"state":"active","ping":45},{"user_id":289,"name":"Bee_Pirate","steam_id":76561199000599111,"connected_time":497000000000,"state":"active","ping":62},{"user_id":238,"name":"fish","steam_id":76561198865524336,"connected_time":3646000000000,"state":"active","ping":68},{"user_id":276,"name":"froge","steam_id":76561198304959766,"connected_time":1883000000000,"state":"active","ping":139},{"user_id":282,"name":"BOB","steam_id":76561198000787196,"connected_time":1437000000000,"state":"active","ping":155},{"user_id":295,"name":"Vegerot","steam_id":76561197997843710,"connected_time":44000000000,"state":"active","ping":45},{"user_id":279,"name":"Zach_The_Flower","steam_id":76561199151266003,"connected_time":1824000000000,"state":"active","ping":91}]},{"server_id":14,"name":"Uncletopia | New York City | 2 | All Maps","name_short":"nyc-2","host":"nyc-1.us.uncletopia.com","port":27025,"enabled":true,"region":"us-east","cc":"us","latitude":40.73061,"longitude":-73.93524,"reserved":0,"last_update":"0001-01-01T00:00:00Z","name_a2s":"Uncletopia | New York City | 2 | All Maps","protocol":17,"map":"pl_snowycoast","folder":"tf","game":"Team Fortress","app_id":440,"player_count":24,"max_players":24,"Bots":0,"server_type":"Dedicated","server_os":"Linux","password":true,"vac":true,"version":"7961495","steam_id":85568392924469994,"keywords":["nocrits","nodmgspread","payload","uncletopia"],"game_id":440,"stv_port":27026,"stv_name":"Uncletopia | New York City | 2 | All Maps | STV","players":[{"user_id":410,"name":"Rambly Dambly","steam_id":76561198844496567,"connected_time":279000000000,"state":"active","ping":39},{"user_id":411,"name":"NerdyEnforcement","steam_id":76561198437710820,"connected_time":265000000000,"state":"active","ping":138},{"user_id":420,"name":"hack fraud","steam_id":76561198015036066,"connected_time":117000000000,"state":"active","ping":111},{"user_id":422,"name":"AIDS GIRAFFE","steam_id":76561198010525744,"connected_time":91000000000,"state":"active","ping":58},{"user_id":384,"name":"WADE BOGGS","steam_id":76561199497207470,"connected_time":2137000000000,"state":"active","ping":86},{"user_id":368,"name":"HUMBY","steam_id":76561198065045867,"connected_time":3395000000000,"state":"active","ping":101},{"user_id":402,"name":"Pizza Party","steam_id":76561198165730754,"connected_time":649000000000,"state":"active","ping":66},{"user_id":408,"name":"sam","steam_id":76561198088504281,"connected_time":317000000000,"state":"active","ping":54},{"user_id":409,"name":"bobbymcbobington","steam_id":76561199089411172,"connected_time":315000000000,"state":"active","ping":123},{"user_id":412,"name":"Raji","steam_id":76561199113478745,"connected_time":255000000000,"state":"active","ping":132},{"user_id":401,"name":"🜏Snowstone🜏","steam_id":76561198373692962,"connected_time":696000000000,"state":"active","ping":76},{"user_id":415,"name":"Raccoon","steam_id":76561199189494190,"connected_time":194000000000,"state":"active","ping":78},{"user_id":383,"name":"Deep Curly","steam_id":76561197981290558,"connected_time":2537000000000,"state":"active","ping":58},{"user_id":421,"name":"Biosock Infiknit","steam_id":76561198072693794,"connected_time":102000000000,"state":"active","ping":76},{"user_id":404,"name":"i hate my bitchmade son","steam_id":76561198044034546,"connected_time":546000000000,"state":"active","ping":67},{"user_id":423,"name":"guy","steam_id":76561198079925551,"connected_time":1000000000,"state":"spawning","ping":30},{"user_id":414,"name":"Cold shoulder","steam_id":76561198453824178,"connected_time":213000000000,"state":"active","ping":144},{"user_id":379,"name":"ham salmontizer","steam_id":76561198168840293,"connected_time":2976000000000,"state":"active","ping":102},{"user_id":380,"name":"b4rry","steam_id":76561198365887154,"connected_time":2855000000000,"state":"active","ping":57},{"user_id":398,"name":"Fairchild Republic A-10 Thndrbl","steam_id":76561199038043360,"connected_time":985000000000,"state":"active","ping":73},{"user_id":372,"name":"WesyUWU (The mini crit pig)","steam_id":76561198069188177,"connected_time":3253000000000,"state":"active","ping":99},{"user_id":417,"name":"callum","steam_id":76561198070918366,"connected_time":175000000000,"state":"active","ping":75},{"user_id":369,"name":"Kung fu Mungus","steam_id":76561198069281556,"connected_time":3375000000000,"state":"active","ping":95},{"user_id":418,"name":"twelve ounces of pootmà","steam_id":76561198178638591,"connected_time":157000000000,"state":"active","ping":82}]},{"server_id":15,"name":"Uncletopia | New York City | 3 | Stopwatch","name_short":"nyc-3","host":"nyc-1.us.uncletopia.com","port":27035,"enabled":true,"region":"us-east","cc":"us","latitude":40.73061,"longitude":-73.93524,"reserved":0,"last_update":"0001-01-01T00:00:00Z","name_a2s":"Uncletopia | New York City | 3 | Stopwatch","protocol":17,"map":"cp_metalworks","folder":"tf","game":"Team Fortress","app_id":440,"player_count":0,"max_players":24,"Bots":0,"server_type":"Dedicated","server_os":"Linux","password":true,"vac":true,"version":"7961495","steam_id":85568392924742820,"keywords":["cp","nocrits","nodmgspread","uncletopia"],"game_id":440,"stv_port":27036,"stv_name":"Uncletopia | New York City | 3 | Stopwatch | STV","players":null},{"server_id":16,"name":"Uncletopia | New York City | 4 | Community","name_short":"nyc-4","host":"nyc-1.us.uncletopia.com","port":27045,"enabled":true,"region":"us-east","cc":"us","latitude":40.73061,"longitude":-73.93524,"reserved":0,"last_update":"0001-01-01T00:00:00Z","name_a2s":"Uncletopia | New York City | 4 | Community","protocol":17,"map":"workshop/pl_divulgence_b4b.ugc2884808746","folder":"tf","game":"Team Fortress","app_id":440,"player_count":25,"max_players":24,"Bots":0,"server_type":"Dedicated","server_os":"Linux","password":true,"vac":true,"version":"7961495","steam_id":85568392924742821,"keywords":["nocrits","nodmgspread","payload","uncletopia"],"game_id":440,"stv_port":27046,"stv_name":"Uncletopia | New York City | 4 | Community | STV","players":[{"user_id":128,"name":"Slav main","steam_id":76561198160796479,"connected_time":1885000000000,"state":"active","ping":66},{"user_id":141,"name":"too deep for most to understand","steam_id":76561198022636144,"connected_time":826000000000,"state":"active","ping":44},{"user_id":115,"name":"⊰Aero⊱","steam_id":76561198084648457,"connected_time":3069000000000,"state":"active","ping":76},{"user_id":137,"name":"MondoDong","steam_id":76561197991400109,"connected_time":1220000000000,"state":"active","ping":54},{"user_id":142,"name":"Brad Bones","steam_id":76561198068129320,"connected_time":777000000000,"state":"active","ping":67},{"user_id":130,"name":"Cla1rv0yant","steam_id":76561198073841803,"connected_time":1790000000000,"state":"active","ping":63},{"user_id":126,"name":"Silverback","steam_id":76561198928735294,"connected_time":2158000000000,"state":"active","ping":142},{"user_id":53,"name":".jpg","steam_id":76561198137237377,"connected_time":6532000000000,"state":"active","ping":62},{"user_id":110,"name":"Peepster","steam_id":76561198297854733,"connected_time":3743000000000,"state":"active","ping":82},{"user_id":150,"name":"caberknight tf2  (f2p-ish)","steam_id":76561199273882768,"connected_time":241000000000,"state":"active","ping":59},{"user_id":133,"name":"Stupid Rat (Extra Stupid)","steam_id":76561199091290729,"connected_time":1535000000000,"state":"active","ping":95},{"user_id":149,"name":"Aimicle","steam_id":76561199392305125,"connected_time":249000000000,"state":"active","ping":64},{"user_id":147,"name":"Menachem","steam_id":76561198041226420,"connected_time":457000000000,"state":"active","ping":60},{"user_id":131,"name":"Psuedonamed Memelord","steam_id":76561198293295694,"connected_time":1755000000000,"state":"active","ping":122},{"user_id":140,"name":"titaniumterminator","steam_id":76561199201357138,"connected_time":842000000000,"state":"active","ping":63},{"user_id":120,"name":"chalupa","steam_id":76561199072435724,"connected_time":2725000000000,"state":"active","ping":61},{"user_id":122,"name":"LegendaireNic","steam_id":76561198211753861,"connected_time":2695000000000,"state":"active","ping":57},{"user_id":139,"name":"andyrams","steam_id":76561198110826418,"connected_time":1077000000000,"state":"active","ping":66},{"user_id":152,"name":"cheese man","steam_id":76561199122214098,"connected_time":70000000000,"state":"connecting","ping":0},{"user_id":121,"name":"Lego Yoda","steam_id":76561199008362890,"connected_time":2720000000000,"state":"active","ping":46},{"user_id":123,"name":"onuralp_tf2","steam_id":76561198133321967,"connected_time":2635000000000,"state":"active","ping":164},{"user_id":151,"name":"Winston Churchill Is Bad At TF2","steam_id":76561198315973318,"connected_time":151000000000,"state":"active","ping":56},{"user_id":148,"name":"kikikikoboy","steam_id":76561198073380271,"connected_time":335000000000,"state":"active","ping":70},{"user_id":143,"name":"Zerwee","steam_id":76561198181368101,"connected_time":739000000000,"state":"active","ping":143},{"user_id":153,"name":"canadian birds","steam_id":76561198059466588,"connected_time":68000000000,"state":"active","ping":51}]},{"server_id":142,"name":"Uncletopia | São Paulo | 1 | All Maps","name_short":"sao-1","host":"sao-1.br.uncletopia.com","port":27015,"enabled":true,"region":"sa","cc":"br","latitude":-23.533773,"longitude":-46.62529,"reserved":0,"last_update":"0001-01-01T00:00:00Z","name_a2s":"Uncletopia | São Paulo | 1 | All Maps","protocol":17,"map":"koth_lakeside_final","folder":"tf","game":"Team Fortress","app_id":440,"player_count":0,"max_players":24,"Bots":0,"server_type":"Dedicated","server_os":"Linux","password":true,"vac":true,"version":"7961495","steam_id":85568392924469996,"keywords":["cp","nocrits","nodmgspread","uncletopia"],"game_id":440,"stv_port":27016,"stv_name":"Uncletopia | São Paulo | 1 | All Maps | STV","players":null},{"server_id":143,"name":"Uncletopia | São Paulo | 2 | Community","name_short":"sao-2","host":"sao-2.br.uncletopia.com","port":27015,"enabled":true,"region":"sa","cc":"br","latitude":-23.533773,"longitude":-46.62529,"reserved":0,"last_update":"0001-01-01T00:00:00Z","name_a2s":"Uncletopia | São Paulo | 2 | Community","protocol":17,"map":"workshop/cp_logjam_rc12.ugc454812035","folder":"tf","game":"Team Fortress","app_id":440,"player_count":0,"max_players":24,"Bots":0,"server_type":"Dedicated","server_os":"Linux","password":true,"vac":true,"version":"7961495","steam_id":85568392924485349,"keywords":["cp","nocrits","nodmgspread","uncletopia"],"game_id":440,"stv_port":27016,"stv_name":"Uncletopia | São Paulo | 2 | Community | STV","players":null},{"server_id":7,"name":"Uncletopia | Seattle | 1 | All Maps","name_short":"sea-1","host":"sea-1.us.uncletopia.com","port":27015,"enabled":true,"region":"us-west","cc":"us","latitude":47.608013,"longitude":-122.33517,"reserved":0,"last_update":"0001-01-01T00:00:00Z","name_a2s":"Uncletopia | Seattle | 1 | All Maps","protocol":17,"map":"pl_badwater","folder":"tf","game":"Team Fortress","app_id":440,"player_count":24,"max_players":24,"Bots":0,"server_type":"Dedicated","server_os":"Linux","password":true,"vac":true,"version":"7961495","steam_id":85568392924469997,"keywords":["nocrits","nodmgspread","payload","uncletopia"],"game_id":440,"stv_port":27016,"stv_name":"Uncletopia | Seattle | 1 | All Maps | STV","players":[{"user_id":272,"name":"Grand","steam_id":76561198290143399,"connected_time":6756000000000,"state":"active","ping":72},{"user_id":335,"name":"Your Dinosaurs","steam_id":76561198392670237,"connected_time":872000000000,"state":"active","ping":65},{"user_id":254,"name":"Level 99 Mudcrab","steam_id":76561198077452771,"connected_time":8096000000000,"state":"active","ping":84},{"user_id":304,"name":"Borked","steam_id":76561197984964095,"connected_time":2988000000000,"state":"active","ping":74},{"user_id":292,"name":"Spectre","steam_id":76561198037535169,"connected_time":4511000000000,"state":"active","ping":74},{"user_id":288,"name":"Pyrotek⁴","steam_id":76561198072747672,"connected_time":5069000000000,"state":"active","ping":76},{"user_id":339,"name":"Punished Jeff #NeverSimpAgain","steam_id":76561198304252584,"connected_time":684000000000,"state":"active","ping":66},{"user_id":326,"name":"hyazZaZa","steam_id":76561199100342013,"connected_time":1262000000000,"state":"active","ping":76},{"user_id":331,"name":"ShackerJack","steam_id":76561198118017448,"connected_time":1108000000000,"state":"active","ping":57},{"user_id":334,"name":"Meerkat","steam_id":76561199245435539,"connected_time":952000000000,"state":"active","ping":74},{"user_id":314,"name":"WillieMakit","steam_id":76561197985391684,"connected_time":2211000000000,"state":"active","ping":104},{"user_id":319,"name":"aisu","steam_id":76561198043768507,"connected_time":1464000000000,"state":"active","ping":91},{"user_id":336,"name":"Yoyo-Wo","steam_id":76561198880520205,"connected_time":857000000000,"state":"active","ping":83},{"user_id":327,"name":"kenZino","steam_id":76561197967971192,"connected_time":1243000000000,"state":"active","ping":55},{"user_id":320,"name":"Grunt","steam_id":76561198200758903,"connected_time":1442000000000,"state":"active","ping":81},{"user_id":338,"name":"a cat plushie","steam_id":76561198080046542,"connected_time":755000000000,"state":"active","ping":52},{"user_id":330,"name":"Seriously Bruh","steam_id":76561198070408485,"connected_time":1149000000000,"state":"active","ping":80},{"user_id":324,"name":"BatJet","steam_id":76561198147738441,"connected_time":1325000000000,"state":"active","ping":98},{"user_id":312,"name":"duke8714","steam_id":76561199229982201,"connected_time":2665000000000,"state":"active","ping":83},{"user_id":315,"name":"lasky","steam_id":76561198017030029,"connected_time":2147000000000,"state":"active","ping":72},{"user_id":333,"name":"Azall","steam_id":76561198080294343,"connected_time":1075000000000,"state":"active","ping":84},{"user_id":298,"name":"♥ Osana Najimi ♥ (Soupcan)","steam_id":76561198056269538,"connected_time":3333000000000,"state":"active","ping":46},{"user_id":179,"name":"Preston","steam_id":76561198255721392,"connected_time":15301000000000,"state":"active","ping":112},{"user_id":209,"name":"Tom Skirrett","steam_id":76561198014600788,"connected_time":11350000000000,"state":"active","ping":63}]},{"server_id":119,"name":"Uncletopia | Seattle | 2 | All Maps","name_short":"sea-2","host":"sea-1.us.uncletopia.com","port":27025,"enabled":true,"region":"us-west","cc":"us","latitude":47.608013,"longitude":-122.33517,"reserved":0,"last_update":"0001-01-01T00:00:00Z","name_a2s":"Uncletopia | Seattle | 2 | All Maps","protocol":17,"map":"koth_harvest_final","folder":"tf","game":"Team Fortress","app_id":440,"player_count":24,"max_players":24,"Bots":0,"server_type":"Dedicated","server_os":"Linux","password":true,"vac":true,"version":"7961495","steam_id":85568392924469998,"keywords":["cp","nocrits","nodmgspread","uncletopia"],"game_id":440,"stv_port":27026,"stv_name":"Uncletopia | Seattle | 2 | All Maps | STV","players":[{"user_id":169,"name":"hello friend","steam_id":76561197999390572,"connected_time":1666000000000,"state":"active","ping":95},{"user_id":176,"name":"Shrimps","steam_id":76561198983016709,"connected_time":576000000000,"state":"active","ping":66},{"user_id":170,"name":"Doppelgänger","steam_id":76561198036730436,"connected_time":1606000000000,"state":"active","ping":74},{"user_id":171,"name":"onionman0106","steam_id":76561199067766868,"connected_time":1594000000000,"state":"active","ping":38},{"user_id":156,"name":"HelloImE","steam_id":76561198069084336,"connected_time":2801000000000,"state":"active","ping":69},{"user_id":172,"name":"MayKaye","steam_id":76561199016092265,"connected_time":1579000000000,"state":"active","ping":76},{"user_id":148,"name":"cielael","steam_id":76561198043971956,"connected_time":3227000000000,"state":"active","ping":77},{"user_id":167,"name":"♦Benji♦","steam_id":76561198313529973,"connected_time":2212000000000,"state":"active","ping":44},{"user_id":160,"name":"reymundo","steam_id":76561197989412830,"connected_time":2304000000000,"state":"active","ping":76},{"user_id":177,"name":"Wingman","steam_id":76561198066270405,"connected_time":387000000000,"state":"active","ping":60},{"user_id":150,"name":"ranni's left nipple","steam_id":76561198131567365,"connected_time":3074000000000,"state":"active","ping":50},{"user_id":174,"name":"CPTforever","steam_id":76561198237767198,"connected_time":1353000000000,"state":"active","ping":60},{"user_id":161,"name":"coWolves","steam_id":76561198171921618,"connected_time":2303000000000,"state":"active","ping":86},{"user_id":116,"name":"QUANDALE DINGLE GAMING #SAVE TF","steam_id":76561199285434768,"connected_time":4618000000000,"state":"active","ping":77},{"user_id":162,"name":"Stolas ♥","steam_id":76561198835430280,"connected_time":2301000000000,"state":"active","ping":67},{"user_id":163,"name":"_cza","steam_id":76561198079793576,"connected_time":2289000000000,"state":"active","ping":43},{"user_id":147,"name":"[TTV]slendermansmoom","steam_id":76561199053946374,"connected_time":3338000000000,"state":"active","ping":57},{"user_id":120,"name":"how many sins","steam_id":76561198213385439,"connected_time":4534000000000,"state":"active","ping":73},{"user_id":166,"name":"for eel? on cod? no carp?","steam_id":76561198095121758,"connected_time":2224000000000,"state":"active","ping":75},{"user_id":175,"name":"rat who can kickflip","steam_id":76561198073620027,"connected_time":1284000000000,"state":"active","ping":45},{"user_id":153,"name":"SpiritGaming4Life","steam_id":76561198799411351,"connected_time":3004000000000,"state":"active","ping":102},{"user_id":168,"name":"i have an rsi","steam_id":76561198020322241,"connected_time":1907000000000,"state":"active","ping":56},{"user_id":154,"name":"LookAtMeGo!","steam_id":76561199235659475,"connected_time":2964000000000,"state":"active","ping":105},{"user_id":179,"name":"Gunboats Reliant Subhuman","steam_id":76561198046526036,"connected_time":106000000000,"state":"active","ping":77}]},{"server_id":406,"name":"Uncletopia | Seattle | 3 | Stopwatch","name_short":"sea-3","host":"sea-1.us.uncletopia.com","port":27035,"enabled":true,"region":"us-west","cc":"us","latitude":47.608013,"longitude":-122.33517,"reserved":0,"last_update":"0001-01-01T00:00:00Z","name_a2s":"Uncletopia | Seattle | 3 | Stopwatch","protocol":17,"map":"workshop/koth_ramjam_rc1.ugc459778887","folder":"tf","game":"Team Fortress","app_id":440,"player_count":0,"max_players":24,"Bots":0,"server_type":"Dedicated","server_os":"Linux","password":true,"vac":true,"version":"7961495","steam_id":85568392924515217,"keywords":["cp","nocrits","nodmgspread","uncletopia"],"game_id":440,"stv_port":27036,"stv_name":"Uncletopia | Seattle | 3 | Stopwatch | STV","players":null},{"server_id":17,"name":"Uncletopia | San Francisco | 1 | All Maps","name_short":"sfo-1","host":"sfo-1.us.uncletopia.com","port":27015,"enabled":true,"region":"us-west","cc":"us","latitude":37.77397,"longitude":-122.4313,"reserved":0,"last_update":"0001-01-01T00:00:00Z","name_a2s":"Uncletopia | San Francisco | 1 | All Maps","protocol":17,"map":"ctf_2fort","folder":"tf","game":"Team Fortress","app_id":440,"player_count":23,"max_players":24,"Bots":0,"server_type":"Dedicated","server_os":"Linux","password":true,"vac":true,"version":"7961495","steam_id":85568392924469999,"keywords":["ctf","nocrits","nodmgspread","uncletopia"],"game_id":440,"stv_port":27016,"stv_name":"Uncletopia | San Francisco | 1 | All Maps | STV","players":[{"user_id":131,"name":"460BF0 JustAWarper","steam_id":76561198850723295,"connected_time":753000000000,"state":"active","ping":76},{"user_id":108,"name":"shakoiwa","steam_id":76561199059441773,"connected_time":2165000000000,"state":"active","ping":57},{"user_id":25,"name":"omnislime","steam_id":76561199382475668,"connected_time":8886000000000,"state":"active","ping":98},{"user_id":78,"name":"Wendigo","steam_id":76561197994528974,"connected_time":5343000000000,"state":"active","ping":90},{"user_id":144,"name":"My Name A Borat","steam_id":76561198077713291,"connected_time":533000000000,"state":"active","ping":94},{"user_id":63,"name":"Birby","steam_id":76561198884009768,"connected_time":6245000000000,"state":"active","ping":55},{"user_id":127,"name":"Who loves orange soda?","steam_id":76561198059808982,"connected_time":1382000000000,"state":"active","ping":61},{"user_id":137,"name":"Radio","steam_id":76561198194821053,"connected_time":674000000000,"state":"active","ping":68},{"user_id":106,"name":"foofydafoofer","steam_id":76561199395830278,"connected_time":2236000000000,"state":"active","ping":162},{"user_id":121,"name":"noel","steam_id":76561198128280883,"connected_time":1626000000000,"state":"active","ping":128},{"user_id":104,"name":"Alchemist","steam_id":76561198094238189,"connected_time":2604000000000,"state":"active","ping":73},{"user_id":133,"name":"Livin' Like Larry","steam_id":76561198313360974,"connected_time":738000000000,"state":"active","ping":44},{"user_id":123,"name":"puffer","steam_id":76561199049164456,"connected_time":1557000000000,"state":"active","ping":60},{"user_id":134,"name":"Higuma","steam_id":76561198375229012,"connected_time":737000000000,"state":"active","ping":59},{"user_id":75,"name":"Funkmaster yee","steam_id":76561198037738918,"connected_time":5393000000000,"state":"active","ping":62},{"user_id":91,"name":"紅鬍子","steam_id":76561198072410042,"connected_time":3785000000000,"state":"active","ping":61},{"user_id":146,"name":"ChronicNight","steam_id":76561199441974578,"connected_time":339000000000,"state":"active","ping":76},{"user_id":145,"name":"Leo x.x","steam_id":76561198309760791,"connected_time":498000000000,"state":"active","ping":98},{"user_id":100,"name":"Cave Dweller","steam_id":76561198374825685,"connected_time":2774000000000,"state":"active","ping":59},{"user_id":99,"name":"bunny","steam_id":76561198194067598,"connected_time":3058000000000,"state":"active","ping":118},{"user_id":83,"name":"Yurei","steam_id":76561198088750661,"connected_time":5199000000000,"state":"active","ping":59},{"user_id":124,"name":"Blue Banana","steam_id":76561198100077411,"connected_time":1556000000000,"state":"active","ping":60},{"user_id":143,"name":"Frank Horrigan","steam_id":76561198066504831,"connected_time":548000000000,"state":"active","ping":63}]},{"server_id":18,"name":"Uncletopia | San Francisco | 2 | All Maps","name_short":"sfo-2","host":"sfo-1.us.uncletopia.com","port":27025,"enabled":true,"region":"us-west","cc":"us","latitude":37.77397,"longitude":-122.4313,"reserved":0,"last_update":"0001-01-01T00:00:00Z","name_a2s":"Uncletopia | San Francisco | 2 | All Maps","protocol":17,"map":"cp_sunshine","folder":"tf","game":"Team Fortress","app_id":440,"player_count":0,"max_players":24,"Bots":0,"server_type":"Dedicated","server_os":"Linux","password":true,"vac":true,"version":"7961495","steam_id":85568392924470000,"keywords":["cp","nocrits","nodmgspread","uncletopia"],"game_id":440,"stv_port":27026,"stv_name":"Uncletopia | San Francisco | 2 | All Maps | STV","players":null},{"server_id":19,"name":"Uncletopia | San Francisco | 3 | Stopwatch","name_short":"sfo-3","host":"sfo-1.us.uncletopia.com","port":27035,"enabled":true,"region":"us-west","cc":"us","latitude":37.77397,"longitude":-122.4313,"reserved":0,"last_update":"0001-01-01T00:00:00Z","name_a2s":"Uncletopia | San Francisco | 3 | Stopwatch","protocol":17,"map":"pl_pier","folder":"tf","game":"Team Fortress","app_id":440,"player_count":0,"max_players":24,"Bots":0,"server_type":"Dedicated","server_os":"Linux","password":true,"vac":true,"version":"7961495","steam_id":85568392924742824,"keywords":["nocrits","nodmgspread","payload","uncletopia"],"game_id":440,"stv_port":27036,"stv_name":"Uncletopia | San Francisco | 3 | Stopwatch | STV","players":null},{"server_id":20,"name":"Uncletopia | San Francisco | 4 | Community","name_short":"sfo-4","host":"sfo-1.us.uncletopia.com","port":27045,"enabled":true,"region":"us-west","cc":"us","latitude":37.77397,"longitude":-122.4313,"reserved":0,"last_update":"0001-01-01T00:00:00Z","name_a2s":"Uncletopia | San Francisco | 4 | Community","protocol":17,"map":"pl_pier","folder":"tf","game":"Team Fortress","app_id":440,"player_count":0,"max_players":24,"Bots":0,"server_type":"Dedicated","server_os":"Linux","password":true,"vac":true,"version":"7961495","steam_id":85568392924742826,"keywords":["nocrits","nodmgspread","payload","uncletopia"],"game_id":440,"stv_port":27046,"stv_name":"Uncletopia | San Francisco | 4 | Community | STV","players":null},{"server_id":141,"name":"Uncletopia | Sydney | 1 | All Maps","name_short":"syd-1","host":"syd-1.au.uncletopia.com","port":27015,"enabled":true,"region":"au","cc":"au","latitude":-33.865143,"longitude":151.2099,"reserved":0,"last_update":"0001-01-01T00:00:00Z","name_a2s":"Uncletopia | Sydney | 1 | All Maps","protocol":17,"map":"koth_viaduct","folder":"tf","game":"Team Fortress","app_id":440,"player_count":0,"max_players":24,"Bots":0,"server_type":"Dedicated","server_os":"Linux","password":true,"vac":true,"version":"7961495","steam_id":85568392924470001,"keywords":["cp","nocrits","nodmgspread","uncletopia"],"game_id":440,"stv_port":27016,"stv_name":"Uncletopia | Sydney | 1 | All Maps | STV","players":null},{"server_id":123,"name":"Uncletopia | Sydney | 2 | All Maps","name_short":"syd-2","host":"syd-1.au.uncletopia.com","port":27025,"enabled":true,"region":"au","cc":"au","latitude":-33.865143,"longitude":151.2099,"reserved":0,"last_update":"0001-01-01T00:00:00Z","name_a2s":"Uncletopia | Sydney | 2 | All Maps","protocol":17,"map":"koth_lakeside_final","folder":"tf","game":"Team Fortress","app_id":440,"player_count":0,"max_players":24,"Bots":0,"server_type":"Dedicated","server_os":"Linux","password":true,"vac":true,"version":"7961495","steam_id":85568392924470002,"keywords":["cp","nocrits","nodmgspread","uncletopia"],"game_id":440,"stv_port":27026,"stv_name":"Uncletopia | Sydney | 2 | All Maps | STV","players":null},{"server_id":395,"name":"Uncletopia | Sydney | 3 | All Maps","name_short":"syd-3","host":"syd-1.au.uncletopia.com","port":27035,"enabled":true,"region":"au","cc":"au","latitude":-33.865143,"longitude":151.2099,"reserved":0,"last_update":"0001-01-01T00:00:00Z","name_a2s":"Uncletopia | Sydney | 3 | All Maps","protocol":17,"map":"pl_frontier_final","folder":"tf","game":"Team Fortress","app_id":440,"player_count":0,"max_players":24,"Bots":0,"server_type":"Dedicated","server_os":"Linux","password":true,"vac":true,"version":"7961495","steam_id":85568392925194467,"keywords":["nocrits","nodmgspread","payload","uncletopia"],"game_id":440,"stv_port":27036,"stv_name":"Uncletopia | Sydney | 3 | All Maps | STV","players":null},{"server_id":396,"name":"Uncletopia | Sydney | 4 | All Maps","name_short":"syd-4","host":"syd-1.au.uncletopia.com","port":27045,"enabled":true,"region":"au","cc":"au","latitude":-33.865143,"longitude":151.2099,"reserved":0,"last_update":"0001-01-01T00:00:00Z","name_a2s":"Uncletopia | Sydney | 4 | All Maps","protocol":17,"map":"cp_process_final","folder":"tf","game":"Team Fortress","app_id":440,"player_count":0,"max_players":24,"Bots":0,"server_type":"Dedicated","server_os":"Linux","password":true,"vac":true,"version":"7961495","steam_id":85568392925397958,"keywords":["cp","nocrits","nodmgspread","uncletopia"],"game_id":440,"stv_port":27046,"stv_name":"Uncletopia | Sydney | 4 | All Maps | STV","players":null},{"server_id":58,"name":"Uncletopia | Sydney | 5 | Stopwatch","name_short":"syd-5","host":"syd-1.au.uncletopia.com","port":27055,"enabled":true,"region":"au","cc":"au","latitude":-33.865143,"longitude":151.2099,"reserved":0,"last_update":"0001-01-01T00:00:00Z","name_a2s":"Uncletopia | Sydney | 5 | Stopwatch","protocol":17,"map":"pl_frontier_final","folder":"tf","game":"Team Fortress","app_id":440,"player_count":0,"max_players":24,"Bots":0,"server_type":"Dedicated","server_os":"Linux","password":true,"vac":true,"version":"7961495","steam_id":85568392925397959,"keywords":["nocrits","nodmgspread","payload","uncletopia"],"game_id":440,"stv_port":27056,"stv_name":"Uncletopia | Sydney | 5 | Stopwatch | STV","players":null},{"server_id":59,"name":"Uncletopia | Sydney | 6 | Community","name_short":"syd-6","host":"syd-1.au.uncletopia.com","port":27065,"enabled":true,"region":"au","cc":"au","latitude":-33.865143,"longitude":151.2099,"reserved":0,"last_update":"0001-01-01T00:00:00Z","name_a2s":"Uncletopia | Sydney | 6 | Community","protocol":17,"map":"cp_sunshine","folder":"tf","game":"Team Fortress","app_id":440,"player_count":0,"max_players":24,"Bots":0,"server_type":"Dedicated","server_os":"Linux","password":true,"vac":true,"version":"7961495","steam_id":85568392925397960,"keywords":["cp","nocrits","nodmgspread","uncletopia"],"game_id":440,"stv_port":27066,"stv_name":"Uncletopia | Sydney | 6 | Community | STV","players":null},{"server_id":49,"name":"Uncletopia | Warsaw | 1 | One Thousand Uncles","name_short":"waw-1","host":"waw-1.pl.uncletopia.com","port":27015,"enabled":true,"region":"eu","cc":"pl","latitude":52.2297,"longitude":21.017532,"reserved":0,"last_update":"0001-01-01T00:00:00Z","name_a2s":"Uncletopia | Warsaw | 1 | One Thousand Uncles","protocol":17,"map":"pl_swiftwater_final1","folder":"tf","game":"Team Fortress","app_id":440,"player_count":28,"max_players":32,"Bots":16,"server_type":"Dedicated","server_os":"Linux","password":true,"vac":true,"version":"7961495","steam_id":85568392925397850,"keywords":["alltalk","bots","danepve","increased_maxplayers","nocrits","norespawntime","payload","uncletopia"],"game_id":440,"stv_port":0,"stv_name":"","players":[{"user_id":551,"name":"( ͠° ͟ʖ ͡°)","steam_id":76561199362861027,"connected_time":6426000000000,"state":"active","ping":311},{"user_id":612,"name":"Edgy Name","steam_id":76561198378270820,"connected_time":1755000000000,"state":"active","ping":45},{"user_id":634,"name":"tadisab","steam_id":76561199484049632,"connected_time":882000000000,"state":"active","ping":149},{"user_id":596,"name":"Piquesque","steam_id":76561198286763046,"connected_time":3439000000000,"state":"active","ping":110},{"user_id":555,"name":"Samuel L. Jackson","steam_id":76561198130427881,"connected_time":5933000000000,"state":"active","ping":190},{"user_id":602,"name":"al.koll1212","steam_id":76561198410670217,"connected_time":2698000000000,"state":"active","ping":61},{"user_id":641,"name":"A Blåhaj Fan","steam_id":76561199029212388,"connected_time":505000000000,"state":"active","ping":41},{"user_id":630,"name":"Nikt Ważny (F2P)","steam_id":76561199273293257,"connected_time":1356000000000,"state":"active","ping":83},{"user_id":631,"name":"SpineJuice","steam_id":76561199084272069,"connected_time":1226000000000,"state":"active","ping":69},{"user_id":639,"name":"lugge","steam_id":76561197963937453,"connected_time":642000000000,"state":"active","ping":64},{"user_id":610,"name":"Womanticore","steam_id":76561199235582031,"connected_time":2099000000000,"state":"active","ping":244},{"user_id":640,"name":"GeraldyJones65","steam_id":76561199122297098,"connected_time":611000000000,"state":"active","ping":146}]},{"server_id":50,"name":"Uncletopia | Warsaw | 2 | One Thousand Uncles","name_short":"waw-2","host":"waw-1.pl.uncletopia.com","port":27025,"enabled":true,"region":"eu","cc":"pl","latitude":52.2297,"longitude":21.017532,"reserved":0,"last_update":"0001-01-01T00:00:00Z","name_a2s":"Uncletopia | Warsaw | 2 | One Thousand Uncles","protocol":17,"map":"pl_upward","folder":"tf","game":"Team Fortress","app_id":440,"player_count":25,"max_players":32,"Bots":16,"server_type":"Dedicated","server_os":"Linux","password":true,"vac":true,"version":"7961495","steam_id":85568392925397851,"keywords":["alltalk","bots","danepve","increased_maxplayers","nocrits","norespawntime","payload","uncletopia"],"game_id":440,"stv_port":0,"stv_name":"","players":[{"user_id":63,"name":"o_o","steam_id":76561198113045011,"connected_time":5431000000000,"state":"active","ping":109},{"user_id":94,"name":"night.s","steam_id":76561198326287823,"connected_time":1774000000000,"state":"active","ping":101},{"user_id":111,"name":"FishD.ck_47","steam_id":76561198114773103,"connected_time":540000000000,"state":"active","ping":97},{"user_id":89,"name":"Eujekas","steam_id":76561198010527145,"connected_time":2550000000000,"state":"active","ping":119},{"user_id":84,"name":"Berserker","steam_id":76561198411142951,"connected_time":2896000000000,"state":"active","ping":92},{"user_id":85,"name":"Aunty Bane","steam_id":76561198091969871,"connected_time":2853000000000,"state":"active","ping":100},{"user_id":69,"name":"Sephiroth","steam_id":76561198390935635,"connected_time":4837000000000,"state":"active","ping":185},{"user_id":86,"name":"BeefHammer","steam_id":76561198078426223,"connected_time":2757000000000,"state":"active","ping":113},{"user_id":92,"name":"Farmbot 512","steam_id":76561198346383246,"connected_time":2143000000000,"state":"active","ping":91}]},{"server_id":51,"name":"Uncletopia | Warsaw | 3 | All Maps","name_short":"waw-3","host":"waw-1.pl.uncletopia.com","port":27035,"enabled":true,"region":"eu","cc":"pl","latitude":52.2297,"longitude":21.017532,"reserved":0,"last_update":"0001-01-01T00:00:00Z","name_a2s":"Uncletopia | Warsaw | 3 | All Maps","protocol":17,"map":"koth_viaduct","folder":"tf","game":"Team Fortress","app_id":440,"player_count":13,"max_players":24,"Bots":0,"server_type":"Dedicated","server_os":"Linux","password":true,"vac":true,"version":"7961495","steam_id":85568392925397852,"keywords":["cp","nocrits","nodmgspread","uncletopia"],"game_id":440,"stv_port":27036,"stv_name":"Uncletopia | Warsaw | 3 | All Maps | STV","players":[{"user_id":294,"name":"dr. coom","steam_id":76561198172193711,"connected_time":610000000000,"state":"active","ping":60},{"user_id":255,"name":"dAtathefe","steam_id":76561199014883248,"connected_time":3814000000000,"state":"active","ping":117},{"user_id":267,"name":"f4f_cricket","steam_id":76561197985879993,"connected_time":2991000000000,"state":"active","ping":61},{"user_id":289,"name":"ducks","steam_id":76561198166148685,"connected_time":1321000000000,"state":"active","ping":59},{"user_id":298,"name":"никита покафон","steam_id":76561199151438026,"connected_time":70000000000,"state":"active","ping":60},{"user_id":281,"name":"Bounty","steam_id":76561198032698137,"connected_time":2674000000000,"state":"active","ping":34},{"user_id":271,"name":"Guthlaf","steam_id":76561198153564078,"connected_time":2906000000000,"state":"active","ping":49},{"user_id":297,"name":"Pagulos","steam_id":76561199121970389,"connected_time":101000000000,"state":"active","ping":50},{"user_id":260,"name":"Niko","steam_id":76561199006295285,"connected_time":3309000000000,"state":"active","ping":73},{"user_id":292,"name":"aKENTich","steam_id":76561198062861198,"connected_time":1103000000000,"state":"active","ping":113},{"user_id":273,"name":"Laryssa","steam_id":76561198271084076,"connected_time":2894000000000,"state":"active","ping":44},{"user_id":172,"name":"Mario","steam_id":76561198053838936,"connected_time":8881000000000,"state":"active","ping":94},{"user_id":237,"name":"Pandamonium","steam_id":76561198057725524,"connected_time":5300000000000,"state":"active","ping":74}]},{"server_id":52,"name":"Uncletopia | Warsaw | 4 | All Maps","name_short":"waw-4","host":"waw-1.pl.uncletopia.com","port":27045,"enabled":true,"region":"eu","cc":"pl","latitude":52.2297,"longitude":21.017532,"reserved":0,"last_update":"0001-01-01T00:00:00Z","name_a2s":"Uncletopia | Warsaw | 4 | All Maps","protocol":17,"map":"pl_swiftwater_final1","folder":"tf","game":"Team Fortress","app_id":440,"player_count":21,"max_players":24,"Bots":0,"server_type":"Dedicated","server_os":"Linux","password":true,"vac":true,"version":"7961495","steam_id":85568392925397853,"keywords":["nocrits","nodmgspread","payload","uncletopia"],"game_id":440,"stv_port":27046,"stv_name":"Uncletopia | Warsaw | 4 | All Maps | STV","players":[{"user_id":108,"name":"MINPJ","steam_id":76561199364106508,"connected_time":1786000000000,"state":"active","ping":85},{"user_id":135,"name":"Rocketman 11890","steam_id":76561198117858919,"connected_time":376000000000,"state":"active","ping":79},{"user_id":133,"name":"Janfors","steam_id":76561198874152503,"connected_time":561000000000,"state":"active","ping":63},{"user_id":112,"name":"FackOff","steam_id":76561198167353035,"connected_time":1594000000000,"state":"active","ping":50},{"user_id":113,"name":"baking bread","steam_id":76561199121614386,"connected_time":1592000000000,"state":"active","ping":60},{"user_id":72,"name":"Kiwi","steam_id":76561198973862092,"connected_time":4325000000000,"state":"active","ping":60},{"user_id":73,"name":"pajakala","steam_id":76561198271641525,"connected_time":4319000000000,"state":"active","ping":60},{"user_id":74,"name":"Wesnicak CZ","steam_id":76561198124483688,"connected_time":4314000000000,"state":"active","ping":51},{"user_id":75,"name":"Cikula","steam_id":76561198324384778,"connected_time":4310000000000,"state":"active","ping":61},{"user_id":121,"name":"Pomperipossa","steam_id":76561198011456806,"connected_time":1337000000000,"state":"active","ping":75},{"user_id":77,"name":"Mabert","steam_id":76561198436058407,"connected_time":4107000000000,"state":"active","ping":48},{"user_id":106,"name":"Lorenzo Lovers","steam_id":76561198073973581,"connected_time":2083000000000,"state":"active","ping":90},{"user_id":79,"name":"ashi","steam_id":76561198424646794,"connected_time":4090000000000,"state":"active","ping":77},{"user_id":137,"name":"Nils #freemichi","steam_id":76561198254882979,"connected_time":38000000000,"state":"active","ping":75},{"user_id":102,"name":"Yes","steam_id":76561199036314428,"connected_time":2400000000000,"state":"active","ping":73},{"user_id":115,"name":"raddaway","steam_id":76561197985156003,"connected_time":1565000000000,"state":"active","ping":91},{"user_id":138,"name":"Delere","steam_id":76561198061309755,"connected_time":35000000000,"state":"active","ping":98},{"user_id":123,"name":"ДИНОЗАВР","steam_id":76561198054281705,"connected_time":1162000000000,"state":"active","ping":98},{"user_id":125,"name":"Seph \u003c3","steam_id":76561198062593199,"connected_time":1034000000000,"state":"active","ping":63},{"user_id":134,"name":"Dr_Foxy","steam_id":76561199438046064,"connected_time":537000000000,"state":"active","ping":113},{"user_id":136,"name":"noseb","steam_id":76561199480942903,"connected_time":115000000000,"state":"active","ping":81}]},{"server_id":53,"name":"Uncletopia | Warsaw | 5 | Stopwatch","name_short":"waw-5","host":"waw-1.pl.uncletopia.com","port":27055,"enabled":true,"region":"eu","cc":"pl","latitude":52.2297,"longitude":21.017532,"reserved":0,"last_update":"0001-01-01T00:00:00Z","name_a2s":"Uncletopia | Warsaw | 5 | Stopwatch","protocol":17,"map":"workshop/koth_product_final.ugc454272353","folder":"tf","game":"Team Fortress","app_id":440,"player_count":0,"max_players":24,"Bots":0,"server_type":"Dedicated","server_os":"Linux","password":true,"vac":true,"version":"7961495","steam_id":85568392925397854,"keywords":["cp","nocrits","nodmgspread","uncletopia"],"game_id":440,"stv_port":27056,"stv_name":"Uncletopia | Warsaw | 5 | Stopwatch | STV","players":null},{"server_id":54,"name":"Uncletopia | Warsaw | 6 | Community","name_short":"waw-6","host":"waw-1.pl.uncletopia.com","port":27065,"enabled":true,"region":"eu","cc":"pl","latitude":52.2297,"longitude":21.017532,"reserved":0,"last_update":"0001-01-01T00:00:00Z","name_a2s":"Uncletopia | Warsaw | 6 | Community","protocol":17,"map":"workshop/koth_kemptown_rc1.ugc767410655","folder":"tf","game":"Team Fortress","app_id":440,"player_count":0,"max_players":24,"Bots":0,"server_type":"Dedicated","server_os":"Linux","password":true,"vac":true,"version":"7961495","steam_id":85568392925397856,"keywords":["cp","nocrits","nodmgspread","uncletopia"],"game_id":440,"stv_port":27066,"stv_name":"Uncletopia | Warsaw | 6 | Community | STV","players":null}]}