{"status":true,"message":"","result":[{"server_id":9,"name":"Uncletopia | Atlanta | 1 | All Maps","name_short":"atl-1","host":"atl-1.us.uncletopia.com","port":27015,"enabled":true,"region":"us-east","cc":"us","latitude":33.753746,"longitude":-84.38633,"reserved":0,"last_update":"0001-01-01T00:00:00Z","name_a2s":"Uncletopia | Atlanta | 1 | All Maps","protocol":17,"map":"koth_lakeside_final","folder":"tf","game":"Team Fortress","app_id":440,"player_count":24,"max_players":24,"Bots":0,"server_type":"Dedicated","server_os":"Linux","password":true,"vac":true,"version":"7882260","steam_id":85568392924469982,"keywords":["cp","nocrits","nodmgspread","uncletopia"],"game_id":440,"stv_port":27016,"stv_name":"Uncletopia | Atlanta | 1 | All Maps | STV","players":[{"user_id":229,"name":"Riddle","steam_id":76561198892207399,"connected_time":4828000000000,"state":"active","ping":77},{"user_id":257,"name":"⌓‿⌓","steam_id":76561198289280906,"connected_time":2279000000000,"state":"active","ping":88},{"user_id":263,"name":"doubleshare","steam_id":76561198024472046,"connected_time":1505000000000,"state":"active","ping":85},{"user_id":260,"name":"Vanya","steam_id":76561198042631561,"connected_time":1938000000000,"state":"active","ping":79},{"user_id":278,"name":"garette","steam_id":76561198330911140,"connected_time":350000000000,"state":"active","ping":80},{"user_id":285,"name":"Ashes!","steam_id":76561197998475441,"connected_time":169000000000,"state":"active","ping":80},{"user_id":286,"name":"Master John Thursday","steam_id":76561197987593154,"connected_time":76000000000,"state":"active","ping":63},{"user_id":232,"name":"marguerite","steam_id":76561198170873495,"connected_time":4115000000000,"state":"active","ping":55},{"user_id":270,"name":"vordhosbn","steam_id":76561198148132163,"connected_time":1132000000000,"state":"active","ping":89},{"user_id":275,"name":"Hold Still","steam_id":76561198119536891,"connected_time":857000000000,"state":"active","ping":69},{"user_id":279,"name":"Dongus","steam_id":76561197979056451,"connected_time":305000000000,"state":"active","ping":102},{"user_id":281,"name":"bingabooga","steam_id":76561198101057741,"connected_time":291000000000,"state":"active","ping":71},{"user_id":271,"name":"trilobita","steam_id":76561198428215606,"connected_time":1066000000000,"state":"active","ping":70},{"user_id":272,"name":"Keirb","steam_id":76561198027031567,"connected_time":1055000000000,"state":"active","ping":81},{"user_id":261,"name":"tux","steam_id":76561198167746330,"connected_time":1728000000000,"state":"active","ping":50},{"user_id":282,"name":"medic gaming","steam_id":76561199013658188,"connected_time":258000000000,"state":"active","ping":96},{"user_id":255,"name":"and i'm javert!","steam_id":76561198117033273,"connected_time":2382000000000,"state":"active","ping":149},{"user_id":276,"name":"John Darksoul","steam_id":76561198999712284,"connected_time":763000000000,"state":"active","ping":90},{"user_id":284,"name":"Clovenspark","steam_id":76561198799197419,"connected_time":210000000000,"state":"active","ping":75},{"user_id":262,"name":"Oni","steam_id":76561198112066584,"connected_time":1545000000000,"state":"active","ping":57},{"user_id":265,"name":"nori_420 (mute)","steam_id":76561199117134203,"connected_time":1490000000000,"state":"active","ping":123},{"user_id":234,"name":"Bag","steam_id":76561198012395490,"connected_time":4019000000000,"state":"active","ping":58},{"user_id":266,"name":"juanito \u003c3","steam_id":76561198096751293,"connected_time":1475000000000,"state":"active","ping":71},{"user_id":288,"name":"The Pod (1991)","steam_id":76561198159339442,"connected_time":46000000000,"state":"active","ping":91}]},{"server_id":104,"name":"Uncletopia | Atlanta | 2 | All Maps","name_short":"atl-2","host":"atl-1.us.uncletopia.com","port":27025,"enabled":true,"region":"us-east","cc":"us","latitude":33.753746,"longitude":-84.38633,"reserved":0,"last_update":"0001-01-01T00:00:00Z","name_a2s":"Uncletopia | Atlanta | 2 | All Maps","protocol":17,"map":"cp_altitude","folder":"tf","game":"Team Fortress","app_id":440,"player_count":24,"max_players":24,"Bots":0,"server_type":"Dedicated","server_os":"Linux","password":true,"vac":true,"version":"7882260","steam_id":85568392924469983,"keywords":["cp","nocrits","nodmgspread","uncletopia"],"game_id":440,"stv_port":27026,"stv_name":"Uncletopia | Atlanta | 2 | All Maps | STV","players":[{"user_id":208,"name":"TheMrMan","steam_id":76561198072304288,"connected_time":1827000000000,"state":"active","ping":80},{"user_id":202,"name":"Noid","steam_id":76561198227804500,"connected_time":2713000000000,"state":"active","ping":69},{"user_id":220,"name":"=)","steam_id":76561198076598729,"connected_time":857000000000,"state":"active","ping":67},{"user_id":105,"name":"Duckywinner","steam_id":76561198254828139,"connected_time":10204000000000,"state":"active","ping":58},{"user_id":211,"name":"Mr. Klauk","steam_id":76561199085666301,"connected_time":1707000000000,"state":"active","ping":51},{"user_id":216,"name":"Falafel","steam_id":76561198111493042,"connected_time":1129000000000,"state":"active","ping":133},{"user_id":221,"name":"Captain_Shorts","steam_id":76561199097598023,"connected_time":807000000000,"state":"active","ping":85},{"user_id":149,"name":"denim repair service","steam_id":76561198075666613,"connected_time":6967000000000,"state":"active","ping":106},{"user_id":209,"name":"Oopsie Daisy ❋","steam_id":76561198042144492,"connected_time":1786000000000,"state":"active","ping":59},{"user_id":222,"name":"Jesus used Dead Ringer","steam_id":76561198268991349,"connected_time":727000000000,"state":"active","ping":50},{"user_id":215,"name":"Apollo","steam_id":76561198412836049,"connected_time":1231000000000,"state":"active","ping":89},{"user_id":226,"name":"MasAcqua","steam_id":76561198007402503,"connected_time":622000000000,"state":"active","ping":152},{"user_id":186,"name":"waowaowao","steam_id":76561198068804538,"connected_time":4117000000000,"state":"active","ping":61},{"user_id":171,"name":"Ether","steam_id":76561198054806528,"connected_time":5655000000000,"state":"active","ping":71},{"user_id":227,"name":"Cootato","steam_id":76561198265081683,"connected_time":499000000000,"state":"active","ping":69},{"user_id":230,"name":"Penrose42","steam_id":76561198288577396,"connected_time":96000000000,"state":"active","ping":74},{"user_id":228,"name":"[chef] iron","steam_id":76561197970888616,"connected_time":266000000000,"state":"active","ping":60},{"user_id":166,"name":"いちごまろ","steam_id":76561198166100997,"connected_time":6197000000000,"state":"active","ping":73},{"user_id":229,"name":"lost in spaaaaace","steam_id":76561199085974120,"connected_time":222000000000,"state":"active","ping":63},{"user_id":225,"name":"Jerphf","steam_id":76561198328825964,"connected_time":652000000000,"state":"active","ping":45},{"user_id":219,"name":"Loashes","steam_id":76561198119608299,"connected_time":940000000000,"state":"active","ping":66},{"user_id":214,"name":"LemonZest","steam_id":76561199196369249,"connected_time":1482000000000,"state":"active","ping":74},{"user_id":137,"name":"freddo.","steam_id":76561198203171349,"connected_time":8031000000000,"state":"active","ping":56},{"user_id":191,"name":"Broadsword","steam_id":76561198011160411,"connected_time":3907000000000,"state":"active","ping":65}]},{"server_id":400,"name":"Uncletopia | Atlanta | 3 | Community","name_short":"atl-3","host":"atl-1.us.uncletopia.com","port":27035,"enabled":true,"region":"us-east","cc":"us","latitude":33.753746,"longitude":-84.38633,"reserved":0,"last_update":"0001-01-01T00:00:00Z","name_a2s":"Uncletopia | Atlanta | 3 | Community","protocol":17,"map":"workshop/cp_reckoner_rc6.ugc674719999","folder":"tf","game":"Team Fortress","app_id":440,"player_count":1,"max_players":24,"Bots":0,"server_type":"Dedicated","server_os":"Linux","password":true,"vac":true,"version":"7882260","steam_id":85568392924515187,"keywords":["cp","nocrits","nodmgspread","uncletopia"],"game_id":440,"stv_port":27036,"stv_name":"Uncletopia | Atlanta | 3 | Community | STV","players":[{"user_id":18,"name":"Je t'aime ta mere","steam_id":76561198233279668,"connected_time":127000000000,"state":"active","ping":70}]},{"server_id":401,"name":"Uncletopia | Atlanta | 4 | No Payload","name_short":"atl-4","host":"atl-1.us.uncletopia.com","port":27045,"enabled":true,"region":"us-east","cc":"us","latitude":33.753746,"longitude":-84.38633,"reserved":0,"last_update":"0001-01-01T00:00:00Z","name_a2s":"","protocol":0,"map":"","folder":"","game":"","app_id":0,"player_count":0,"max_players":0,"Bots":0,"server_type":"","server_os":"","password":false,"vac":false,"version":"","steam_id":0,"keywords":null,"game_id":0,"stv_port":0,"stv_name":"","players":null},{"server_id":2,"name":"Uncletopia | Chicago | 1 | All Maps","name_short":"chi-1","host":"chi-1.us.uncletopia.com","port":27015,"enabled":true,"region":"us-central","cc":"us","latitude":41.881832,"longitude":-87.62318,"reserved":0,"last_update":"0001-01-01T00:00:00Z","name_a2s":"Uncletopia | Chicago | 1 | All Maps","protocol":17,"map":"pl_upward","folder":"tf","game":"Team Fortress","app_id":440,"player_count":24,"max_players":24,"Bots":0,"server_type":"Dedicated","server_os":"Linux","password":true,"vac":true,"version":"7882260","steam_id":85568392924469984,"keywords":["nocrits","nodmgspread","payload","uncletopia"],"game_id":440,"stv_port":27016,"stv_name":"Uncletopia | Chicago | 1 | All Maps | STV","players":[{"user_id":428,"name":"Bee_Pirate","steam_id":76561199000599111,"connected_time":890000000000,"state":"active","ping":64},{"user_id":403,"name":"Castroy","steam_id":76561198108160099,"connected_time":3040000000000,"state":"active","ping":54},{"user_id":395,"name":"The Loveable CHI.I.BI.","steam_id":76561198039262228,"connected_time":3917000000000,"state":"active","ping":79},{"user_id":427,"name":"Booger","steam_id":76561198022340366,"connected_time":897000000000,"state":"active","ping":60},{"user_id":399,"name":"Ambiu-G","steam_id":76561198068966753,"connected_time":3546000000000,"state":"active","ping":57},{"user_id":391,"name":"Hoop","steam_id":76561199124865843,"connected_time":4026000000000,"state":"active","ping":60},{"user_id":424,"name":"123","steam_id":76561198116821551,"connected_time":1168000000000,"state":"active","ping":60},{"user_id":290,"name":"[El Fail] MR.BadassMCLee","steam_id":76561198043787818,"connected_time":10374000000000,"state":"active","ping":122},{"user_id":434,"name":"an inebriated newt fancier","steam_id":76561197985428155,"connected_time":733000000000,"state":"active","ping":59},{"user_id":433,"name":"Orca?","steam_id":76561198164341099,"connected_time":781000000000,"state":"active","ping":85},{"user_id":422,"name":"Thundermonkey (SMOKE)","steam_id":76561198017631728,"connected_time":1295000000000,"state":"active","ping":63},{"user_id":410,"name":"Tri-Dot","steam_id":76561199075186597,"connected_time":2434000000000,"state":"active","ping":67},{"user_id":420,"name":"anonpain","steam_id":76561198081317092,"connected_time":1605000000000,"state":"active","ping":53},{"user_id":435,"name":"The Paladin","steam_id":76561199110579692,"connected_time":192000000000,"state":"active","ping":100},{"user_id":426,"name":"Gabinator32","steam_id":76561198872467183,"connected_time":908000000000,"state":"active","ping":42},{"user_id":379,"name":"Yunky","steam_id":76561197966495749,"connected_time":5083000000000,"state":"active","ping":73},{"user_id":425,"name":"idk man","steam_id":76561198065543771,"connected_time":1134000000000,"state":"active","ping":86},{"user_id":381,"name":"Pheonix","steam_id":76561199470538309,"connected_time":4675000000000,"state":"active","ping":58},{"user_id":429,"name":"Death72233","steam_id":76561199474336352,"connected_time":871000000000,"state":"active","ping":99},{"user_id":430,"name":"LEGEND OF THE PLUG!!!!!!!!!!!!","steam_id":76561198408436344,"connected_time":835000000000,"state":"active","ping":109},{"user_id":388,"name":"blob","steam_id":76561198122375328,"connected_time":4353000000000,"state":"active","ping":60},{"user_id":431,"name":"cooluser.exe","steam_id":76561198215142075,"connected_time":824000000000,"state":"active","ping":63},{"user_id":401,"name":"neilo","steam_id":76561199122772897,"connected_time":3342000000000,"state":"active","ping":104},{"user_id":432,"name":"LerN","steam_id":76561198083463877,"connected_time":821000000000,"state":"active","ping":47}]},{"server_id":106,"name":"Uncletopia | Chicago | 2 | All Maps","name_short":"chi-2","host":"chi-1.us.uncletopia.com","port":27025,"enabled":true,"region":"us-central","cc":"us","latitude":41.881832,"longitude":-87.62318,"reserved":0,"last_update":"0001-01-01T00:00:00Z","name_a2s":"Uncletopia | Chicago | 2 | All Maps","protocol":17,"map":"koth_cascade","folder":"tf","game":"Team Fortress","app_id":440,"player_count":24,"max_players":24,"Bots":0,"server_type":"Dedicated","server_os":"Linux","password":true,"vac":true,"version":"7882260","steam_id":85568392924469985,"keywords":["cp","nocrits","nodmgspread","uncletopia"],"game_id":440,"stv_port":27026,"stv_name":"Uncletopia | Chicago | 2 | All Maps | STV","players":[{"user_id":514,"name":"raiden, squeeze my hog","steam_id":76561198138221795,"connected_time":1674000000000,"state":"active","ping":67},{"user_id":526,"name":"ZackPlayz","steam_id":76561198393823932,"connected_time":1151000000000,"state":"active","ping":81},{"user_id":436,"name":"Octo Will","steam_id":76561199069390820,"connected_time":4044000000000,"state":"active","ping":41},{"user_id":506,"name":"B R O W N","steam_id":76561198084016173,"connected_time":2038000000000,"state":"active","ping":68},{"user_id":498,"name":"0","steam_id":76561198046055673,"connected_time":2230000000000,"state":"active","ping":73},{"user_id":539,"name":"OKlWONT","steam_id":76561198060328407,"connected_time":318000000000,"state":"active","ping":74},{"user_id":516,"name":"Peepster","steam_id":76561198297854733,"connected_time":1611000000000,"state":"active","ping":69},{"user_id":533,"name":"moonage72","steam_id":76561199187008629,"connected_time":458000000000,"state":"active","ping":60},{"user_id":532,"name":"Dino Aids","steam_id":76561199204984924,"connected_time":601000000000,"state":"active","ping":67},{"user_id":534,"name":"Splinto","steam_id":76561198111260488,"connected_time":425000000000,"state":"active","ping":51},{"user_id":522,"name":"YesMargaret","steam_id":76561198127971751,"connected_time":1436000000000,"state":"active","ping":67},{"user_id":518,"name":"Pie™","steam_id":76561198158312625,"connected_time":1575000000000,"state":"active","ping":114},{"user_id":535,"name":"2 bit catgirl","steam_id":76561198399936004,"connected_time":421000000000,"state":"active","ping":59},{"user_id":540,"name":"Kλon","steam_id":76561198036064833,"connected_time":313000000000,"state":"active","ping":49},{"user_id":541,"name":"I am Gamer","steam_id":76561198047845399,"connected_time":150000000000,"state":"active","ping":71},{"user_id":495,"name":"Jho-oh","steam_id":76561198062473436,"connected_time":2481000000000,"state":"active","ping":71},{"user_id":528,"name":"Lovedaddy","steam_id":76561198006569710,"connected_time":1104000000000,"state":"active","ping":82},{"user_id":527,"name":"goopshit","steam_id":76561198126489501,"connected_time":1118000000000,"state":"active","ping":45},{"user_id":508,"name":"Sychke","steam_id":76561198067144055,"connected_time":1957000000000,"state":"active","ping":46},{"user_id":537,"name":"[_Dr.Scythe_]","steam_id":76561198845245858,"connected_time":366000000000,"state":"active","ping":69},{"user_id":531,"name":"O2","steam_id":76561199445520832,"connected_time":622000000000,"state":"active","ping":78},{"user_id":530,"name":"ae","steam_id":76561198185490827,"connected_time":1076000000000,"state":"active","ping":84},{"user_id":523,"name":"bad","steam_id":76561199106343854,"connected_time":1430000000000,"state":"active","ping":69},{"user_id":502,"name":"DO NOT call me BART SIMPSON!!","steam_id":76561198069113375,"connected_time":2150000000000,"state":"active","ping":69}]},{"server_id":402,"name":"Uncletopia | Chicago | 3 | All Maps","name_short":"chi-3","host":"chi-1.us.uncletopia.com","port":27035,"enabled":true,"region":"us-central","cc":"us","latitude":41.881832,"longitude":-87.62318,"reserved":0,"last_update":"0001-01-01T00:00:00Z","name_a2s":"Uncletopia | Chicago | 3 | All Maps","protocol":17,"map":"pl_swiftwater_final1","folder":"tf","game":"Team Fortress","app_id":440,"player_count":24,"max_players":24,"Bots":0,"server_type":"Dedicated","server_os":"Linux","password":true,"vac":true,"version":"7882260","steam_id":85568392924515191,"keywords":["nocrits","nodmgspread","payload","uncletopia"],"game_id":440,"stv_port":27036,"stv_name":"Uncletopia | Chicago | 3 | All Maps | STV","players":[{"user_id":305,"name":"Snake Handler","steam_id":76561198027198306,"connected_time":1877000000000,"state":"active","ping":58},{"user_id":311,"name":"thepokeyen","steam_id":76561198236847572,"connected_time":1753000000000,"state":"active","ping":61},{"user_id":312,"name":"scrotal recall","steam_id":76561198135945598,"connected_time":1724000000000,"state":"active","ping":80},{"user_id":268,"name":"Howoriginal","steam_id":76561197993701184,"connected_time":4472000000000,"state":"active","ping":58},{"user_id":306,"name":"Tskuno","steam_id":76561198129291597,"connected_time":1876000000000,"state":"active","ping":55},{"user_id":278,"name":"Goofball","steam_id":76561198061211537,"connected_time":3467000000000,"state":"active","ping":78},{"user_id":316,"name":"The entire polish space agency","steam_id":76561198427502200,"connected_time":1093000000000,"state":"active","ping":117},{"user_id":303,"name":"Kaiwan","steam_id":76561198267463359,"connected_time":1978000000000,"state":"active","ping":64},{"user_id":301,"name":"Whalemart","steam_id":76561198220579991,"connected_time":2310000000000,"state":"active","ping":101},{"user_id":299,"name":"Dr Oshawott","steam_id":76561198042021629,"connected_time":2524000000000,"state":"active","ping":65},{"user_id":283,"name":"nhbiker","steam_id":76561198081277675,"connected_time":3287000000000,"state":"active","ping":60},{"user_id":304,"name":"Token","steam_id":76561198067814426,"connected_time":1942000000000,"state":"active","ping":80},{"user_id":282,"name":"bobby baccalieri gaming","steam_id":76561198059535856,"connected_time":3306000000000,"state":"active","ping":84},{"user_id":277,"name":"time has run out","steam_id":76561198066450438,"connected_time":3735000000000,"state":"active","ping":86},{"user_id":261,"name":"5ShellHung","steam_id":76561198046011621,"connected_time":5007000000000,"state":"active","ping":55},{"user_id":286,"name":"drdoofus123","steam_id":76561198016826181,"connected_time":3196000000000,"state":"active","ping":75},{"user_id":287,"name":"Bubz","steam_id":76561199013499631,"connected_time":3189000000000,"state":"active","ping":83},{"user_id":215,"name":"ZofoJackson","steam_id":76561197998366861,"connected_time":8573000000000,"state":"active","ping":62},{"user_id":308,"name":"obamascout","steam_id":76561199073972797,"connected_time":1861000000000,"state":"active","ping":105},{"user_id":224,"name":"Pocket Snipers","steam_id":76561198207987376,"connected_time":7747000000000,"state":"active","ping":73},{"user_id":314,"name":"Giggles™","steam_id":76561198058708019,"connected_time":1563000000000,"state":"active","ping":61},{"user_id":276,"name":"Overduecat","steam_id":76561198092452824,"connected_time":3798000000000,"state":"active","ping":71},{"user_id":313,"name":"grate_chanpeon-232","steam_id":76561198073424589,"connected_time":1697000000000,"state":"active","ping":70},{"user_id":296,"name":"Scalie with Soup","steam_id":76561198126745958,"connected_time":2705000000000,"state":"active","ping":76}]},{"server_id":403,"name":"Uncletopia | Chicago | 4 | All Maps","name_short":"chi-4","host":"chi-1.us.uncletopia.com","port":27045,"enabled":true,"region":"us-central","cc":"us","latitude":41.881832,"longitude":-87.62318,"reserved":0,"last_update":"0001-01-01T00:00:00Z","name_a2s":"Uncletopia | Chicago | 4 | All Maps","protocol":17,"map":"cp_mercenarypark","folder":"tf","game":"Team Fortress","app_id":440,"player_count":24,"max_players":24,"Bots":0,"server_type":"Dedicated","server_os":"Linux","password":true,"vac":true,"version":"7882260","steam_id":85568392924515193,"keywords":["cp","nocrits","nodmgspread","uncletopia"],"game_id":440,"stv_port":27046,"stv_name":"Uncletopia | Chicago | 4 | All Maps | STV","players":[{"user_id":88,"name":"Fobby #Savetf2","steam_id":76561198047681469,"connected_time":710000000000,"state":"active","ping":84},{"user_id":90,"name":"Venk","steam_id":76561198251131422,"connected_time":572000000000,"state":"active","ping":68},{"user_id":81,"name":"Lirehsa","steam_id":76561198799166348,"connected_time":1184000000000,"state":"active","ping":89},{"user_id":82,"name":"STOP DYING AT ME","steam_id":76561198073624045,"connected_time":1135000000000,"state":"active","ping":33},{"user_id":89,"name":"Yada #savetf2","steam_id":76561199103981181,"connected_time":604000000000,"state":"active","ping":72},{"user_id":26,"name":"fruitymario","steam_id":76561198047190430,"connected_time":3809000000000,"state":"active","ping":78},{"user_id":93,"name":"good soup guy","steam_id":76561199210237835,"connected_time":476000000000,"state":"active","ping":72},{"user_id":41,"name":"ultralisk52","steam_id":76561198051666604,"connected_time":3355000000000,"state":"active","ping":68},{"user_id":66,"name":"Mellow Marshal","steam_id":76561198828607652,"connected_time":2303000000000,"state":"active","ping":58},{"user_id":94,"name":"NarcolepticRock","steam_id":76561199123103642,"connected_time":323000000000,"state":"active","ping":77},{"user_id":45,"name":"Beneban Vandersnatch","steam_id":76561198293295694,"connected_time":3272000000000,"state":"active","ping":107},{"user_id":67,"name":"Dr. PP","steam_id":76561199018184096,"connected_time":2247000000000,"state":"active","ping":128},{"user_id":49,"name":"99RM","steam_id":76561198107382571,"connected_time":3102000000000,"state":"active","ping":133},{"user_id":48,"name":"wack","steam_id":76561198095697330,"connected_time":3114000000000,"state":"active","ping":82},{"user_id":84,"name":"OlympicChamp_12 | Trade.tf","steam_id":76561198830574526,"connected_time":945000000000,"state":"active","ping":102},{"user_id":86,"name":"Oh no","steam_id":76561198123441203,"connected_time":887000000000,"state":"active","ping":61},{"user_id":91,"name":"Gunpowder","steam_id":76561199089023124,"connected_time":549000000000,"state":"active","ping":59},{"user_id":54,"name":"Cee","steam_id":76561199114277048,"connected_time":2981000000000,"state":"active","ping":47},{"user_id":68,"name":"Bugc97","steam_id":76561198007662645,"connected_time":2240000000000,"state":"active","ping":82},{"user_id":92,"name":"Synision","steam_id":76561199130106263,"connected_time":510000000000,"state":"active","ping":46},{"user_id":57,"name":"The_Epic_Conclusion","steam_id":76561198084250179,"connected_time":2882000000000,"state":"active","ping":70},{"user_id":95,"name":"that's a regular show reference","steam_id":76561198204995668,"connected_time":179000000000,"state":"active","ping":83},{"user_id":96,"name":"Gamba","steam_id":76561198069264650,"connected_time":26000000000,"state":"active","ping":62},{"user_id":72,"name":"GeraldyJones65","steam_id":76561199122297098,"connected_time":1966000000000,"state":"active","ping":73}]},{"server_id":36,"name":"Uncletopia | Chicago | 5 | All Maps","name_short":"chi-5","host":"chi-2.us.uncletopia.com","port":27015,"enabled":true,"region":"us-central","cc":"us","latitude":41.881832,"longitude":-87.62318,"reserved":0,"last_update":"0001-01-01T00:00:00Z","name_a2s":"Uncletopia | Chicago | 5 | All Maps","protocol":17,"map":"cp_process_final","folder":"tf","game":"Team Fortress","app_id":440,"player_count":1,"max_players":24,"Bots":0,"server_type":"Dedicated","server_os":"Linux","password":true,"vac":true,"version":"7882260","steam_id":85568392924866362,"keywords":["cp","nocrits","nodmgspread","uncletopia"],"game_id":440,"stv_port":27016,"stv_name":"Uncletopia | Chicago | 5 | All Maps | STV","players":[{"user_id":14,"name":"Seer","steam_id":76561198013492052,"connected_time":833000000000,"state":"active","ping":42}]},{"server_id":37,"name":"Uncletopia | Chicago | 6 | All Maps","name_short":"chi-6","host":"chi-2.us.uncletopia.com","port":27025,"enabled":true,"region":"us-central","cc":"us","latitude":41.881832,"longitude":-87.62318,"reserved":0,"last_update":"0001-01-01T00:00:00Z","name_a2s":"Uncletopia | Chicago | 6 | All Maps","protocol":17,"map":"pl_borneo","folder":"tf","game":"Team Fortress","app_id":440,"player_count":24,"max_players":24,"Bots":0,"server_type":"Dedicated","server_os":"Linux","password":true,"vac":true,"version":"7882260","steam_id":85568392924866363,"keywords":["nocrits","nodmgspread","payload","uncletopia"],"game_id":440,"stv_port":27026,"stv_name":"Uncletopia | Chicago | 6 | All Maps | STV","players":[{"user_id":88,"name":"Soup","steam_id":76561198271171395,"connected_time":331000000000,"state":"active","ping":57},{"user_id":90,"name":"Candy Sparkles","steam_id":76561198126871264,"connected_time":264000000000,"state":"active","ping":86},{"user_id":75,"name":"purple diesel","steam_id":76561197976548449,"connected_time":1037000000000,"state":"active","ping":87},{"user_id":76,"name":"LVL 4 Dispenser Gaming","steam_id":76561198044244547,"connected_time":999000000000,"state":"active","ping":78},{"user_id":83,"name":"sasharudzik","steam_id":76561199126617781,"connected_time":495000000000,"state":"active","ping":69},{"user_id":64,"name":"Cinna","steam_id":76561198997579674,"connected_time":1502000000000,"state":"active","ping":56},{"user_id":65,"name":"Cherry.C","steam_id":76561198962500536,"connected_time":1493000000000,"state":"active","ping":65},{"user_id":84,"name":"popguy","steam_id":76561198856016840,"connected_time":484000000000,"state":"active","ping":65},{"user_id":17,"name":"Weezer Pudge","steam_id":76561198247815090,"connected_time":4705000000000,"state":"active","ping":51},{"user_id":18,"name":"HometownGhosts","steam_id":76561198353311085,"connected_time":4687000000000,"state":"active","ping":67},{"user_id":52,"name":"Psych03","steam_id":76561198061753667,"connected_time":2740000000000,"state":"active","ping":95},{"user_id":85,"name":"Definitely Not A Cat","steam_id":76561198123464621,"connected_time":471000000000,"state":"active","ping":68},{"user_id":82,"name":"Epifiny","steam_id":76561198027958086,"connected_time":524000000000,"state":"active","ping":69},{"user_id":91,"name":"Ferret","steam_id":76561198060416458,"connected_time":119000000000,"state":"active","ping":109},{"user_id":71,"name":"Chezaus","steam_id":76561198317397837,"connected_time":1289000000000,"state":"active","ping":76},{"user_id":56,"name":"Bananadu","steam_id":76561198078062042,"connected_time":2501000000000,"state":"active","ping":60},{"user_id":74,"name":"creeeeeee","steam_id":76561198392539722,"connected_time":1066000000000,"state":"active","ping":84},{"user_id":29,"name":"Gary Gilbert","steam_id":76561198143988056,"connected_time":4418000000000,"state":"active","ping":120},{"user_id":92,"name":"wizorb","steam_id":76561198002172674,"connected_time":50000000000,"state":"active","ping":65},{"user_id":86,"name":"Queen Frau the Round","steam_id":76561197999942134,"connected_time":396000000000,"state":"active","ping":44},{"user_id":93,"name":"BingoDingo","steam_id":76561198068692880,"connected_time":47000000000,"state":"active","ping":73},{"user_id":95,"name":"Legofever13","steam_id":76561198396832255,"connected_time":22000000000,"state":"spawning","ping":84},{"user_id":60,"name":"objective permanence","steam_id":76561198050393061,"connected_time":2015000000000,"state":"active","ping":64},{"user_id":87,"name":"lynt","steam_id":76561198988333976,"connected_time":390000000000,"state":"active","ping":64}]},{"server_id":38,"name":"Uncletopia | Chicago | 7 | Stopwatch Beta","name_short":"chi-7","host":"chi-2.us.uncletopia.com","port":27035,"enabled":true,"region":"us-central","cc":"us","latitude":41.881832,"longitude":-87.62318,"reserved":0,"last_update":"0001-01-01T00:00:00Z","name_a2s":"Uncletopia | Chicago | 7 | Stopwatch Beta","protocol":17,"map":"pl_borneo","folder":"tf","game":"Team Fortress","app_id":440,"player_count":0,"max_players":24,"Bots":0,"server_type":"Dedicated","server_os":"Linux","password":true,"vac":true,"version":"7882260","steam_id":85568392924866364,"keywords":["nocrits","nodmgspread","payload","uncletopia"],"game_id":440,"stv_port":27036,"stv_name":"Uncletopia | Chicago | 7 | Stopwatch Beta | STV","players":null},{"server_id":39,"name":"Uncletopia | Chicago | 8 | Community","name_short":"chi-8","host":"chi-2.us.uncletopia.com","port":27045,"enabled":true,"region":"us-central","cc":"us","latitude":41.881832,"longitude":-87.62318,"reserved":0,"last_update":"0001-01-01T00:00:00Z","name_a2s":"Uncletopia | Chicago | 8 | Community","protocol":17,"map":"workshop/cp_overgrown_rc7b.ugc503939302","folder":"tf","game":"Team Fortress","app_id":440,"player_count":0,"max_players":24,"Bots":0,"server_type":"Dedicated","server_os":"Linux","password":true,"vac":true,"version":"7882260","steam_id":85568392924866365,"keywords":["cp","nocrits","nodmgspread","uncletopia"],"game_id":440,"stv_port":27046,"stv_name":"Uncletopia | Chicago | 8 | Community | STV","players":null},{"server_id":8,"name":"Uncletopia | Dallas | 1 | All Maps","name_short":"dal-1","host":"dal-1.us.uncletopia.com","port":27015,"enabled":true,"region":"us-central","cc":"us","latitude":32.779167,"longitude":-96.80889,"reserved":0,"last_update":"0001-01-01T00:00:00Z","name_a2s":"Uncletopia | Dallas | 1 | All Maps","protocol":17,"map":"cp_altitude","folder":"tf","game":"Team Fortress","app_id":440,"player_count":24,"max_players":24,"Bots":0,"server_type":"Dedicated","server_os":"Linux","password":true,"vac":true,"version":"7882260","steam_id":85568392924469986,"keywords":["cp","nocrits","nodmgspread","uncletopia"],"game_id":440,"stv_port":27016,"stv_name":"Uncletopia | Dallas | 1 | All Maps | STV","players":[{"user_id":371,"name":"Eggwart Niggle Toes","steam_id":76561198962841455,"connected_time":620000000000,"state":"active","ping":76},{"user_id":356,"name":"CPT. Giga Chad","steam_id":76561198059785363,"connected_time":2046000000000,"state":"active","ping":51},{"user_id":372,"name":"Forever Enlightened.","steam_id":76561198286792807,"connected_time":598000000000,"state":"active","ping":64},{"user_id":379,"name":"skyrim guard","steam_id":76561198807091783,"connected_time":237000000000,"state":"active","ping":59},{"user_id":370,"name":"StatesideSnake","steam_id":76561198272957048,"connected_time":759000000000,"state":"active","ping":72},{"user_id":349,"name":"plink","steam_id":76561198057829889,"connected_time":2265000000000,"state":"active","ping":60},{"user_id":331,"name":"H2OBourne","steam_id":76561198396293109,"connected_time":3353000000000,"state":"active","ping":67},{"user_id":378,"name":"T̵̲̒H̶̪̐E̴͉͂̊M̶̾͆\ufffd","steam_id":76561198091875604,"connected_time":287000000000,"state":"active","ping":69},{"user_id":363,"name":"tei5h3boss22","steam_id":76561198316277777,"connected_time":1790000000000,"state":"active","ping":193},{"user_id":366,"name":"Sushee","steam_id":76561197997031233,"connected_time":1227000000000,"state":"active","ping":67},{"user_id":355,"name":"DragonHunter994","steam_id":76561199076203907,"connected_time":2189000000000,"state":"active","ping":62},{"user_id":292,"name":"Pom Pom Super Bomb","steam_id":76561198132316905,"connected_time":8157000000000,"state":"active","ping":60},{"user_id":334,"name":"johnson exam","steam_id":76561198838784551,"connected_time":2960000000000,"state":"active","ping":72},{"user_id":369,"name":"TheArachnidGamer","steam_id":76561198304986752,"connected_time":985000000000,"state":"active","ping":65},{"user_id":384,"name":"very gud (very bad)","steam_id":76561199213154902,"connected_time":197000000000,"state":"active","ping":95},{"user_id":376,"name":"dashin389","steam_id":76561199375915760,"connected_time":513000000000,"state":"active","ping":91},{"user_id":385,"name":"aiming with drawing tablet","steam_id":76561198397662124,"connected_time":138000000000,"state":"active","ping":70},{"user_id":315,"name":"bwrbird","steam_id":76561198146167411,"connected_time":5515000000000,"state":"active","ping":71},{"user_id":380,"name":"Mr. Bixby","steam_id":76561198868839264,"connected_time":230000000000,"state":"active","ping":51},{"user_id":377,"name":"Nico The Cheese","steam_id":76561199065272792,"connected_time":447000000000,"state":"active","ping":93},{"user_id":381,"name":"An Unhappy Clown","steam_id":76561198175516514,"connected_time":223000000000,"state":"active","ping":48},{"user_id":382,"name":"Robert Cheeto","steam_id":76561198081690577,"connected_time":221000000000,"state":"active","ping":88},{"user_id":375,"name":"lker","steam_id":76561197976975075,"connected_time":533000000000,"state":"active","ping":60},{"user_id":383,"name":"JellyParrot","steam_id":76561199190990163,"connected_time":212000000000,"state":"active","ping":71}]},{"server_id":108,"name":"Uncletopia | Dallas | 2 | All Maps","name_short":"dal-2","host":"dal-1.us.uncletopia.com","port":27025,"enabled":true,"region":"us-central","cc":"us","latitude":32.779167,"longitude":-96.80889,"reserved":0,"last_update":"0001-01-01T00:00:00Z","name_a2s":"Uncletopia | Dallas | 2 | All Maps","protocol":17,"map":"pl_upward","folder":"tf","game":"Team Fortress","app_id":440,"player_count":24,"max_players":24,"Bots":0,"server_type":"Dedicated","server_os":"Linux","password":true,"vac":true,"version":"7882260","steam_id":85568392924469988,"keywords":["nocrits","nodmgspread","payload","uncletopia"],"game_id":440,"stv_port":27026,"stv_name":"Uncletopia | Dallas | 2 | All Maps | STV","players":[{"user_id":426,"name":"Tele Co","steam_id":76561198041909269,"connected_time":1539000000000,"state":"active","ping":72},{"user_id":450,"name":"Deltaco","steam_id":76561198094572694,"connected_time":173000000000,"state":"active","ping":130},{"user_id":451,"name":"Redrocko","steam_id":76561198045291223,"connected_time":151000000000,"state":"active","ping":115},{"user_id":452,"name":"SpeakerD","steam_id":76561198032618618,"connected_time":143000000000,"state":"active","ping":61},{"user_id":454,"name":"blunderly","steam_id":76561198131915334,"connected_time":115000000000,"state":"active","ping":65},{"user_id":432,"name":"milk master","steam_id":76561198127851014,"connected_time":1362000000000,"state":"active","ping":45},{"user_id":439,"name":"CritMedic","steam_id":76561197971542241,"connected_time":1128000000000,"state":"active","ping":61},{"user_id":442,"name":"Alkimia","steam_id":76561198385763137,"connected_time":1013000000000,"state":"active","ping":158},{"user_id":444,"name":"Mecha","steam_id":76561198014927379,"connected_time":754000000000,"state":"active","ping":90},{"user_id":429,"name":"Dreyfus","steam_id":76561198366687805,"connected_time":1463000000000,"state":"active","ping":174},{"user_id":430,"name":"dweamy","steam_id":76561198119181880,"connected_time":1462000000000,"state":"active","ping":82},{"user_id":455,"name":"Eins","steam_id":76561199030343810,"connected_time":113000000000,"state":"active","ping":61},{"user_id":433,"name":"rythme","steam_id":76561198021537055,"connected_time":1345000000000,"state":"active","ping":97},{"user_id":456,"name":"loudpizzer","steam_id":76561198078802110,"connected_time":107000000000,"state":"active","ping":92},{"user_id":457,"name":"bunceian","steam_id":76561198975662918,"connected_time":102000000000,"state":"active","ping":93},{"user_id":369,"name":"Owl Pacino","steam_id":76561197979970666,"connected_time":3316000000000,"state":"active","ping":77},{"user_id":445,"name":"kbob","steam_id":76561198273215519,"connected_time":751000000000,"state":"active","ping":80},{"user_id":360,"name":"RealWinterFrost","steam_id":76561198190125728,"connected_time":3820000000000,"state":"active","ping":106},{"user_id":425,"name":"GodandTitans","steam_id":76561198070070155,"connected_time":1562000000000,"state":"active","ping":114},{"user_id":434,"name":"Euro","steam_id":76561198881628702,"connected_time":1344000000000,"state":"active","ping":69},{"user_id":424,"name":"Benwyatt88","steam_id":76561198823755174,"connected_time":1623000000000,"state":"active","ping":79},{"user_id":441,"name":"Moonflower ✦","steam_id":76561198191782483,"connected_time":1026000000000,"state":"active","ping":50},{"user_id":436,"name":"Akornical","steam_id":76561199171025092,"connected_time":1334000000000,"state":"active","ping":96},{"user_id":458,"name":"HanSwolo","steam_id":76561198137223316,"connected_time":101000000000,"state":"active","ping":73}]},{"server_id":5,"name":"Uncletopia | Frankfurt | 1 | All Maps","name_short":"frk-1","host":"frk-1.de.uncletopia.com","port":27015,"enabled":true,"region":"eu","cc":"de","latitude":50.110924,"longitude":8.682127,"reserved":0,"last_update":"0001-01-01T00:00:00Z","name_a2s":"Uncletopia | Frankfurt | 1 | All Maps","protocol":17,"map":"cp_snakewater_final1","folder":"tf","game":"Team Fortress","app_id":440,"player_count":24,"max_players":24,"Bots":0,"server_type":"Dedicated","server_os":"Linux","password":true,"vac":true,"version":"7882260","steam_id":85568392924469989,"keywords":["cp","nocrits","nodmgspread","uncletopia"],"game_id":440,"stv_port":27016,"stv_name":"Uncletopia | Frankfurt | 1 | All Maps | STV","players":[{"user_id":289,"name":"inebriation of the senses","steam_id":76561198977420882,"connected_time":1842000000000,"state":"active","ping":54},{"user_id":235,"name":"Vershal Smershal","steam_id":76561198116223995,"connected_time":5375000000000,"state":"active","ping":60},{"user_id":262,"name":"Udinese Dion","steam_id":76561198067931573,"connected_time":3563000000000,"state":"active","ping":65},{"user_id":271,"name":"sareena","steam_id":76561198810194062,"connected_time":2927000000000,"state":"active","ping":81},{"user_id":241,"name":"xavier","steam_id":76561198076494034,"connected_time":5212000000000,"state":"active","ping":59},{"user_id":302,"name":"BarbÀtrou","steam_id":76561199439141531,"connected_time":736000000000,"state":"active","ping":93},{"user_id":259,"name":"saturn505","steam_id":76561198143921841,"connected_time":4156000000000,"state":"active","ping":86},{"user_id":282,"name":"tlacki","steam_id":76561198155295797,"connected_time":2370000000000,"state":"active","ping":116},{"user_id":299,"name":"I am on the TF2 Scoreboard...","steam_id":76561198043850884,"connected_time":1155000000000,"state":"active","ping":128},{"user_id":303,"name":"vadr","steam_id":76561198334528186,"connected_time":716000000000,"state":"active","ping":66},{"user_id":252,"name":"hotbuldog123","steam_id":76561198086309264,"connected_time":4710000000000,"state":"active","ping":64},{"user_id":274,"name":"Mega Saturn","steam_id":76561198024750500,"connected_time":2820000000000,"state":"active","ping":101},{"user_id":306,"name":"-TR7-","steam_id":76561198047601327,"connected_time":667000000000,"state":"active","ping":44},{"user_id":309,"name":"Ravioli","steam_id":76561198831900441,"connected_time":496000000000,"state":"active","ping":77},{"user_id":278,"name":"CalzoneCarl456","steam_id":76561198846982793,"connected_time":2582000000000,"state":"active","ping":62},{"user_id":276,"name":"Mr.O #deletesniper","steam_id":76561198039567498,"connected_time":2787000000000,"state":"active","ping":66},{"user_id":230,"name":"Mi Manchi","steam_id":76561198171573129,"connected_time":5448000000000,"state":"active","ping":59},{"user_id":279,"name":"Wyro","steam_id":76561199176835169,"connected_time":2510000000000,"state":"active","ping":72},{"user_id":300,"name":"peso enjoyer","steam_id":76561198798177799,"connected_time":955000000000,"state":"active","ping":68},{"user_id":232,"name":"Bajas","steam_id":76561198179339326,"connected_time":5435000000000,"state":"active","ping":90},{"user_id":270,"name":"Bobo","steam_id":76561198052308399,"connected_time":2941000000000,"state":"active","ping":58},{"user_id":307,"name":"donatofina","steam_id":76561198353497885,"connected_time":660000000000,"state":"active","ping":100},{"user_id":308,"name":"KLAMA  ❤","steam_id":76561198351549661,"connected_time":569000000000,"state":"active","ping":65},{"user_id":310,"name":"Ecton","steam_id":76561198025103720,"connected_time":484000000000,"state":"active","ping":68}]},{"server_id":110,"name":"Uncletopia | Frankfurt | 2 | All Maps","name_short":"frk-2","host":"frk-1.de.uncletopia.com","port":27025,"enabled":true,"region":"eu","cc":"de","latitude":50.110924,"longitude":8.682127,"reserved":0,"last_update":"0001-01-01T00:00:00Z","name_a2s":"Uncletopia | Frankfurt | 2 | All Maps","protocol":17,"map":"cp_well","folder":"tf","game":"Team Fortress","app_id":440,"player_count":0,"max_players":24,"Bots":0,"server_type":"Dedicated","server_os":"Linux","password":true,"vac":true,"version":"7882260","steam_id":85568392924469990,"keywords":["cp","nocrits","nodmgspread","uncletopia"],"game_id":440,"stv_port":27026,"stv_name":"Uncletopia | Frankfurt | 2 | All Maps | STV","players":null},{"server_id":308,"name":"Uncletopia | Frankfurt | 3 | All Maps","name_short":"frk-3","host":"frk-1.de.uncletopia.com","port":27035,"enabled":true,"region":"eu","cc":"de","latitude":50.110924,"longitude":8.682127,"reserved":0,"last_update":"0001-01-01T00:00:00Z","name_a2s":"Uncletopia | Frankfurt | 3 | All Maps","protocol":17,"map":"cp_dustbowl","folder":"tf","game":"Team Fortress","app_id":440,"player_count":14,"max_players":24,"Bots":0,"server_type":"Dedicated","server_os":"Linux","password":true,"vac":true,"version":"7882260","steam_id":85568392924504274,"keywords":["cp","nocrits","nodmgspread","uncletopia"],"game_id":440,"stv_port":27036,"stv_name":"Uncletopia | Frankfurt | 3 | All Maps | STV","players":[{"user_id":143,"name":"Limited Slip Dipstick","steam_id":76561198024504847,"connected_time":2770000000000,"state":"active","ping":34},{"user_id":147,"name":"c.S \u003e (2S \u003e) 2H \u003e 236236S","steam_id":76561198101624996,"connected_time":2676000000000,"state":"active","ping":99},{"user_id":170,"name":"Louis Armstrong Gaming","steam_id":76561199142022395,"connected_time":404000000000,"state":"active","ping":76},{"user_id":167,"name":"Sulatejuusto","steam_id":76561198063971856,"connected_time":621000000000,"state":"active","ping":86},{"user_id":169,"name":"Bred Sheeran (real)","steam_id":76561198045692016,"connected_time":418000000000,"state":"active","ping":47},{"user_id":160,"name":"eeeeee","steam_id":76561198017786875,"connected_time":1394000000000,"state":"active","ping":49},{"user_id":173,"name":"KillerQueen (he/they/she)","steam_id":76561199019399725,"connected_time":375000000000,"state":"active","ping":61},{"user_id":115,"name":"Carrotcracker","steam_id":76561198034862396,"connected_time":5256000000000,"state":"active","ping":64},{"user_id":153,"name":"Shekelstein","steam_id":76561198874759252,"connected_time":2445000000000,"state":"active","ping":92},{"user_id":116,"name":"Makłowicz","steam_id":76561198281831506,"connected_time":4647000000000,"state":"spawning","ping":69},{"user_id":94,"name":"eat oreo sleeve throw up in bed","steam_id":76561198069649097,"connected_time":6401000000000,"state":"spawning","ping":64},{"user_id":46,"name":"Rez","steam_id":76561198410598772,"connected_time":10323000000000,"state":"active","ping":62},{"user_id":164,"name":"koray","steam_id":76561198260506514,"connected_time":907000000000,"state":"active","ping":60}]},{"server_id":309,"name":"Uncletopia | Frankfurt | 4 | All Maps","name_short":"frk-4","host":"frk-1.de.uncletopia.com","port":27045,"enabled":true,"region":"eu","cc":"de","latitude":50.110924,"longitude":8.682127,"reserved":0,"last_update":"0001-01-01T00:00:00Z","name_a2s":"Uncletopia | Frankfurt | 4 | All Maps","protocol":17,"map":"cp_dustbowl","folder":"tf","game":"Team Fortress","app_id":440,"player_count":10,"max_players":24,"Bots":0,"server_type":"Dedicated","server_os":"Linux","password":true,"vac":true,"version":"7882260","steam_id":85568392924504275,"keywords":["cp","nocrits","nodmgspread","uncletopia"],"game_id":440,"stv_port":27046,"stv_name":"Uncletopia | Frankfurt | 4 | All Maps | STV","players":[{"user_id":629,"name":"sv_opor 13123","steam_id":76561198002229612,"connected_time":537000000000,"state":"active","ping":68},{"user_id":618,"name":"heisenburger","steam_id":76561198284589853,"connected_time":1777000000000,"state":"active","ping":80},{"user_id":600,"name":"Endi","steam_id":76561198914938199,"connected_time":2601000000000,"state":"active","ping":88},{"user_id":633,"name":"light brandon","steam_id":76561198272804994,"connected_time":90000000000,"state":"active","ping":60},{"user_id":632,"name":"Alibi","steam_id":76561198061845595,"connected_time":106000000000,"state":"active","ping":60},{"user_id":603,"name":"Cataleptic","steam_id":76561197997966949,"connected_time":2570000000000,"state":"active","ping":69},{"user_id":610,"name":"Tort","steam_id":76561198329646769,"connected_time":2180000000000,"state":"active","ping":70},{"user_id":595,"name":"DiscoTraveler","steam_id":76561199240168088,"connected_time":2662000000000,"state":"active","ping":139},{"user_id":625,"name":"kilo","steam_id":76561198015641339,"connected_time":1128000000000,"state":"active","ping":63},{"user_id":620,"name":"Dzan50","steam_id":76561198059758591,"connected_time":1731000000000,"state":"active","ping":100}]},{"server_id":310,"name":"Uncletopia | Frankfurt | 5 | All Maps","name_short":"frk-5","host":"frk-1.de.uncletopia.com","port":27055,"enabled":true,"region":"eu","cc":"de","latitude":50.110924,"longitude":8.682127,"reserved":0,"last_update":"0001-01-01T00:00:00Z","name_a2s":"Uncletopia | Frankfurt | 5 | All Maps","protocol":17,"map":"pl_upward","folder":"tf","game":"Team Fortress","app_id":440,"player_count":23,"max_players":24,"Bots":0,"server_type":"Dedicated","server_os":"Linux","password":true,"vac":true,"version":"7882260","steam_id":85568392924504277,"keywords":["nocrits","nodmgspread","payload","uncletopia"],"game_id":440,"stv_port":27056,"stv_name":"Uncletopia | Frankfurt | 5 | All Maps | STV","players":[{"user_id":131,"name":"gfjhsdf","steam_id":76561198136736426,"connected_time":4294000000000,"state":"active","ping":54},{"user_id":161,"name":"dragoon","steam_id":76561198241320498,"connected_time":2905000000000,"state":"active","ping":61},{"user_id":140,"name":"r4s1","steam_id":76561198024034917,"connected_time":3873000000000,"state":"active","ping":59},{"user_id":177,"name":"AftiksPL","steam_id":76561198875182686,"connected_time":885000000000,"state":"active","ping":98},{"user_id":151,"name":"Captain Scrumpe","steam_id":76561198032206577,"connected_time":3607000000000,"state":"active","ping":80},{"user_id":183,"name":"_Starlight_","steam_id":76561197993885738,"connected_time":210000000000,"state":"active","ping":87},{"user_id":188,"name":"koth_harvest_final enjoyer","steam_id":76561198055389492,"connected_time":15000000000,"state":"active","ping":60},{"user_id":168,"name":"Daga","steam_id":76561198055450219,"connected_time":1838000000000,"state":"active","ping":62},{"user_id":185,"name":"n.mob","steam_id":76561198389356439,"connected_time":179000000000,"state":"active","ping":69},{"user_id":141,"name":"SM58 with severe stage-fright","steam_id":76561198114601678,"connected_time":3863000000000,"state":"active","ping":67},{"user_id":186,"name":"w","steam_id":76561198809739856,"connected_time":172000000000,"state":"active","ping":173},{"user_id":142,"name":"MEGOS","steam_id":76561198172740637,"connected_time":3859000000000,"state":"active","ping":53},{"user_id":139,"name":"Ozzie","steam_id":76561197992915315,"connected_time":3884000000000,"state":"active","ping":84},{"user_id":166,"name":"Pyro is my mommy","steam_id":76561198975667801,"connected_time":2038000000000,"state":"active","ping":71},{"user_id":182,"name":"ːmissingː","steam_id":76561198080541279,"connected_time":580000000000,"state":"active","ping":89},{"user_id":176,"name":"XSCod","steam_id":76561198124586634,"connected_time":941000000000,"state":"active","ping":85},{"user_id":184,"name":"Lugialf","steam_id":76561198069050794,"connected_time":203000000000,"state":"active","ping":96},{"user_id":164,"name":"Raulca25","steam_id":76561199068256964,"connected_time":2301000000000,"state":"active","ping":88},{"user_id":179,"name":"SpaceNut","steam_id":76561198059198302,"connected_time":838000000000,"state":"active","ping":74},{"user_id":145,"name":"Choruptian","steam_id":76561198017686366,"connected_time":3811000000000,"state":"active","ping":72},{"user_id":146,"name":"ackgh noo","steam_id":76561198066287297,"connected_time":3805000000000,"state":"active","ping":53},{"user_id":180,"name":"Juiceydough","steam_id":76561197997323419,"connected_time":810000000000,"state":"active","ping":81},{"user_id":181,"name":"BrotherPotato","steam_id":76561198049948120,"connected_time":804000000000,"state":"active","ping":78}]},{"server_id":311,"name":"Uncletopia | Frankfurt | 6 | All Maps","name_short":"frk-6","host":"frk-1.de.uncletopia.com","port":27065,"enabled":true,"region":"eu","cc":"de","latitude":50.110924,"longitude":8.682127,"reserved":0,"last_update":"0001-01-01T00:00:00Z","name_a2s":"Uncletopia | Frankfurt | 6 | All Maps","protocol":17,"map":"cp_steel","folder":"tf","game":"Team Fortress","app_id":440,"player_count":24,"max_players":24,"Bots":0,"server_type":"Dedicated","server_os":"Linux","password":true,"vac":true,"version":"7882260","steam_id":85568392924504278,"keywords":["cp","nocrits","nodmgspread","uncletopia"],"game_id":440,"stv_port":27066,"stv_name":"Uncletopia | Frankfurt | 6 | All Maps | STV","players":[{"user_id":630,"name":"Holy f stewie, I am shítting.","steam_id":76561198147173457,"connected_time":311000000000,"state":"active","ping":66},{"user_id":625,"name":"xulera","steam_id":76561198080736030,"connected_time":855000000000,"state":"active","ping":63},{"user_id":643,"name":"KurkanzeL","steam_id":76561198061731425,"connected_time":1000000000,"state":"connecting","ping":0},{"user_id":631,"name":"bingle","steam_id":76561198359413453,"connected_time":310000000000,"state":"active","ping":142},{"user_id":629,"name":"Chet","steam_id":76561198848149734,"connected_time":379000000000,"state":"active","ping":74},{"user_id":578,"name":"8 Ball","steam_id":76561197960988736,"connected_time":4558000000000,"state":"active","ping":63},{"user_id":539,"name":"eelkir","steam_id":76561198024922946,"connected_time":6263000000000,"state":"active","ping":59},{"user_id":617,"name":"Bill Carr","steam_id":76561198110033943,"connected_time":1188000000000,"state":"active","ping":56},{"user_id":632,"name":"NorthPolar","steam_id":76561198438741909,"connected_time":297000000000,"state":"active","ping":72},{"user_id":637,"name":"Cosmetic brain","steam_id":76561198055936410,"connected_time":88000000000,"state":"active","ping":82},{"user_id":633,"name":"idc","steam_id":76561198322087870,"connected_time":254000000000,"state":"active","ping":102},{"user_id":599,"name":"IceGamesPlay","steam_id":76561198014078452,"connected_time":2604000000000,"state":"active","ping":96},{"user_id":634,"name":"sork","steam_id":76561198082446459,"connected_time":246000000000,"state":"active","ping":65},{"user_id":639,"name":"Regan","steam_id":76561198100631086,"connected_time":37000000000,"state":"active","ping":80},{"user_id":636,"name":"that fat croc from donkey kong","steam_id":76561198159172495,"connected_time":146000000000,"state":"active","ping":75},{"user_id":640,"name":"KrevTiz","steam_id":76561199043366861,"connected_time":32000000000,"state":"active","ping":89},{"user_id":602,"name":"*-*","steam_id":76561198119230058,"connected_time":2585000000000,"state":"active","ping":61},{"user_id":566,"name":"Ketich","steam_id":76561198021772703,"connected_time":4943000000000,"state":"active","ping":72},{"user_id":605,"name":"Lord","steam_id":76561198241305816,"connected_time":2155000000000,"state":"active","ping":111},{"user_id":641,"name":"AestheticalZ","steam_id":76561198269554197,"connected_time":29000000000,"state":"active","ping":92},{"user_id":622,"name":"true","steam_id":76561198031145243,"connected_time":1050000000000,"state":"active","ping":82},{"user_id":642,"name":"Dog ?","steam_id":76561198347020945,"connected_time":26000000000,"state":"active","ping":83},{"user_id":623,"name":"dn4k","steam_id":76561199221755690,"connected_time":1039000000000,"state":"active","ping":83},{"user_id":604,"name":"cl","steam_id":76561199436640904,"connected_time":2243000000000,"state":"active","ping":81}]},{"server_id":23,"name":"Uncletopia | Frankfurt | 7 | Stopwatch Beta","name_short":"frk-7","host":"frk-1.de.uncletopia.com","port":27075,"enabled":true,"region":"eu","cc":"de","latitude":50.110924,"longitude":8.682127,"reserved":0,"last_update":"0001-01-01T00:00:00Z","name_a2s":"Uncletopia | Frankfurt | 7 | Stopwatch Beta","protocol":17,"map":"cp_granary","folder":"tf","game":"Team Fortress","app_id":440,"player_count":0,"max_players":24,"Bots":0,"server_type":"Dedicated","server_os":"Linux","password":true,"vac":true,"version":"7882260","steam_id":85568392924742827,"keywords":["cp","nocrits","nodmgspread","uncletopia"],"game_id":440,"stv_port":27076,"stv_name":"Uncletopia | Frankfurt | 7 | Stopwatch Beta | STV","players":null},{"server_id":24,"name":"Uncletopia | Frankfurt | 8 | Community","name_short":"frk-8","host":"frk-1.de.uncletopia.com","port":27085,"enabled":true,"region":"eu","cc":"de","latitude":50.110924,"longitude":8.682127,"reserved":0,"last_update":"0001-01-01T00:00:00Z","name_a2s":"Uncletopia | Frankfurt | 8 | Community","protocol":17,"map":"workshop/cp_fulgur_rc2a.ugc2068252300","folder":"tf","game":"Team Fortress","app_id":440,"player_count":20,"max_players":24,"Bots":0,"server_type":"Dedicated","server_os":"Linux","password":true,"vac":true,"version":"7882260","steam_id":85568392924742828,"keywords":["cp","nocrits","nodmgspread","uncletopia"],"game_id":440,"stv_port":27086,"stv_name":"Uncletopia | Frankfurt | 8 | Community | STV","players":[{"user_id":442,"name":"☭ybercat","steam_id":76561198014070417,"connected_time":1121000000000,"state":"active","ping":72},{"user_id":412,"name":"Doctor Marijuana","steam_id":76561198288289879,"connected_time":2806000000000,"state":"active","ping":62},{"user_id":414,"name":"TSx* Osa__PL","steam_id":76561198027016799,"connected_time":2594000000000,"state":"active","ping":67},{"user_id":419,"name":"SnowyCactus","steam_id":76561198332710410,"connected_time":2412000000000,"state":"active","ping":65},{"user_id":443,"name":"Dandroid7","steam_id":76561198947673092,"connected_time":1072000000000,"state":"active","ping":46},{"user_id":415,"name":"TSx* {Demon-Angel}","steam_id":76561198151486463,"connected_time":2574000000000,"state":"active","ping":82},{"user_id":420,"name":"Smurph","steam_id":76561197996539360,"connected_time":2408000000000,"state":"active","ping":104},{"user_id":416,"name":"TSx* Bargal","steam_id":76561198040266872,"connected_time":2559000000000,"state":"active","ping":75},{"user_id":417,"name":"Jack.Orlando","steam_id":76561198802400236,"connected_time":2547000000000,"state":"active","ping":73},{"user_id":448,"name":"mp1mp2mp3","steam_id":76561198088967665,"connected_time":784000000000,"state":"active","ping":110},{"user_id":445,"name":"Drybooones","steam_id":76561198834232656,"connected_time":900000000000,"state":"active","ping":67},{"user_id":447,"name":"DonD","steam_id":76561198061496731,"connected_time":820000000000,"state":"active","ping":72},{"user_id":437,"name":"WATANG!","steam_id":76561198040478926,"connected_time":1607000000000,"state":"active","ping":64},{"user_id":454,"name":"The Mann With The Plann","steam_id":76561199001472144,"connected_time":154000000000,"state":"active","ping":155},{"user_id":441,"name":"Spoofr","steam_id":76561199267825043,"connected_time":1157000000000,"state":"active","ping":66},{"user_id":446,"name":"Conan","steam_id":76561198158321202,"connected_time":857000000000,"state":"active","ping":62},{"user_id":439,"name":"hunte","steam_id":76561198063483484,"connected_time":1423000000000,"state":"active","ping":70},{"user_id":449,"name":"Psychicpie","steam_id":76561198126065206,"connected_time":774000000000,"state":"active","ping":55},{"user_id":435,"name":"LooLeZ","steam_id":76561198068812096,"connected_time":1753000000000,"state":"active","ping":59},{"user_id":451,"name":"OrwellianDungeon","steam_id":76561198402220078,"connected_time":709000000000,"state":"active","ping":73}]},{"server_id":202,"name":"Uncletopia | Hong Kong | 1 | All Maps","name_short":"hgk-1","host":"hgk-1.hk.uncletopia.com","port":27015,"enabled":true,"region":"asia","cc":"hk","latitude":22.302711,"longitude":114.177216,"reserved":0,"last_update":"0001-01-01T00:00:00Z","name_a2s":"Uncletopia | Hong Kong | 1 | All Maps","protocol":17,"map":"koth_cascade","folder":"tf","game":"Team Fortress","app_id":440,"player_count":0,"max_players":24,"Bots":0,"server_type":"Dedicated","server_os":"Linux","password":true,"vac":true,"version":"7882260","steam_id":85568392924494504,"keywords":["cp","nocrits","nodmgspread","uncletopia"],"game_id":440,"stv_port":27016,"stv_name":"Uncletopia | Hong Kong | 1 | All Maps | STV","players":null},{"server_id":1,"name":"Uncletopia | Los Angeles | 1 | All Maps","name_short":"lax-1","host":"lax-1.us.uncletopia.com","port":27015,"enabled":true,"region":"us-west","cc":"us","latitude":33.94279,"longitude":-118.41004,"reserved":0,"last_update":"0001-01-01T00:00:00Z","name_a2s":"Uncletopia | Los Angeles | 1 | All Maps","protocol":17,"map":"cp_mercenarypark","folder":"tf","game":"Team Fortress","app_id":440,"player_count":23,"max_players":24,"Bots":0,"server_type":"Dedicated","server_os":"Linux","password":true,"vac":true,"version":"7882260","steam_id":85568392924469991,"keywords":["cp","nocrits","nodmgspread","uncletopia"],"game_id":440,"stv_port":27016,"stv_name":"Uncletopia | Los Angeles | 1 | All Maps | STV","players":[{"user_id":392,"name":"ScrockCat","steam_id":76561198012882208,"connected_time":847000000000,"state":"active","ping":78},{"user_id":394,"name":"Tomoko2001","steam_id":76561198047117990,"connected_time":667000000000,"state":"active","ping":118},{"user_id":374,"name":"chatteringduck","steam_id":76561198131778772,"connected_time":2430000000000,"state":"active","ping":129},{"user_id":376,"name":"white obama","steam_id":76561199465040669,"connected_time":1639000000000,"state":"active","ping":73},{"user_id":364,"name":"darknightdawn","steam_id":76561198864634150,"connected_time":3194000000000,"state":"active","ping":72},{"user_id":377,"name":"||:♩♩♩♪:|| Opplydead","steam_id":76561198028630334,"connected_time":1577000000000,"state":"active","ping":45},{"user_id":348,"name":"Shamrock Shake Oct.10.2020 @8pm","steam_id":76561198833313201,"connected_time":4054000000000,"state":"active","ping":54},{"user_id":378,"name":"BIgboy535","steam_id":76561198798967935,"connected_time":1551000000000,"state":"active","ping":148},{"user_id":381,"name":"DoubleX2000","steam_id":76561198164134387,"connected_time":1513000000000,"state":"active","ping":86},{"user_id":375,"name":"PLak-PlaK","steam_id":76561198115688122,"connected_time":2264000000000,"state":"active","ping":65},{"user_id":395,"name":"oxbudy","steam_id":76561198022120207,"connected_time":661000000000,"state":"active","ping":76},{"user_id":397,"name":"( ͡° ͜ʖ ͡°) clz9","steam_id":76561198258279528,"connected_time":594000000000,"state":"active","ping":110},{"user_id":366,"name":"SneekiCheekiQbone","steam_id":76561198045077980,"connected_time":3093000000000,"state":"active","ping":43},{"user_id":346,"name":"TTV/ChadMorningWood","steam_id":76561198139832291,"connected_time":4399000000000,"state":"active","ping":94},{"user_id":396,"name":"Mr. Sneak Man","steam_id":76561198028537542,"connected_time":650000000000,"state":"active","ping":89},{"user_id":316,"name":"June","steam_id":76561198141803658,"connected_time":7262000000000,"state":"active","ping":48},{"user_id":387,"name":"Ghworg","steam_id":76561198324891401,"connected_time":1209000000000,"state":"active","ping":105},{"user_id":398,"name":"RIP Old Man Chico :(","steam_id":76561198865172720,"connected_time":539000000000,"state":"active","ping":64},{"user_id":403,"name":"usedhalfcart","steam_id":76561198072621852,"connected_time":272000000000,"state":"active","ping":109},{"user_id":360,"name":"Temujin","steam_id":76561198030936583,"connected_time":3279000000000,"state":"active","ping":121},{"user_id":391,"name":"Plague Medic","steam_id":76561198035784649,"connected_time":861000000000,"state":"active","ping":45},{"user_id":399,"name":"no vc no c","steam_id":76561197989503095,"connected_time":471000000000,"state":"active","ping":165},{"user_id":369,"name":"bobbymcbobington","steam_id":76561199089411172,"connected_time":2791000000000,"state":"active","ping":180}]},{"server_id":112,"name":"Uncletopia | Los Angeles | 2 | All Maps","name_short":"lax-2","host":"lax-1.us.uncletopia.com","port":27025,"enabled":true,"region":"us-west","cc":"us","latitude":33.94279,"longitude":-118.41004,"reserved":0,"last_update":"0001-01-01T00:00:00Z","name_a2s":"Uncletopia | Los Angeles | 2 | All Maps","protocol":17,"map":"pl_upward","folder":"tf","game":"Team Fortress","app_id":440,"player_count":23,"max_players":24,"Bots":0,"server_type":"Dedicated","server_os":"Linux","password":true,"vac":true,"version":"7882260","steam_id":85568392924469992,"keywords":["nocrits","nodmgspread","payload","uncletopia"],"game_id":440,"stv_port":27026,"stv_name":"Uncletopia | Los Angeles | 2 | All Maps | STV","players":[{"user_id":10,"name":"Buffalo Gold","steam_id":76561198119693806,"connected_time":6716000000000,"state":"active","ping":63},{"user_id":76,"name":"Doc_Eevee","steam_id":76561199289204820,"connected_time":1231000000000,"state":"active","ping":90},{"user_id":83,"name":"Frank","steam_id":76561198126681511,"connected_time":913000000000,"state":"active","ping":70},{"user_id":87,"name":"Ypuoi","steam_id":76561198170203261,"connected_time":567000000000,"state":"active","ping":54},{"user_id":75,"name":"Inferno Cup","steam_id":76561197984262997,"connected_time":1235000000000,"state":"active","ping":148},{"user_id":77,"name":"Johnson, Navin R.","steam_id":76561197961107982,"connected_time":1155000000000,"state":"active","ping":100},{"user_id":74,"name":"Larrys","steam_id":76561198010205693,"connected_time":1328000000000,"state":"active","ping":140},{"user_id":84,"name":"Daperlin","steam_id":76561198091299113,"connected_time":886000000000,"state":"active","ping":132},{"user_id":26,"name":"Robogineer","steam_id":76561198026994739,"connected_time":4597000000000,"state":"active","ping":45},{"user_id":78,"name":"Fish Lambert","steam_id":76561198098279668,"connected_time":1144000000000,"state":"active","ping":56},{"user_id":93,"name":"gorilla","steam_id":76561198129324616,"connected_time":15000000000,"state":"active","ping":46},{"user_id":94,"name":"Orion","steam_id":76561198000418837,"connected_time":3000000000,"state":"spawning","ping":79},{"user_id":30,"name":"Gene","steam_id":76561197989409721,"connected_time":4245000000000,"state":"active","ping":120},{"user_id":80,"name":"Captain Buggy","steam_id":76561198024444448,"connected_time":1084000000000,"state":"active","ping":70},{"user_id":89,"name":"TheAmazingSpy","steam_id":76561198392222427,"connected_time":443000000000,"state":"active","ping":155},{"user_id":57,"name":"jae","steam_id":76561199239926014,"connected_time":2309000000000,"state":"active","ping":105},{"user_id":85,"name":"CTOAN","steam_id":76561198958617680,"connected_time":829000000000,"state":"active","ping":57},{"user_id":37,"name":"Juul Room","steam_id":76561198132867238,"connected_time":4104000000000,"state":"active","ping":81},{"user_id":86,"name":"Rowdy Riot","steam_id":76561198037734418,"connected_time":751000000000,"state":"active","ping":89},{"user_id":90,"name":"ATATDRIVER","steam_id":76561198262816771,"connected_time":377000000000,"state":"active","ping":65},{"user_id":91,"name":"dave strider","steam_id":76561198065112186,"connected_time":363000000000,"state":"active","ping":74},{"user_id":92,"name":"tailorturtle","steam_id":76561198107481127,"connected_time":27000000000,"state":"active","ping":130},{"user_id":44,"name":"Moomin","steam_id":76561198072726213,"connected_time":3611000000000,"state":"active","ping":47}]},{"server_id":324,"name":"Uncletopia | Los Angeles | 3 | All Maps","name_short":"lax-3","host":"lax-1.us.uncletopia.com","port":27035,"enabled":true,"region":"us-west","cc":"us","latitude":33.94279,"longitude":-118.41004,"reserved":0,"last_update":"0001-01-01T00:00:00Z","name_a2s":"Uncletopia | Los Angeles | 3 | All Maps","protocol":17,"map":"pl_borneo","folder":"tf","game":"Team Fortress","app_id":440,"player_count":0,"max_players":24,"Bots":0,"server_type":"Dedicated","server_os":"Linux","password":true,"vac":true,"version":"7882260","steam_id":85568392924510198,"keywords":["nocrits","nodmgspread","payload","uncletopia"],"game_id":440,"stv_port":27036,"stv_name":"Uncletopia | Los Angeles | 3 | All Maps | STV","players":null},{"server_id":25,"name":"Uncletopia | Los Angeles | 4 | Stopwatch Beta","name_short":"lax-4","host":"lax-1.us.uncletopia.com","port":27045,"enabled":true,"region":"us-west","cc":"us","latitude":33.94279,"longitude":-118.41004,"reserved":0,"last_update":"0001-01-01T00:00:00Z","name_a2s":"Uncletopia | Los Angeles | 4 | Stopwatch Beta","protocol":17,"map":"cp_snakewater_final1","folder":"tf","game":"Team Fortress","app_id":440,"player_count":0,"max_players":24,"Bots":0,"server_type":"Dedicated","server_os":"Linux","password":true,"vac":true,"version":"7882260","steam_id":85568392924510199,"keywords":["cp","nocrits","nodmgspread","uncletopia"],"game_id":440,"stv_port":27046,"stv_name":"Uncletopia | Los Angeles | 4 | Stopwatch Beta | STV","players":null},{"server_id":11,"name":"Uncletopia | London | 1 | All Maps","name_short":"lon-1","host":"lon-1.uk.uncletopia.com","port":27015,"enabled":true,"region":"eu","cc":"gb","latitude":51.509865,"longitude":-0.118092,"reserved":0,"last_update":"0001-01-01T00:00:00Z","name_a2s":"Uncletopia | London | 1 | All Maps","protocol":17,"map":"koth_lakeside_final","folder":"tf","game":"Team Fortress","app_id":440,"player_count":0,"max_players":24,"Bots":0,"server_type":"Dedicated","server_os":"Linux","password":true,"vac":true,"version":"7882260","steam_id":85568392924367362,"keywords":["cp","nocrits","nodmgspread","uncletopia"],"game_id":440,"stv_port":27016,"stv_name":"Uncletopia | London | 1 | All Maps | STV","players":null},{"server_id":114,"name":"Uncletopia | London | 2 | All Maps","name_short":"lon-2","host":"lon-1.uk.uncletopia.com","port":27025,"enabled":true,"region":"eu","cc":"gb","latitude":51.509865,"longitude":-0.118092,"reserved":0,"last_update":"0001-01-01T00:00:00Z","name_a2s":"Uncletopia | London | 2 | All Maps","protocol":17,"map":"koth_sawmill","folder":"tf","game":"Team Fortress","app_id":440,"player_count":24,"max_players":24,"Bots":0,"server_type":"Dedicated","server_os":"Linux","password":true,"vac":true,"version":"7882260","steam_id":85568392924470941,"keywords":["cp","nocrits","nodmgspread","uncletopia"],"game_id":440,"stv_port":27026,"stv_name":"Uncletopia | London | 2 | All Maps | STV","players":[{"user_id":286,"name":"Purps","steam_id":76561198053886680,"connected_time":3052000000000,"state":"active","ping":37},{"user_id":129,"name":"Farao Ramses II","steam_id":76561198078722712,"connected_time":14308000000000,"state":"active","ping":46},{"user_id":315,"name":"sachiko #","steam_id":76561198139615715,"connected_time":562000000000,"state":"active","ping":60},{"user_id":287,"name":"piss™","steam_id":76561198108098760,"connected_time":3043000000000,"state":"active","ping":44},{"user_id":292,"name":"Tomex999","steam_id":76561198049587675,"connected_time":1988000000000,"state":"active","ping":89},{"user_id":285,"name":"Garry_G","steam_id":76561198362834902,"connected_time":3246000000000,"state":"active","ping":75},{"user_id":261,"name":"alan","steam_id":76561198306947435,"connected_time":4663000000000,"state":"active","ping":64},{"user_id":316,"name":"Aeinzalot","steam_id":76561198195288449,"connected_time":545000000000,"state":"active","ping":50},{"user_id":317,"name":"Angry Ginger","steam_id":76561198256929349,"connected_time":482000000000,"state":"active","ping":136},{"user_id":301,"name":"Mrbluuub","steam_id":76561199273847084,"connected_time":1425000000000,"state":"active","ping":88},{"user_id":204,"name":"Lowy","steam_id":76561198031470048,"connected_time":9323000000000,"state":"active","ping":48},{"user_id":313,"name":"Mr. Man","steam_id":76561198372082915,"connected_time":798000000000,"state":"active","ping":55},{"user_id":268,"name":"needa dispensa here","steam_id":76561198011155232,"connected_time":4057000000000,"state":"active","ping":69},{"user_id":242,"name":"Ben Dover","steam_id":76561198047359132,"connected_time":5976000000000,"state":"active","ping":75},{"user_id":330,"name":"Resounding","steam_id":76561198051011034,"connected_time":230000000000,"state":"active","ping":53},{"user_id":306,"name":"Loud","steam_id":76561198344588858,"connected_time":1267000000000,"state":"active","ping":113},{"user_id":332,"name":"Not Sussy Tanuki","steam_id":76561198137289375,"connected_time":87000000000,"state":"active","ping":100},{"user_id":328,"name":"the indomitable human spirit","steam_id":76561199444971686,"connected_time":324000000000,"state":"active","ping":41},{"user_id":311,"name":"Themadnessman","steam_id":76561198079732032,"connected_time":1097000000000,"state":"active","ping":125},{"user_id":283,"name":"Dirty Joe","steam_id":76561198142418870,"connected_time":3284000000000,"state":"active","ping":44},{"user_id":243,"name":"TheEventGuy","steam_id":76561197972797744,"connected_time":5937000000000,"state":"active","ping":77},{"user_id":333,"name":"Literally a Trans Woman","steam_id":76561198054639925,"connected_time":65000000000,"state":"active","ping":127},{"user_id":290,"name":"Fofenho","steam_id":76561198436817109,"connected_time":3001000000000,"state":"active","ping":48},{"user_id":322,"name":"csnipery","steam_id":76561199435280050,"connected_time":417000000000,"state":"active","ping":78}]},{"server_id":320,"name":"Uncletopia | London | 3 | All Maps","name_short":"lon-3","host":"lon-1.uk.uncletopia.com","port":27035,"enabled":true,"region":"eu","cc":"gb","latitude":51.509865,"longitude":-0.118092,"reserved":0,"last_update":"0001-01-01T00:00:00Z","name_a2s":"Uncletopia | London | 3 | All Maps","protocol":17,"map":"pl_badwater","folder":"tf","game":"Team Fortress","app_id":440,"player_count":24,"max_players":24,"Bots":0,"server_type":"Dedicated","server_os":"Linux","password":true,"vac":true,"version":"7882260","steam_id":85568392924510192,"keywords":["nocrits","nodmgspread","payload","uncletopia"],"game_id":440,"stv_port":27036,"stv_name":"Uncletopia | London | 3 | All Maps | STV","players":[{"user_id":298,"name":"CarrotFlowers LFT","steam_id":76561198154714698,"connected_time":715000000000,"state":"active","ping":52},{"user_id":307,"name":"Ziltoid","steam_id":76561198020753675,"connected_time":93000000000,"state":"active","ping":67},{"user_id":310,"name":"28ilija28","steam_id":76561198868993172,"connected_time":64000000000,"state":"active","ping":75},{"user_id":297,"name":"MoonDroid","steam_id":76561198023027016,"connected_time":739000000000,"state":"active","ping":51},{"user_id":302,"name":"LizaЯdlЧ","steam_id":76561198176750238,"connected_time":566000000000,"state":"active","ping":60},{"user_id":300,"name":"gerg","steam_id":76561198041663219,"connected_time":648000000000,"state":"active","ping":54},{"user_id":303,"name":"fabriqué différemment","steam_id":76561198035380064,"connected_time":554000000000,"state":"active","ping":48},{"user_id":270,"name":"-TA-skai","steam_id":76561198184881255,"connected_time":3528000000000,"state":"active","ping":72},{"user_id":272,"name":"zweat","steam_id":76561198113578197,"connected_time":2933000000000,"state":"active","ping":50},{"user_id":309,"name":"Deacon Dracul","steam_id":76561198046880663,"connected_time":86000000000,"state":"active","ping":93},{"user_id":271,"name":"foof","steam_id":76561198308439257,"connected_time":3178000000000,"state":"active","ping":51},{"user_id":289,"name":"Slifer the Sky Dragon","steam_id":76561198062255803,"connected_time":1684000000000,"state":"active","ping":77},{"user_id":295,"name":"Gety0","steam_id":76561198044387185,"connected_time":866000000000,"state":"active","ping":89},{"user_id":252,"name":"hmscole09","steam_id":76561198811362788,"connected_time":4628000000000,"state":"active","ping":55},{"user_id":304,"name":"GawdStien","steam_id":76561199226886067,"connected_time":532000000000,"state":"active","ping":126},{"user_id":253,"name":"Lau","steam_id":76561197993573576,"connected_time":4618000000000,"state":"active","ping":99},{"user_id":259,"name":"Mafew","steam_id":76561198119993886,"connected_time":4217000000000,"state":"active","ping":56},{"user_id":260,"name":"etc","steam_id":76561197998394797,"connected_time":4190000000000,"state":"active","ping":51},{"user_id":306,"name":"Laurie","steam_id":76561198082951750,"connected_time":214000000000,"state":"active","ping":50},{"user_id":248,"name":"no_name.dll","steam_id":76561199011969062,"connected_time":5127000000000,"state":"active","ping":80},{"user_id":311,"name":"Kumquat","steam_id":76561198200490386,"connected_time":60000000000,"state":"active","ping":78},{"user_id":305,"name":"Cheese","steam_id":76561198146419076,"connected_time":527000000000,"state":"active","ping":80},{"user_id":285,"name":"ThatSiegeKid","steam_id":76561198368037656,"connected_time":2288000000000,"state":"active","ping":45},{"user_id":278,"name":"Kamikrazy","steam_id":76561198044254918,"connected_time":2660000000000,"state":"active","ping":58}]},{"server_id":321,"name":"Uncletopia | London | 4 | All Maps","name_short":"lon-4","host":"lon-1.uk.uncletopia.com","port":27045,"enabled":true,"region":"eu","cc":"gb","latitude":51.509865,"longitude":-0.118092,"reserved":0,"last_update":"0001-01-01T00:00:00Z","name_a2s":"Uncletopia | London | 4 | All Maps","protocol":17,"map":"pl_borneo","folder":"tf","game":"Team Fortress","app_id":440,"player_count":10,"max_players":24,"Bots":0,"server_type":"Dedicated","server_os":"Linux","password":true,"vac":true,"version":"7882260","steam_id":85568392924510193,"keywords":["nocrits","nodmgspread","payload","uncletopia"],"game_id":440,"stv_port":27046,"stv_name":"Uncletopia | London | 4 | All Maps | STV","players":[{"user_id":778,"name":"two beers.","steam_id":76561198221391096,"connected_time":3706000000000,"state":"active","ping":54},{"user_id":779,"name":"Dr. Benway","steam_id":76561198408165005,"connected_time":3596000000000,"state":"active","ping":57},{"user_id":774,"name":"DNA lord","steam_id":76561198352152893,"connected_time":4529000000000,"state":"active","ping":75},{"user_id":785,"name":"mariascomps","steam_id":76561199134581426,"connected_time":3168000000000,"state":"active","ping":48},{"user_id":782,"name":"putrid weasel","steam_id":76561198012955043,"connected_time":3309000000000,"state":"active","ping":57},{"user_id":845,"name":"King Crimson","steam_id":76561198133665338,"connected_time":267000000000,"state":"active","ping":81},{"user_id":784,"name":"secretbuddy14","steam_id":76561199134490402,"connected_time":3217000000000,"state":"active","ping":34},{"user_id":819,"name":"obscure","steam_id":76561198119532381,"connected_time":1965000000000,"state":"active","ping":54},{"user_id":839,"name":"MistaHezakiah","steam_id":76561198004668029,"connected_time":734000000000,"state":"active","ping":42},{"user_id":808,"name":"/ff juxta 3E ETOILE","steam_id":76561198280203428,"connected_time":2630000000000,"state":"active","ping":43}]},{"server_id":21,"name":"Uncletopia | London | 5 | All Maps","name_short":"lon-5","host":"lon-1.uk.uncletopia.com","port":27055,"enabled":true,"region":"eu","cc":"gb","latitude":51.509865,"longitude":-0.118092,"reserved":0,"last_update":"0001-01-01T00:00:00Z","name_a2s":"Uncletopia | London | 5 | All Maps","protocol":17,"map":"pl_swiftwater_final1","folder":"tf","game":"Team Fortress","app_id":440,"player_count":24,"max_players":24,"Bots":0,"server_type":"Dedicated","server_os":"Linux","password":true,"vac":true,"version":"7882260","steam_id":85568392924742829,"keywords":["nocrits","nodmgspread","payload","uncletopia"],"game_id":440,"stv_port":27056,"stv_name":"Uncletopia | London | 5 | All Maps | STV","players":[{"user_id":192,"name":"H-say","steam_id":76561198177400362,"connected_time":3203000000000,"state":"active","ping":110},{"user_id":230,"name":"Mata_FM","steam_id":76561198044824504,"connected_time":1454000000000,"state":"active","ping":75},{"user_id":234,"name":"Milk","steam_id":76561198125876588,"connected_time":1060000000000,"state":"active","ping":41},{"user_id":208,"name":"K.V. #RemoveRandomCrits","steam_id":76561197994832993,"connected_time":2316000000000,"state":"active","ping":85},{"user_id":236,"name":"Gnarville","steam_id":76561198006373329,"connected_time":832000000000,"state":"active","ping":46},{"user_id":237,"name":"David Random","steam_id":76561198144497918,"connected_time":821000000000,"state":"active","ping":70},{"user_id":240,"name":"MILKY","steam_id":76561199261620682,"connected_time":748000000000,"state":"active","ping":60},{"user_id":203,"name":"Spliffendor","steam_id":76561198144020209,"connected_time":2383000000000,"state":"active","ping":48},{"user_id":227,"name":"Koi-Koi","steam_id":76561198045527771,"connected_time":1549000000000,"state":"active","ping":55},{"user_id":232,"name":"ArmedWithWings","steam_id":76561198154615474,"connected_time":1216000000000,"state":"active","ping":100},{"user_id":205,"name":"Rolloden","steam_id":76561198069414404,"connected_time":2343000000000,"state":"active","ping":82},{"user_id":210,"name":"Zina Tv","steam_id":76561198116530769,"connected_time":2263000000000,"state":"active","ping":91},{"user_id":241,"name":"Haha?","steam_id":76561198056882245,"connected_time":111000000000,"state":"active","ping":37},{"user_id":185,"name":"gabagool","steam_id":76561198307111838,"connected_time":3704000000000,"state":"active","ping":53},{"user_id":238,"name":"minecraft michael","steam_id":76561198244255956,"connected_time":820000000000,"state":"active","ping":54},{"user_id":219,"name":"c0mpaz","steam_id":76561198165292894,"connected_time":1800000000000,"state":"active","ping":68},{"user_id":239,"name":"Charles Darwin","steam_id":76561197973496139,"connected_time":755000000000,"state":"active","ping":69},{"user_id":188,"name":"Big Al","steam_id":76561198079585198,"connected_time":3649000000000,"state":"active","ping":54},{"user_id":224,"name":"Panda","steam_id":76561198176342325,"connected_time":1627000000000,"state":"active","ping":93},{"user_id":243,"name":"Christmas Ham","steam_id":76561198119601623,"connected_time":35000000000,"state":"active","ping":58},{"user_id":242,"name":"vroom-vroom","steam_id":76561199190415509,"connected_time":81000000000,"state":"active","ping":65},{"user_id":220,"name":"The Fighting Doll","steam_id":76561197990347787,"connected_time":1785000000000,"state":"active","ping":57},{"user_id":190,"name":"syms","steam_id":76561198066679812,"connected_time":3607000000000,"state":"active","ping":86},{"user_id":199,"name":"ScaryTree","steam_id":76561199384362833,"connected_time":2774000000000,"state":"active","ping":48}]},{"server_id":22,"name":"Uncletopia | London | 6 | All Maps","name_short":"lon-6","host":"lon-1.uk.uncletopia.com","port":27065,"enabled":true,"region":"eu","cc":"gb","latitude":51.509865,"longitude":-0.118092,"reserved":0,"last_update":"0001-01-01T00:00:00Z","name_a2s":"Uncletopia | London | 6 | All Maps","protocol":17,"map":"cp_process_final","folder":"tf","game":"Team Fortress","app_id":440,"player_count":0,"max_players":24,"Bots":0,"server_type":"Dedicated","server_os":"Linux","password":true,"vac":true,"version":"7882260","steam_id":85568392924742830,"keywords":["cp","nocrits","nodmgspread","uncletopia"],"game_id":440,"stv_port":27066,"stv_name":"Uncletopia | London | 6 | All Maps | STV","players":null},{"server_id":40,"name":"Uncletopia | London | 7 | No Payload","name_short":"lon-7","host":"lon-1.uk.uncletopia.com","port":27075,"enabled":true,"region":"eu","cc":"gb","latitude":51.509865,"longitude":-0.118092,"reserved":0,"last_update":"0001-01-01T00:00:00Z","name_a2s":"Uncletopia | London | 7 | No Payload","protocol":17,"map":"cp_freight_final1","folder":"tf","game":"Team Fortress","app_id":440,"player_count":0,"max_players":24,"Bots":0,"server_type":"Dedicated","server_os":"Linux","password":true,"vac":true,"version":"7882260","steam_id":85568392924964314,"keywords":["cp","nocrits","nodmgspread","uncletopia"],"game_id":440,"stv_port":27076,"stv_name":"Uncletopia | London | 7 | No Payload | STV","players":null},{"server_id":41,"name":"Uncletopia | London | 8 | Community","name_short":"lon-8","host":"lon-1.uk.uncletopia.com","port":27085,"enabled":true,"region":"eu","cc":"gb","latitude":51.509865,"longitude":-0.118092,"reserved":0,"last_update":"0001-01-01T00:00:00Z","name_a2s":"Uncletopia | London | 8 | Community","protocol":17,"map":"workshop/koth_ramjam_rc1.ugc459778887","folder":"tf","game":"Team Fortress","app_id":440,"player_count":0,"max_players":24,"Bots":0,"server_type":"Dedicated","server_os":"Linux","password":true,"vac":true,"version":"7882260","steam_id":85568392924964315,"keywords":["cp","nocrits","nodmgspread","uncletopia"],"game_id":440,"stv_port":27086,"stv_name":"Uncletopia | London | 8 | Community | STV","players":null},{"server_id":300,"name":"Uncletopia | Montréal | 1 | All Maps","name_short":"mtl-1","host":"mtl-1.ca.uncletopia.com","port":27015,"enabled":true,"region":"us-east","cc":"ca","latitude":45.50889,"longitude":-73.56167,"reserved":0,"last_update":"0001-01-01T00:00:00Z","name_a2s":"Uncletopia | Montréal | 1 | All Maps","protocol":17,"map":"cp_mountainlab","folder":"tf","game":"Team Fortress","app_id":440,"player_count":0,"max_players":24,"Bots":0,"server_type":"Dedicated","server_os":"Linux","password":true,"vac":true,"version":"7882260","steam_id":85568392924500087,"keywords":["cp","nocrits","nodmgspread","uncletopia"],"game_id":440,"stv_port":27016,"stv_name":"Uncletopia | Montréal | 1 | All Maps | STV","players":null},{"server_id":301,"name":"Uncletopia | Montréal | 2 | All Maps","name_short":"mtl-2","host":"mtl-1.ca.uncletopia.com","port":27025,"enabled":true,"region":"us-east","cc":"ca","latitude":45.50889,"longitude":-73.56167,"reserved":0,"last_update":"0001-01-01T00:00:00Z","name_a2s":"Uncletopia | Montréal | 2 | All Maps","protocol":17,"map":"cp_dustbowl","folder":"tf","game":"Team Fortress","app_id":440,"player_count":1,"max_players":24,"Bots":0,"server_type":"Dedicated","server_os":"Linux","password":true,"vac":true,"version":"7882260","steam_id":85568392924500088,"keywords":["cp","nocrits","nodmgspread","uncletopia"],"game_id":440,"stv_port":27026,"stv_name":"Uncletopia | Montréal | 2 | All Maps | STV","players":[{"user_id":6,"name":"Big Mon","steam_id":76561198409907417,"connected_time":1124000000000,"state":"active","ping":121}]},{"server_id":302,"name":"Uncletopia | Montréal | 3 | All Maps","name_short":"mtl-3","host":"mtl-1.ca.uncletopia.com","port":27035,"enabled":true,"region":"us-east","cc":"ca","latitude":45.50889,"longitude":-73.56167,"reserved":0,"last_update":"0001-01-01T00:00:00Z","name_a2s":"Uncletopia | Montréal | 3 | All Maps","protocol":17,"map":"pl_badwater","folder":"tf","game":"Team Fortress","app_id":440,"player_count":0,"max_players":24,"Bots":0,"server_type":"Dedicated","server_os":"Linux","password":true,"vac":true,"version":"7882260","steam_id":85568392924500089,"keywords":["nocrits","nodmgspread","payload","uncletopia"],"game_id":440,"stv_port":27036,"stv_name":"Uncletopia | Montréal | 3 | All Maps | STV","players":null},{"server_id":303,"name":"Uncletopia | Montréal | 4 | No Payload","name_short":"mtl-4","host":"mtl-1.ca.uncletopia.com","port":27045,"enabled":true,"region":"us-east","cc":"ca","latitude":45.50889,"longitude":-73.56167,"reserved":0,"last_update":"0001-01-01T00:00:00Z","name_a2s":"Uncletopia | Montréal | 4 | No Payload","protocol":17,"map":"cp_altitude","folder":"tf","game":"Team Fortress","app_id":440,"player_count":0,"max_players":24,"Bots":0,"server_type":"Dedicated","server_os":"Linux","password":true,"vac":true,"version":"7882260","steam_id":85568392924500090,"keywords":["cp","nocrits","nodmgspread","uncletopia"],"game_id":440,"stv_port":27046,"stv_name":"Uncletopia | Montréal | 4 | No Payload | STV","players":null},{"server_id":13,"name":"Uncletopia | New York City | 1 | All Maps","name_short":"nyc-1","host":"nyc-1.us.uncletopia.com","port":27015,"enabled":true,"region":"us-east","cc":"us","latitude":40.73061,"longitude":-73.93524,"reserved":0,"last_update":"0001-01-01T00:00:00Z","name_a2s":"Uncletopia | New York City | 1 | All Maps","protocol":17,"map":"pl_pier","folder":"tf","game":"Team Fortress","app_id":440,"player_count":24,"max_players":24,"Bots":0,"server_type":"Dedicated","server_os":"Linux","password":true,"vac":true,"version":"7882260","steam_id":85568392924469993,"keywords":["nocrits","nodmgspread","payload","uncletopia"],"game_id":440,"stv_port":27016,"stv_name":"Uncletopia | New York City | 1 | All Maps | STV","players":[{"user_id":211,"name":"Cat in Your Backyard","steam_id":76561197979078330,"connected_time":2695000000000,"state":"active","ping":60},{"user_id":209,"name":"go touch keyboard","steam_id":76561198197388678,"connected_time":2806000000000,"state":"active","ping":75},{"user_id":238,"name":"Bocchi the Cock","steam_id":76561198152455316,"connected_time":424000000000,"state":"active","ping":139},{"user_id":237,"name":"bongos","steam_id":76561198025555734,"connected_time":462000000000,"state":"active","ping":53},{"user_id":250,"name":"2gs Heavy","steam_id":76561198085388962,"connected_time":22000000000,"state":"active","ping":64},{"user_id":222,"name":"Kick Down Door 6:00AM TUCK☃RO","steam_id":76561197976146738,"connected_time":2144000000000,"state":"active","ping":78},{"user_id":249,"name":"endangered spycrab","steam_id":76561198993581426,"connected_time":180000000000,"state":"active","ping":65},{"user_id":248,"name":"Minus273C","steam_id":76561197967510404,"connected_time":207000000000,"state":"active","ping":78},{"user_id":213,"name":"SHADY SWEATER SALESMAN","steam_id":76561198014616865,"connected_time":2660000000000,"state":"active","ping":59},{"user_id":239,"name":"Krusty Nut","steam_id":76561198120637924,"connected_time":368000000000,"state":"active","ping":60},{"user_id":229,"name":"B.","steam_id":76561198040445907,"connected_time":1526000000000,"state":"active","ping":80},{"user_id":240,"name":"emilee (evil)","steam_id":76561198061455664,"connected_time":352000000000,"state":"active","ping":47},{"user_id":241,"name":"Team Fartpiss Poo","steam_id":76561199163591880,"connected_time":349000000000,"state":"active","ping":87},{"user_id":190,"name":"Ian","steam_id":76561199078852180,"connected_time":4641000000000,"state":"active","ping":57},{"user_id":242,"name":"I'm trying my best","steam_id":76561198886157874,"connected_time":348000000000,"state":"active","ping":86},{"user_id":91,"name":"GanZ","steam_id":76561199378883538,"connected_time":12982000000000,"state":"active","ping":67},{"user_id":243,"name":"drwwby","steam_id":76561198067741339,"connected_time":340000000000,"state":"active","ping":75},{"user_id":244,"name":"shploopie","steam_id":76561198264289810,"connected_time":340000000000,"state":"active","ping":59},{"user_id":245,"name":"The Nikocado Enjoyer","steam_id":76561198263154374,"connected_time":334000000000,"state":"active","ping":60},{"user_id":227,"name":"ttl","steam_id":76561198142878296,"connected_time":1902000000000,"state":"active","ping":61},{"user_id":228,"name":"HOOPLA","steam_id":76561198993451858,"connected_time":1594000000000,"state":"active","ping":71},{"user_id":82,"name":"xen","steam_id":76561198048568188,"connected_time":13980000000000,"state":"active","ping":49},{"user_id":235,"name":"The Power","steam_id":76561198060566884,"connected_time":803000000000,"state":"active","ping":134},{"user_id":247,"name":"Ursus Ludius","steam_id":76561198025470722,"connected_time":308000000000,"state":"active","ping":72}]},{"server_id":14,"name":"Uncletopia | New York City | 2 | All Maps","name_short":"nyc-2","host":"nyc-1.us.uncletopia.com","port":27025,"enabled":true,"region":"us-east","cc":"us","latitude":40.73061,"longitude":-73.93524,"reserved":0,"last_update":"0001-01-01T00:00:00Z","name_a2s":"Uncletopia | New York City | 2 | All Maps","protocol":17,"map":"koth_lakeside_final","folder":"tf","game":"Team Fortress","app_id":440,"player_count":3,"max_players":24,"Bots":0,"server_type":"Dedicated","server_os":"Linux","password":true,"vac":true,"version":"7882260","steam_id":85568392924469994,"keywords":["cp","nocrits","nodmgspread","uncletopia"],"game_id":440,"stv_port":27026,"stv_name":"Uncletopia | New York City | 2 | All Maps | STV","players":[{"user_id":47,"name":"Sire Salty","steam_id":76561198079639072,"connected_time":2023000000000,"state":"active","ping":56},{"user_id":51,"name":"Bigsumoslammer","steam_id":76561198044505076,"connected_time":972000000000,"state":"active","ping":40},{"user_id":55,"name":"expogg269","steam_id":76561199389535917,"connected_time":364000000000,"state":"active","ping":103}]},{"server_id":15,"name":"Uncletopia | New York City | 3 | Stopwatch Beta","name_short":"nyc-3","host":"nyc-1.us.uncletopia.com","port":27035,"enabled":true,"region":"us-east","cc":"us","latitude":40.73061,"longitude":-73.93524,"reserved":0,"last_update":"0001-01-01T00:00:00Z","name_a2s":"Uncletopia | New York City | 3 | Stopwatch Beta","protocol":17,"map":"koth_highpass","folder":"tf","game":"Team Fortress","app_id":440,"player_count":0,"max_players":24,"Bots":0,"server_type":"Dedicated","server_os":"Linux","password":true,"vac":true,"version":"7882260","steam_id":85568392924742820,"keywords":["cp","nocrits","nodmgspread","uncletopia"],"game_id":440,"stv_port":27036,"stv_name":"Uncletopia | New York City | 3 | Stopwatch Beta | STV","players":null},{"server_id":16,"name":"Uncletopia | New York City | 4 | Community","name_short":"nyc-4","host":"nyc-1.us.uncletopia.com","port":27045,"enabled":true,"region":"us-east","cc":"us","latitude":40.73061,"longitude":-73.93524,"reserved":0,"last_update":"0001-01-01T00:00:00Z","name_a2s":"Uncletopia | New York City | 4 | Community","protocol":17,"map":"workshop/koth_slaughter_rc1.ugc1712845210","folder":"tf","game":"Team Fortress","app_id":440,"player_count":24,"max_players":24,"Bots":0,"server_type":"Dedicated","server_os":"Linux","password":true,"vac":true,"version":"7882260","steam_id":85568392924742821,"keywords":["cp","nocrits","nodmgspread","uncletopia"],"game_id":440,"stv_port":27046,"stv_name":"Uncletopia | New York City | 4 | Community | STV","players":[{"user_id":118,"name":"ZungryWare","steam_id":76561198033158968,"connected_time":2595000000000,"state":"active","ping":111},{"user_id":122,"name":"n8thegr83008","steam_id":76561198214814260,"connected_time":2044000000000,"state":"active","ping":75},{"user_id":91,"name":"epitome","steam_id":76561198834412436,"connected_time":4076000000000,"state":"active","ping":59},{"user_id":136,"name":"YarnballWasHere","steam_id":76561198066796158,"connected_time":1062000000000,"state":"active","ping":40},{"user_id":108,"name":"Ubunga Lord of the Nwah","steam_id":76561198129055951,"connected_time":3320000000000,"state":"active","ping":76},{"user_id":140,"name":"ringer","steam_id":76561198073103529,"connected_time":179000000000,"state":"active","ping":71},{"user_id":141,"name":"Delusions Of Grandeur","steam_id":76561199277211588,"connected_time":147000000000,"state":"active","ping":70},{"user_id":143,"name":"Marie","steam_id":76561198056104899,"connected_time":90000000000,"state":"active","ping":85},{"user_id":139,"name":"saib","steam_id":76561198966980576,"connected_time":217000000000,"state":"active","ping":41},{"user_id":68,"name":"marge","steam_id":76561198064823861,"connected_time":6490000000000,"state":"active","ping":52},{"user_id":69,"name":"homer","steam_id":76561198171491110,"connected_time":6461000000000,"state":"active","ping":49},{"user_id":123,"name":"Musica Universalis","steam_id":76561198184794174,"connected_time":2031000000000,"state":"active","ping":66},{"user_id":142,"name":"TwinTrafficone","steam_id":76561199468254673,"connected_time":138000000000,"state":"active","ping":82},{"user_id":88,"name":"orlando","steam_id":76561198128347876,"connected_time":4636000000000,"state":"active","ping":49},{"user_id":138,"name":"Blessed_Hero","steam_id":76561198048218995,"connected_time":913000000000,"state":"active","ping":55},{"user_id":121,"name":"HE’S IN THE GODDAMN WALLS","steam_id":76561198363267009,"connected_time":2065000000000,"state":"active","ping":90},{"user_id":89,"name":"Yato","steam_id":76561198084100335,"connected_time":4269000000000,"state":"active","ping":78},{"user_id":132,"name":"greeno","steam_id":76561198109901138,"connected_time":1520000000000,"state":"active","ping":57},{"user_id":120,"name":"Joad Cressbeckler","steam_id":76561198329087915,"connected_time":2549000000000,"state":"active","ping":133},{"user_id":144,"name":"gnome_Chompski","steam_id":76561198962543984,"connected_time":82000000000,"state":"spawning","ping":202},{"user_id":127,"name":"evilstuntman","steam_id":76561198056911537,"connected_time":1943000000000,"state":"active","ping":60},{"user_id":133,"name":"Godmode","steam_id":76561198076240365,"connected_time":1409000000000,"state":"active","ping":73},{"user_id":134,"name":"HundchenTanque","steam_id":76561198122692754,"connected_time":1329000000000,"state":"active","ping":45},{"user_id":135,"name":"Spiral Mountain","steam_id":76561198058683715,"connected_time":1302000000000,"state":"active","ping":74}]},{"server_id":142,"name":"Uncletopia | São Paulo | 1 | All Maps","name_short":"sao-1","host":"sao-1.br.uncletopia.com","port":27015,"enabled":true,"region":"sa","cc":"br","latitude":-23.533773,"longitude":-46.62529,"reserved":0,"last_update":"0001-01-01T00:00:00Z","name_a2s":"Uncletopia | São Paulo | 1 | All Maps","protocol":17,"map":"pl_pier","folder":"tf","game":"Team Fortress","app_id":440,"player_count":0,"max_players":24,"Bots":0,"server_type":"Dedicated","server_os":"Linux","password":true,"vac":true,"version":"7882260","steam_id":85568392924469996,"keywords":["nocrits","nodmgspread","payload","uncletopia"],"game_id":440,"stv_port":27016,"stv_name":"Uncletopia | São Paulo | 1 | All Maps | STV","players":null},{"server_id":143,"name":"Uncletopia | São Paulo | 2 | All Maps","name_short":"sao-2","host":"sao-2.br.uncletopia.com","port":27015,"enabled":true,"region":"sa","cc":"br","latitude":-23.533773,"longitude":-46.62529,"reserved":0,"last_update":"0001-01-01T00:00:00Z","name_a2s":"Uncletopia | São Paulo | 2 | All Maps","protocol":17,"map":"koth_cascade","folder":"tf","game":"Team Fortress","app_id":440,"player_count":0,"max_players":24,"Bots":0,"server_type":"Dedicated","server_os":"Linux","password":true,"vac":true,"version":"7882260","steam_id":85568392924485349,"keywords":["cp","nocrits","nodmgspread","uncletopia"],"game_id":440,"stv_port":27016,"stv_name":"Uncletopia | São Paulo | 2 | All Maps | STV","players":null},{"server_id":7,"name":"Uncletopia | Seattle | 1 | All Maps","name_short":"sea-1","host":"sea-1.us.uncletopia.com","port":27015,"enabled":true,"region":"us-west","cc":"us","latitude":47.608013,"longitude":-122.33517,"reserved":0,"last_update":"0001-01-01T00:00:00Z","name_a2s":"Uncletopia | Seattle | 1 | All Maps","protocol":17,"map":"cp_mountainlab","folder":"tf","game":"Team Fortress","app_id":440,"player_count":24,"max_players":24,"Bots":0,"server_type":"Dedicated","server_os":"Linux","password":true,"vac":true,"version":"7882260","steam_id":85568392924469997,"keywords":["cp","nocrits","nodmgspread","uncletopia"],"game_id":440,"stv_port":27016,"stv_name":"Uncletopia | Seattle | 1 | All Maps | STV","players":[{"user_id":218,"name":"Username","steam_id":76561198855586261,"connected_time":571000000000,"state":"active","ping":65},{"user_id":229,"name":"Jim the Fish","steam_id":76561199135784419,"connected_time":352000000000,"state":"active","ping":139},{"user_id":215,"name":"They/Them Rattussy","steam_id":76561198238186628,"connected_time":717000000000,"state":"active","ping":75},{"user_id":239,"name":"V∆lume The 1rd","steam_id":76561198133260990,"connected_time":165000000000,"state":"active","ping":58},{"user_id":222,"name":"Crazy Cane","steam_id":76561198993941174,"connected_time":462000000000,"state":"active","ping":120},{"user_id":194,"name":"Dr. Cgad","steam_id":76561198203411640,"connected_time":3383000000000,"state":"active","ping":110},{"user_id":207,"name":"evilOlive","steam_id":76561198106222025,"connected_time":2328000000000,"state":"active","ping":104},{"user_id":146,"name":"Mignyanne :3","steam_id":76561198048754056,"connected_time":5914000000000,"state":"active","ping":60},{"user_id":174,"name":"Saint Laurent Don","steam_id":76561198116820706,"connected_time":4724000000000,"state":"active","ping":74},{"user_id":216,"name":"Akustin","steam_id":76561198110015463,"connected_time":637000000000,"state":"active","ping":82},{"user_id":234,"name":"oopsie doopsie ︻デ一一","steam_id":76561198040129116,"connected_time":248000000000,"state":"active","ping":90},{"user_id":213,"name":"pizzasam","steam_id":76561197972511201,"connected_time":1655000000000,"state":"active","ping":50},{"user_id":224,"name":"Noremac_","steam_id":76561198074701001,"connected_time":451000000000,"state":"active","ping":103},{"user_id":225,"name":"Hoovy #SaveTF2.0","steam_id":76561198970750946,"connected_time":422000000000,"state":"active","ping":71},{"user_id":198,"name":"Shark Sandwich","steam_id":76561198025007938,"connected_time":2813000000000,"state":"active","ping":60},{"user_id":232,"name":"omugai_","steam_id":76561198086481768,"connected_time":286000000000,"state":"active","ping":61},{"user_id":219,"name":"O","steam_id":76561198450073779,"connected_time":558000000000,"state":"active","ping":45},{"user_id":125,"name":"fox news goblin","steam_id":76561198167648580,"connected_time":7458000000000,"state":"active","ping":74},{"user_id":227,"name":"Arsonist Goose","steam_id":76561198147441830,"connected_time":401000000000,"state":"active","ping":68},{"user_id":214,"name":"Piggy","steam_id":76561198000399862,"connected_time":1343000000000,"state":"active","ping":87},{"user_id":228,"name":"ether","steam_id":76561198210322871,"connected_time":400000000000,"state":"active","ping":67},{"user_id":235,"name":"Sckroob","steam_id":76561198136568089,"connected_time":229000000000,"state":"active","ping":87},{"user_id":236,"name":"Deathkillsme","steam_id":76561198059468746,"connected_time":221000000000,"state":"active","ping":46},{"user_id":237,"name":"kramer","steam_id":76561198117761965,"connected_time":214000000000,"state":"active","ping":125}]},{"server_id":119,"name":"Uncletopia | Seattle | 2 | All Maps","name_short":"sea-2","host":"sea-1.us.uncletopia.com","port":27025,"enabled":true,"region":"us-west","cc":"us","latitude":47.608013,"longitude":-122.33517,"reserved":0,"last_update":"0001-01-01T00:00:00Z","name_a2s":"Uncletopia | Seattle | 2 | All Maps","protocol":17,"map":"cp_yukon_final","folder":"tf","game":"Team Fortress","app_id":440,"player_count":23,"max_players":24,"Bots":0,"server_type":"Dedicated","server_os":"Linux","password":true,"vac":true,"version":"7882260","steam_id":85568392924469998,"keywords":["cp","nocrits","nodmgspread","uncletopia"],"game_id":440,"stv_port":27026,"stv_name":"Uncletopia | Seattle | 2 | All Maps | STV","players":[{"user_id":141,"name":"box","steam_id":76561198049531483,"connected_time":2263000000000,"state":"active","ping":110},{"user_id":148,"name":"Bubble Blowing Baby Hunter","steam_id":76561198104679689,"connected_time":1759000000000,"state":"active","ping":47},{"user_id":149,"name":"t.tv/lillieceon","steam_id":76561198062297621,"connected_time":1755000000000,"state":"active","ping":118},{"user_id":150,"name":"FaelisongTalim","steam_id":76561198061921771,"connected_time":1749000000000,"state":"active","ping":113},{"user_id":157,"name":"PinguEnjoyer6","steam_id":76561199186723516,"connected_time":1392000000000,"state":"active","ping":62},{"user_id":151,"name":"soapboxracer360","steam_id":76561198316394688,"connected_time":1738000000000,"state":"active","ping":85},{"user_id":94,"name":"itshuredoes","steam_id":76561199094108419,"connected_time":5368000000000,"state":"active","ping":117},{"user_id":171,"name":"Dairy Queen","steam_id":76561198285298576,"connected_time":211000000000,"state":"active","ping":113},{"user_id":172,"name":"pussy despicable","steam_id":76561198144047527,"connected_time":199000000000,"state":"active","ping":141},{"user_id":139,"name":"Mina's Ninas","steam_id":76561198046502179,"connected_time":2304000000000,"state":"active","ping":86},{"user_id":173,"name":"Jmercy","steam_id":76561198977162219,"connected_time":175000000000,"state":"active","ping":137},{"user_id":174,"name":"Antwan","steam_id":76561198246200638,"connected_time":137000000000,"state":"active","ping":90},{"user_id":79,"name":"Power Jake","steam_id":76561198051510260,"connected_time":6968000000000,"state":"active","ping":59},{"user_id":170,"name":"DanceBunny","steam_id":76561198243610560,"connected_time":291000000000,"state":"active","ping":78},{"user_id":169,"name":"Apollo","steam_id":76561198162364702,"connected_time":307000000000,"state":"active","ping":46},{"user_id":140,"name":"Minus","steam_id":76561198037887887,"connected_time":2294000000000,"state":"active","ping":94},{"user_id":175,"name":"Quon Grene for Vice Prez","steam_id":76561198127545817,"connected_time":129000000000,"state":"active","ping":73},{"user_id":176,"name":"Mr8bittripper","steam_id":76561198133894229,"connected_time":124000000000,"state":"active","ping":733},{"user_id":168,"name":"Gh0w0st","steam_id":76561199471261226,"connected_time":697000000000,"state":"active","ping":124},{"user_id":130,"name":"VerminKing","steam_id":76561198060887391,"connected_time":2665000000000,"state":"active","ping":58},{"user_id":154,"name":"MoreRaptor360","steam_id":76561198318219638,"connected_time":1681000000000,"state":"active","ping":86},{"user_id":164,"name":"poop gaming","steam_id":76561197997341630,"connected_time":925000000000,"state":"active","ping":42},{"user_id":163,"name":"Saul Bunyan Attorney at Log","steam_id":76561198209153291,"connected_time":1167000000000,"state":"active","ping":84}]},{"server_id":406,"name":"Uncletopia | Seattle | 3 | Stopwatch Beta","name_short":"sea-3","host":"sea-1.us.uncletopia.com","port":27035,"enabled":true,"region":"us-west","cc":"us","latitude":47.608013,"longitude":-122.33517,"reserved":0,"last_update":"0001-01-01T00:00:00Z","name_a2s":"Uncletopia | Seattle | 3 | Stopwatch Beta","protocol":17,"map":"cp_mountainlab","folder":"tf","game":"Team Fortress","app_id":440,"player_count":0,"max_players":24,"Bots":0,"server_type":"Dedicated","server_os":"Linux","password":true,"vac":true,"version":"7882260","steam_id":85568392924515217,"keywords":["cp","nocrits","nodmgspread","uncletopia"],"game_id":440,"stv_port":27036,"stv_name":"Uncletopia | Seattle | 3 | Stopwatch Beta | STV","players":null},{"server_id":17,"name":"Uncletopia | San Francisco | 1 | All Maps","name_short":"sfo-1","host":"sfo-1.us.uncletopia.com","port":27015,"enabled":true,"region":"us-west","cc":"us","latitude":37.77397,"longitude":-122.4313,"reserved":0,"last_update":"0001-01-01T00:00:00Z","name_a2s":"Uncletopia | San Francisco | 1 | All Maps","protocol":17,"map":"cp_process_final","folder":"tf","game":"Team Fortress","app_id":440,"player_count":0,"max_players":24,"Bots":0,"server_type":"Dedicated","server_os":"Linux","password":true,"vac":true,"version":"7757534","steam_id":85568392924469999,"keywords":["cp","nocrits","nodmgspread","uncletopia"],"game_id":440,"stv_port":27016,"stv_name":"Uncletopia | San Francisco | 1 | All Maps | STV","players":null},{"server_id":18,"name":"Uncletopia | San Francisco | 2 | All Maps","name_short":"sfo-2","host":"sfo-1.us.uncletopia.com","port":27025,"enabled":true,"region":"us-west","cc":"us","latitude":37.77397,"longitude":-122.4313,"reserved":0,"last_update":"0001-01-01T00:00:00Z","name_a2s":"Uncletopia | San Francisco | 2 | All Maps","protocol":17,"map":"koth_highpass","folder":"tf","game":"Team Fortress","app_id":440,"player_count":0,"max_players":24,"Bots":0,"server_type":"Dedicated","server_os":"Linux","password":true,"vac":true,"version":"7757534","steam_id":85568392924470000,"keywords":["cp","nocrits","nodmgspread","uncletopia"],"game_id":440,"stv_port":27026,"stv_name":"Uncletopia | San Francisco | 2 | All Maps | STV","players":null},{"server_id":19,"name":"Uncletopia | San Francisco | 3 | Stopwatch Beta","name_short":"sfo-3","host":"sfo-1.us.uncletopia.com","port":27035,"enabled":true,"region":"us-west","cc":"us","latitude":37.77397,"longitude":-122.4313,"reserved":0,"last_update":"0001-01-01T00:00:00Z","name_a2s":"Uncletopia | San Francisco | 3 | Stopwatch Beta","protocol":17,"map":"koth_lakeside_final","folder":"tf","game":"Team Fortress","app_id":440,"player_count":0,"max_players":24,"Bots":0,"server_type":"Dedicated","server_os":"Linux","password":true,"vac":true,"version":"7757534","steam_id":85568392924742824,"keywords":["cp","nocrits","nodmgspread","uncletopia"],"game_id":440,"stv_port":27036,"stv_name":"Uncletopia | San Francisco | 3 | Stopwatch Beta | STV","players":null},{"server_id":20,"name":"Uncletopia | San Francisco | 4 | Community","name_short":"sfo-4","host":"sfo-1.us.uncletopia.com","port":27045,"enabled":true,"region":"us-west","cc":"us","latitude":37.77397,"longitude":-122.4313,"reserved":0,"last_update":"0001-01-01T00:00:00Z","name_a2s":"Uncletopia | San Francisco | 4 | Community","protocol":17,"map":"cp_altitude","folder":"tf","game":"Team Fortress","app_id":440,"player_count":0,"max_players":24,"Bots":0,"server_type":"Dedicated","server_os":"Linux","password":true,"vac":true,"version":"7757534","steam_id":85568392924742826,"keywords":["cp","nocrits","nodmgspread","uncletopia"],"game_id":440,"stv_port":27046,"stv_name":"Uncletopia | San Francisco | 4 | Community | STV","players":null},{"server_id":141,"name":"Uncletopia | Sydney | 1 | All Maps","name_short":"syd-1","host":"syd-1.au.uncletopia.com","port":27015,"enabled":true,"region":"au","cc":"au","latitude":-33.865143,"longitude":151.2099,"reserved":0,"last_update":"0001-01-01T00:00:00Z","name_a2s":"Uncletopia | Sydney | 1 | All Maps","protocol":17,"map":"cp_snakewater_final1","folder":"tf","game":"Team Fortress","app_id":440,"player_count":0,"max_players":24,"Bots":0,"server_type":"Dedicated","server_os":"Linux","password":true,"vac":true,"version":"7882260","steam_id":85568392924470001,"keywords":["cp","nocrits","nodmgspread","uncletopia"],"game_id":440,"stv_port":27016,"stv_name":"Uncletopia | Sydney | 1 | All Maps | STV","players":null},{"server_id":123,"name":"Uncletopia | Sydney | 2 | All Maps","name_short":"syd-2","host":"syd-1.au.uncletopia.com","port":27025,"enabled":true,"region":"au","cc":"au","latitude":-33.865143,"longitude":151.2099,"reserved":0,"last_update":"0001-01-01T00:00:00Z","name_a2s":"Uncletopia | Sydney | 2 | All Maps","protocol":17,"map":"pl_barnblitz","folder":"tf","game":"Team Fortress","app_id":440,"player_count":0,"max_players":24,"Bots":0,"server_type":"Dedicated","server_os":"Linux","password":true,"vac":true,"version":"7882260","steam_id":85568392924470002,"keywords":["nocrits","nodmgspread","payload","uncletopia"],"game_id":440,"stv_port":27026,"stv_name":"Uncletopia | Sydney | 2 | All Maps | STV","players":null},{"server_id":395,"name":"Uncletopia | Sydney | 3 | All Maps","name_short":"syd-3","host":"syd-1.au.uncletopia.com","port":27035,"enabled":true,"region":"au","cc":"au","latitude":-33.865143,"longitude":151.2099,"reserved":0,"last_update":"0001-01-01T00:00:00Z","name_a2s":"Uncletopia | Sydney | 3 | All Maps","protocol":17,"map":"pl_badwater","folder":"tf","game":"Team Fortress","app_id":440,"player_count":0,"max_players":24,"Bots":0,"server_type":"Dedicated","server_os":"Linux","password":true,"vac":true,"version":"7882260","steam_id":85568392925194467,"keywords":["nocrits","nodmgspread","payload","uncletopia"],"game_id":440,"stv_port":27036,"stv_name":"Uncletopia | Sydney | 3 | All Maps | STV","players":null},{"server_id":396,"name":"Uncletopia | Sydney | 4 | All Maps","name_short":"syd-4","host":"syd-1.au.uncletopia.com","port":27045,"enabled":true,"region":"au","cc":"au","latitude":-33.865143,"longitude":151.2099,"reserved":0,"last_update":"0001-01-01T00:00:00Z","name_a2s":"Uncletopia | Sydney | 4 | All Maps","protocol":17,"map":"cp_dustbowl","folder":"tf","game":"Team Fortress","app_id":440,"player_count":0,"max_players":24,"Bots":0,"server_type":"Dedicated","server_os":"Linux","password":true,"vac":true,"version":"7882260","steam_id":85568392925397958,"keywords":["cp","nocrits","nodmgspread","uncletopia"],"game_id":440,"stv_port":27046,"stv_name":"Uncletopia | Sydney | 4 | All Maps | STV","players":null},{"server_id":58,"name":"Uncletopia | Sydney | 5 | Stopwatch Beta","name_short":"syd-5","host":"syd-1.au.uncletopia.com","port":27055,"enabled":true,"region":"au","cc":"au","latitude":-33.865143,"longitude":151.2099,"reserved":0,"last_update":"0001-01-01T00:00:00Z","name_a2s":"Uncletopia | Sydney | 5 | Stopwatch Beta","protocol":17,"map":"pl_swiftwater_final1","folder":"tf","game":"Team Fortress","app_id":440,"player_count":2,"max_players":24,"Bots":0,"server_type":"Dedicated","server_os":"Linux","password":true,"vac":true,"version":"7882260","steam_id":85568392925397959,"keywords":["nocrits","nodmgspread","payload","uncletopia"],"game_id":440,"stv_port":27056,"stv_name":"Uncletopia | Sydney | 5 | Stopwatch Beta | STV","players":[{"user_id":3,"name":"super white","steam_id":76561199418910109,"connected_time":121000000000,"state":"active","ping":424},{"user_id":5,"name":"TIZICAPO","steam_id":76561199482837755,"connected_time":10000000000,"state":"spawning","ping":390}]},{"server_id":59,"name":"Uncletopia | Sydney | 6 | Community","name_short":"syd-6","host":"syd-1.au.uncletopia.com","port":27065,"enabled":true,"region":"au","cc":"au","latitude":-33.865143,"longitude":151.2099,"reserved":0,"last_update":"0001-01-01T00:00:00Z","name_a2s":"Uncletopia | Sydney | 6 | Community","protocol":17,"map":"pl_snowycoast","folder":"tf","game":"Team Fortress","app_id":440,"player_count":0,"max_players":24,"Bots":0,"server_type":"Dedicated","server_os":"Linux","password":true,"vac":true,"version":"7882260","steam_id":85568392925397960,"keywords":["nocrits","nodmgspread","payload","uncletopia"],"game_id":440,"stv_port":27066,"stv_name":"Uncletopia | Sydney | 6 | Community | STV","players":null},{"server_id":49,"name":"Uncletopia | Warsaw | 1 | All Maps","name_short":"waw-1","host":"waw-1.pl.uncletopia.com","port":27015,"enabled":true,"region":"eu","cc":"pl","latitude":52.2297,"longitude":21.017532,"reserved":0,"last_update":"0001-01-01T00:00:00Z","name_a2s":"","protocol":0,"map":"","folder":"","game":"","app_id":0,"player_count":0,"max_players":0,"Bots":0,"server_type":"","server_os":"","password":false,"vac":false,"version":"","steam_id":0,"keywords":null,"game_id":0,"stv_port":0,"stv_name":"","players":null},{"server_id":50,"name":"Uncletopia | Warsaw | 2 | All Maps","name_short":"waw-2","host":"waw-1.pl.uncletopia.com","port":27025,"enabled":true,"region":"eu","cc":"pl","latitude":52.2297,"longitude":21.017532,"reserved":0,"last_update":"0001-01-01T00:00:00Z","name_a2s":"Uncletopia | Warsaw | 2 | All Maps","protocol":17,"map":"koth_highpass","folder":"tf","game":"Team Fortress","app_id":440,"player_count":0,"max_players":24,"Bots":0,"server_type":"Dedicated","server_os":"Linux","password":true,"vac":true,"version":"7882260","steam_id":85568392925397851,"keywords":["cp","nocrits","nodmgspread","uncletopia"],"game_id":440,"stv_port":27026,"stv_name":"Uncletopia | Warsaw | 2 | All Maps | STV","players":null},{"server_id":51,"name":"Uncletopia | Warsaw | 3 | All Maps","name_short":"waw-3","host":"waw-1.pl.uncletopia.com","port":27035,"enabled":true,"region":"eu","cc":"pl","latitude":52.2297,"longitude":21.017532,"reserved":0,"last_update":"0001-01-01T00:00:00Z","name_a2s":"Uncletopia | Warsaw | 3 | All Maps","protocol":17,"map":"koth_viaduct","folder":"tf","game":"Team Fortress","app_id":440,"player_count":0,"max_players":24,"Bots":0,"server_type":"Dedicated","server_os":"Linux","password":true,"vac":true,"version":"7882260","steam_id":85568392925397852,"keywords":["cp","nocrits","nodmgspread","uncletopia"],"game_id":440,"stv_port":27036,"stv_name":"Uncletopia | Warsaw | 3 | All Maps | STV","players":null},{"server_id":52,"name":"Uncletopia | Warsaw | 4 | All Maps","name_short":"waw-4","host":"waw-1.pl.uncletopia.com","port":27045,"enabled":true,"region":"eu","cc":"pl","latitude":52.2297,"longitude":21.017532,"reserved":0,"last_update":"0001-01-01T00:00:00Z","name_a2s":"Uncletopia | Warsaw | 4 | All Maps","protocol":17,"map":"koth_highpass","folder":"tf","game":"Team Fortress","app_id":440,"player_count":0,"max_players":24,"Bots":0,"server_type":"Dedicated","server_os":"Linux","password":true,"vac":true,"version":"7882260","steam_id":85568392925397853,"keywords":["cp","nocrits","nodmgspread","uncletopia"],"game_id":440,"stv_port":27046,"stv_name":"Uncletopia | Warsaw | 4 | All Maps | STV","players":null},{"server_id":53,"name":"Uncletopia | Warsaw | 5 | Stopwatch Beta","name_short":"waw-5","host":"waw-1.pl.uncletopia.com","port":27055,"enabled":true,"region":"eu","cc":"pl","latitude":52.2297,"longitude":21.017532,"reserved":0,"last_update":"0001-01-01T00:00:00Z","name_a2s":"Uncletopia | Warsaw | 5 | Stopwatch Beta","protocol":17,"map":"pl_upward","folder":"tf","game":"Team Fortress","app_id":440,"player_count":0,"max_players":24,"Bots":0,"server_type":"Dedicated","server_os":"Linux","password":true,"vac":true,"version":"7882260","steam_id":85568392925397854,"keywords":["nocrits","nodmgspread","payload","uncletopia"],"game_id":440,"stv_port":27056,"stv_name":"Uncletopia | Warsaw | 5 | Stopwatch Beta | STV","players":null},{"server_id":54,"name":"Uncletopia | Warsaw | 6 | Community","name_short":"waw-6","host":"waw-1.pl.uncletopia.com","port":27065,"enabled":true,"region":"eu","cc":"pl","latitude":52.2297,"longitude":21.017532,"reserved":0,"last_update":"0001-01-01T00:00:00Z","name_a2s":"Uncletopia | Warsaw | 6 | Community","protocol":17,"map":"workshop/cp_fulgur_rc2a.ugc2068252300","folder":"tf","game":"Team Fortress","app_id":440,"player_count":0,"max_players":24,"Bots":0,"server_type":"Dedicated","server_os":"Linux","password":true,"vac":true,"version":"7882260","steam_id":85568392925397856,"keywords":["cp","nocrits","nodmgspread","uncletopia"],"game_id":440,"stv_port":27066,"stv_name":"Uncletopia | Warsaw | 6 | Community | STV","players":null}]}