{"status":true,"message":"","result":[{"server_id":9,"name":"Uncletopia | Atlanta | 1 | All Maps","name_short":"atl-1","host":"atl-1.us.uncletopia.com","port":27015,"enabled":true,"region":"us-east","cc":"us","latitude":33.753746,"longitude":-84.38633,"reserved":0,"last_update":"0001-01-01T00:00:00Z","name_a2s":"Uncletopia | Atlanta | 1 | All Maps","protocol":17,"map":"pl_pier","folder":"tf","game":"Team Fortress","app_id":440,"player_count":0,"max_players":24,"Bots":0,"server_type":"Dedicated","server_os":"Linux","password":true,"vac":true,"version":"7961495","steam_id":85568392924469982,"keywords":["nocrits","nodmgspread","payload","uncletopia"],"game_id":440,"stv_port":27016,"stv_name":"Uncletopia | Atlanta | 1 | All Maps | STV","players":null},{"server_id":104,"name":"Uncletopia | Atlanta | 2 | All Maps","name_short":"atl-2","host":"atl-1.us.uncletopia.com","port":27025,"enabled":true,"region":"us-east","cc":"us","latitude":33.753746,"longitude":-84.38633,"reserved":0,"last_update":"0001-01-01T00:00:00Z","name_a2s":"Uncletopia | Atlanta | 2 | All Maps","protocol":17,"map":"koth_cascade","folder":"tf","game":"Team Fortress","app_id":440,"player_count":0,"max_players":24,"Bots":0,"server_type":"Dedicated","server_os":"Linux","password":true,"vac":true,"version":"7961495","steam_id":85568392924469983,"keywords":["cp","nocrits","nodmgspread","uncletopia"],"game_id":440,"stv_port":27026,"stv_name":"Uncletopia | Atlanta | 2 | All Maps | STV","players":null},{"server_id":400,"name":"Uncletopia | Atlanta | 3 | Stopwatch","name_short":"atl-3","host":"atl-1.us.uncletopia.com","port":27035,"enabled":true,"region":"us-east","cc":"us","latitude":33.753746,"longitude":-84.38633,"reserved":0,"last_update":"0001-01-01T00:00:00Z","name_a2s":"Uncletopia | Atlanta | 3 | Stopwatch","protocol":17,"map":"pl_upward","folder":"tf","game":"Team Fortress","app_id":440,"player_count":0,"max_players":24,"Bots":0,"server_type":"Dedicated","server_os":"Linux","password":true,"vac":true,"version":"7961495","steam_id":85568392924515187,"keywords":["nocrits","nodmgspread","payload","uncletopia"],"game_id":440,"stv_port":27036,"stv_name":"Uncletopia | Atlanta | 3 | Stopwatch | STV","players":null},{"server_id":401,"name":"Uncletopia | Atlanta | 4 | Community","name_short":"atl-4","host":"atl-1.us.uncletopia.com","port":27045,"enabled":true,"region":"us-east","cc":"us","latitude":33.753746,"longitude":-84.38633,"reserved":0,"last_update":"0001-01-01T00:00:00Z","name_a2s":"Uncletopia | Atlanta | 4 | Community","protocol":17,"map":"koth_ashville_final","folder":"tf","game":"Team Fortress","app_id":440,"player_count":0,"max_players":24,"Bots":0,"server_type":"Dedicated","server_os":"Linux","password":true,"vac":true,"version":"7961495","steam_id":85568392924515188,"keywords":["cp","nocrits","nodmgspread","uncletopia"],"game_id":440,"stv_port":27046,"stv_name":"Uncletopia | Atlanta | 4 | Community | STV","players":null},{"server_id":2,"name":"Uncletopia | Chicago | 1 | All Maps","name_short":"chi-1","host":"chi-1.us.uncletopia.com","port":27015,"enabled":true,"region":"us-central","cc":"us","latitude":41.881832,"longitude":-87.62318,"reserved":0,"last_update":"0001-01-01T00:00:00Z","name_a2s":"Uncletopia | Chicago | 1 | All Maps","protocol":17,"map":"pl_upward","folder":"tf","game":"Team Fortress","app_id":440,"player_count":24,"max_players":24,"Bots":0,"server_type":"Dedicated","server_os":"Linux","password":true,"vac":true,"version":"7961495","steam_id":85568392924469984,"keywords":["nocrits","nodmgspread","payload","uncletopia"],"game_id":440,"stv_port":27016,"stv_name":"Uncletopia | Chicago | 1 | All Maps | STV","players":[{"user_id":279,"name":"women in suits #transrights","steam_id":76561198103901723,"connected_time":477000000000,"state":"active","ping":75},{"user_id":221,"name":"DeSynthed","steam_id":76561198098768007,"connected_time":2935000000000,"state":"active","ping":75},{"user_id":248,"name":"Ⱨï₥","steam_id":76561198056871257,"connected_time":1908000000000,"state":"active","ping":65},{"user_id":205,"name":"Prsm","steam_id":76561198053344995,"connected_time":5190000000000,"state":"active","ping":58},{"user_id":275,"name":"Hyperactivedimwit","steam_id":76561198134221704,"connected_time":714000000000,"state":"active","ping":49},{"user_id":282,"name":"Terry Crews from Brooklyn 99","steam_id":76561198357806819,"connected_time":200000000000,"state":"active","ping":76},{"user_id":173,"name":"Brawns","steam_id":76561198045190199,"connected_time":7685000000000,"state":"active","ping":71},{"user_id":259,"name":"Urbanzpinapple","steam_id":76561198115426938,"connected_time":1258000000000,"state":"active","ping":59},{"user_id":271,"name":"twinblock","steam_id":76561198157414556,"connected_time":1169000000000,"state":"active","ping":81},{"user_id":278,"name":"rattlin' bog","steam_id":76561198224551028,"connected_time":571000000000,"state":"active","ping":71},{"user_id":256,"name":"Trick Stab","steam_id":76561198149967340,"connected_time":1591000000000,"state":"active","ping":83},{"user_id":269,"name":"creeeeeee","steam_id":76561198392539722,"connected_time":1214000000000,"state":"active","ping":78},{"user_id":264,"name":"kermitcreeper(ZAZA)","steam_id":76561199222829972,"connected_time":1231000000000,"state":"active","ping":51},{"user_id":187,"name":"RedBaron","steam_id":76561198972426107,"connected_time":6417000000000,"state":"active","ping":58},{"user_id":212,"name":"dobby","steam_id":76561198012274834,"connected_time":4259000000000,"state":"active","ping":94},{"user_id":265,"name":"pad6z23h8s","steam_id":76561198880756741,"connected_time":1221000000000,"state":"active","ping":166},{"user_id":283,"name":"2rats having sex in doritos bag","steam_id":76561198111669774,"connected_time":144000000000,"state":"active","ping":45},{"user_id":249,"name":"ุ","steam_id":76561198170624701,"connected_time":1907000000000,"state":"active","ping":74},{"user_id":239,"name":"dr.sex","steam_id":76561198218497904,"connected_time":2513000000000,"state":"active","ping":82},{"user_id":257,"name":"roto","steam_id":76561198138735860,"connected_time":1371000000000,"state":"active","ping":69},{"user_id":260,"name":"Slip","steam_id":76561199057232579,"connected_time":1251000000000,"state":"active","ping":56},{"user_id":280,"name":"riven","steam_id":76561198057158050,"connected_time":426000000000,"state":"active","ping":44},{"user_id":251,"name":"finger","steam_id":76561198068558572,"connected_time":1906000000000,"state":"active","ping":76},{"user_id":243,"name":"catgirl queef :3","steam_id":76561199015827567,"connected_time":2355000000000,"state":"active","ping":77}]},{"server_id":106,"name":"Uncletopia | Chicago | 2 | All Maps","name_short":"chi-2","host":"chi-1.us.uncletopia.com","port":27025,"enabled":true,"region":"us-central","cc":"us","latitude":41.881832,"longitude":-87.62318,"reserved":0,"last_update":"0001-01-01T00:00:00Z","name_a2s":"Uncletopia | Chicago | 2 | All Maps","protocol":17,"map":"pl_badwater","folder":"tf","game":"Team Fortress","app_id":440,"player_count":24,"max_players":24,"Bots":0,"server_type":"Dedicated","server_os":"Linux","password":true,"vac":true,"version":"7961495","steam_id":85568392924469985,"keywords":["nocrits","nodmgspread","payload","uncletopia"],"game_id":440,"stv_port":27026,"stv_name":"Uncletopia | Chicago | 2 | All Maps | STV","players":[{"user_id":93,"name":"taigaxx","steam_id":76561198202669250,"connected_time":2489000000000,"state":"active","ping":75},{"user_id":58,"name":"Broadway Rose","steam_id":76561198046083342,"connected_time":5732000000000,"state":"active","ping":53},{"user_id":127,"name":"Kung fu Mungus","steam_id":76561198069281556,"connected_time":777000000000,"state":"active","ping":68},{"user_id":106,"name":"Donkski","steam_id":76561198406895347,"connected_time":1638000000000,"state":"active","ping":62},{"user_id":133,"name":"hoos","steam_id":76561198045985910,"connected_time":26000000000,"state":"active","ping":63},{"user_id":114,"name":"Larry Cañonga","steam_id":76561198081053203,"connected_time":1167000000000,"state":"active","ping":136},{"user_id":101,"name":"stealthzelf","steam_id":76561198132493391,"connected_time":2214000000000,"state":"active","ping":65},{"user_id":107,"name":"Very Excited Pyro","steam_id":76561198379574232,"connected_time":1572000000000,"state":"active","ping":52},{"user_id":123,"name":"HyperOrange|#SaveTF2","steam_id":76561198068071327,"connected_time":1056000000000,"state":"active","ping":70},{"user_id":115,"name":"HUMBY","steam_id":76561198065045867,"connected_time":1164000000000,"state":"active","ping":117},{"user_id":29,"name":"retinz","steam_id":76561198135563495,"connected_time":7247000000000,"state":"active","ping":62},{"user_id":97,"name":"Dutchie","steam_id":76561198040969743,"connected_time":2468000000000,"state":"active","ping":79},{"user_id":128,"name":"BurgerPizza","steam_id":76561198151256410,"connected_time":712000000000,"state":"active","ping":140},{"user_id":112,"name":"yalu","steam_id":76561198224811504,"connected_time":1348000000000,"state":"active","ping":62},{"user_id":108,"name":"Pillows","steam_id":76561198342571075,"connected_time":1560000000000,"state":"active","ping":62},{"user_id":129,"name":"Waffle Wannabe","steam_id":76561198064510650,"connected_time":85000000000,"state":"active","ping":61},{"user_id":125,"name":"bouncyhousin","steam_id":76561198852902827,"connected_time":1049000000000,"state":"active","ping":53},{"user_id":126,"name":"twizted","steam_id":76561197960407274,"connected_time":1049000000000,"state":"active","ping":72},{"user_id":111,"name":"The Hose on Upward","steam_id":76561197965092192,"connected_time":1484000000000,"state":"active","ping":83},{"user_id":132,"name":"FIJI","steam_id":76561198126087725,"connected_time":42000000000,"state":"active","ping":71},{"user_id":99,"name":"King","steam_id":76561198039763676,"connected_time":2464000000000,"state":"active","ping":61},{"user_id":76,"name":"Soapbar","steam_id":76561198081714169,"connected_time":4569000000000,"state":"active","ping":84},{"user_id":74,"name":"custodian","steam_id":76561198058793778,"connected_time":4625000000000,"state":"active","ping":62},{"user_id":82,"name":"Mr. Tickle","steam_id":76561198126684647,"connected_time":3407000000000,"state":"active","ping":59}]},{"server_id":402,"name":"Uncletopia | Chicago | 3 | All Maps","name_short":"chi-3","host":"chi-1.us.uncletopia.com","port":27035,"enabled":true,"region":"us-central","cc":"us","latitude":41.881832,"longitude":-87.62318,"reserved":0,"last_update":"0001-01-01T00:00:00Z","name_a2s":"Uncletopia | Chicago | 3 | All Maps","protocol":17,"map":"koth_viaduct","folder":"tf","game":"Team Fortress","app_id":440,"player_count":24,"max_players":24,"Bots":0,"server_type":"Dedicated","server_os":"Linux","password":true,"vac":true,"version":"7961495","steam_id":85568392924515191,"keywords":["cp","nocrits","nodmgspread","uncletopia"],"game_id":440,"stv_port":27036,"stv_name":"Uncletopia | Chicago | 3 | All Maps | STV","players":[{"user_id":13,"name":"a copy of up on dvd","steam_id":76561198444021216,"connected_time":1267000000000,"state":"active","ping":69},{"user_id":7,"name":"Aspxts","steam_id":76561199125254746,"connected_time":1685000000000,"state":"active","ping":51},{"user_id":14,"name":"Inosocks","steam_id":76561199304666539,"connected_time":1093000000000,"state":"active","ping":174},{"user_id":9,"name":"Pixeled","steam_id":76561198088917077,"connected_time":1514000000000,"state":"active","ping":85},{"user_id":10,"name":"Blue","steam_id":76561199093604072,"connected_time":1462000000000,"state":"active","ping":76},{"user_id":12,"name":"Geesemans","steam_id":76561199478892816,"connected_time":1317000000000,"state":"active","ping":136},{"user_id":15,"name":"breezewax","steam_id":76561198121702006,"connected_time":1000000000000,"state":"active","ping":61},{"user_id":37,"name":"MeatShield 2000","steam_id":76561199375192850,"connected_time":319000000000,"state":"active","ping":87},{"user_id":34,"name":"Throat Goat","steam_id":76561198132532519,"connected_time":492000000000,"state":"active","ping":115},{"user_id":18,"name":"J The Jounin","steam_id":76561198034583622,"connected_time":944000000000,"state":"active","ping":72},{"user_id":19,"name":"federal agent","steam_id":76561198136278172,"connected_time":913000000000,"state":"active","ping":72},{"user_id":20,"name":"Harven Cosset","steam_id":76561198399526024,"connected_time":907000000000,"state":"active","ping":64},{"user_id":40,"name":"AidanDawnfire25","steam_id":76561198139937008,"connected_time":17000000000,"state":"spawning","ping":81},{"user_id":22,"name":"Red_Hatkins","steam_id":76561198214004105,"connected_time":857000000000,"state":"active","ping":83},{"user_id":23,"name":"dreguen","steam_id":76561199471148663,"connected_time":800000000000,"state":"active","ping":56},{"user_id":38,"name":"sonic1394","steam_id":76561198054636788,"connected_time":261000000000,"state":"active","ping":69},{"user_id":25,"name":"ThatGamingKiwi","steam_id":76561199170522237,"connected_time":788000000000,"state":"active","ping":75},{"user_id":26,"name":"catrinaisahuman","steam_id":76561198281355729,"connected_time":765000000000,"state":"active","ping":61},{"user_id":27,"name":"Socialist Warrior","steam_id":76561198085664421,"connected_time":757000000000,"state":"active","ping":55},{"user_id":28,"name":"Krustytoepaste","steam_id":76561198320265524,"connected_time":745000000000,"state":"active","ping":94},{"user_id":29,"name":"Tag","steam_id":76561199138738952,"connected_time":744000000000,"state":"active","ping":71},{"user_id":30,"name":"Jrock","steam_id":76561198045715996,"connected_time":744000000000,"state":"active","ping":78},{"user_id":39,"name":"PK","steam_id":76561198368722500,"connected_time":31000000000,"state":"connecting","ping":65},{"user_id":36,"name":"g00bur","steam_id":76561197993622520,"connected_time":476000000000,"state":"active","ping":57}]},{"server_id":403,"name":"Uncletopia | Chicago | 4 | All Maps","name_short":"chi-4","host":"chi-1.us.uncletopia.com","port":27045,"enabled":true,"region":"us-central","cc":"us","latitude":41.881832,"longitude":-87.62318,"reserved":0,"last_update":"0001-01-01T00:00:00Z","name_a2s":"Uncletopia | Chicago | 4 | All Maps","protocol":17,"map":"koth_cascade","folder":"tf","game":"Team Fortress","app_id":440,"player_count":0,"max_players":24,"Bots":0,"server_type":"Dedicated","server_os":"Linux","password":true,"vac":true,"version":"7961495","steam_id":85568392924515193,"keywords":["cp","nocrits","nodmgspread","uncletopia"],"game_id":440,"stv_port":27046,"stv_name":"Uncletopia | Chicago | 4 | All Maps | STV","players":null},{"server_id":36,"name":"Uncletopia | Chicago | 5 | All Maps","name_short":"chi-5","host":"chi-2.us.uncletopia.com","port":27015,"enabled":true,"region":"us-central","cc":"us","latitude":41.881832,"longitude":-87.62318,"reserved":0,"last_update":"0001-01-01T00:00:00Z","name_a2s":"Uncletopia | Chicago | 5 | All Maps","protocol":17,"map":"koth_viaduct","folder":"tf","game":"Team Fortress","app_id":440,"player_count":0,"max_players":24,"Bots":0,"server_type":"Dedicated","server_os":"Linux","password":true,"vac":true,"version":"7961495","steam_id":85568392924866362,"keywords":["cp","nocrits","nodmgspread","uncletopia"],"game_id":440,"stv_port":27016,"stv_name":"Uncletopia | Chicago | 5 | All Maps | STV","players":null},{"server_id":37,"name":"Uncletopia | Chicago | 6 | All Maps","name_short":"chi-6","host":"chi-2.us.uncletopia.com","port":27025,"enabled":true,"region":"us-central","cc":"us","latitude":41.881832,"longitude":-87.62318,"reserved":0,"last_update":"0001-01-01T00:00:00Z","name_a2s":"Uncletopia | Chicago | 6 | All Maps","protocol":17,"map":"pl_snowycoast","folder":"tf","game":"Team Fortress","app_id":440,"player_count":23,"max_players":24,"Bots":0,"server_type":"Dedicated","server_os":"Linux","password":true,"vac":true,"version":"7961495","steam_id":85568392924866363,"keywords":["nocrits","nodmgspread","payload","uncletopia"],"game_id":440,"stv_port":27026,"stv_name":"Uncletopia | Chicago | 6 | All Maps | STV","players":[{"user_id":127,"name":"Binary","steam_id":76561198080764770,"connected_time":4681000000000,"state":"active","ping":70},{"user_id":148,"name":"Fiendish Frog","steam_id":76561198029478821,"connected_time":2686000000000,"state":"active","ping":75},{"user_id":179,"name":"JoeFalco","steam_id":76561198064005012,"connected_time":1022000000000,"state":"active","ping":84},{"user_id":142,"name":"Swedish Crowbar","steam_id":76561199105488936,"connected_time":2913000000000,"state":"active","ping":150},{"user_id":188,"name":"rudy","steam_id":76561198088712799,"connected_time":202000000000,"state":"active","ping":78},{"user_id":192,"name":"yomommasabitch","steam_id":76561198323217150,"connected_time":6000000000,"state":"spawning","ping":61},{"user_id":151,"name":"Kirby.exe","steam_id":76561198242714582,"connected_time":2399000000000,"state":"active","ping":62},{"user_id":161,"name":"Greasy Guavas","steam_id":76561198089650428,"connected_time":2188000000000,"state":"active","ping":114},{"user_id":190,"name":"Buff Birdy","steam_id":76561198357195619,"connected_time":103000000000,"state":"active","ping":78},{"user_id":174,"name":"money getting 1 percenter","steam_id":76561198012796388,"connected_time":1347000000000,"state":"active","ping":46},{"user_id":168,"name":"cass","steam_id":76561198074502046,"connected_time":1878000000000,"state":"active","ping":98},{"user_id":154,"name":"shampoo","steam_id":76561198353456379,"connected_time":2322000000000,"state":"active","ping":65},{"user_id":184,"name":"Thiodag","steam_id":76561198088165991,"connected_time":277000000000,"state":"active","ping":72},{"user_id":173,"name":"need a dispenser here","steam_id":76561198060912995,"connected_time":1358000000000,"state":"active","ping":56},{"user_id":176,"name":"Woke Bush","steam_id":76561198047994501,"connected_time":1342000000000,"state":"active","ping":57},{"user_id":186,"name":"Yam Jazzy Jim","steam_id":76561198000788950,"connected_time":258000000000,"state":"active","ping":69},{"user_id":149,"name":"jxh300","steam_id":76561199196579894,"connected_time":2633000000000,"state":"active","ping":72},{"user_id":180,"name":"aiden","steam_id":76561198449527009,"connected_time":715000000000,"state":"active","ping":91},{"user_id":182,"name":"Goggles","steam_id":76561198084638372,"connected_time":577000000000,"state":"active","ping":84},{"user_id":191,"name":"mOoOoOoO","steam_id":76561198145615363,"connected_time":91000000000,"state":"active","ping":75},{"user_id":163,"name":"Master John Thursday","steam_id":76561197987593154,"connected_time":2114000000000,"state":"active","ping":66},{"user_id":171,"name":"Anxiety.mov","steam_id":76561198028145216,"connected_time":1792000000000,"state":"active","ping":56},{"user_id":143,"name":"Albino Jellyfish","steam_id":76561198208561097,"connected_time":2913000000000,"state":"active","ping":71}]},{"server_id":38,"name":"Uncletopia | Chicago | 7 | Stopwatch","name_short":"chi-7","host":"chi-2.us.uncletopia.com","port":27035,"enabled":true,"region":"us-central","cc":"us","latitude":41.881832,"longitude":-87.62318,"reserved":0,"last_update":"0001-01-01T00:00:00Z","name_a2s":"Uncletopia | Chicago | 7 | Stopwatch","protocol":17,"map":"pl_badwater","folder":"tf","game":"Team Fortress","app_id":440,"player_count":0,"max_players":24,"Bots":0,"server_type":"Dedicated","server_os":"Linux","password":true,"vac":true,"version":"7961495","steam_id":85568392924866364,"keywords":["nocrits","nodmgspread","payload","uncletopia"],"game_id":440,"stv_port":27036,"stv_name":"Uncletopia | Chicago | 7 | Stopwatch | STV","players":null},{"server_id":39,"name":"Uncletopia | Chicago | 8 | Community","name_short":"chi-8","host":"chi-2.us.uncletopia.com","port":27045,"enabled":true,"region":"us-central","cc":"us","latitude":41.881832,"longitude":-87.62318,"reserved":0,"last_update":"0001-01-01T00:00:00Z","name_a2s":"Uncletopia | Chicago | 8 | Community","protocol":17,"map":"pl_pier","folder":"tf","game":"Team Fortress","app_id":440,"player_count":0,"max_players":24,"Bots":0,"server_type":"Dedicated","server_os":"Linux","password":true,"vac":true,"version":"7961495","steam_id":85568392924866365,"keywords":["nocrits","nodmgspread","payload","uncletopia"],"game_id":440,"stv_port":27046,"stv_name":"Uncletopia | Chicago | 8 | Community | STV","players":null},{"server_id":8,"name":"Uncletopia | Dallas | 1 | All Maps","name_short":"dal-1","host":"dal-1.us.uncletopia.com","port":27015,"enabled":true,"region":"us-central","cc":"us","latitude":32.779167,"longitude":-96.80889,"reserved":0,"last_update":"0001-01-01T00:00:00Z","name_a2s":"Uncletopia | Dallas | 1 | All Maps","protocol":17,"map":"ctf_doublecross","folder":"tf","game":"Team Fortress","app_id":440,"player_count":24,"max_players":24,"Bots":0,"server_type":"Dedicated","server_os":"Linux","password":true,"vac":true,"version":"7961495","steam_id":85568392924469986,"keywords":["ctf","nocrits","nodmgspread","uncletopia"],"game_id":440,"stv_port":27016,"stv_name":"Uncletopia | Dallas | 1 | All Maps | STV","players":[{"user_id":7,"name":"lucky","steam_id":76561198323426623,"connected_time":4408000000000,"state":"active","ping":96},{"user_id":68,"name":"puffer","steam_id":76561199049164456,"connected_time":307000000000,"state":"active","ping":103},{"user_id":64,"name":"neet","steam_id":76561197968115168,"connected_time":475000000000,"state":"active","ping":75},{"user_id":59,"name":"Loogus","steam_id":76561198811561721,"connected_time":816000000000,"state":"active","ping":73},{"user_id":11,"name":"Lord Theodore XIII","steam_id":76561198085842797,"connected_time":3514000000000,"state":"active","ping":53},{"user_id":53,"name":"Luffliet.","steam_id":76561198186593707,"connected_time":1217000000000,"state":"active","ping":48},{"user_id":38,"name":"Kanye Asada","steam_id":76561198186678831,"connected_time":2184000000000,"state":"active","ping":89},{"user_id":70,"name":"free food that isn't poisoned","steam_id":76561198046111695,"connected_time":96000000000,"state":"active","ping":50},{"user_id":36,"name":"FuriusColombian","steam_id":76561198257720165,"connected_time":2226000000000,"state":"active","ping":127},{"user_id":20,"name":"Gul'dan","steam_id":76561198240466940,"connected_time":3119000000000,"state":"active","ping":182},{"user_id":62,"name":"plink","steam_id":76561198057829889,"connected_time":488000000000,"state":"active","ping":55},{"user_id":71,"name":"Blehnder","steam_id":76561198172097526,"connected_time":84000000000,"state":"active","ping":105},{"user_id":72,"name":"Andrew","steam_id":76561198070615190,"connected_time":76000000000,"state":"active","ping":119},{"user_id":25,"name":"BarrowBaron","steam_id":76561198013633236,"connected_time":2789000000000,"state":"active","ping":73},{"user_id":75,"name":"Zeek","steam_id":76561197987204351,"connected_time":17000000000,"state":"active","ping":75},{"user_id":27,"name":"SCRAPTRAP1001","steam_id":76561199417627762,"connected_time":2728000000000,"state":"active","ping":54},{"user_id":66,"name":"Wey","steam_id":76561198089235065,"connected_time":442000000000,"state":"active","ping":85},{"user_id":37,"name":"Gatito Thomas","steam_id":76561199454808276,"connected_time":2218000000000,"state":"active","ping":122},{"user_id":73,"name":"MancalaMadMan","steam_id":76561198347324053,"connected_time":54000000000,"state":"active","ping":101},{"user_id":42,"name":"HOODOO_LOVER_2007","steam_id":76561199087691214,"connected_time":2083000000000,"state":"active","ping":90},{"user_id":76,"name":"Kamin","steam_id":76561198255299559,"connected_time":0,"state":"spawning","ping":11},{"user_id":56,"name":"Fake21","steam_id":76561198282065071,"connected_time":1102000000000,"state":"active","ping":67},{"user_id":45,"name":"SmileOneTwoThree","steam_id":76561198045624336,"connected_time":2034000000000,"state":"active","ping":74},{"user_id":47,"name":"Abu Shoosh","steam_id":76561198094990358,"connected_time":1875000000000,"state":"active","ping":77}]},{"server_id":108,"name":"Uncletopia | Dallas | 2 | All Maps","name_short":"dal-2","host":"dal-1.us.uncletopia.com","port":27025,"enabled":true,"region":"us-central","cc":"us","latitude":32.779167,"longitude":-96.80889,"reserved":0,"last_update":"0001-01-01T00:00:00Z","name_a2s":"Uncletopia | Dallas | 2 | All Maps","protocol":17,"map":"pl_snowycoast","folder":"tf","game":"Team Fortress","app_id":440,"player_count":0,"max_players":24,"Bots":0,"server_type":"Dedicated","server_os":"Linux","password":true,"vac":true,"version":"7961495","steam_id":85568392924469988,"keywords":["nocrits","nodmgspread","payload","uncletopia"],"game_id":440,"stv_port":27026,"stv_name":"Uncletopia | Dallas | 2 | All Maps | STV","players":null},{"server_id":404,"name":"Uncletopia | Dallas | 3 | All Maps","name_short":"dal-3","host":"dal-1.us.uncletopia.com","port":27035,"enabled":true,"region":"us-central","cc":"us","latitude":32.779167,"longitude":-96.80889,"reserved":0,"last_update":"0001-01-01T00:00:00Z","name_a2s":"Uncletopia | Dallas | 3 | All Maps","protocol":17,"map":"pl_borneo","folder":"tf","game":"Team Fortress","app_id":440,"player_count":0,"max_players":24,"Bots":0,"server_type":"Dedicated","server_os":"Linux","password":true,"vac":true,"version":"7961495","steam_id":85568392924515219,"keywords":["nocrits","nodmgspread","payload","uncletopia"],"game_id":440,"stv_port":27036,"stv_name":"Uncletopia | Dallas | 3 | All Maps | STV","players":null},{"server_id":405,"name":"Uncletopia | Dallas | 4 | Community","name_short":"dal-4","host":"dal-1.us.uncletopia.com","port":27045,"enabled":true,"region":"us-central","cc":"us","latitude":32.779167,"longitude":-96.80889,"reserved":0,"last_update":"0001-01-01T00:00:00Z","name_a2s":"Uncletopia | Dallas | 4 | Community","protocol":17,"map":"workshop/cp_villa_b19.ugc2113052569","folder":"tf","game":"Team Fortress","app_id":440,"player_count":0,"max_players":24,"Bots":0,"server_type":"Dedicated","server_os":"Linux","password":true,"vac":true,"version":"7961495","steam_id":85568392924515220,"keywords":["cp","nocrits","nodmgspread","uncletopia"],"game_id":440,"stv_port":27046,"stv_name":"Uncletopia | Dallas | 4 | Community | STV","players":null},{"server_id":5,"name":"Uncletopia | Frankfurt | 1 | All Maps","name_short":"frk-1","host":"frk-1.de.uncletopia.com","port":27015,"enabled":true,"region":"eu","cc":"de","latitude":50.110924,"longitude":8.682127,"reserved":0,"last_update":"0001-01-01T00:00:00Z","name_a2s":"Uncletopia | Frankfurt | 1 | All Maps","protocol":17,"map":"pl_badwater","folder":"tf","game":"Team Fortress","app_id":440,"player_count":24,"max_players":24,"Bots":0,"server_type":"Dedicated","server_os":"Linux","password":true,"vac":true,"version":"7961495","steam_id":85568392924469989,"keywords":["nocrits","nodmgspread","payload","uncletopia"],"game_id":440,"stv_port":27016,"stv_name":"Uncletopia | Frankfurt | 1 | All Maps | STV","players":[{"user_id":331,"name":"abobus","steam_id":76561198202441870,"connected_time":3713000000000,"state":"active","ping":59},{"user_id":358,"name":"YuraGreek","steam_id":76561198050182252,"connected_time":1728000000000,"state":"active","ping":74},{"user_id":348,"name":"ouchie wouchies","steam_id":76561198105443986,"connected_time":2074000000000,"state":"active","ping":75},{"user_id":369,"name":"SCRAMMMBLED","steam_id":76561197998307746,"connected_time":749000000000,"state":"active","ping":54},{"user_id":359,"name":"M1rkus","steam_id":76561198171215447,"connected_time":1678000000000,"state":"active","ping":64},{"user_id":330,"name":"Relic","steam_id":76561199499093258,"connected_time":3807000000000,"state":"active","ping":43},{"user_id":334,"name":"Dangerous Andrew","steam_id":76561198067218981,"connected_time":3680000000000,"state":"active","ping":68},{"user_id":309,"name":"Zulik92","steam_id":76561198152442373,"connected_time":4905000000000,"state":"active","ping":62},{"user_id":372,"name":"HEX","steam_id":76561198306448946,"connected_time":614000000000,"state":"active","ping":71},{"user_id":344,"name":"LivEssense","steam_id":76561198052476979,"connected_time":2876000000000,"state":"active","ping":75},{"user_id":351,"name":"Alekk","steam_id":76561198093533143,"connected_time":2014000000000,"state":"active","ping":62},{"user_id":360,"name":"BabyYodaIsMySoda","steam_id":76561198321846861,"connected_time":1536000000000,"state":"active","ping":85},{"user_id":352,"name":"MANOLO PRIME","steam_id":76561198149152939,"connected_time":2013000000000,"state":"active","ping":81},{"user_id":373,"name":"_Alonso","steam_id":76561198041893314,"connected_time":312000000000,"state":"active","ping":50},{"user_id":366,"name":"Weegee","steam_id":76561198150308523,"connected_time":1358000000000,"state":"active","ping":60},{"user_id":317,"name":"WIZARD","steam_id":76561198199570742,"connected_time":4701000000000,"state":"active","ping":100},{"user_id":341,"name":"Elsuedi","steam_id":76561198074722832,"connected_time":3262000000000,"state":"active","ping":51},{"user_id":295,"name":"Optimist 50","steam_id":76561198039631442,"connected_time":6016000000000,"state":"active","ping":83},{"user_id":353,"name":"Morkus","steam_id":76561199134560302,"connected_time":2012000000000,"state":"active","ping":84},{"user_id":354,"name":"Richard_HUN","steam_id":76561198299050967,"connected_time":2009000000000,"state":"active","ping":93},{"user_id":363,"name":"decriminalise goblins","steam_id":76561198048257605,"connected_time":1441000000000,"state":"active","ping":60},{"user_id":375,"name":"Seb","steam_id":76561198262273233,"connected_time":152000000000,"state":"active","ping":67},{"user_id":342,"name":"überminze","steam_id":76561198228818228,"connected_time":3010000000000,"state":"active","ping":90},{"user_id":345,"name":"matej","steam_id":76561198242482338,"connected_time":2875000000000,"state":"active","ping":62}]},{"server_id":110,"name":"Uncletopia | Frankfurt | 2 | All Maps","name_short":"frk-2","host":"frk-1.de.uncletopia.com","port":27025,"enabled":true,"region":"eu","cc":"de","latitude":50.110924,"longitude":8.682127,"reserved":0,"last_update":"0001-01-01T00:00:00Z","name_a2s":"Uncletopia | Frankfurt | 2 | All Maps","protocol":17,"map":"pl_badwater","folder":"tf","game":"Team Fortress","app_id":440,"player_count":24,"max_players":24,"Bots":0,"server_type":"Dedicated","server_os":"Linux","password":true,"vac":true,"version":"7961495","steam_id":85568392924469990,"keywords":["nocrits","nodmgspread","payload","uncletopia"],"game_id":440,"stv_port":27026,"stv_name":"Uncletopia | Frankfurt | 2 | All Maps | STV","players":[{"user_id":193,"name":"lulu","steam_id":76561199147764133,"connected_time":77000000000,"state":"active","ping":70},{"user_id":189,"name":"Bob Sacamano","steam_id":76561198085610701,"connected_time":350000000000,"state":"active","ping":86},{"user_id":194,"name":"Macci - Obismal","steam_id":76561198050485404,"connected_time":24000000000,"state":"spawning","ping":74},{"user_id":169,"name":"Solid","steam_id":76561198357049292,"connected_time":1695000000000,"state":"active","ping":79},{"user_id":170,"name":"Spätrentner","steam_id":76561198830039264,"connected_time":1622000000000,"state":"active","ping":64},{"user_id":136,"name":"Marxeline","steam_id":76561198315098896,"connected_time":3925000000000,"state":"active","ping":43},{"user_id":167,"name":"Jahlil D'armequanius Finglenut","steam_id":76561198855897385,"connected_time":1725000000000,"state":"active","ping":67},{"user_id":124,"name":"SalCrabber deluxe","steam_id":76561198275942961,"connected_time":4493000000000,"state":"active","ping":56},{"user_id":161,"name":"cat","steam_id":76561198837071509,"connected_time":2191000000000,"state":"active","ping":81},{"user_id":156,"name":"Damin","steam_id":76561198288156612,"connected_time":2436000000000,"state":"active","ping":38},{"user_id":190,"name":"Aster","steam_id":76561198448334921,"connected_time":272000000000,"state":"active","ping":61},{"user_id":180,"name":"TOP G","steam_id":76561198138928548,"connected_time":986000000000,"state":"active","ping":47},{"user_id":179,"name":"R8N - Obismal","steam_id":76561198007482714,"connected_time":1050000000000,"state":"active","ping":75},{"user_id":182,"name":"flr","steam_id":76561198249327786,"connected_time":965000000000,"state":"active","ping":71},{"user_id":89,"name":"Flint Atheno","steam_id":76561198000565196,"connected_time":6476000000000,"state":"active","ping":60},{"user_id":176,"name":"Largo","steam_id":76561198844368927,"connected_time":1214000000000,"state":"active","ping":75},{"user_id":158,"name":"mingsh'allah","steam_id":76561198254011269,"connected_time":2319000000000,"state":"active","ping":91},{"user_id":185,"name":"Lisa","steam_id":76561198361723475,"connected_time":611000000000,"state":"active","ping":74},{"user_id":150,"name":"Bart","steam_id":76561198276910428,"connected_time":3184000000000,"state":"active","ping":83},{"user_id":157,"name":"x_o","steam_id":76561198170334258,"connected_time":2395000000000,"state":"active","ping":85},{"user_id":163,"name":"Ixsus\u003c3","steam_id":76561198094756869,"connected_time":2159000000000,"state":"active","ping":60},{"user_id":186,"name":"Towercat","steam_id":76561198013141793,"connected_time":571000000000,"state":"active","ping":70},{"user_id":192,"name":"BOT","steam_id":76561197993423450,"connected_time":142000000000,"state":"active","ping":54},{"user_id":177,"name":"Caruzon - Obismal","steam_id":76561198036211170,"connected_time":1214000000000,"state":"active","ping":77}]},{"server_id":308,"name":"Uncletopia | Frankfurt | 3 | All Maps","name_short":"frk-3","host":"frk-1.de.uncletopia.com","port":27035,"enabled":true,"region":"eu","cc":"de","latitude":50.110924,"longitude":8.682127,"reserved":0,"last_update":"0001-01-01T00:00:00Z","name_a2s":"Uncletopia | Frankfurt | 3 | All Maps","protocol":17,"map":"koth_cascade","folder":"tf","game":"Team Fortress","app_id":440,"player_count":13,"max_players":24,"Bots":0,"server_type":"Dedicated","server_os":"Linux","password":true,"vac":true,"version":"7961495","steam_id":85568392924504274,"keywords":["cp","nocrits","nodmgspread","uncletopia"],"game_id":440,"stv_port":27036,"stv_name":"Uncletopia | Frankfurt | 3 | All Maps | STV","players":[{"user_id":24,"name":"obi","steam_id":76561198040154461,"connected_time":705000000000,"state":"active","ping":54},{"user_id":33,"name":"Willow-w-","steam_id":76561199400481314,"connected_time":200000000000,"state":"active","ping":78},{"user_id":20,"name":"dez","steam_id":76561198884449271,"connected_time":952000000000,"state":"active","ping":50},{"user_id":22,"name":"its joever","steam_id":76561199033066517,"connected_time":893000000000,"state":"active","ping":76},{"user_id":31,"name":"randem_","steam_id":76561198338793755,"connected_time":331000000000,"state":"active","ping":59},{"user_id":32,"name":"Ben Dover","steam_id":76561199213629970,"connected_time":272000000000,"state":"active","ping":84},{"user_id":27,"name":"F","steam_id":76561199149462792,"connected_time":574000000000,"state":"active","ping":64},{"user_id":36,"name":"ling ling","steam_id":76561198043546256,"connected_time":75000000000,"state":"active","ping":70},{"user_id":35,"name":"Zatos","steam_id":76561198152392808,"connected_time":125000000000,"state":"active","ping":75},{"user_id":30,"name":"tf2 snake","steam_id":76561198193971167,"connected_time":499000000000,"state":"active","ping":48},{"user_id":37,"name":"Zerwee","steam_id":76561198181368101,"connected_time":55000000000,"state":"active","ping":45},{"user_id":38,"name":"Arsonist","steam_id":76561199087953833,"connected_time":2000000000,"state":"spawning","ping":100},{"user_id":39,"name":"Trash Compactor","steam_id":76561199383047989,"connected_time":2000000000,"state":"spawning","ping":87}]},{"server_id":309,"name":"Uncletopia | Frankfurt | 4 | All Maps","name_short":"frk-4","host":"frk-1.de.uncletopia.com","port":27045,"enabled":true,"region":"eu","cc":"de","latitude":50.110924,"longitude":8.682127,"reserved":0,"last_update":"0001-01-01T00:00:00Z","name_a2s":"Uncletopia | Frankfurt | 4 | All Maps","protocol":17,"map":"koth_cascade","folder":"tf","game":"Team Fortress","app_id":440,"player_count":0,"max_players":24,"Bots":0,"server_type":"Dedicated","server_os":"Linux","password":true,"vac":true,"version":"7961495","steam_id":85568392924504275,"keywords":["cp","nocrits","nodmgspread","uncletopia"],"game_id":440,"stv_port":27046,"stv_name":"Uncletopia | Frankfurt | 4 | All Maps | STV","players":null},{"server_id":310,"name":"Uncletopia | Frankfurt | 5 | All Maps","name_short":"frk-5","host":"frk-1.de.uncletopia.com","port":27055,"enabled":true,"region":"eu","cc":"de","latitude":50.110924,"longitude":8.682127,"reserved":0,"last_update":"0001-01-01T00:00:00Z","name_a2s":"Uncletopia | Frankfurt | 5 | All Maps","protocol":17,"map":"cp_process_final","folder":"tf","game":"Team Fortress","app_id":440,"player_count":24,"max_players":24,"Bots":0,"server_type":"Dedicated","server_os":"Linux","password":true,"vac":true,"version":"7961495","steam_id":85568392924504277,"keywords":["cp","nocrits","nodmgspread","uncletopia"],"game_id":440,"stv_port":27056,"stv_name":"Uncletopia | Frankfurt | 5 | All Maps | STV","players":[{"user_id":199,"name":"Fran","steam_id":76561199070516960,"connected_time":943000000000,"state":"active","ping":60},{"user_id":187,"name":"Stoic","steam_id":76561199088506542,"connected_time":1479000000000,"state":"active","ping":48},{"user_id":206,"name":"HUGO","steam_id":76561198317134996,"connected_time":165000000000,"state":"active","ping":74},{"user_id":177,"name":"Far ∞","steam_id":76561199166149359,"connected_time":1899000000000,"state":"active","ping":72},{"user_id":207,"name":"GlassesMode","steam_id":76561199142786677,"connected_time":143000000000,"state":"active","ping":66},{"user_id":179,"name":"Juss","steam_id":76561198298722637,"connected_time":1789000000000,"state":"active","ping":81},{"user_id":161,"name":"TheKees301","steam_id":76561198827506371,"connected_time":2863000000000,"state":"active","ping":68},{"user_id":205,"name":"Ne","steam_id":76561198209179481,"connected_time":216000000000,"state":"active","ping":84},{"user_id":170,"name":"Scandinavian sleeping and livin","steam_id":76561198241982958,"connected_time":2593000000000,"state":"active","ping":94},{"user_id":201,"name":"PrivateBean","steam_id":76561198268244620,"connected_time":544000000000,"state":"active","ping":141},{"user_id":164,"name":"Lödde","steam_id":76561198274165770,"connected_time":2712000000000,"state":"active","ping":64},{"user_id":196,"name":"Nipa5000","steam_id":76561199027332005,"connected_time":1129000000000,"state":"active","ping":81},{"user_id":197,"name":"Nittugai","steam_id":76561198067366462,"connected_time":1038000000000,"state":"active","ping":59},{"user_id":166,"name":"Anti4life","steam_id":76561198836208242,"connected_time":2684000000000,"state":"active","ping":76},{"user_id":202,"name":"Luuk","steam_id":76561198088266026,"connected_time":421000000000,"state":"active","ping":45},{"user_id":200,"name":"Kol Engigfikod","steam_id":76561199115261187,"connected_time":582000000000,"state":"active","ping":91},{"user_id":144,"name":"TheMerchant","steam_id":76561198133664392,"connected_time":3417000000000,"state":"active","ping":55},{"user_id":192,"name":"Tattletails","steam_id":76561198055690341,"connected_time":1397000000000,"state":"active","ping":72},{"user_id":208,"name":"Spyker-M","steam_id":76561198040955540,"connected_time":120000000000,"state":"active","ping":74},{"user_id":193,"name":"Gibb0ne-Bri0s0","steam_id":76561199289898291,"connected_time":1371000000000,"state":"active","ping":58},{"user_id":152,"name":"daan0590","steam_id":76561198835887234,"connected_time":3138000000000,"state":"active","ping":46},{"user_id":203,"name":"Exee","steam_id":76561198139574633,"connected_time":304000000000,"state":"active","ping":75},{"user_id":210,"name":"Kali","steam_id":76561198796327257,"connected_time":93000000000,"state":"active","ping":50},{"user_id":182,"name":"Kaziocalvice","steam_id":76561198146425583,"connected_time":1742000000000,"state":"active","ping":78}]},{"server_id":311,"name":"Uncletopia | Frankfurt | 6 | All Maps","name_short":"frk-6","host":"frk-1.de.uncletopia.com","port":27065,"enabled":true,"region":"eu","cc":"de","latitude":50.110924,"longitude":8.682127,"reserved":0,"last_update":"0001-01-01T00:00:00Z","name_a2s":"Uncletopia | Frankfurt | 6 | All Maps","protocol":17,"map":"pl_upward","folder":"tf","game":"Team Fortress","app_id":440,"player_count":24,"max_players":24,"Bots":0,"server_type":"Dedicated","server_os":"Linux","password":true,"vac":true,"version":"7961495","steam_id":85568392924504278,"keywords":["nocrits","nodmgspread","payload","uncletopia"],"game_id":440,"stv_port":27066,"stv_name":"Uncletopia | Frankfurt | 6 | All Maps | STV","players":[{"user_id":72,"name":"engineer drip","steam_id":76561198991032570,"connected_time":747000000000,"state":"active","ping":102},{"user_id":57,"name":"nemelex","steam_id":76561198958005865,"connected_time":1370000000000,"state":"active","ping":60},{"user_id":75,"name":"Stefman","steam_id":76561199025104038,"connected_time":601000000000,"state":"active","ping":47},{"user_id":80,"name":"Just1s","steam_id":76561198026597437,"connected_time":313000000000,"state":"active","ping":60},{"user_id":79,"name":"Gallant","steam_id":76561198208710304,"connected_time":331000000000,"state":"active","ping":63},{"user_id":77,"name":"Andrea","steam_id":76561199487380678,"connected_time":374000000000,"state":"active","ping":106},{"user_id":90,"name":"manKe","steam_id":76561198008564860,"connected_time":136000000000,"state":"active","ping":49},{"user_id":82,"name":"Danger_665","steam_id":76561199075064273,"connected_time":270000000000,"state":"active","ping":79},{"user_id":74,"name":"Tre3","steam_id":76561198054795379,"connected_time":680000000000,"state":"active","ping":47},{"user_id":65,"name":"dogot","steam_id":76561198880890519,"connected_time":1165000000000,"state":"active","ping":78},{"user_id":83,"name":"name420","steam_id":76561198129374525,"connected_time":266000000000,"state":"active","ping":149},{"user_id":67,"name":"phonkluverr","steam_id":76561198197156573,"connected_time":1031000000000,"state":"active","ping":99},{"user_id":87,"name":"zek","steam_id":76561198862763731,"connected_time":241000000000,"state":"active","ping":57},{"user_id":61,"name":"Marabosha","steam_id":76561198137599173,"connected_time":1313000000000,"state":"active","ping":105},{"user_id":91,"name":"Skuld","steam_id":76561198064734905,"connected_time":131000000000,"state":"active","ping":95},{"user_id":52,"name":"Heavy TF2 in irl?!","steam_id":76561198082502910,"connected_time":1609000000000,"state":"active","ping":57},{"user_id":86,"name":"FPFP","steam_id":76561198026073059,"connected_time":245000000000,"state":"active","ping":75},{"user_id":63,"name":"yoingle spoingle","steam_id":76561198336684715,"connected_time":1281000000000,"state":"active","ping":176},{"user_id":88,"name":"Doriian","steam_id":76561198071438810,"connected_time":227000000000,"state":"active","ping":75},{"user_id":76,"name":"sex toilet","steam_id":76561198412197820,"connected_time":542000000000,"state":"active","ping":97},{"user_id":92,"name":"finbar","steam_id":76561198056812396,"connected_time":29000000000,"state":"spawning","ping":83},{"user_id":44,"name":"Nox Equites","steam_id":76561198115438449,"connected_time":2096000000000,"state":"active","ping":99},{"user_id":71,"name":"Greyhunter","steam_id":76561197960884202,"connected_time":894000000000,"state":"active","ping":57},{"user_id":48,"name":"Grimm","steam_id":76561198044684227,"connected_time":2039000000000,"state":"active","ping":62}]},{"server_id":23,"name":"Uncletopia | Frankfurt | 7 | Stopwatch","name_short":"frk-7","host":"frk-1.de.uncletopia.com","port":27075,"enabled":true,"region":"eu","cc":"de","latitude":50.110924,"longitude":8.682127,"reserved":0,"last_update":"0001-01-01T00:00:00Z","name_a2s":"Uncletopia | Frankfurt | 7 | Stopwatch","protocol":17,"map":"workshop/koth_bagel_rc6.ugc2514036946","folder":"tf","game":"Team Fortress","app_id":440,"player_count":0,"max_players":24,"Bots":0,"server_type":"Dedicated","server_os":"Linux","password":true,"vac":true,"version":"7961495","steam_id":85568392924742827,"keywords":["cp","nocrits","nodmgspread","uncletopia"],"game_id":440,"stv_port":27076,"stv_name":"Uncletopia | Frankfurt | 7 | Stopwatch | STV","players":null},{"server_id":24,"name":"Uncletopia | Frankfurt | 8 | Community","name_short":"frk-8","host":"frk-1.de.uncletopia.com","port":27085,"enabled":true,"region":"eu","cc":"de","latitude":50.110924,"longitude":8.682127,"reserved":0,"last_update":"0001-01-01T00:00:00Z","name_a2s":"Uncletopia | Frankfurt | 8 | Community","protocol":17,"map":"workshop/koth_kemptown_rc1.ugc767410655","folder":"tf","game":"Team Fortress","app_id":440,"player_count":0,"max_players":24,"Bots":0,"server_type":"Dedicated","server_os":"Linux","password":true,"vac":true,"version":"7961495","steam_id":85568392924742828,"keywords":["cp","nocrits","nodmgspread","uncletopia"],"game_id":440,"stv_port":27086,"stv_name":"Uncletopia | Frankfurt | 8 | Community | STV","players":null},{"server_id":202,"name":"Uncletopia | Hong Kong | 1 | All Maps","name_short":"hgk-1","host":"hgk-1.hk.uncletopia.com","port":27015,"enabled":true,"region":"asia","cc":"hk","latitude":22.302711,"longitude":114.177216,"reserved":0,"last_update":"0001-01-01T00:00:00Z","name_a2s":"Uncletopia | Hong Kong | 1 | All Maps","protocol":17,"map":"koth_viaduct","folder":"tf","game":"Team Fortress","app_id":440,"player_count":0,"max_players":24,"Bots":0,"server_type":"Dedicated","server_os":"Linux","password":true,"vac":true,"version":"7961495","steam_id":85568392924494504,"keywords":["cp","nocrits","nodmgspread","uncletopia"],"game_id":440,"stv_port":27016,"stv_name":"Uncletopia | Hong Kong | 1 | All Maps | STV","players":null},{"server_id":1,"name":"Uncletopia | Los Angeles | 1 | All Maps","name_short":"lax-1","host":"lax-1.us.uncletopia.com","port":27015,"enabled":true,"region":"us-west","cc":"us","latitude":33.94279,"longitude":-118.41004,"reserved":0,"last_update":"0001-01-01T00:00:00Z","name_a2s":"Uncletopia | Los Angeles | 1 | All Maps","protocol":17,"map":"pl_snowycoast","folder":"tf","game":"Team Fortress","app_id":440,"player_count":0,"max_players":24,"Bots":0,"server_type":"Dedicated","server_os":"Linux","password":true,"vac":true,"version":"7961495","steam_id":85568392924469991,"keywords":["nocrits","nodmgspread","payload","uncletopia"],"game_id":440,"stv_port":27016,"stv_name":"Uncletopia | Los Angeles | 1 | All Maps | STV","players":null},{"server_id":112,"name":"Uncletopia | Los Angeles | 2 | All Maps","name_short":"lax-2","host":"lax-1.us.uncletopia.com","port":27025,"enabled":true,"region":"us-west","cc":"us","latitude":33.94279,"longitude":-118.41004,"reserved":0,"last_update":"0001-01-01T00:00:00Z","name_a2s":"Uncletopia | Los Angeles | 2 | All Maps","protocol":17,"map":"cp_mountainlab","folder":"tf","game":"Team Fortress","app_id":440,"player_count":0,"max_players":24,"Bots":0,"server_type":"Dedicated","server_os":"Linux","password":true,"vac":true,"version":"7961495","steam_id":85568392924469992,"keywords":["cp","nocrits","nodmgspread","uncletopia"],"game_id":440,"stv_port":27026,"stv_name":"Uncletopia | Los Angeles | 2 | All Maps | STV","players":null},{"server_id":324,"name":"Uncletopia | Los Angeles | 3 | All Maps","name_short":"lax-3","host":"lax-1.us.uncletopia.com","port":27035,"enabled":true,"region":"us-west","cc":"us","latitude":33.94279,"longitude":-118.41004,"reserved":0,"last_update":"0001-01-01T00:00:00Z","name_a2s":"Uncletopia | Los Angeles | 3 | All Maps","protocol":17,"map":"pl_frontier_final","folder":"tf","game":"Team Fortress","app_id":440,"player_count":0,"max_players":24,"Bots":0,"server_type":"Dedicated","server_os":"Linux","password":true,"vac":true,"version":"7961495","steam_id":85568392924510198,"keywords":["nocrits","nodmgspread","payload","uncletopia"],"game_id":440,"stv_port":27036,"stv_name":"Uncletopia | Los Angeles | 3 | All Maps | STV","players":null},{"server_id":25,"name":"Uncletopia | Los Angeles | 4 | Stopwatch","name_short":"lax-4","host":"lax-1.us.uncletopia.com","port":27045,"enabled":true,"region":"us-west","cc":"us","latitude":33.94279,"longitude":-118.41004,"reserved":0,"last_update":"0001-01-01T00:00:00Z","name_a2s":"Uncletopia | Los Angeles | 4 | Stopwatch","protocol":17,"map":"cp_snakewater_final1","folder":"tf","game":"Team Fortress","app_id":440,"player_count":0,"max_players":24,"Bots":0,"server_type":"Dedicated","server_os":"Linux","password":true,"vac":true,"version":"7961495","steam_id":85568392924510199,"keywords":["cp","nocrits","nodmgspread","uncletopia"],"game_id":440,"stv_port":27046,"stv_name":"Uncletopia | Los Angeles | 4 | Stopwatch | STV","players":null},{"server_id":11,"name":"Uncletopia | London | 1 | All Maps","name_short":"lon-1","host":"lon-1.uk.uncletopia.com","port":27015,"enabled":true,"region":"eu","cc":"gb","latitude":51.509865,"longitude":-0.118092,"reserved":0,"last_update":"0001-01-01T00:00:00Z","name_a2s":"Uncletopia | London | 1 | All Maps","protocol":17,"map":"pl_barnblitz","folder":"tf","game":"Team Fortress","app_id":440,"player_count":24,"max_players":24,"Bots":0,"server_type":"Dedicated","server_os":"Linux","password":true,"vac":true,"version":"7961495","steam_id":85568392924367362,"keywords":["nocrits","nodmgspread","payload","uncletopia"],"game_id":440,"stv_port":27016,"stv_name":"Uncletopia | London | 1 | All Maps | STV","players":[{"user_id":454,"name":"josh Ⅽ⋆","steam_id":76561198124857271,"connected_time":696000000000,"state":"active","ping":86},{"user_id":451,"name":"Bill_nye_epic","steam_id":76561199216249214,"connected_time":908000000000,"state":"active","ping":135},{"user_id":455,"name":"Udinese Dion","steam_id":76561198067931573,"connected_time":678000000000,"state":"active","ping":61},{"user_id":456,"name":"Talent","steam_id":76561198153880354,"connected_time":674000000000,"state":"active","ping":59},{"user_id":439,"name":"soar","steam_id":76561198010662796,"connected_time":1623000000000,"state":"active","ping":45},{"user_id":452,"name":"Engie with a KNIFE","steam_id":76561198062255803,"connected_time":830000000000,"state":"active","ping":65},{"user_id":394,"name":"cock buzzler","steam_id":76561198015876799,"connected_time":4465000000000,"state":"active","ping":65},{"user_id":430,"name":"tekszi","steam_id":76561198107220903,"connected_time":2397000000000,"state":"active","ping":60},{"user_id":453,"name":"DwarfInYou","steam_id":76561198966341795,"connected_time":723000000000,"state":"active","ping":61},{"user_id":445,"name":"Gingoguy","steam_id":76561198088931297,"connected_time":1264000000000,"state":"active","ping":137},{"user_id":438,"name":"LiterallyRyanGosling","steam_id":76561199017856691,"connected_time":1773000000000,"state":"active","ping":58},{"user_id":417,"name":"Klorophyte","steam_id":76561198885112655,"connected_time":3126000000000,"state":"active","ping":97},{"user_id":390,"name":"shooer!","steam_id":76561198110531281,"connected_time":4973000000000,"state":"active","ping":71},{"user_id":465,"name":"ein","steam_id":76561198152162834,"connected_time":79000000000,"state":"active","ping":97},{"user_id":397,"name":"✪ Danny","steam_id":76561198104483241,"connected_time":4439000000000,"state":"active","ping":54},{"user_id":466,"name":"wtabs","steam_id":76561198831766743,"connected_time":64000000000,"state":"active","ping":81},{"user_id":467,"name":"FUKAYOU","steam_id":76561198380484033,"connected_time":51000000000,"state":"active","ping":50},{"user_id":458,"name":"Finem Belli","steam_id":76561198227177976,"connected_time":659000000000,"state":"active","ping":45},{"user_id":459,"name":"Janneke Maan","steam_id":76561198069290924,"connected_time":648000000000,"state":"active","ping":65},{"user_id":402,"name":"Penis Contortionist","steam_id":76561198073663784,"connected_time":4281000000000,"state":"active","ping":40},{"user_id":407,"name":"most sane mentalist","steam_id":76561198310095220,"connected_time":3961000000000,"state":"active","ping":31},{"user_id":442,"name":"Skeleton-Archer","steam_id":76561198057721954,"connected_time":1563000000000,"state":"active","ping":100},{"user_id":419,"name":"TheEventGuy","steam_id":76561197972797744,"connected_time":2996000000000,"state":"active","ping":77},{"user_id":464,"name":"El Wiwi","steam_id":76561198134378108,"connected_time":494000000000,"state":"active","ping":82}]},{"server_id":114,"name":"Uncletopia | London | 2 | All Maps","name_short":"lon-2","host":"lon-1.uk.uncletopia.com","port":27025,"enabled":true,"region":"eu","cc":"gb","latitude":51.509865,"longitude":-0.118092,"reserved":0,"last_update":"0001-01-01T00:00:00Z","name_a2s":"Uncletopia | London | 2 | All Maps","protocol":17,"map":"cp_gorge","folder":"tf","game":"Team Fortress","app_id":440,"player_count":24,"max_players":24,"Bots":0,"server_type":"Dedicated","server_os":"Linux","password":true,"vac":true,"version":"7961495","steam_id":85568392924470941,"keywords":["cp","nocrits","nodmgspread","uncletopia"],"game_id":440,"stv_port":27026,"stv_name":"Uncletopia | London | 2 | All Maps | STV","players":[{"user_id":564,"name":"sv_MrGibbs","steam_id":76561198114071972,"connected_time":4068000000000,"state":"active","ping":43},{"user_id":393,"name":"SuntanPikachu","steam_id":76561198121242476,"connected_time":16331000000000,"state":"active","ping":58},{"user_id":616,"name":"I Love Filtered Water","steam_id":76561198016042113,"connected_time":210000000000,"state":"active","ping":82},{"user_id":605,"name":"Itai","steam_id":76561198804555329,"connected_time":833000000000,"state":"active","ping":104},{"user_id":603,"name":"SteveFrench","steam_id":76561198151553383,"connected_time":848000000000,"state":"active","ping":82},{"user_id":560,"name":"Crayon","steam_id":76561198004572519,"connected_time":4307000000000,"state":"active","ping":34},{"user_id":615,"name":"Mini","steam_id":76561197968634073,"connected_time":355000000000,"state":"active","ping":83},{"user_id":590,"name":"eMcP","steam_id":76561198382509396,"connected_time":2286000000000,"state":"active","ping":59},{"user_id":606,"name":"Seail_M","steam_id":76561198002405605,"connected_time":815000000000,"state":"active","ping":65},{"user_id":599,"name":"Doggo336","steam_id":76561198166707002,"connected_time":889000000000,"state":"active","ping":44},{"user_id":591,"name":"worgeral","steam_id":76561198050781898,"connected_time":2249000000000,"state":"active","ping":67},{"user_id":613,"name":"max.b1110","steam_id":76561199454065196,"connected_time":652000000000,"state":"active","ping":55},{"user_id":619,"name":"Haggabah,WhoPliesTheUmbralPath","steam_id":76561198846984399,"connected_time":16000000000,"state":"active","ping":88},{"user_id":598,"name":"Matbanan","steam_id":76561198228537672,"connected_time":999000000000,"state":"active","ping":80},{"user_id":607,"name":"Mario la Maxim","steam_id":76561199137799215,"connected_time":813000000000,"state":"active","ping":83},{"user_id":583,"name":"Kernel Panic","steam_id":76561198215811047,"connected_time":2863000000000,"state":"active","ping":38},{"user_id":571,"name":"sokige","steam_id":76561198167112371,"connected_time":3808000000000,"state":"active","ping":98},{"user_id":527,"name":"r0la","steam_id":76561198128315340,"connected_time":7106000000000,"state":"active","ping":86},{"user_id":588,"name":"Man O' Steel","steam_id":76561198108612758,"connected_time":2596000000000,"state":"active","ping":67},{"user_id":584,"name":"SnowShot","steam_id":76561198004766638,"connected_time":2850000000000,"state":"active","ping":72},{"user_id":597,"name":"mama","steam_id":76561198051497921,"connected_time":1156000000000,"state":"active","ping":74},{"user_id":610,"name":"scoutcasper","steam_id":76561199019266022,"connected_time":784000000000,"state":"active","ping":45},{"user_id":614,"name":"NSK","steam_id":76561197998348694,"connected_time":604000000000,"state":"active","ping":90},{"user_id":618,"name":"Compact","steam_id":76561198995253046,"connected_time":190000000000,"state":"active","ping":75}]},{"server_id":320,"name":"Uncletopia | London | 3 | All Maps","name_short":"lon-3","host":"lon-1.uk.uncletopia.com","port":27035,"enabled":true,"region":"eu","cc":"gb","latitude":51.509865,"longitude":-0.118092,"reserved":0,"last_update":"0001-01-01T00:00:00Z","name_a2s":"Uncletopia | London | 3 | All Maps","protocol":17,"map":"pl_thundermountain","folder":"tf","game":"Team Fortress","app_id":440,"player_count":24,"max_players":24,"Bots":0,"server_type":"Dedicated","server_os":"Linux","password":true,"vac":true,"version":"7961495","steam_id":85568392924510192,"keywords":["nocrits","nodmgspread","payload","uncletopia"],"game_id":440,"stv_port":27036,"stv_name":"Uncletopia | London | 3 | All Maps | STV","players":[{"user_id":344,"name":"MEDiUM","steam_id":76561198112328561,"connected_time":2019000000000,"state":"active","ping":85},{"user_id":354,"name":"sasharudzik","steam_id":76561199126617781,"connected_time":1582000000000,"state":"active","ping":138},{"user_id":370,"name":"Sword haxor","steam_id":76561198229220632,"connected_time":928000000000,"state":"active","ping":86},{"user_id":339,"name":"TheMightyOppressor","steam_id":76561198047461974,"connected_time":2209000000000,"state":"active","ping":43},{"user_id":345,"name":"Dr.CandyCane","steam_id":76561199238207915,"connected_time":1996000000000,"state":"active","ping":88},{"user_id":341,"name":"Max Andrew","steam_id":76561198158955194,"connected_time":2179000000000,"state":"active","ping":67},{"user_id":357,"name":"Solar","steam_id":76561199121361391,"connected_time":1562000000000,"state":"active","ping":71},{"user_id":332,"name":"yuno appreciator","steam_id":76561198083286511,"connected_time":2670000000000,"state":"active","ping":39},{"user_id":348,"name":"P.PYRO","steam_id":76561199160274605,"connected_time":1891000000000,"state":"active","ping":68},{"user_id":353,"name":"gas","steam_id":76561199176290258,"connected_time":1641000000000,"state":"active","ping":151},{"user_id":349,"name":"Lordware","steam_id":76561198022011299,"connected_time":1880000000000,"state":"active","ping":92},{"user_id":355,"name":"Certified Hood pybro (ua)","steam_id":76561198970562699,"connected_time":1581000000000,"state":"active","ping":51},{"user_id":369,"name":"ZeeKaa","steam_id":76561198282445776,"connected_time":972000000000,"state":"active","ping":121},{"user_id":377,"name":"hcaz","steam_id":76561198245907592,"connected_time":360000000000,"state":"active","ping":72},{"user_id":372,"name":"Raulca25","steam_id":76561199068256964,"connected_time":910000000000,"state":"active","ping":88},{"user_id":378,"name":"silicon based life form","steam_id":76561199127121346,"connected_time":336000000000,"state":"active","ping":54},{"user_id":359,"name":"Igor the Banana","steam_id":76561198080403960,"connected_time":1518000000000,"state":"active","ping":45},{"user_id":328,"name":"gg player","steam_id":76561198341062380,"connected_time":2981000000000,"state":"active","ping":114},{"user_id":366,"name":"QR code 78","steam_id":76561198073749509,"connected_time":1230000000000,"state":"active","ping":76},{"user_id":362,"name":"golfmastr","steam_id":76561198993144124,"connected_time":1506000000000,"state":"active","ping":60},{"user_id":363,"name":"Kahvi","steam_id":76561198723244199,"connected_time":1482000000000,"state":"active","ping":78},{"user_id":367,"name":"路易吉 Luigi 兄弟路易吉","steam_id":76561198890131398,"connected_time":1226000000000,"state":"active","ping":60},{"user_id":318,"name":"Faxter","steam_id":76561198011771605,"connected_time":3833000000000,"state":"active","ping":68},{"user_id":376,"name":"Jack","steam_id":76561198209102833,"connected_time":408000000000,"state":"active","ping":54}]},{"server_id":321,"name":"Uncletopia | London | 4 | All Maps","name_short":"lon-4","host":"lon-1.uk.uncletopia.com","port":27045,"enabled":true,"region":"eu","cc":"gb","latitude":51.509865,"longitude":-0.118092,"reserved":0,"last_update":"0001-01-01T00:00:00Z","name_a2s":"Uncletopia | London | 4 | All Maps","protocol":17,"map":"cp_junction_final","folder":"tf","game":"Team Fortress","app_id":440,"player_count":24,"max_players":24,"Bots":0,"server_type":"Dedicated","server_os":"Linux","password":true,"vac":true,"version":"7961495","steam_id":85568392924510193,"keywords":["cp","nocrits","nodmgspread","uncletopia"],"game_id":440,"stv_port":27046,"stv_name":"Uncletopia | London | 4 | All Maps | STV","players":[{"user_id":284,"name":"alpha","steam_id":76561198250491640,"connected_time":3184000000000,"state":"active","ping":49},{"user_id":297,"name":"✡Cpruin✡","steam_id":76561198184924239,"connected_time":2344000000000,"state":"active","ping":105},{"user_id":309,"name":"Aida","steam_id":76561198311044984,"connected_time":258000000000,"state":"active","ping":70},{"user_id":270,"name":"Aunty Fungal Creme","steam_id":76561198046591088,"connected_time":3924000000000,"state":"active","ping":67},{"user_id":291,"name":"ₔkacper2010sₔ","steam_id":76561199074731477,"connected_time":2755000000000,"state":"active","ping":118},{"user_id":261,"name":"Rockpig","steam_id":76561198066421407,"connected_time":4225000000000,"state":"active","ping":53},{"user_id":310,"name":"AwterSix","steam_id":76561198042561678,"connected_time":255000000000,"state":"active","ping":63},{"user_id":299,"name":"Meat Dragon","steam_id":76561198120319256,"connected_time":1887000000000,"state":"active","ping":135},{"user_id":293,"name":"Pan Piotr","steam_id":76561198140016126,"connected_time":2578000000000,"state":"active","ping":75},{"user_id":278,"name":"iuh","steam_id":76561199213901239,"connected_time":3737000000000,"state":"active","ping":45},{"user_id":305,"name":"Skatnaset","steam_id":76561198298457353,"connected_time":1726000000000,"state":"active","ping":75},{"user_id":313,"name":"chad","steam_id":76561198235763492,"connected_time":202000000000,"state":"active","ping":78},{"user_id":264,"name":"Scooterboy","steam_id":76561198071705499,"connected_time":4163000000000,"state":"active","ping":49},{"user_id":306,"name":"katten","steam_id":76561198163615254,"connected_time":1626000000000,"state":"active","ping":60},{"user_id":294,"name":"UltimateAura","steam_id":76561198338361324,"connected_time":2538000000000,"state":"active","ping":41},{"user_id":267,"name":"Spongelica Slobblecoque","steam_id":76561198009072273,"connected_time":4036000000000,"state":"active","ping":59},{"user_id":307,"name":"hyvakii705","steam_id":76561198086630552,"connected_time":1075000000000,"state":"active","ping":90},{"user_id":308,"name":"jaime","steam_id":76561197980590671,"connected_time":800000000000,"state":"active","ping":75},{"user_id":283,"name":"cipherrephic","steam_id":76561198453630258,"connected_time":3221000000000,"state":"active","ping":63},{"user_id":295,"name":"Lackryx","steam_id":76561198313256505,"connected_time":2480000000000,"state":"active","ping":71},{"user_id":315,"name":"95 dollar egg","steam_id":76561198280507478,"connected_time":21000000000,"state":"active","ping":145},{"user_id":269,"name":"Silly-Brained Sh3ba","steam_id":76561198047412394,"connected_time":3964000000000,"state":"active","ping":153},{"user_id":303,"name":"Ablativus","steam_id":76561198025698470,"connected_time":1860000000000,"state":"active","ping":76},{"user_id":304,"name":"fiddlesticks","steam_id":76561198155229347,"connected_time":1860000000000,"state":"active","ping":31}]},{"server_id":21,"name":"Uncletopia | London | 5 | All Maps","name_short":"lon-5","host":"lon-1.uk.uncletopia.com","port":27055,"enabled":true,"region":"eu","cc":"gb","latitude":51.509865,"longitude":-0.118092,"reserved":0,"last_update":"0001-01-01T00:00:00Z","name_a2s":"Uncletopia | London | 5 | All Maps","protocol":17,"map":"pl_frontier_final","folder":"tf","game":"Team Fortress","app_id":440,"player_count":24,"max_players":24,"Bots":0,"server_type":"Dedicated","server_os":"Linux","password":true,"vac":true,"version":"7961495","steam_id":85568392924742829,"keywords":["nocrits","nodmgspread","payload","uncletopia"],"game_id":440,"stv_port":27056,"stv_name":"Uncletopia | London | 5 | All Maps | STV","players":[{"user_id":132,"name":"Spoon ½","steam_id":76561198032696548,"connected_time":5660000000000,"state":"active","ping":75},{"user_id":185,"name":"please do not the cat","steam_id":76561198089003514,"connected_time":1932000000000,"state":"active","ping":56},{"user_id":187,"name":"Mirra","steam_id":76561198076597292,"connected_time":1858000000000,"state":"active","ping":76},{"user_id":157,"name":"Sparrose","steam_id":76561199050235461,"connected_time":4127000000000,"state":"active","ping":76},{"user_id":223,"name":"Milk","steam_id":76561198125876588,"connected_time":204000000000,"state":"active","ping":42},{"user_id":179,"name":"fazer","steam_id":76561199121283698,"connected_time":2927000000000,"state":"active","ping":58},{"user_id":196,"name":"aperson","steam_id":76561198079577171,"connected_time":1713000000000,"state":"active","ping":60},{"user_id":160,"name":"0xDEADBEEF","steam_id":76561199075416111,"connected_time":3935000000000,"state":"active","ping":82},{"user_id":209,"name":"THE SPIRIT","steam_id":76561198170744597,"connected_time":963000000000,"state":"active","ping":77},{"user_id":189,"name":"I.AM.THE.BOOP.WHICH.IS.APROACHI","steam_id":76561198049342507,"connected_time":1819000000000,"state":"active","ping":84},{"user_id":210,"name":"yenai","steam_id":76561199497830604,"connected_time":925000000000,"state":"active","ping":79},{"user_id":204,"name":"xfinitycablebox","steam_id":76561198317433700,"connected_time":1423000000000,"state":"active","ping":137},{"user_id":211,"name":"Chambersite","steam_id":76561198197022399,"connected_time":861000000000,"state":"active","ping":75},{"user_id":213,"name":"Oriuke","steam_id":76561197992166123,"connected_time":727000000000,"state":"active","ping":52},{"user_id":224,"name":"RocketBoy08","steam_id":76561198833978944,"connected_time":90000000000,"state":"active","ping":110},{"user_id":193,"name":"Deformed Gollum","steam_id":76561198155563589,"connected_time":1778000000000,"state":"active","ping":67},{"user_id":221,"name":"Rincey-Windey","steam_id":76561198011591682,"connected_time":263000000000,"state":"active","ping":110},{"user_id":214,"name":"1 mouse/week","steam_id":76561198045466209,"connected_time":721000000000,"state":"active","ping":78},{"user_id":215,"name":"Soulman25 (FIN)","steam_id":76561198103611974,"connected_time":704000000000,"state":"active","ping":101},{"user_id":164,"name":":)","steam_id":76561198039964082,"connected_time":3909000000000,"state":"active","ping":62},{"user_id":183,"name":"aaron","steam_id":76561198388750592,"connected_time":2440000000000,"state":"active","ping":68},{"user_id":148,"name":"w+m1","steam_id":76561198010428082,"connected_time":4936000000000,"state":"active","ping":76},{"user_id":217,"name":"xantus","steam_id":76561198803291596,"connected_time":620000000000,"state":"active","ping":93},{"user_id":218,"name":"Jara.","steam_id":76561197992207165,"connected_time":524000000000,"state":"active","ping":111}]},{"server_id":22,"name":"Uncletopia | London | 6 | All Maps","name_short":"lon-6","host":"lon-1.uk.uncletopia.com","port":27065,"enabled":true,"region":"eu","cc":"gb","latitude":51.509865,"longitude":-0.118092,"reserved":0,"last_update":"0001-01-01T00:00:00Z","name_a2s":"Uncletopia | London | 6 | All Maps","protocol":17,"map":"koth_viaduct","folder":"tf","game":"Team Fortress","app_id":440,"player_count":24,"max_players":24,"Bots":0,"server_type":"Dedicated","server_os":"Linux","password":true,"vac":true,"version":"7961495","steam_id":85568392924742830,"keywords":["cp","nocrits","nodmgspread","uncletopia"],"game_id":440,"stv_port":27066,"stv_name":"Uncletopia | London | 6 | All Maps | STV","players":[{"user_id":101,"name":"Jyghc","steam_id":76561198405980575,"connected_time":1985000000000,"state":"active","ping":71},{"user_id":85,"name":"lion king 5 the reckoning","steam_id":76561198041040598,"connected_time":3265000000000,"state":"active","ping":87},{"user_id":130,"name":"Superiumentarius","steam_id":76561198081642249,"connected_time":3000000000,"state":"spawning","ping":59},{"user_id":111,"name":"Ｌｕｎｄｅｒｓ儚","steam_id":76561198001599722,"connected_time":1266000000000,"state":"active","ping":89},{"user_id":117,"name":"Mikesch2001","steam_id":76561198162945160,"connected_time":579000000000,"state":"active","ping":66},{"user_id":118,"name":"Michael","steam_id":76561198003146906,"connected_time":549000000000,"state":"active","ping":46},{"user_id":119,"name":"Swiss-Stone","steam_id":76561198090399998,"connected_time":547000000000,"state":"active","ping":65},{"user_id":114,"name":"Mircoxi","steam_id":76561199407632710,"connected_time":774000000000,"state":"active","ping":55},{"user_id":97,"name":"Matis","steam_id":76561198150822063,"connected_time":2526000000000,"state":"active","ping":77},{"user_id":112,"name":"Temperance","steam_id":76561198446955878,"connected_time":1018000000000,"state":"active","ping":55},{"user_id":128,"name":"rob","steam_id":76561198122211848,"connected_time":30000000000,"state":"active","ping":97},{"user_id":79,"name":"Jean-Marie D'hermoz","steam_id":76561198243205796,"connected_time":3930000000000,"state":"active","ping":66},{"user_id":108,"name":"dfcv rftgvb ghtb","steam_id":76561198397764042,"connected_time":1596000000000,"state":"active","ping":95},{"user_id":113,"name":"Egor Pomidor","steam_id":76561199175688390,"connected_time":995000000000,"state":"active","ping":80},{"user_id":73,"name":"Gohan","steam_id":76561198064498302,"connected_time":4266000000000,"state":"active","ping":70},{"user_id":105,"name":"Sparse","steam_id":76561198865084441,"connected_time":1689000000000,"state":"active","ping":143},{"user_id":99,"name":"tomo","steam_id":76561199015097595,"connected_time":2088000000000,"state":"active","ping":45},{"user_id":120,"name":"heddwch","steam_id":76561198076097983,"connected_time":543000000000,"state":"active","ping":93},{"user_id":106,"name":"DerpFamous","steam_id":76561198046167888,"connected_time":1669000000000,"state":"active","ping":133},{"user_id":129,"name":"wicked","steam_id":76561198164376035,"connected_time":26000000000,"state":"active","ping":75},{"user_id":103,"name":"Plushy Freeman","steam_id":76561198004935560,"connected_time":1948000000000,"state":"active","ping":71},{"user_id":121,"name":"Sherlock Bond","steam_id":76561198042045955,"connected_time":506000000000,"state":"active","ping":56},{"user_id":131,"name":"DavidRcv","steam_id":76561198119522337,"connected_time":1000000000,"state":"spawning","ping":74},{"user_id":115,"name":"RoofRabbid","steam_id":76561198012821810,"connected_time":626000000000,"state":"active","ping":104}]},{"server_id":40,"name":"Uncletopia | London | 7 | Stopwatch","name_short":"lon-7","host":"lon-1.uk.uncletopia.com","port":27075,"enabled":true,"region":"eu","cc":"gb","latitude":51.509865,"longitude":-0.118092,"reserved":0,"last_update":"0001-01-01T00:00:00Z","name_a2s":"Uncletopia | London | 7 | Stopwatch","protocol":17,"map":"pl_upward","folder":"tf","game":"Team Fortress","app_id":440,"player_count":0,"max_players":24,"Bots":0,"server_type":"Dedicated","server_os":"Linux","password":true,"vac":true,"version":"7961495","steam_id":85568392924964314,"keywords":["nocrits","nodmgspread","payload","uncletopia"],"game_id":440,"stv_port":27076,"stv_name":"Uncletopia | London | 7 | Stopwatch | STV","players":null},{"server_id":41,"name":"Uncletopia | London | 8 | Community","name_short":"lon-8","host":"lon-1.uk.uncletopia.com","port":27085,"enabled":true,"region":"eu","cc":"gb","latitude":51.509865,"longitude":-0.118092,"reserved":0,"last_update":"0001-01-01T00:00:00Z","name_a2s":"Uncletopia | London | 8 | Community","protocol":17,"map":"workshop/koth_trenchfoot_b1a.ugc731436616","folder":"tf","game":"Team Fortress","app_id":440,"player_count":0,"max_players":24,"Bots":0,"server_type":"Dedicated","server_os":"Linux","password":true,"vac":true,"version":"7961495","steam_id":85568392924964315,"keywords":["cp","nocrits","nodmgspread","uncletopia"],"game_id":440,"stv_port":27086,"stv_name":"Uncletopia | London | 8 | Community | STV","players":null},{"server_id":300,"name":"Uncletopia | Montréal | 1 | One Thousand Uncles","name_short":"mtl-1","host":"mtl-1.ca.uncletopia.com","port":27015,"enabled":true,"region":"us-east","cc":"ca","latitude":45.50889,"longitude":-73.56167,"reserved":0,"last_update":"0001-01-01T00:00:00Z","name_a2s":"","protocol":0,"map":"","folder":"","game":"","app_id":0,"player_count":0,"max_players":0,"Bots":0,"server_type":"","server_os":"","password":false,"vac":false,"version":"","steam_id":0,"keywords":null,"game_id":0,"stv_port":0,"stv_name":"","players":null},{"server_id":301,"name":"Uncletopia | Montréal | 2 | One Thousand Uncles","name_short":"mtl-2","host":"mtl-1.ca.uncletopia.com","port":27025,"enabled":true,"region":"us-east","cc":"ca","latitude":45.50889,"longitude":-73.56167,"reserved":0,"last_update":"0001-01-01T00:00:00Z","name_a2s":"","protocol":0,"map":"","folder":"","game":"","app_id":0,"player_count":0,"max_players":0,"Bots":0,"server_type":"","server_os":"","password":false,"vac":false,"version":"","steam_id":0,"keywords":null,"game_id":0,"stv_port":0,"stv_name":"","players":null},{"server_id":302,"name":"Uncletopia | Montréal | 3 | One Thousand Uncles","name_short":"mtl-3","host":"mtl-1.ca.uncletopia.com","port":27035,"enabled":true,"region":"us-east","cc":"ca","latitude":45.50889,"longitude":-73.56167,"reserved":0,"last_update":"0001-01-01T00:00:00Z","name_a2s":"","protocol":0,"map":"","folder":"","game":"","app_id":0,"player_count":0,"max_players":0,"Bots":0,"server_type":"","server_os":"","password":false,"vac":false,"version":"","steam_id":0,"keywords":null,"game_id":0,"stv_port":0,"stv_name":"","players":null},{"server_id":13,"name":"Uncletopia | New York City | 1 | All Maps","name_short":"nyc-1","host":"nyc-1.us.uncletopia.com","port":27015,"enabled":true,"region":"us-east","cc":"us","latitude":40.73061,"longitude":-73.93524,"reserved":0,"last_update":"0001-01-01T00:00:00Z","name_a2s":"Uncletopia | New York City | 1 | All Maps","protocol":17,"map":"koth_viaduct","folder":"tf","game":"Team Fortress","app_id":440,"player_count":0,"max_players":24,"Bots":0,"server_type":"Dedicated","server_os":"Linux","password":true,"vac":true,"version":"7961495","steam_id":85568392924469993,"keywords":["cp","nocrits","nodmgspread","uncletopia"],"game_id":440,"stv_port":27016,"stv_name":"Uncletopia | New York City | 1 | All Maps | STV","players":null},{"server_id":14,"name":"Uncletopia | New York City | 2 | All Maps","name_short":"nyc-2","host":"nyc-1.us.uncletopia.com","port":27025,"enabled":true,"region":"us-east","cc":"us","latitude":40.73061,"longitude":-73.93524,"reserved":0,"last_update":"0001-01-01T00:00:00Z","name_a2s":"Uncletopia | New York City | 2 | All Maps","protocol":17,"map":"koth_lakeside_final","folder":"tf","game":"Team Fortress","app_id":440,"player_count":0,"max_players":24,"Bots":0,"server_type":"Dedicated","server_os":"Linux","password":true,"vac":true,"version":"7961495","steam_id":85568392924469994,"keywords":["cp","nocrits","nodmgspread","uncletopia"],"game_id":440,"stv_port":27026,"stv_name":"Uncletopia | New York City | 2 | All Maps | STV","players":null},{"server_id":15,"name":"Uncletopia | New York City | 3 | Stopwatch","name_short":"nyc-3","host":"nyc-1.us.uncletopia.com","port":27035,"enabled":true,"region":"us-east","cc":"us","latitude":40.73061,"longitude":-73.93524,"reserved":0,"last_update":"0001-01-01T00:00:00Z","name_a2s":"Uncletopia | New York City | 3 | Stopwatch","protocol":17,"map":"pl_snowycoast","folder":"tf","game":"Team Fortress","app_id":440,"player_count":0,"max_players":24,"Bots":0,"server_type":"Dedicated","server_os":"Linux","password":true,"vac":true,"version":"7961495","steam_id":85568392924742820,"keywords":["nocrits","nodmgspread","payload","uncletopia"],"game_id":440,"stv_port":27036,"stv_name":"Uncletopia | New York City | 3 | Stopwatch | STV","players":null},{"server_id":16,"name":"Uncletopia | New York City | 4 | Community","name_short":"nyc-4","host":"nyc-1.us.uncletopia.com","port":27045,"enabled":true,"region":"us-east","cc":"us","latitude":40.73061,"longitude":-73.93524,"reserved":0,"last_update":"0001-01-01T00:00:00Z","name_a2s":"Uncletopia | New York City | 4 | Community","protocol":17,"map":"cp_altitude","folder":"tf","game":"Team Fortress","app_id":440,"player_count":0,"max_players":24,"Bots":0,"server_type":"Dedicated","server_os":"Linux","password":true,"vac":true,"version":"7961495","steam_id":85568392924742821,"keywords":["cp","nocrits","nodmgspread","uncletopia"],"game_id":440,"stv_port":27046,"stv_name":"Uncletopia | New York City | 4 | Community | STV","players":null},{"server_id":142,"name":"Uncletopia | São Paulo | 1 | All Maps","name_short":"sao-1","host":"sao-1.br.uncletopia.com","port":27015,"enabled":true,"region":"sa","cc":"br","latitude":-23.533773,"longitude":-46.62529,"reserved":0,"last_update":"0001-01-01T00:00:00Z","name_a2s":"Uncletopia | São Paulo | 1 | All Maps","protocol":17,"map":"cp_mountainlab","folder":"tf","game":"Team Fortress","app_id":440,"player_count":0,"max_players":24,"Bots":0,"server_type":"Dedicated","server_os":"Linux","password":true,"vac":true,"version":"7961495","steam_id":85568392924469996,"keywords":["cp","nocrits","nodmgspread","uncletopia"],"game_id":440,"stv_port":27016,"stv_name":"Uncletopia | São Paulo | 1 | All Maps | STV","players":null},{"server_id":143,"name":"Uncletopia | São Paulo | 2 | Community","name_short":"sao-2","host":"sao-2.br.uncletopia.com","port":27015,"enabled":true,"region":"sa","cc":"br","latitude":-23.533773,"longitude":-46.62529,"reserved":0,"last_update":"0001-01-01T00:00:00Z","name_a2s":"Uncletopia | São Paulo | 2 | Community","protocol":17,"map":"pl_badwater","folder":"tf","game":"Team Fortress","app_id":440,"player_count":0,"max_players":24,"Bots":0,"server_type":"Dedicated","server_os":"Linux","password":true,"vac":true,"version":"7961495","steam_id":85568392924485349,"keywords":["nocrits","nodmgspread","payload","uncletopia"],"game_id":440,"stv_port":27016,"stv_name":"Uncletopia | São Paulo | 2 | Community | STV","players":null},{"server_id":7,"name":"Uncletopia | Seattle | 1 | All Maps","name_short":"sea-1","host":"sea-1.us.uncletopia.com","port":27015,"enabled":true,"region":"us-west","cc":"us","latitude":47.608013,"longitude":-122.33517,"reserved":0,"last_update":"0001-01-01T00:00:00Z","name_a2s":"Uncletopia | Seattle | 1 | All Maps","protocol":17,"map":"cp_egypt_final","folder":"tf","game":"Team Fortress","app_id":440,"player_count":24,"max_players":24,"Bots":0,"server_type":"Dedicated","server_os":"Linux","password":true,"vac":true,"version":"7961495","steam_id":85568392924469997,"keywords":["cp","nocrits","nodmgspread","uncletopia"],"game_id":440,"stv_port":27016,"stv_name":"Uncletopia | Seattle | 1 | All Maps | STV","players":[{"user_id":87,"name":"coffee bagel","steam_id":76561198141198352,"connected_time":3312000000000,"state":"active","ping":95},{"user_id":93,"name":"SeeNik","steam_id":76561198149499817,"connected_time":2878000000000,"state":"active","ping":86},{"user_id":8,"name":"DragonJimmy","steam_id":76561198272966565,"connected_time":10411000000000,"state":"active","ping":85},{"user_id":71,"name":"Grasshopper506","steam_id":76561198111633418,"connected_time":4190000000000,"state":"active","ping":74},{"user_id":103,"name":"Railly","steam_id":76561198357355915,"connected_time":2193000000000,"state":"active","ping":112},{"user_id":116,"name":"Skabbety","steam_id":76561198168044257,"connected_time":87000000000,"state":"active","ping":45},{"user_id":80,"name":"Buswolley","steam_id":76561197995205571,"connected_time":3972000000000,"state":"active","ping":58},{"user_id":105,"name":"KlassicLoL","steam_id":76561198081815303,"connected_time":2142000000000,"state":"active","ping":76},{"user_id":102,"name":"Type Three Dabeetus","steam_id":76561198062710038,"connected_time":2315000000000,"state":"active","ping":63},{"user_id":106,"name":"Sergeant Joker #savetf2","steam_id":76561198854616604,"connected_time":2049000000000,"state":"active","ping":117},{"user_id":99,"name":"SD","steam_id":76561198217410988,"connected_time":2601000000000,"state":"active","ping":74},{"user_id":110,"name":"Ahzain","steam_id":76561198035894333,"connected_time":1850000000000,"state":"active","ping":75},{"user_id":112,"name":"River Rat","steam_id":76561198116383976,"connected_time":1200000000000,"state":"active","ping":57},{"user_id":113,"name":"TüCold","steam_id":76561198111278197,"connected_time":1002000000000,"state":"active","ping":45},{"user_id":23,"name":"oo","steam_id":76561198119626492,"connected_time":8384000000000,"state":"active","ping":76},{"user_id":85,"name":"Doctor Bear ʕ •ᴥ•ʔ","steam_id":76561197968103161,"connected_time":3422000000000,"state":"active","ping":119},{"user_id":76,"name":"ATL1 | rbjunk","steam_id":76561198123458199,"connected_time":4097000000000,"state":"active","ping":110},{"user_id":51,"name":"Blitzy","steam_id":76561198149472890,"connected_time":6318000000000,"state":"active","ping":69},{"user_id":109,"name":"dansal","steam_id":76561197997042510,"connected_time":1973000000000,"state":"active","ping":128},{"user_id":77,"name":"Iron Fox (Update-sized)","steam_id":76561198326520372,"connected_time":4096000000000,"state":"active","ping":114},{"user_id":78,"name":"TheMagicMrWaffle","steam_id":76561198104357256,"connected_time":4064000000000,"state":"active","ping":66},{"user_id":79,"name":"Autogyro","steam_id":76561198047943679,"connected_time":4048000000000,"state":"active","ping":74},{"user_id":118,"name":"Can You Feel It Mr.Krabs","steam_id":76561198128302414,"connected_time":85000000000,"state":"active","ping":88},{"user_id":56,"name":"ratie","steam_id":76561198059399661,"connected_time":5899000000000,"state":"active","ping":88}]},{"server_id":119,"name":"Uncletopia | Seattle | 2 | All Maps","name_short":"sea-2","host":"sea-1.us.uncletopia.com","port":27025,"enabled":true,"region":"us-west","cc":"us","latitude":47.608013,"longitude":-122.33517,"reserved":0,"last_update":"0001-01-01T00:00:00Z","name_a2s":"Uncletopia | Seattle | 2 | All Maps","protocol":17,"map":"koth_cascade","folder":"tf","game":"Team Fortress","app_id":440,"player_count":0,"max_players":24,"Bots":0,"server_type":"Dedicated","server_os":"Linux","password":true,"vac":true,"version":"7961495","steam_id":85568392924469998,"keywords":["cp","nocrits","nodmgspread","uncletopia"],"game_id":440,"stv_port":27026,"stv_name":"Uncletopia | Seattle | 2 | All Maps | STV","players":null},{"server_id":406,"name":"Uncletopia | Seattle | 3 | Stopwatch","name_short":"sea-3","host":"sea-1.us.uncletopia.com","port":27035,"enabled":true,"region":"us-west","cc":"us","latitude":47.608013,"longitude":-122.33517,"reserved":0,"last_update":"0001-01-01T00:00:00Z","name_a2s":"Uncletopia | Seattle | 3 | Stopwatch","protocol":17,"map":"pl_pier","folder":"tf","game":"Team Fortress","app_id":440,"player_count":0,"max_players":24,"Bots":0,"server_type":"Dedicated","server_os":"Linux","password":true,"vac":true,"version":"7961495","steam_id":85568392924515217,"keywords":["nocrits","nodmgspread","payload","uncletopia"],"game_id":440,"stv_port":27036,"stv_name":"Uncletopia | Seattle | 3 | Stopwatch | STV","players":null},{"server_id":17,"name":"Uncletopia | San Francisco | 1 | All Maps","name_short":"sfo-1","host":"sfo-1.us.uncletopia.com","port":27015,"enabled":true,"region":"us-west","cc":"us","latitude":37.77397,"longitude":-122.4313,"reserved":0,"last_update":"0001-01-01T00:00:00Z","name_a2s":"Uncletopia | San Francisco | 1 | All Maps","protocol":17,"map":"koth_cascade","folder":"tf","game":"Team Fortress","app_id":440,"player_count":0,"max_players":24,"Bots":0,"server_type":"Dedicated","server_os":"Linux","password":true,"vac":true,"version":"7961495","steam_id":85568392924469999,"keywords":["cp","nocrits","nodmgspread","uncletopia"],"game_id":440,"stv_port":27016,"stv_name":"Uncletopia | San Francisco | 1 | All Maps | STV","players":null},{"server_id":18,"name":"Uncletopia | San Francisco | 2 | All Maps","name_short":"sfo-2","host":"sfo-1.us.uncletopia.com","port":27025,"enabled":true,"region":"us-west","cc":"us","latitude":37.77397,"longitude":-122.4313,"reserved":0,"last_update":"0001-01-01T00:00:00Z","name_a2s":"Uncletopia | San Francisco | 2 | All Maps","protocol":17,"map":"pl_frontier_final","folder":"tf","game":"Team Fortress","app_id":440,"player_count":0,"max_players":24,"Bots":0,"server_type":"Dedicated","server_os":"Linux","password":true,"vac":true,"version":"7961495","steam_id":85568392924470000,"keywords":["nocrits","nodmgspread","payload","uncletopia"],"game_id":440,"stv_port":27026,"stv_name":"Uncletopia | San Francisco | 2 | All Maps | STV","players":null},{"server_id":19,"name":"Uncletopia | San Francisco | 3 | Stopwatch","name_short":"sfo-3","host":"sfo-1.us.uncletopia.com","port":27035,"enabled":true,"region":"us-west","cc":"us","latitude":37.77397,"longitude":-122.4313,"reserved":0,"last_update":"0001-01-01T00:00:00Z","name_a2s":"Uncletopia | San Francisco | 3 | Stopwatch","protocol":17,"map":"pl_pier","folder":"tf","game":"Team Fortress","app_id":440,"player_count":0,"max_players":24,"Bots":0,"server_type":"Dedicated","server_os":"Linux","password":true,"vac":true,"version":"7961495","steam_id":85568392924742824,"keywords":["nocrits","nodmgspread","payload","uncletopia"],"game_id":440,"stv_port":27036,"stv_name":"Uncletopia | San Francisco | 3 | Stopwatch | STV","players":null},{"server_id":20,"name":"Uncletopia | San Francisco | 4 | Community","name_short":"sfo-4","host":"sfo-1.us.uncletopia.com","port":27045,"enabled":true,"region":"us-west","cc":"us","latitude":37.77397,"longitude":-122.4313,"reserved":0,"last_update":"0001-01-01T00:00:00Z","name_a2s":"Uncletopia | San Francisco | 4 | Community","protocol":17,"map":"pl_pier","folder":"tf","game":"Team Fortress","app_id":440,"player_count":0,"max_players":24,"Bots":0,"server_type":"Dedicated","server_os":"Linux","password":true,"vac":true,"version":"7961495","steam_id":85568392924742826,"keywords":["nocrits","nodmgspread","payload","uncletopia"],"game_id":440,"stv_port":27046,"stv_name":"Uncletopia | San Francisco | 4 | Community | STV","players":null},{"server_id":141,"name":"Uncletopia | Sydney | 1 | All Maps","name_short":"syd-1","host":"syd-1.au.uncletopia.com","port":27015,"enabled":true,"region":"au","cc":"au","latitude":-33.865143,"longitude":151.2099,"reserved":0,"last_update":"0001-01-01T00:00:00Z","name_a2s":"Uncletopia | Sydney | 1 | All Maps","protocol":17,"map":"koth_highpass","folder":"tf","game":"Team Fortress","app_id":440,"player_count":0,"max_players":24,"Bots":0,"server_type":"Dedicated","server_os":"Linux","password":true,"vac":true,"version":"7961495","steam_id":85568392924470001,"keywords":["cp","nocrits","nodmgspread","uncletopia"],"game_id":440,"stv_port":27016,"stv_name":"Uncletopia | Sydney | 1 | All Maps | STV","players":null},{"server_id":123,"name":"Uncletopia | Sydney | 2 | All Maps","name_short":"syd-2","host":"syd-1.au.uncletopia.com","port":27025,"enabled":true,"region":"au","cc":"au","latitude":-33.865143,"longitude":151.2099,"reserved":0,"last_update":"0001-01-01T00:00:00Z","name_a2s":"Uncletopia | Sydney | 2 | All Maps","protocol":17,"map":"koth_cascade","folder":"tf","game":"Team Fortress","app_id":440,"player_count":0,"max_players":24,"Bots":0,"server_type":"Dedicated","server_os":"Linux","password":true,"vac":true,"version":"7961495","steam_id":85568392924470002,"keywords":["cp","nocrits","nodmgspread","uncletopia"],"game_id":440,"stv_port":27026,"stv_name":"Uncletopia | Sydney | 2 | All Maps | STV","players":null},{"server_id":395,"name":"Uncletopia | Sydney | 3 | All Maps","name_short":"syd-3","host":"syd-1.au.uncletopia.com","port":27035,"enabled":true,"region":"au","cc":"au","latitude":-33.865143,"longitude":151.2099,"reserved":0,"last_update":"0001-01-01T00:00:00Z","name_a2s":"Uncletopia | Sydney | 3 | All Maps","protocol":17,"map":"koth_lakeside_final","folder":"tf","game":"Team Fortress","app_id":440,"player_count":0,"max_players":24,"Bots":0,"server_type":"Dedicated","server_os":"Linux","password":true,"vac":true,"version":"7961495","steam_id":85568392925194467,"keywords":["cp","nocrits","nodmgspread","uncletopia"],"game_id":440,"stv_port":27036,"stv_name":"Uncletopia | Sydney | 3 | All Maps | STV","players":null},{"server_id":396,"name":"Uncletopia | Sydney | 4 | All Maps","name_short":"syd-4","host":"syd-1.au.uncletopia.com","port":27045,"enabled":true,"region":"au","cc":"au","latitude":-33.865143,"longitude":151.2099,"reserved":0,"last_update":"0001-01-01T00:00:00Z","name_a2s":"Uncletopia | Sydney | 4 | All Maps","protocol":17,"map":"pl_badwater","folder":"tf","game":"Team Fortress","app_id":440,"player_count":0,"max_players":24,"Bots":0,"server_type":"Dedicated","server_os":"Linux","password":true,"vac":true,"version":"7961495","steam_id":85568392925397958,"keywords":["nocrits","nodmgspread","payload","uncletopia"],"game_id":440,"stv_port":27046,"stv_name":"Uncletopia | Sydney | 4 | All Maps | STV","players":null},{"server_id":58,"name":"Uncletopia | Sydney | 5 | Stopwatch","name_short":"syd-5","host":"syd-1.au.uncletopia.com","port":27055,"enabled":true,"region":"au","cc":"au","latitude":-33.865143,"longitude":151.2099,"reserved":0,"last_update":"0001-01-01T00:00:00Z","name_a2s":"Uncletopia | Sydney | 5 | Stopwatch","protocol":17,"map":"koth_highpass","folder":"tf","game":"Team Fortress","app_id":440,"player_count":0,"max_players":24,"Bots":0,"server_type":"Dedicated","server_os":"Linux","password":true,"vac":true,"version":"7961495","steam_id":85568392925397959,"keywords":["cp","nocrits","nodmgspread","uncletopia"],"game_id":440,"stv_port":27056,"stv_name":"Uncletopia | Sydney | 5 | Stopwatch | STV","players":null},{"server_id":59,"name":"Uncletopia | Sydney | 6 | Community","name_short":"syd-6","host":"syd-1.au.uncletopia.com","port":27065,"enabled":true,"region":"au","cc":"au","latitude":-33.865143,"longitude":151.2099,"reserved":0,"last_update":"0001-01-01T00:00:00Z","name_a2s":"Uncletopia | Sydney | 6 | Community","protocol":17,"map":"workshop/cp_propaganda_b18.ugc1603743849","folder":"tf","game":"Team Fortress","app_id":440,"player_count":0,"max_players":24,"Bots":0,"server_type":"Dedicated","server_os":"Linux","password":true,"vac":true,"version":"7961495","steam_id":85568392925397960,"keywords":["cp","nocrits","nodmgspread","uncletopia"],"game_id":440,"stv_port":27066,"stv_name":"Uncletopia | Sydney | 6 | Community | STV","players":null},{"server_id":49,"name":"Uncletopia | Warsaw | 1 | One Thousand Uncles","name_short":"waw-1","host":"waw-1.pl.uncletopia.com","port":27015,"enabled":true,"region":"eu","cc":"pl","latitude":52.2297,"longitude":21.017532,"reserved":0,"last_update":"0001-01-01T00:00:00Z","name_a2s":"Uncletopia | Warsaw | 1 | One Thousand Uncles","protocol":17,"map":"cp_mercenarypark","folder":"tf","game":"Team Fortress","app_id":440,"player_count":28,"max_players":32,"Bots":16,"server_type":"Dedicated","server_os":"Linux","password":true,"vac":true,"version":"7961495","steam_id":85568392925397850,"keywords":["alltalk","bots","cp","danepve","increased_maxplayers","nocrits","norespawntime","uncletopia"],"game_id":440,"stv_port":0,"stv_name":"","players":[{"user_id":165,"name":"Mr.Cupcake","steam_id":76561198152711174,"connected_time":4531000000000,"state":"active","ping":43},{"user_id":188,"name":"tanyathsus","steam_id":76561198089522447,"connected_time":2129000000000,"state":"active","ping":88},{"user_id":198,"name":"Alberto","steam_id":76561199135691096,"connected_time":254000000000,"state":"active","ping":64},{"user_id":190,"name":"Gusvenga","steam_id":76561199350840589,"connected_time":1574000000000,"state":"active","ping":60},{"user_id":185,"name":"ChrisLuckycharm","steam_id":76561199490969322,"connected_time":3049000000000,"state":"active","ping":80},{"user_id":186,"name":"badi1220","steam_id":76561198060438270,"connected_time":3046000000000,"state":"active","ping":81},{"user_id":191,"name":"joachym","steam_id":76561198428579761,"connected_time":1335000000000,"state":"active","ping":70},{"user_id":193,"name":"piping hot","steam_id":76561198011692496,"connected_time":1033000000000,"state":"active","ping":73},{"user_id":197,"name":"Kościarz","steam_id":76561198810307321,"connected_time":291000000000,"state":"active","ping":68},{"user_id":196,"name":"* /","steam_id":76561198086304421,"connected_time":352000000000,"state":"active","ping":85},{"user_id":199,"name":"The one True Mads","steam_id":76561197999204692,"connected_time":218000000000,"state":"active","ping":70},{"user_id":201,"name":"pizza master","steam_id":76561199158618485,"connected_time":122000000000,"state":"active","ping":183}]},{"server_id":50,"name":"Uncletopia | Warsaw | 2 | One Thousand Uncles","name_short":"waw-2","host":"waw-1.pl.uncletopia.com","port":27025,"enabled":true,"region":"eu","cc":"pl","latitude":52.2297,"longitude":21.017532,"reserved":0,"last_update":"0001-01-01T00:00:00Z","name_a2s":"Uncletopia | Warsaw | 2 | One Thousand Uncles","protocol":17,"map":"pl_chilly","folder":"tf","game":"Team Fortress","app_id":440,"player_count":22,"max_players":32,"Bots":16,"server_type":"Dedicated","server_os":"Linux","password":true,"vac":true,"version":"7961495","steam_id":85568392925397851,"keywords":["alltalk","bots","danepve","increased_maxplayers","nocrits","norespawntime","payload","uncletopia"],"game_id":440,"stv_port":0,"stv_name":"","players":[{"user_id":207,"name":"♦nudzeku♦","steam_id":76561199196336940,"connected_time":941000000000,"state":"active","ping":69},{"user_id":81,"name":"KipxSateee","steam_id":76561198149158137,"connected_time":11129000000000,"state":"active","ping":63},{"user_id":206,"name":"aja","steam_id":76561198972253395,"connected_time":995000000000,"state":"active","ping":57},{"user_id":208,"name":"Smirire","steam_id":76561198879939942,"connected_time":382000000000,"state":"active","ping":80},{"user_id":209,"name":"nobleevolved","steam_id":76561199240626135,"connected_time":127000000000,"state":"active","ping":77},{"user_id":210,"name":"reasxn2live","steam_id":76561198173610297,"connected_time":36000000000,"state":"spawning","ping":119}]},{"server_id":51,"name":"Uncletopia | Warsaw | 3 | All Maps","name_short":"waw-3","host":"waw-1.pl.uncletopia.com","port":27035,"enabled":true,"region":"eu","cc":"pl","latitude":52.2297,"longitude":21.017532,"reserved":0,"last_update":"0001-01-01T00:00:00Z","name_a2s":"Uncletopia | Warsaw | 3 | All Maps","protocol":17,"map":"koth_lakeside_final","folder":"tf","game":"Team Fortress","app_id":440,"player_count":0,"max_players":24,"Bots":0,"server_type":"Dedicated","server_os":"Linux","password":true,"vac":true,"version":"7961495","steam_id":85568392925397852,"keywords":["cp","nocrits","nodmgspread","uncletopia"],"game_id":440,"stv_port":27036,"stv_name":"Uncletopia | Warsaw | 3 | All Maps | STV","players":null},{"server_id":52,"name":"Uncletopia | Warsaw | 4 | All Maps","name_short":"waw-4","host":"waw-1.pl.uncletopia.com","port":27045,"enabled":true,"region":"eu","cc":"pl","latitude":52.2297,"longitude":21.017532,"reserved":0,"last_update":"0001-01-01T00:00:00Z","name_a2s":"Uncletopia | Warsaw | 4 | All Maps","protocol":17,"map":"pl_upward","folder":"tf","game":"Team Fortress","app_id":440,"player_count":0,"max_players":24,"Bots":0,"server_type":"Dedicated","server_os":"Linux","password":true,"vac":true,"version":"7961495","steam_id":85568392925397853,"keywords":["nocrits","nodmgspread","payload","uncletopia"],"game_id":440,"stv_port":27046,"stv_name":"Uncletopia | Warsaw | 4 | All Maps | STV","players":null},{"server_id":53,"name":"Uncletopia | Warsaw | 5 | Stopwatch","name_short":"waw-5","host":"waw-1.pl.uncletopia.com","port":27055,"enabled":true,"region":"eu","cc":"pl","latitude":52.2297,"longitude":21.017532,"reserved":0,"last_update":"0001-01-01T00:00:00Z","name_a2s":"Uncletopia | Warsaw | 5 | Stopwatch","protocol":17,"map":"workshop/pl_vigil_rc10.ugc1266210012","folder":"tf","game":"Team Fortress","app_id":440,"player_count":0,"max_players":24,"Bots":0,"server_type":"Dedicated","server_os":"Linux","password":true,"vac":true,"version":"7961495","steam_id":85568392925397854,"keywords":["nocrits","nodmgspread","payload","uncletopia"],"game_id":440,"stv_port":27056,"stv_name":"Uncletopia | Warsaw | 5 | Stopwatch | STV","players":null},{"server_id":54,"name":"Uncletopia | Warsaw | 6 | Community","name_short":"waw-6","host":"waw-1.pl.uncletopia.com","port":27065,"enabled":true,"region":"eu","cc":"pl","latitude":52.2297,"longitude":21.017532,"reserved":0,"last_update":"0001-01-01T00:00:00Z","name_a2s":"Uncletopia | Warsaw | 6 | Community","protocol":17,"map":"workshop/pl_badwater_pro_v12.ugc2142942074","folder":"tf","game":"Team Fortress","app_id":440,"player_count":0,"max_players":24,"Bots":0,"server_type":"Dedicated","server_os":"Linux","password":true,"vac":true,"version":"7961495","steam_id":85568392925397856,"keywords":["nocrits","nodmgspread","payload","uncletopia"],"game_id":440,"stv_port":27066,"stv_name":"Uncletopia | Warsaw | 6 | Community | STV","players":null}]}