{"status":true,"message":"","result":[{"server_id":9,"name":"Uncletopia | Atlanta | 1 | All Maps","name_short":"atl-1","host":"atl-1.us.uncletopia.com","port":27015,"enabled":true,"region":"us-east","cc":"us","latitude":33.753746,"longitude":-84.38633,"reserved":0,"last_update":"0001-01-01T00:00:00Z","name_a2s":"Uncletopia | Atlanta | 1 | All Maps","protocol":17,"map":"pl_pier","folder":"tf","game":"Team Fortress","app_id":440,"player_count":20,"max_players":24,"Bots":0,"server_type":"Dedicated","server_os":"Linux","password":true,"vac":true,"version":"7757534","steam_id":85568392924469982,"keywords":["nocrits","nodmgspread","payload","uncletopia"],"game_id":440,"stv_port":27016,"stv_name":"Uncletopia | Atlanta | 1 | All Maps | STV","players":[{"user_id":648,"name":"teh mummy","steam_id":76561198044123636,"connected_time":2399000000000,"state":"active","ping":94},{"user_id":645,"name":"nky","steam_id":76561198086229832,"connected_time":2446000000000,"state":"active","ping":139},{"user_id":669,"name":"Prince Petrichor","steam_id":76561198077359444,"connected_time":1142000000000,"state":"active","ping":75},{"user_id":630,"name":"schizophrenic with a gun","steam_id":76561198016121536,"connected_time":2939000000000,"state":"active","ping":66},{"user_id":646,"name":"floofy","steam_id":76561198389769098,"connected_time":2427000000000,"state":"active","ping":83},{"user_id":674,"name":"TMM","steam_id":76561198306809688,"connected_time":1080000000000,"state":"active","ping":88},{"user_id":647,"name":"OrangeCrab","steam_id":76561198982248872,"connected_time":2425000000000,"state":"active","ping":62},{"user_id":603,"name":"Emma","steam_id":76561198318093783,"connected_time":4690000000000,"state":"active","ping":86},{"user_id":662,"name":"wire-guided","steam_id":76561198055407168,"connected_time":1959000000000,"state":"active","ping":51},{"user_id":684,"name":"Keeby Moment","steam_id":76561198172792271,"connected_time":37000000000,"state":"active","ping":90},{"user_id":683,"name":"fishfin","steam_id":76561198255819115,"connected_time":125000000000,"state":"active","ping":80},{"user_id":685,"name":"Lui","steam_id":76561198105834434,"connected_time":4000000000,"state":"spawning","ping":111},{"user_id":681,"name":"John Dungus (the real one)","steam_id":76561198049191027,"connected_time":541000000000,"state":"active","ping":72},{"user_id":680,"name":"GPLv2","steam_id":76561198113096772,"connected_time":613000000000,"state":"active","ping":103},{"user_id":634,"name":"Lord Pretty Flocko Jordye","steam_id":76561198962880749,"connected_time":2867000000000,"state":"active","ping":123},{"user_id":529,"name":"Lucy","steam_id":76561198032590343,"connected_time":10770000000000,"state":"active","ping":68},{"user_id":635,"name":"fitotutus","steam_id":76561197974993253,"connected_time":2834000000000,"state":"active","ping":72},{"user_id":667,"name":".exe","steam_id":76561198088679081,"connected_time":1341000000000,"state":"active","ping":101},{"user_id":682,"name":"gwa gwa","steam_id":76561198803713414,"connected_time":290000000000,"state":"active","ping":159},{"user_id":659,"name":"Tay1Qr","steam_id":76561198082809935,"connected_time":2136000000000,"state":"active","ping":65}]},{"server_id":400,"name":"Uncletopia | Atlanta | 3 | Community","name_short":"atl-3","host":"atl-1.us.uncletopia.com","port":27035,"enabled":true,"region":"us-east","cc":"us","latitude":33.753746,"longitude":-84.38633,"reserved":0,"last_update":"0001-01-01T00:00:00Z","name_a2s":"Uncletopia | Atlanta | 3 | Community","protocol":17,"map":"workshop/koth_ramjam_rc1.ugc459778887","folder":"tf","game":"Team Fortress","app_id":440,"player_count":3,"max_players":32,"Bots":0,"server_type":"Dedicated","server_os":"Linux","password":true,"vac":true,"version":"7757534","steam_id":85568392924515187,"keywords":["cp","increased_maxplayers","nocrits","nodmgspread","uncletopia"],"game_id":440,"stv_port":27036,"stv_name":"Uncletopia | Atlanta | 3 | Community | STV","players":[{"user_id":22,"name":"Shy","steam_id":76561198394890836,"connected_time":304000000000,"state":"active","ping":165},{"user_id":23,"name":"Jäger2316","steam_id":76561197974928362,"connected_time":274000000000,"state":"active","ping":69},{"user_id":24,"name":"Deadlynx5","steam_id":76561198267021472,"connected_time":270000000000,"state":"active","ping":59}]},{"server_id":401,"name":"Uncletopia | Atlanta | 4 | No Payload","name_short":"atl-4","host":"atl-1.us.uncletopia.com","port":27045,"enabled":true,"region":"us-east","cc":"us","latitude":33.753746,"longitude":-84.38633,"reserved":0,"last_update":"0001-01-01T00:00:00Z","name_a2s":"","protocol":0,"map":"","folder":"","game":"","app_id":0,"player_count":0,"max_players":0,"Bots":0,"server_type":"","server_os":"","password":false,"vac":false,"version":"","steam_id":0,"keywords":null,"game_id":0,"stv_port":0,"stv_name":"","players":null},{"server_id":2,"name":"Uncletopia | Chicago | 1 | All Maps","name_short":"chi-1","host":"chi-1.us.uncletopia.com","port":27015,"enabled":true,"region":"us-central","cc":"us","latitude":41.881832,"longitude":-87.62318,"reserved":0,"last_update":"0001-01-01T00:00:00Z","name_a2s":"Uncletopia | Chicago | 1 | All Maps","protocol":17,"map":"pl_rumford_event","folder":"tf","game":"Team Fortress","app_id":440,"player_count":17,"max_players":24,"Bots":0,"server_type":"Dedicated","server_os":"Linux","password":true,"vac":true,"version":"7757534","steam_id":85568392924469984,"keywords":["nocrits","nodmgspread","payload","uncletopia"],"game_id":440,"stv_port":27016,"stv_name":"Uncletopia | Chicago | 1 | All Maps | STV","players":[{"user_id":767,"name":"buzz #TF2Center","steam_id":76561198107899101,"connected_time":1655000000000,"state":"active","ping":72},{"user_id":789,"name":"ItsDifficultttt","steam_id":76561199402730529,"connected_time":192000000000,"state":"active","ping":74},{"user_id":790,"name":"z0m813_456","steam_id":76561198177032619,"connected_time":174000000000,"state":"active","ping":61},{"user_id":791,"name":"Starlie","steam_id":76561198102100102,"connected_time":104000000000,"state":"spawning","ping":280},{"user_id":792,"name":"admiralmonk","steam_id":76561198845021470,"connected_time":62000000000,"state":"active","ping":57},{"user_id":771,"name":"PAC-MATH","steam_id":76561198327729748,"connected_time":1420000000000,"state":"active","ping":73},{"user_id":772,"name":"Mani","steam_id":76561198139428711,"connected_time":1408000000000,"state":"active","ping":52},{"user_id":763,"name":"CheeseCake488","steam_id":76561199407617942,"connected_time":2889000000000,"state":"active","ping":151},{"user_id":773,"name":"Zeta","steam_id":76561198066702587,"connected_time":1387000000000,"state":"active","ping":76},{"user_id":775,"name":"ccat","steam_id":76561198281773224,"connected_time":1331000000000,"state":"active","ping":87},{"user_id":784,"name":"Octobeann","steam_id":76561199033746522,"connected_time":723000000000,"state":"active","ping":90},{"user_id":776,"name":"nathaniel b the ocky way","steam_id":76561198321627268,"connected_time":1325000000000,"state":"active","ping":125},{"user_id":777,"name":"Simply V","steam_id":76561199058243841,"connected_time":1317000000000,"state":"active","ping":189},{"user_id":661,"name":"chloe","steam_id":76561198369849908,"connected_time":8498000000000,"state":"active","ping":72},{"user_id":786,"name":"morbissey","steam_id":76561198072592880,"connected_time":469000000000,"state":"active","ping":41},{"user_id":764,"name":"The Land Admiral","steam_id":76561198159356609,"connected_time":2533000000000,"state":"active","ping":75},{"user_id":787,"name":"GoldtoothFour","steam_id":76561198055529332,"connected_time":468000000000,"state":"active","ping":55}]},{"server_id":106,"name":"Uncletopia | Chicago | 2 | All Maps","name_short":"chi-2","host":"chi-1.us.uncletopia.com","port":27025,"enabled":true,"region":"us-central","cc":"us","latitude":41.881832,"longitude":-87.62318,"reserved":0,"last_update":"0001-01-01T00:00:00Z","name_a2s":"Uncletopia | Chicago | 2 | All Maps","protocol":17,"map":"pl_borneo","folder":"tf","game":"Team Fortress","app_id":440,"player_count":0,"max_players":24,"Bots":0,"server_type":"Dedicated","server_os":"Linux","password":true,"vac":true,"version":"7757534","steam_id":85568392924469985,"keywords":["nocrits","nodmgspread","payload","uncletopia"],"game_id":440,"stv_port":27026,"stv_name":"Uncletopia | Chicago | 2 | All Maps | STV","players":null},{"server_id":402,"name":"Uncletopia | Chicago | 3 | All Maps","name_short":"chi-3","host":"chi-1.us.uncletopia.com","port":27035,"enabled":true,"region":"us-central","cc":"us","latitude":41.881832,"longitude":-87.62318,"reserved":0,"last_update":"0001-01-01T00:00:00Z","name_a2s":"Uncletopia | Chicago | 3 | All Maps","protocol":17,"map":"cp_snakewater_final1","folder":"tf","game":"Team Fortress","app_id":440,"player_count":23,"max_players":24,"Bots":0,"server_type":"Dedicated","server_os":"Linux","password":true,"vac":true,"version":"7757534","steam_id":85568392924515191,"keywords":["cp","nocrits","nodmgspread","uncletopia"],"game_id":440,"stv_port":27036,"stv_name":"Uncletopia | Chicago | 3 | All Maps | STV","players":[{"user_id":675,"name":"Flat Eric","steam_id":76561198114922735,"connected_time":1079000000000,"state":"active","ping":67},{"user_id":672,"name":"roting meet flesh blod","steam_id":76561199473228098,"connected_time":1442000000000,"state":"active","ping":119},{"user_id":673,"name":"Yoloisnotded","steam_id":76561198995043589,"connected_time":1434000000000,"state":"active","ping":85},{"user_id":683,"name":"Butthole Surfer","steam_id":76561198020526407,"connected_time":420000000000,"state":"active","ping":75},{"user_id":660,"name":"Nodin","steam_id":76561198135757376,"connected_time":2603000000000,"state":"active","ping":49},{"user_id":652,"name":"Cirno","steam_id":76561198283602302,"connected_time":2803000000000,"state":"active","ping":64},{"user_id":682,"name":"NOLSEY","steam_id":76561198108959504,"connected_time":494000000000,"state":"active","ping":50},{"user_id":698,"name":"n.","steam_id":76561198107213976,"connected_time":43000000000,"state":"active","ping":75},{"user_id":625,"name":"Trox","steam_id":76561198263581464,"connected_time":3583000000000,"state":"active","ping":83},{"user_id":685,"name":"Persona404","steam_id":76561198109635077,"connected_time":393000000000,"state":"active","ping":87},{"user_id":694,"name":"48","steam_id":76561198894676484,"connected_time":254000000000,"state":"active","ping":98},{"user_id":662,"name":"Mush","steam_id":76561198393461065,"connected_time":2311000000000,"state":"active","ping":74},{"user_id":687,"name":"Futa Fix Dine n Dash Out Now","steam_id":76561198081282228,"connected_time":362000000000,"state":"active","ping":73},{"user_id":688,"name":"nabroleon","steam_id":76561198038080028,"connected_time":361000000000,"state":"active","ping":45},{"user_id":689,"name":"Duncan Idaho","steam_id":76561197988963861,"connected_time":326000000000,"state":"active","ping":67},{"user_id":661,"name":"Anderred","steam_id":76561198149983847,"connected_time":2567000000000,"state":"active","ping":80},{"user_id":632,"name":"Sydney","steam_id":76561198797603297,"connected_time":3463000000000,"state":"active","ping":61},{"user_id":692,"name":"Gay Cake","steam_id":76561198004388831,"connected_time":272000000000,"state":"active","ping":65},{"user_id":681,"name":"scarecrow (evil)","steam_id":76561198082979347,"connected_time":604000000000,"state":"active","ping":60},{"user_id":693,"name":"1-10 Beavers","steam_id":76561198010708247,"connected_time":271000000000,"state":"active","ping":82},{"user_id":668,"name":"zietz","steam_id":76561198124553999,"connected_time":2071000000000,"state":"active","ping":103},{"user_id":670,"name":"Lord Dragon","steam_id":76561198310300373,"connected_time":1763000000000,"state":"active","ping":89},{"user_id":696,"name":"Lt. Dan's Legs","steam_id":76561198043851584,"connected_time":218000000000,"state":"active","ping":107}]},{"server_id":403,"name":"Uncletopia | Chicago | 4 | All Maps","name_short":"chi-4","host":"chi-1.us.uncletopia.com","port":27045,"enabled":true,"region":"us-central","cc":"us","latitude":41.881832,"longitude":-87.62318,"reserved":0,"last_update":"0001-01-01T00:00:00Z","name_a2s":"Uncletopia | Chicago | 4 | All Maps","protocol":17,"map":"pl_thundermountain","folder":"tf","game":"Team Fortress","app_id":440,"player_count":24,"max_players":24,"Bots":0,"server_type":"Dedicated","server_os":"Linux","password":true,"vac":true,"version":"7757534","steam_id":85568392924515193,"keywords":["nocrits","nodmgspread","payload","uncletopia"],"game_id":440,"stv_port":27046,"stv_name":"Uncletopia | Chicago | 4 | All Maps | STV","players":[{"user_id":614,"name":"ScoutBox","steam_id":76561198111539895,"connected_time":1548000000000,"state":"active","ping":98},{"user_id":619,"name":"FLaGMuFFiN","steam_id":76561198047690114,"connected_time":1064000000000,"state":"active","ping":49},{"user_id":618,"name":"Habba","steam_id":76561197986096340,"connected_time":1291000000000,"state":"active","ping":68},{"user_id":620,"name":"Momma_Milky123","steam_id":76561199149697526,"connected_time":1012000000000,"state":"active","ping":108},{"user_id":610,"name":"OpenDown","steam_id":76561198064132688,"connected_time":1836000000000,"state":"active","ping":72},{"user_id":643,"name":"poey","steam_id":76561198865346767,"connected_time":277000000000,"state":"active","ping":90},{"user_id":621,"name":"RipstikBisquik","steam_id":76561198067493602,"connected_time":980000000000,"state":"active","ping":68},{"user_id":501,"name":"24 oz. Ocean Spray Craisins","steam_id":76561198209208644,"connected_time":8671000000000,"state":"active","ping":73},{"user_id":642,"name":"the meat man","steam_id":76561198037921140,"connected_time":306000000000,"state":"active","ping":90},{"user_id":613,"name":"Spy Zoroark","steam_id":76561198054890339,"connected_time":1716000000000,"state":"active","ping":62},{"user_id":622,"name":"Burzurck","steam_id":76561198041936826,"connected_time":973000000000,"state":"active","ping":71},{"user_id":623,"name":"faakinkant","steam_id":76561198115844174,"connected_time":958000000000,"state":"active","ping":116},{"user_id":624,"name":"last_apoc","steam_id":76561197974910911,"connected_time":937000000000,"state":"active","ping":58},{"user_id":635,"name":"Tarofel","steam_id":76561198051888035,"connected_time":482000000000,"state":"active","ping":54},{"user_id":629,"name":"guacmeister5000","steam_id":76561198304265800,"connected_time":628000000000,"state":"active","ping":82},{"user_id":640,"name":"Junior_198X","steam_id":76561198158596794,"connected_time":339000000000,"state":"active","ping":89},{"user_id":631,"name":"Brendan","steam_id":76561198041079914,"connected_time":566000000000,"state":"active","ping":73},{"user_id":632,"name":"JimboSlice","steam_id":76561199225336634,"connected_time":540000000000,"state":"active","ping":73},{"user_id":633,"name":"C papi","steam_id":76561198027779564,"connected_time":529000000000,"state":"active","ping":56},{"user_id":645,"name":"Antwan","steam_id":76561198246200638,"connected_time":133000000000,"state":"active","ping":72},{"user_id":646,"name":"SkaddleMcPaddle","steam_id":76561198025755912,"connected_time":131000000000,"state":"active","ping":71},{"user_id":641,"name":"Bliztank | RGL.gg","steam_id":76561198019252798,"connected_time":333000000000,"state":"active","ping":60},{"user_id":638,"name":"elso","steam_id":76561198058209902,"connected_time":464000000000,"state":"active","ping":92},{"user_id":644,"name":"Gustavo Fring","steam_id":76561198132807405,"connected_time":223000000000,"state":"active","ping":92}]},{"server_id":36,"name":"Uncletopia | Chicago | 5 | All Maps","name_short":"chi-5","host":"chi-2.us.uncletopia.com","port":27015,"enabled":true,"region":"us-central","cc":"us","latitude":41.881832,"longitude":-87.62318,"reserved":0,"last_update":"0001-01-01T00:00:00Z","name_a2s":"Uncletopia | Chicago | 5 | All Maps","protocol":17,"map":"koth_harvest_final","folder":"tf","game":"Team Fortress","app_id":440,"player_count":24,"max_players":24,"Bots":0,"server_type":"Dedicated","server_os":"Linux","password":true,"vac":true,"version":"7757534","steam_id":85568392924866362,"keywords":["cp","nocrits","nodmgspread","uncletopia"],"game_id":440,"stv_port":27016,"stv_name":"Uncletopia | Chicago | 5 | All Maps | STV","players":[{"user_id":470,"name":"Jester™","steam_id":76561198015947999,"connected_time":1635000000000,"state":"active","ping":69},{"user_id":481,"name":"AlaNo","steam_id":76561198133099582,"connected_time":537000000000,"state":"active","ping":100},{"user_id":467,"name":"gabagool","steam_id":76561198012131766,"connected_time":1663000000000,"state":"active","ping":46},{"user_id":478,"name":"Klip","steam_id":76561198316254429,"connected_time":1100000000000,"state":"active","ping":80},{"user_id":471,"name":"Goku","steam_id":76561198064143198,"connected_time":1617000000000,"state":"active","ping":46},{"user_id":422,"name":"Dr.Barber","steam_id":76561198053164815,"connected_time":6615000000000,"state":"active","ping":62},{"user_id":428,"name":"AMU","steam_id":76561198092346231,"connected_time":5979000000000,"state":"active","ping":62},{"user_id":426,"name":"Goldfire","steam_id":76561198061999410,"connected_time":6172000000000,"state":"active","ping":93},{"user_id":484,"name":"powergamer","steam_id":76561198041920607,"connected_time":14000000000,"state":"spawning","ping":63},{"user_id":431,"name":"shadowjango","steam_id":76561198001475833,"connected_time":4856000000000,"state":"active","ping":61},{"user_id":477,"name":"allenr200415","steam_id":76561198950845093,"connected_time":1163000000000,"state":"active","ping":90},{"user_id":451,"name":"Jared In Target","steam_id":76561198372449718,"connected_time":3238000000000,"state":"active","ping":64},{"user_id":452,"name":"Titan Tezwa","steam_id":76561198030320618,"connected_time":3215000000000,"state":"active","ping":72},{"user_id":472,"name":"GoofyAhGamingGuy","steam_id":76561199331315881,"connected_time":1582000000000,"state":"active","ping":82},{"user_id":378,"name":"Windex","steam_id":76561198105561395,"connected_time":9997000000000,"state":"active","ping":90},{"user_id":483,"name":"☭","steam_id":76561198138444785,"connected_time":211000000000,"state":"active","ping":85},{"user_id":474,"name":"The Pan Man From Slavic Land","steam_id":76561198401875841,"connected_time":1500000000000,"state":"active","ping":46},{"user_id":475,"name":"mommy","steam_id":76561198129195009,"connected_time":1457000000000,"state":"active","ping":74},{"user_id":462,"name":"Koolaid","steam_id":76561199200296010,"connected_time":2481000000000,"state":"active","ping":86},{"user_id":457,"name":"BreadGod","steam_id":76561198050665205,"connected_time":3028000000000,"state":"active","ping":63},{"user_id":482,"name":"Thirty Thirty","steam_id":76561197987242808,"connected_time":524000000000,"state":"active","ping":93},{"user_id":459,"name":"Wizowd","steam_id":76561198167702261,"connected_time":2903000000000,"state":"active","ping":105},{"user_id":316,"name":"RedSock","steam_id":76561198161243404,"connected_time":13815000000000,"state":"active","ping":45},{"user_id":476,"name":"Candy Sparkles","steam_id":76561198126871264,"connected_time":1443000000000,"state":"active","ping":83}]},{"server_id":37,"name":"Uncletopia | Chicago | 6 | All Maps","name_short":"chi-6","host":"chi-2.us.uncletopia.com","port":27025,"enabled":true,"region":"us-central","cc":"us","latitude":41.881832,"longitude":-87.62318,"reserved":0,"last_update":"0001-01-01T00:00:00Z","name_a2s":"Uncletopia | Chicago | 6 | All Maps","protocol":17,"map":"cp_mountainlab","folder":"tf","game":"Team Fortress","app_id":440,"player_count":0,"max_players":24,"Bots":0,"server_type":"Dedicated","server_os":"Linux","password":true,"vac":true,"version":"7757534","steam_id":85568392924866363,"keywords":["cp","nocrits","nodmgspread","uncletopia"],"game_id":440,"stv_port":27026,"stv_name":"Uncletopia | Chicago | 6 | All Maps | STV","players":null},{"server_id":38,"name":"Uncletopia | Chicago | 7 | Stopwatch Beta","name_short":"chi-7","host":"chi-2.us.uncletopia.com","port":27035,"enabled":true,"region":"us-central","cc":"us","latitude":41.881832,"longitude":-87.62318,"reserved":0,"last_update":"0001-01-01T00:00:00Z","name_a2s":"Uncletopia | Chicago | 7 | Stopwatch Beta","protocol":17,"map":"pl_upward","folder":"tf","game":"Team Fortress","app_id":440,"player_count":0,"max_players":24,"Bots":0,"server_type":"Dedicated","server_os":"Linux","password":true,"vac":true,"version":"7757534","steam_id":85568392924866364,"keywords":["nocrits","nodmgspread","payload","uncletopia"],"game_id":440,"stv_port":27036,"stv_name":"Uncletopia | Chicago | 7 | Stopwatch Beta | STV","players":null},{"server_id":39,"name":"Uncletopia | Chicago | 8 | Community","name_short":"chi-8","host":"chi-2.us.uncletopia.com","port":27045,"enabled":true,"region":"us-central","cc":"us","latitude":41.881832,"longitude":-87.62318,"reserved":0,"last_update":"0001-01-01T00:00:00Z","name_a2s":"Uncletopia | Chicago | 8 | Community","protocol":17,"map":"workshop/rd_asteroid_redux_b1.ugc2154902912","folder":"tf","game":"Team Fortress","app_id":440,"player_count":0,"max_players":24,"Bots":0,"server_type":"Dedicated","server_os":"Linux","password":true,"vac":true,"version":"7757534","steam_id":85568392924866365,"keywords":["beta","nocrits","nodmgspread","rd","uncletopia"],"game_id":440,"stv_port":27046,"stv_name":"Uncletopia | Chicago | 8 | Community | STV","players":null},{"server_id":8,"name":"Uncletopia | Dallas | 1 | All Maps","name_short":"dal-1","host":"dal-1.us.uncletopia.com","port":27015,"enabled":true,"region":"us-central","cc":"us","latitude":32.779167,"longitude":-96.80889,"reserved":0,"last_update":"0001-01-01T00:00:00Z","name_a2s":"Uncletopia | Dallas | 1 | All Maps","protocol":17,"map":"cp_gorge","folder":"tf","game":"Team Fortress","app_id":440,"player_count":24,"max_players":24,"Bots":0,"server_type":"Dedicated","server_os":"Linux","password":true,"vac":true,"version":"7757534","steam_id":85568392924469986,"keywords":["cp","nocrits","nodmgspread","uncletopia"],"game_id":440,"stv_port":27016,"stv_name":"Uncletopia | Dallas | 1 | All Maps | STV","players":[{"user_id":417,"name":"helpless slave to biology","steam_id":76561198110046630,"connected_time":866000000000,"state":"active","ping":56},{"user_id":434,"name":"Squid121","steam_id":76561198038832034,"connected_time":95000000000,"state":"active","ping":104},{"user_id":358,"name":"Spike Bones","steam_id":76561198234926120,"connected_time":5433000000000,"state":"active","ping":85},{"user_id":402,"name":"Xbox_Pro_2016","steam_id":76561198176126519,"connected_time":1475000000000,"state":"active","ping":95},{"user_id":423,"name":"TheHarmacist","steam_id":76561198068249096,"connected_time":658000000000,"state":"active","ping":68},{"user_id":409,"name":"Keg","steam_id":76561198242688458,"connected_time":1244000000000,"state":"active","ping":59},{"user_id":391,"name":"giura","steam_id":76561197986794525,"connected_time":1889000000000,"state":"active","ping":84},{"user_id":384,"name":"what da dog doin","steam_id":76561198090573639,"connected_time":2837000000000,"state":"active","ping":70},{"user_id":406,"name":"Gruncle PUXXY's Loli Peeler","steam_id":76561197995465137,"connected_time":1298000000000,"state":"active","ping":40},{"user_id":424,"name":"Trans Femtress 2","steam_id":76561198272676760,"connected_time":652000000000,"state":"active","ping":113},{"user_id":388,"name":"Can You Feel It Mr.Krabs","steam_id":76561198128302414,"connected_time":2351000000000,"state":"active","ping":65},{"user_id":432,"name":"An Inordinate Amount of Beans","steam_id":76561198022758805,"connected_time":336000000000,"state":"active","ping":54},{"user_id":435,"name":"Kiilys","steam_id":76561198326068377,"connected_time":82000000000,"state":"active","ping":97},{"user_id":425,"name":"♥love my medic gf♥","steam_id":76561198052177917,"connected_time":637000000000,"state":"active","ping":107},{"user_id":395,"name":"World Famous Skater Sean Pablo","steam_id":76561197999261387,"connected_time":1875000000000,"state":"active","ping":86},{"user_id":335,"name":"prestige worldwide (wide)","steam_id":76561198045655893,"connected_time":7309000000000,"state":"active","ping":75},{"user_id":365,"name":"excusadoatomico","steam_id":76561199093277454,"connected_time":5147000000000,"state":"active","ping":97},{"user_id":387,"name":"Fox","steam_id":76561198063507627,"connected_time":2393000000000,"state":"active","ping":35},{"user_id":431,"name":"Zelumie","steam_id":76561198147335801,"connected_time":347000000000,"state":"active","ping":112},{"user_id":421,"name":"Mayo_","steam_id":76561198289375121,"connected_time":703000000000,"state":"active","ping":47},{"user_id":436,"name":"BrownMemeSter","steam_id":76561198113745020,"connected_time":69000000000,"state":"active","ping":91},{"user_id":433,"name":"TehLolz","steam_id":76561198091782065,"connected_time":267000000000,"state":"active","ping":66},{"user_id":398,"name":"mtn.dewdrinker1999","steam_id":76561198021308963,"connected_time":1782000000000,"state":"active","ping":60},{"user_id":428,"name":"purply-ghost","steam_id":76561199204779865,"connected_time":493000000000,"state":"active","ping":57}]},{"server_id":108,"name":"Uncletopia | Dallas | 2 | All Maps","name_short":"dal-2","host":"dal-1.us.uncletopia.com","port":27025,"enabled":true,"region":"us-central","cc":"us","latitude":32.779167,"longitude":-96.80889,"reserved":0,"last_update":"0001-01-01T00:00:00Z","name_a2s":"Uncletopia | Dallas | 2 | All Maps","protocol":17,"map":"cp_altitude","folder":"tf","game":"Team Fortress","app_id":440,"player_count":0,"max_players":24,"Bots":0,"server_type":"Dedicated","server_os":"Linux","password":true,"vac":true,"version":"7757534","steam_id":85568392924469988,"keywords":["cp","nocrits","nodmgspread","uncletopia"],"game_id":440,"stv_port":27026,"stv_name":"Uncletopia | Dallas | 2 | All Maps | STV","players":null},{"server_id":5,"name":"Uncletopia | Frankfurt | 1 | All Maps","name_short":"frk-1","host":"frk-1.de.uncletopia.com","port":27015,"enabled":true,"region":"eu","cc":"de","latitude":50.110924,"longitude":8.682127,"reserved":0,"last_update":"0001-01-01T00:00:00Z","name_a2s":"Uncletopia | Frankfurt | 1 | All Maps","protocol":17,"map":"pl_snowycoast","folder":"tf","game":"Team Fortress","app_id":440,"player_count":0,"max_players":24,"Bots":0,"server_type":"Dedicated","server_os":"Linux","password":true,"vac":true,"version":"7757534","steam_id":85568392924469989,"keywords":["nocrits","nodmgspread","payload","uncletopia"],"game_id":440,"stv_port":27016,"stv_name":"Uncletopia | Frankfurt | 1 | All Maps | STV","players":null},{"server_id":110,"name":"Uncletopia | Frankfurt | 2 | All Maps","name_short":"frk-2","host":"frk-1.de.uncletopia.com","port":27025,"enabled":true,"region":"eu","cc":"de","latitude":50.110924,"longitude":8.682127,"reserved":0,"last_update":"0001-01-01T00:00:00Z","name_a2s":"Uncletopia | Frankfurt | 2 | All Maps","protocol":17,"map":"pl_snowycoast","folder":"tf","game":"Team Fortress","app_id":440,"player_count":0,"max_players":24,"Bots":0,"server_type":"Dedicated","server_os":"Linux","password":true,"vac":true,"version":"7757534","steam_id":85568392924469990,"keywords":["nocrits","nodmgspread","payload","uncletopia"],"game_id":440,"stv_port":27026,"stv_name":"Uncletopia | Frankfurt | 2 | All Maps | STV","players":null},{"server_id":308,"name":"Uncletopia | Frankfurt | 3 | All Maps","name_short":"frk-3","host":"frk-1.de.uncletopia.com","port":27035,"enabled":true,"region":"eu","cc":"de","latitude":50.110924,"longitude":8.682127,"reserved":0,"last_update":"0001-01-01T00:00:00Z","name_a2s":"Uncletopia | Frankfurt | 3 | All Maps","protocol":17,"map":"cp_altitude","folder":"tf","game":"Team Fortress","app_id":440,"player_count":0,"max_players":24,"Bots":0,"server_type":"Dedicated","server_os":"Linux","password":true,"vac":true,"version":"7757534","steam_id":85568392924504274,"keywords":["cp","nocrits","nodmgspread","uncletopia"],"game_id":440,"stv_port":27036,"stv_name":"Uncletopia | Frankfurt | 3 | All Maps | STV","players":null},{"server_id":309,"name":"Uncletopia | Frankfurt | 4 | All Maps","name_short":"frk-4","host":"frk-1.de.uncletopia.com","port":27045,"enabled":true,"region":"eu","cc":"de","latitude":50.110924,"longitude":8.682127,"reserved":0,"last_update":"0001-01-01T00:00:00Z","name_a2s":"Uncletopia | Frankfurt | 4 | All Maps","protocol":17,"map":"cp_altitude","folder":"tf","game":"Team Fortress","app_id":440,"player_count":0,"max_players":24,"Bots":0,"server_type":"Dedicated","server_os":"Linux","password":true,"vac":true,"version":"7757534","steam_id":85568392924504275,"keywords":["cp","nocrits","nodmgspread","uncletopia"],"game_id":440,"stv_port":27046,"stv_name":"Uncletopia | Frankfurt | 4 | All Maps | STV","players":null},{"server_id":310,"name":"Uncletopia | Frankfurt | 5 | All Maps","name_short":"frk-5","host":"frk-1.de.uncletopia.com","port":27055,"enabled":true,"region":"eu","cc":"de","latitude":50.110924,"longitude":8.682127,"reserved":0,"last_update":"0001-01-01T00:00:00Z","name_a2s":"Uncletopia | Frankfurt | 5 | All Maps","protocol":17,"map":"cp_altitude","folder":"tf","game":"Team Fortress","app_id":440,"player_count":1,"max_players":24,"Bots":0,"server_type":"Dedicated","server_os":"Linux","password":true,"vac":true,"version":"7757534","steam_id":85568392924504277,"keywords":["cp","nocrits","nodmgspread","uncletopia"],"game_id":440,"stv_port":27056,"stv_name":"Uncletopia | Frankfurt | 5 | All Maps | STV","players":[{"user_id":3,"name":"trustable","steam_id":76561198894574244,"connected_time":143000000000,"state":"active","ping":165}]},{"server_id":311,"name":"Uncletopia | Frankfurt | 6 | All Maps","name_short":"frk-6","host":"frk-1.de.uncletopia.com","port":27065,"enabled":true,"region":"eu","cc":"de","latitude":50.110924,"longitude":8.682127,"reserved":0,"last_update":"0001-01-01T00:00:00Z","name_a2s":"Uncletopia | Frankfurt | 6 | All Maps","protocol":17,"map":"koth_highpass","folder":"tf","game":"Team Fortress","app_id":440,"player_count":0,"max_players":24,"Bots":0,"server_type":"Dedicated","server_os":"Linux","password":true,"vac":true,"version":"7757534","steam_id":85568392924504278,"keywords":["cp","nocrits","nodmgspread","uncletopia"],"game_id":440,"stv_port":27066,"stv_name":"Uncletopia | Frankfurt | 6 | All Maps | STV","players":null},{"server_id":23,"name":"Uncletopia | Frankfurt | 7 | Stopwatch Beta","name_short":"frk-7","host":"frk-1.de.uncletopia.com","port":27075,"enabled":true,"region":"eu","cc":"de","latitude":50.110924,"longitude":8.682127,"reserved":0,"last_update":"0001-01-01T00:00:00Z","name_a2s":"Uncletopia | Frankfurt | 7 | Stopwatch Beta","protocol":17,"map":"pl_frontier_final","folder":"tf","game":"Team Fortress","app_id":440,"player_count":0,"max_players":24,"Bots":0,"server_type":"Dedicated","server_os":"Linux","password":true,"vac":true,"version":"7757534","steam_id":85568392924742827,"keywords":["nocrits","nodmgspread","payload","uncletopia"],"game_id":440,"stv_port":27076,"stv_name":"Uncletopia | Frankfurt | 7 | Stopwatch Beta | STV","players":null},{"server_id":24,"name":"Uncletopia | Frankfurt | 8 | Community","name_short":"frk-8","host":"frk-1.de.uncletopia.com","port":27085,"enabled":true,"region":"eu","cc":"de","latitude":50.110924,"longitude":8.682127,"reserved":0,"last_update":"0001-01-01T00:00:00Z","name_a2s":"Uncletopia | Frankfurt | 8 | Community","protocol":17,"map":"pl_badwater","folder":"tf","game":"Team Fortress","app_id":440,"player_count":0,"max_players":24,"Bots":0,"server_type":"Dedicated","server_os":"Linux","password":true,"vac":true,"version":"7757534","steam_id":85568392924742828,"keywords":["nocrits","nodmgspread","payload","uncletopia"],"game_id":440,"stv_port":27086,"stv_name":"Uncletopia | Frankfurt | 8 | Community | STV","players":null},{"server_id":202,"name":"Uncletopia | Hong Kong | 1 | All Maps","name_short":"hgk-1","host":"hgk-1.hk.uncletopia.com","port":27015,"enabled":true,"region":"asia","cc":"hk","latitude":22.302711,"longitude":114.177216,"reserved":0,"last_update":"0001-01-01T00:00:00Z","name_a2s":"Uncletopia | Hong Kong | 1 | All Maps","protocol":17,"map":"pl_borneo","folder":"tf","game":"Team Fortress","app_id":440,"player_count":0,"max_players":24,"Bots":0,"server_type":"Dedicated","server_os":"Linux","password":true,"vac":true,"version":"7757534","steam_id":85568392924494504,"keywords":["nocrits","nodmgspread","payload","uncletopia"],"game_id":440,"stv_port":27016,"stv_name":"Uncletopia | Hong Kong | 1 | All Maps | STV","players":null},{"server_id":1,"name":"Uncletopia | Los Angeles | 1 | All Maps","name_short":"lax-1","host":"lax-1.us.uncletopia.com","port":27015,"enabled":true,"region":"us-west","cc":"us","latitude":33.94279,"longitude":-118.41004,"reserved":0,"last_update":"0001-01-01T00:00:00Z","name_a2s":"Uncletopia | Los Angeles | 1 | All Maps","protocol":17,"map":"pl_pier","folder":"tf","game":"Team Fortress","app_id":440,"player_count":9,"max_players":24,"Bots":0,"server_type":"Dedicated","server_os":"Linux","password":true,"vac":true,"version":"7757534","steam_id":85568392924469991,"keywords":["nocrits","nodmgspread","payload","uncletopia"],"game_id":440,"stv_port":27016,"stv_name":"Uncletopia | Los Angeles | 1 | All Maps | STV","players":[{"user_id":521,"name":"snub","steam_id":76561198312106312,"connected_time":677000000000,"state":"active","ping":89},{"user_id":527,"name":"borzier","steam_id":76561198069190432,"connected_time":349000000000,"state":"active","ping":101},{"user_id":528,"name":"Uta","steam_id":76561198271964253,"connected_time":336000000000,"state":"active","ping":97},{"user_id":526,"name":"Just a little bit blue?","steam_id":76561199113013688,"connected_time":557000000000,"state":"active","ping":52},{"user_id":497,"name":"Dr. Hashbrown","steam_id":76561198410780370,"connected_time":2031000000000,"state":"active","ping":63},{"user_id":518,"name":"cardboardwarrior1","steam_id":76561199145044693,"connected_time":1027000000000,"state":"active","ping":139},{"user_id":471,"name":"spot","steam_id":76561198151135298,"connected_time":4435000000000,"state":"active","ping":39},{"user_id":504,"name":"silver","steam_id":76561199020503397,"connected_time":1939000000000,"state":"active","ping":43},{"user_id":512,"name":"blackwillow73@aol.com","steam_id":76561198035665009,"connected_time":1497000000000,"state":"active","ping":78}]},{"server_id":112,"name":"Uncletopia | Los Angeles | 2 | All Maps","name_short":"lax-2","host":"lax-1.us.uncletopia.com","port":27025,"enabled":true,"region":"us-west","cc":"us","latitude":33.94279,"longitude":-118.41004,"reserved":0,"last_update":"0001-01-01T00:00:00Z","name_a2s":"Uncletopia | Los Angeles | 2 | All Maps","protocol":17,"map":"koth_viaduct","folder":"tf","game":"Team Fortress","app_id":440,"player_count":0,"max_players":24,"Bots":0,"server_type":"Dedicated","server_os":"Linux","password":true,"vac":true,"version":"7757534","steam_id":85568392924469992,"keywords":["cp","nocrits","nodmgspread","uncletopia"],"game_id":440,"stv_port":27026,"stv_name":"Uncletopia | Los Angeles | 2 | All Maps | STV","players":null},{"server_id":324,"name":"Uncletopia | Los Angeles | 3 | All Maps","name_short":"lax-3","host":"lax-1.us.uncletopia.com","port":27035,"enabled":true,"region":"us-west","cc":"us","latitude":33.94279,"longitude":-118.41004,"reserved":0,"last_update":"0001-01-01T00:00:00Z","name_a2s":"Uncletopia | Los Angeles | 3 | All Maps","protocol":17,"map":"pl_pier","folder":"tf","game":"Team Fortress","app_id":440,"player_count":23,"max_players":24,"Bots":0,"server_type":"Dedicated","server_os":"Linux","password":true,"vac":true,"version":"7757534","steam_id":85568392924510198,"keywords":["nocrits","nodmgspread","payload","uncletopia"],"game_id":440,"stv_port":27036,"stv_name":"Uncletopia | Los Angeles | 3 | All Maps | STV","players":[{"user_id":185,"name":"Gamehero637","steam_id":76561198880355236,"connected_time":2557000000000,"state":"active","ping":52},{"user_id":227,"name":"serial humiliator","steam_id":76561198059772722,"connected_time":876000000000,"state":"active","ping":74},{"user_id":225,"name":"cook (not cock)","steam_id":76561198073106278,"connected_time":1053000000000,"state":"active","ping":86},{"user_id":228,"name":"!Bonk¡","steam_id":76561198998042673,"connected_time":871000000000,"state":"active","ping":39},{"user_id":176,"name":"HOG RIDER","steam_id":76561198298589502,"connected_time":2874000000000,"state":"active","ping":47},{"user_id":218,"name":"Transformouse","steam_id":76561198004669368,"connected_time":1182000000000,"state":"active","ping":75},{"user_id":173,"name":"Andy Hue","steam_id":76561198176949919,"connected_time":3246000000000,"state":"active","ping":53},{"user_id":177,"name":"M.L.JEW","steam_id":76561198997375055,"connected_time":2825000000000,"state":"active","ping":106},{"user_id":237,"name":"Biggie Grug","steam_id":76561198042998887,"connected_time":196000000000,"state":"active","ping":95},{"user_id":238,"name":"Banzai","steam_id":76561198006518981,"connected_time":154000000000,"state":"active","ping":68},{"user_id":230,"name":"Caramel_Chalice","steam_id":76561198307609692,"connected_time":839000000000,"state":"active","ping":89},{"user_id":192,"name":"soda heater","steam_id":76561198864545608,"connected_time":2358000000000,"state":"active","ping":70},{"user_id":226,"name":"MayoMateo","steam_id":76561198360809933,"connected_time":916000000000,"state":"active","ping":47},{"user_id":209,"name":"..........","steam_id":76561198173861779,"connected_time":1483000000000,"state":"active","ping":126},{"user_id":229,"name":"oil","steam_id":76561198099980149,"connected_time":853000000000,"state":"active","ping":47},{"user_id":231,"name":"Ślimak","steam_id":76561198296476784,"connected_time":828000000000,"state":"active","ping":70},{"user_id":233,"name":"fulices","steam_id":76561198420163702,"connected_time":815000000000,"state":"active","ping":40},{"user_id":221,"name":"puke","steam_id":76561197999279693,"connected_time":1161000000000,"state":"active","ping":87},{"user_id":235,"name":"Cypress","steam_id":76561198070560915,"connected_time":399000000000,"state":"active","ping":55},{"user_id":222,"name":"Ivy","steam_id":76561198208996573,"connected_time":1160000000000,"state":"active","ping":63},{"user_id":236,"name":"Gnome Chompski","steam_id":76561198003130703,"connected_time":357000000000,"state":"active","ping":90},{"user_id":223,"name":"drdoofus123","steam_id":76561198016826181,"connected_time":1120000000000,"state":"active","ping":105},{"user_id":224,"name":"ketsu","steam_id":76561197966171554,"connected_time":1120000000000,"state":"active","ping":155}]},{"server_id":25,"name":"Uncletopia | Los Angeles | 4 | Stopwatch Beta","name_short":"lax-4","host":"lax-1.us.uncletopia.com","port":27045,"enabled":true,"region":"us-west","cc":"us","latitude":33.94279,"longitude":-118.41004,"reserved":0,"last_update":"0001-01-01T00:00:00Z","name_a2s":"Uncletopia | Los Angeles | 4 | Stopwatch Beta","protocol":17,"map":"pl_frontier_final","folder":"tf","game":"Team Fortress","app_id":440,"player_count":0,"max_players":24,"Bots":0,"server_type":"Dedicated","server_os":"Linux","password":true,"vac":true,"version":"7757534","steam_id":85568392924510199,"keywords":["nocrits","nodmgspread","payload","uncletopia"],"game_id":440,"stv_port":27046,"stv_name":"Uncletopia | Los Angeles | 4 | Stopwatch Beta | STV","players":null},{"server_id":11,"name":"Uncletopia | London | 1 | All Maps","name_short":"lon-1","host":"lon-1.uk.uncletopia.com","port":27015,"enabled":true,"region":"eu","cc":"gb","latitude":51.509865,"longitude":-0.118092,"reserved":0,"last_update":"0001-01-01T00:00:00Z","name_a2s":"Uncletopia | London | 1 | All Maps","protocol":17,"map":"pl_pier","folder":"tf","game":"Team Fortress","app_id":440,"player_count":2,"max_players":24,"Bots":0,"server_type":"Dedicated","server_os":"Linux","password":true,"vac":true,"version":"7757534","steam_id":85568392924367362,"keywords":["nocrits","nodmgspread","payload","uncletopia"],"game_id":440,"stv_port":27016,"stv_name":"Uncletopia | London | 1 | All Maps | STV","players":[{"user_id":9,"name":"MarkBV","steam_id":76561198427014506,"connected_time":952000000000,"state":"active","ping":130},{"user_id":4,"name":"Remax5","steam_id":76561198155644993,"connected_time":3220000000000,"state":"active","ping":113}]},{"server_id":114,"name":"Uncletopia | London | 2 | All Maps","name_short":"lon-2","host":"lon-1.uk.uncletopia.com","port":27025,"enabled":true,"region":"eu","cc":"gb","latitude":51.509865,"longitude":-0.118092,"reserved":0,"last_update":"0001-01-01T00:00:00Z","name_a2s":"Uncletopia | London | 2 | All Maps","protocol":17,"map":"cp_dustbowl","folder":"tf","game":"Team Fortress","app_id":440,"player_count":0,"max_players":24,"Bots":0,"server_type":"Dedicated","server_os":"Linux","password":true,"vac":true,"version":"7757534","steam_id":85568392924470941,"keywords":["cp","nocrits","nodmgspread","uncletopia"],"game_id":440,"stv_port":27026,"stv_name":"Uncletopia | London | 2 | All Maps | STV","players":null},{"server_id":320,"name":"Uncletopia | London | 3 | All Maps","name_short":"lon-3","host":"lon-1.uk.uncletopia.com","port":27035,"enabled":true,"region":"eu","cc":"gb","latitude":51.509865,"longitude":-0.118092,"reserved":0,"last_update":"0001-01-01T00:00:00Z","name_a2s":"Uncletopia | London | 3 | All Maps","protocol":17,"map":"pl_badwater","folder":"tf","game":"Team Fortress","app_id":440,"player_count":0,"max_players":24,"Bots":0,"server_type":"Dedicated","server_os":"Linux","password":true,"vac":true,"version":"7757534","steam_id":85568392924510192,"keywords":["nocrits","nodmgspread","payload","uncletopia"],"game_id":440,"stv_port":27036,"stv_name":"Uncletopia | London | 3 | All Maps | STV","players":null},{"server_id":321,"name":"Uncletopia | London | 4 | All Maps","name_short":"lon-4","host":"lon-1.uk.uncletopia.com","port":27045,"enabled":true,"region":"eu","cc":"gb","latitude":51.509865,"longitude":-0.118092,"reserved":0,"last_update":"0001-01-01T00:00:00Z","name_a2s":"Uncletopia | London | 4 | All Maps","protocol":17,"map":"koth_viaduct","folder":"tf","game":"Team Fortress","app_id":440,"player_count":0,"max_players":24,"Bots":0,"server_type":"Dedicated","server_os":"Linux","password":true,"vac":true,"version":"7757534","steam_id":85568392924510193,"keywords":["cp","nocrits","nodmgspread","uncletopia"],"game_id":440,"stv_port":27046,"stv_name":"Uncletopia | London | 4 | All Maps | STV","players":null},{"server_id":21,"name":"Uncletopia | London | 5 | All Maps","name_short":"lon-5","host":"lon-1.uk.uncletopia.com","port":27055,"enabled":true,"region":"eu","cc":"gb","latitude":51.509865,"longitude":-0.118092,"reserved":0,"last_update":"0001-01-01T00:00:00Z","name_a2s":"Uncletopia | London | 5 | All Maps","protocol":17,"map":"cp_snakewater_final1","folder":"tf","game":"Team Fortress","app_id":440,"player_count":0,"max_players":24,"Bots":0,"server_type":"Dedicated","server_os":"Linux","password":true,"vac":true,"version":"7757534","steam_id":85568392924742829,"keywords":["cp","nocrits","nodmgspread","uncletopia"],"game_id":440,"stv_port":27056,"stv_name":"Uncletopia | London | 5 | All Maps | STV","players":null},{"server_id":22,"name":"Uncletopia | London | 6 | All Maps","name_short":"lon-6","host":"lon-1.uk.uncletopia.com","port":27065,"enabled":true,"region":"eu","cc":"gb","latitude":51.509865,"longitude":-0.118092,"reserved":0,"last_update":"0001-01-01T00:00:00Z","name_a2s":"Uncletopia | London | 6 | All Maps","protocol":17,"map":"koth_cascade","folder":"tf","game":"Team Fortress","app_id":440,"player_count":0,"max_players":24,"Bots":0,"server_type":"Dedicated","server_os":"Linux","password":true,"vac":true,"version":"7757534","steam_id":85568392924742830,"keywords":["cp","nocrits","nodmgspread","uncletopia"],"game_id":440,"stv_port":27066,"stv_name":"Uncletopia | London | 6 | All Maps | STV","players":null},{"server_id":40,"name":"Uncletopia | London | 7 | No Payload","name_short":"lon-7","host":"lon-1.uk.uncletopia.com","port":27075,"enabled":true,"region":"eu","cc":"gb","latitude":51.509865,"longitude":-0.118092,"reserved":0,"last_update":"0001-01-01T00:00:00Z","name_a2s":"Uncletopia | London | 7 | No Payload","protocol":17,"map":"cp_process_final","folder":"tf","game":"Team Fortress","app_id":440,"player_count":0,"max_players":24,"Bots":0,"server_type":"Dedicated","server_os":"Linux","password":true,"vac":true,"version":"7757534","steam_id":85568392924964314,"keywords":["cp","nocrits","nodmgspread","uncletopia"],"game_id":440,"stv_port":27076,"stv_name":"Uncletopia | London | 7 | No Payload | STV","players":null},{"server_id":41,"name":"Uncletopia | London | 8 | Community","name_short":"lon-8","host":"lon-1.uk.uncletopia.com","port":27085,"enabled":true,"region":"eu","cc":"gb","latitude":51.509865,"longitude":-0.118092,"reserved":0,"last_update":"0001-01-01T00:00:00Z","name_a2s":"Uncletopia | London | 8 | Community","protocol":17,"map":"pl_upward","folder":"tf","game":"Team Fortress","app_id":440,"player_count":0,"max_players":24,"Bots":0,"server_type":"Dedicated","server_os":"Linux","password":true,"vac":true,"version":"7757534","steam_id":85568392924964315,"keywords":["nocrits","nodmgspread","payload","uncletopia"],"game_id":440,"stv_port":27086,"stv_name":"Uncletopia | London | 8 | Community | STV","players":null},{"server_id":300,"name":"Uncletopia | Montréal | 1 | All Maps","name_short":"mtl-1","host":"mtl-1.ca.uncletopia.com","port":27015,"enabled":true,"region":"us-east","cc":"ca","latitude":45.50889,"longitude":-73.56167,"reserved":0,"last_update":"0001-01-01T00:00:00Z","name_a2s":"Uncletopia | Montréal | 1 | All Maps","protocol":17,"map":"pl_badwater","folder":"tf","game":"Team Fortress","app_id":440,"player_count":0,"max_players":24,"Bots":0,"server_type":"Dedicated","server_os":"Linux","password":true,"vac":true,"version":"7757534","steam_id":85568392924500087,"keywords":["nocrits","nodmgspread","payload","uncletopia"],"game_id":440,"stv_port":27016,"stv_name":"Uncletopia | Montréal | 1 | All Maps | STV","players":null},{"server_id":301,"name":"Uncletopia | Montréal | 2 | All Maps","name_short":"mtl-2","host":"mtl-1.ca.uncletopia.com","port":27025,"enabled":true,"region":"us-east","cc":"ca","latitude":45.50889,"longitude":-73.56167,"reserved":0,"last_update":"0001-01-01T00:00:00Z","name_a2s":"Uncletopia | Montréal | 2 | All Maps","protocol":17,"map":"koth_highpass","folder":"tf","game":"Team Fortress","app_id":440,"player_count":0,"max_players":24,"Bots":0,"server_type":"Dedicated","server_os":"Linux","password":true,"vac":true,"version":"7757534","steam_id":85568392924500088,"keywords":["cp","nocrits","nodmgspread","uncletopia"],"game_id":440,"stv_port":27026,"stv_name":"Uncletopia | Montréal | 2 | All Maps | STV","players":null},{"server_id":302,"name":"Uncletopia | Montréal | 3 | All Maps","name_short":"mtl-3","host":"mtl-1.ca.uncletopia.com","port":27035,"enabled":true,"region":"us-east","cc":"ca","latitude":45.50889,"longitude":-73.56167,"reserved":0,"last_update":"0001-01-01T00:00:00Z","name_a2s":"Uncletopia | Montréal | 3 | All Maps","protocol":17,"map":"cp_dustbowl","folder":"tf","game":"Team Fortress","app_id":440,"player_count":0,"max_players":24,"Bots":0,"server_type":"Dedicated","server_os":"Linux","password":true,"vac":true,"version":"7757534","steam_id":85568392924500089,"keywords":["cp","nocrits","nodmgspread","uncletopia"],"game_id":440,"stv_port":27036,"stv_name":"Uncletopia | Montréal | 3 | All Maps | STV","players":null},{"server_id":303,"name":"Uncletopia | Montréal | 4 | No Payload","name_short":"mtl-4","host":"mtl-1.ca.uncletopia.com","port":27045,"enabled":true,"region":"us-east","cc":"ca","latitude":45.50889,"longitude":-73.56167,"reserved":0,"last_update":"0001-01-01T00:00:00Z","name_a2s":"Uncletopia | Montréal | 4 | No Payload","protocol":17,"map":"plr_bananabay","folder":"tf","game":"Team Fortress","app_id":440,"player_count":0,"max_players":24,"Bots":0,"server_type":"Dedicated","server_os":"Linux","password":true,"vac":true,"version":"7757534","steam_id":85568392924500090,"keywords":["nocrits","nodmgspread","payload","uncletopia"],"game_id":440,"stv_port":27046,"stv_name":"Uncletopia | Montréal | 4 | No Payload | STV","players":null},{"server_id":13,"name":"Uncletopia | New York City | 1 | All Maps","name_short":"nyc-1","host":"nyc-1.us.uncletopia.com","port":27015,"enabled":true,"region":"us-east","cc":"us","latitude":40.73061,"longitude":-73.93524,"reserved":0,"last_update":"0001-01-01T00:00:00Z","name_a2s":"Uncletopia | New York City | 1 | All Maps","protocol":17,"map":"koth_lakeside_final","folder":"tf","game":"Team Fortress","app_id":440,"player_count":0,"max_players":24,"Bots":0,"server_type":"Dedicated","server_os":"Linux","password":true,"vac":true,"version":"7757534","steam_id":85568392924469993,"keywords":["cp","nocrits","nodmgspread","uncletopia"],"game_id":440,"stv_port":27016,"stv_name":"Uncletopia | New York City | 1 | All Maps | STV","players":null},{"server_id":14,"name":"Uncletopia | New York City | 2 | All Maps","name_short":"nyc-2","host":"nyc-1.us.uncletopia.com","port":27025,"enabled":true,"region":"us-east","cc":"us","latitude":40.73061,"longitude":-73.93524,"reserved":0,"last_update":"0001-01-01T00:00:00Z","name_a2s":"Uncletopia | New York City | 2 | All Maps","protocol":17,"map":"cp_mountainlab","folder":"tf","game":"Team Fortress","app_id":440,"player_count":3,"max_players":24,"Bots":0,"server_type":"Dedicated","server_os":"Linux","password":true,"vac":true,"version":"7757534","steam_id":85568392924469994,"keywords":["cp","nocrits","nodmgspread","uncletopia"],"game_id":440,"stv_port":27026,"stv_name":"Uncletopia | New York City | 2 | All Maps | STV","players":[{"user_id":449,"name":"Orgude","steam_id":76561198138861194,"connected_time":4400000000000,"state":"active","ping":67},{"user_id":429,"name":"ExaltedTEA","steam_id":76561198176571706,"connected_time":5292000000000,"state":"active","ping":102},{"user_id":454,"name":"Froggen","steam_id":76561198834259026,"connected_time":1304000000000,"state":"active","ping":73}]},{"server_id":15,"name":"Uncletopia | New York City | 3 | Stopwatch Beta","name_short":"nyc-3","host":"nyc-1.us.uncletopia.com","port":27035,"enabled":true,"region":"us-east","cc":"us","latitude":40.73061,"longitude":-73.93524,"reserved":0,"last_update":"0001-01-01T00:00:00Z","name_a2s":"Uncletopia | New York City | 3 | Stopwatch Beta","protocol":17,"map":"pl_borneo","folder":"tf","game":"Team Fortress","app_id":440,"player_count":0,"max_players":24,"Bots":0,"server_type":"Dedicated","server_os":"Linux","password":true,"vac":true,"version":"7757534","steam_id":85568392924742820,"keywords":["nocrits","nodmgspread","payload","uncletopia"],"game_id":440,"stv_port":27036,"stv_name":"Uncletopia | New York City | 3 | Stopwatch Beta | STV","players":null},{"server_id":16,"name":"Uncletopia | New York City | 4 | Community","name_short":"nyc-4","host":"nyc-1.us.uncletopia.com","port":27045,"enabled":true,"region":"us-east","cc":"us","latitude":40.73061,"longitude":-73.93524,"reserved":0,"last_update":"0001-01-01T00:00:00Z","name_a2s":"Uncletopia | New York City | 4 | Community","protocol":17,"map":"workshop/cp_reckoner_rc6.ugc674719999","folder":"tf","game":"Team Fortress","app_id":440,"player_count":3,"max_players":24,"Bots":0,"server_type":"Dedicated","server_os":"Linux","password":true,"vac":true,"version":"7757534","steam_id":85568392924742821,"keywords":["cp","nocrits","nodmgspread","uncletopia"],"game_id":440,"stv_port":27046,"stv_name":"Uncletopia | New York City | 4 | Community | STV","players":[{"user_id":309,"name":"Popalofiti (medic arc)","steam_id":76561198081971317,"connected_time":4526000000000,"state":"active","ping":73},{"user_id":285,"name":"I love casting spells","steam_id":76561198116106967,"connected_time":6007000000000,"state":"active","ping":55},{"user_id":287,"name":"Alex","steam_id":76561198135553277,"connected_time":6001000000000,"state":"active","ping":73}]},{"server_id":142,"name":"Uncletopia | São Paulo | 1 | All Maps","name_short":"sao-1","host":"sao-1.br.uncletopia.com","port":27015,"enabled":true,"region":"sa","cc":"br","latitude":-23.533773,"longitude":-46.62529,"reserved":0,"last_update":"0001-01-01T00:00:00Z","name_a2s":"Uncletopia | São Paulo | 1 | All Maps","protocol":17,"map":"koth_viaduct","folder":"tf","game":"Team Fortress","app_id":440,"player_count":0,"max_players":24,"Bots":0,"server_type":"Dedicated","server_os":"Linux","password":true,"vac":true,"version":"7757534","steam_id":85568392924469996,"keywords":["cp","nocrits","nodmgspread","uncletopia"],"game_id":440,"stv_port":27016,"stv_name":"Uncletopia | São Paulo | 1 | All Maps | STV","players":null},{"server_id":143,"name":"Uncletopia | São Paulo | 2 | All Maps","name_short":"sao-2","host":"sao-2.br.uncletopia.com","port":27015,"enabled":true,"region":"sa","cc":"br","latitude":-23.533773,"longitude":-46.62529,"reserved":0,"last_update":"0001-01-01T00:00:00Z","name_a2s":"Uncletopia | São Paulo | 2 | All Maps","protocol":17,"map":"koth_highpass","folder":"tf","game":"Team Fortress","app_id":440,"player_count":0,"max_players":24,"Bots":0,"server_type":"Dedicated","server_os":"Linux","password":true,"vac":true,"version":"7757534","steam_id":85568392924485349,"keywords":["cp","nocrits","nodmgspread","uncletopia"],"game_id":440,"stv_port":27016,"stv_name":"Uncletopia | São Paulo | 2 | All Maps | STV","players":null},{"server_id":7,"name":"Uncletopia | Seattle | 1 | All Maps","name_short":"sea-1","host":"sea-1.us.uncletopia.com","port":27015,"enabled":true,"region":"us-west","cc":"us","latitude":47.608013,"longitude":-122.33517,"reserved":0,"last_update":"0001-01-01T00:00:00Z","name_a2s":"Uncletopia | Seattle | 1 | All Maps","protocol":17,"map":"pl_barnblitz","folder":"tf","game":"Team Fortress","app_id":440,"player_count":24,"max_players":24,"Bots":0,"server_type":"Dedicated","server_os":"Linux","password":true,"vac":true,"version":"7757534","steam_id":85568392924469997,"keywords":["nocrits","nodmgspread","payload","uncletopia"],"game_id":440,"stv_port":27016,"stv_name":"Uncletopia | Seattle | 1 | All Maps | STV","players":[{"user_id":714,"name":"IzzyHoP","steam_id":76561197995927883,"connected_time":10468000000000,"state":"active","ping":57},{"user_id":838,"name":"rorywashere /ᐠ - ˕ -マ Ⳋ","steam_id":76561198065825165,"connected_time":207000000000,"state":"active","ping":114},{"user_id":777,"name":"Ayayahuasca","steam_id":76561199002906056,"connected_time":5060000000000,"state":"active","ping":53},{"user_id":806,"name":"shane","steam_id":76561198060491451,"connected_time":3907000000000,"state":"active","ping":90},{"user_id":829,"name":"SomeGuyWhoLikesPotatoes","steam_id":76561198110276797,"connected_time":1071000000000,"state":"active","ping":52},{"user_id":809,"name":"Lompy","steam_id":76561198092237958,"connected_time":3201000000000,"state":"active","ping":45},{"user_id":785,"name":"XdustKing","steam_id":76561198109637121,"connected_time":4737000000000,"state":"active","ping":116},{"user_id":827,"name":"thunderous prophet","steam_id":76561198131166135,"connected_time":1459000000000,"state":"active","ping":40},{"user_id":742,"name":"Dunkle","steam_id":76561198041903573,"connected_time":8620000000000,"state":"active","ping":46},{"user_id":819,"name":"NEBULA","steam_id":76561198086878595,"connected_time":1514000000000,"state":"active","ping":72},{"user_id":843,"name":"Halcyon","steam_id":76561197999409268,"connected_time":165000000000,"state":"active","ping":120},{"user_id":830,"name":"The Caretaker","steam_id":76561198125241411,"connected_time":1028000000000,"state":"active","ping":100},{"user_id":841,"name":"amoeba","steam_id":76561198970261784,"connected_time":195000000000,"state":"active","ping":46},{"user_id":835,"name":"drink my *** u nasty ****","steam_id":76561199100813140,"connected_time":553000000000,"state":"active","ping":85},{"user_id":826,"name":"twink in pastry flops","steam_id":76561198340646012,"connected_time":1471000000000,"state":"active","ping":34},{"user_id":807,"name":"jacix3 [gay wolfgirl]{she/it}","steam_id":76561198205004165,"connected_time":3794000000000,"state":"active","ping":69},{"user_id":842,"name":"His \u003c3","steam_id":76561198340685758,"connected_time":194000000000,"state":"active","ping":66},{"user_id":828,"name":"p9 jorts (trying new hud)","steam_id":76561199041179985,"connected_time":1373000000000,"state":"active","ping":68},{"user_id":810,"name":"der","steam_id":76561198060762287,"connected_time":3012000000000,"state":"active","ping":53},{"user_id":839,"name":"144hz ed","steam_id":76561198080475712,"connected_time":207000000000,"state":"active","ping":78},{"user_id":813,"name":"Ducks","steam_id":76561198130038345,"connected_time":2879000000000,"state":"active","ping":73},{"user_id":823,"name":"p9 melon","steam_id":76561198169755734,"connected_time":1488000000000,"state":"active","ping":73},{"user_id":815,"name":"fw00v","steam_id":76561198129166260,"connected_time":2845000000000,"state":"active","ping":80},{"user_id":824,"name":"rat gets the cheese","steam_id":76561198031234032,"connected_time":1488000000000,"state":"active","ping":101}]},{"server_id":119,"name":"Uncletopia | Seattle | 2 | All Maps","name_short":"sea-2","host":"sea-1.us.uncletopia.com","port":27025,"enabled":true,"region":"us-west","cc":"us","latitude":47.608013,"longitude":-122.33517,"reserved":0,"last_update":"0001-01-01T00:00:00Z","name_a2s":"Uncletopia | Seattle | 2 | All Maps","protocol":17,"map":"pl_thundermountain","folder":"tf","game":"Team Fortress","app_id":440,"player_count":24,"max_players":24,"Bots":0,"server_type":"Dedicated","server_os":"Linux","password":true,"vac":true,"version":"7757534","steam_id":85568392924469998,"keywords":["nocrits","nodmgspread","payload","uncletopia"],"game_id":440,"stv_port":27026,"stv_name":"Uncletopia | Seattle | 2 | All Maps | STV","players":[{"user_id":776,"name":"Angry_p3nguin","steam_id":76561198086275722,"connected_time":2756000000000,"state":"active","ping":42},{"user_id":807,"name":"CLAYDUCK","steam_id":76561197995221829,"connected_time":480000000000,"state":"active","ping":45},{"user_id":769,"name":"Meepster","steam_id":76561198146305159,"connected_time":3869000000000,"state":"active","ping":61},{"user_id":790,"name":"flishko","steam_id":76561198326489802,"connected_time":1523000000000,"state":"active","ping":54},{"user_id":801,"name":"Tom","steam_id":76561198070630154,"connected_time":600000000000,"state":"active","ping":75},{"user_id":802,"name":"Bubbamanme","steam_id":76561198119778504,"connected_time":567000000000,"state":"active","ping":55},{"user_id":770,"name":"SmiggleGiggle","steam_id":76561198171810677,"connected_time":3605000000000,"state":"active","ping":73},{"user_id":797,"name":"Naffers","steam_id":76561198195957335,"connected_time":912000000000,"state":"active","ping":43},{"user_id":780,"name":"Igrium","steam_id":76561198119549811,"connected_time":1908000000000,"state":"active","ping":70},{"user_id":796,"name":"Professional MILF Enjoyer","steam_id":76561198066619792,"connected_time":954000000000,"state":"active","ping":75},{"user_id":793,"name":"SvicidalBug","steam_id":76561198221390504,"connected_time":992000000000,"state":"active","ping":68},{"user_id":803,"name":"Sadodere Grimace","steam_id":76561198008332028,"connected_time":556000000000,"state":"active","ping":86},{"user_id":772,"name":"Pizza Tower happens tomorrow","steam_id":76561198112705880,"connected_time":3565000000000,"state":"active","ping":62},{"user_id":767,"name":"dongledog","steam_id":76561198050924003,"connected_time":4193000000000,"state":"active","ping":50},{"user_id":800,"name":"ArchmageF","steam_id":76561197992246851,"connected_time":611000000000,"state":"active","ping":58},{"user_id":804,"name":"LYTEWERK","steam_id":76561198002819791,"connected_time":529000000000,"state":"active","ping":64},{"user_id":786,"name":"HammerHead","steam_id":76561197975668646,"connected_time":1837000000000,"state":"active","ping":90},{"user_id":795,"name":"Claytanimus","steam_id":76561198053396310,"connected_time":960000000000,"state":"active","ping":60},{"user_id":805,"name":"hardfork","steam_id":76561197960958019,"connected_time":527000000000,"state":"active","ping":45},{"user_id":779,"name":"Thermo","steam_id":76561198978967412,"connected_time":1920000000000,"state":"active","ping":75},{"user_id":781,"name":"goldhed","steam_id":76561198051751133,"connected_time":1905000000000,"state":"active","ping":59},{"user_id":806,"name":"McDoreson McFloreson","steam_id":76561198272049926,"connected_time":521000000000,"state":"active","ping":72},{"user_id":774,"name":"blockland.fan 4","steam_id":76561198173706067,"connected_time":2909000000000,"state":"active","ping":64},{"user_id":775,"name":"Cabbage","steam_id":76561198057999536,"connected_time":2870000000000,"state":"active","ping":30}]},{"server_id":406,"name":"Uncletopia | Seattle | 3 | Stopwatch Beta","name_short":"sea-3","host":"sea-1.us.uncletopia.com","port":27035,"enabled":true,"region":"us-west","cc":"us","latitude":47.608013,"longitude":-122.33517,"reserved":0,"last_update":"0001-01-01T00:00:00Z","name_a2s":"Uncletopia | Seattle | 3 | Stopwatch Beta","protocol":17,"map":"workshop/koth_ramjam_rc1.ugc459778887","folder":"tf","game":"Team Fortress","app_id":440,"player_count":0,"max_players":24,"Bots":0,"server_type":"Dedicated","server_os":"Linux","password":true,"vac":true,"version":"7757534","steam_id":85568392924515217,"keywords":["cp","nocrits","nodmgspread","uncletopia"],"game_id":440,"stv_port":27036,"stv_name":"Uncletopia | Seattle | 3 | Stopwatch Beta | STV","players":null},{"server_id":17,"name":"Uncletopia | San Francisco | 1 | All Maps","name_short":"sfo-1","host":"sfo-1.us.uncletopia.com","port":27015,"enabled":true,"region":"us-west","cc":"us","latitude":37.77397,"longitude":-122.4313,"reserved":0,"last_update":"0001-01-01T00:00:00Z","name_a2s":"Uncletopia | San Francisco | 1 | All Maps","protocol":17,"map":"pl_upward","folder":"tf","game":"Team Fortress","app_id":440,"player_count":16,"max_players":24,"Bots":0,"server_type":"Dedicated","server_os":"Linux","password":true,"vac":true,"version":"7757534","steam_id":85568392924469999,"keywords":["nocrits","nodmgspread","payload","uncletopia"],"game_id":440,"stv_port":27016,"stv_name":"Uncletopia | San Francisco | 1 | All Maps | STV","players":[{"user_id":356,"name":"Isaac","steam_id":76561198015727013,"connected_time":126000000000,"state":"active","ping":84},{"user_id":357,"name":"lana_del_Rei.com","steam_id":76561198172447621,"connected_time":112000000000,"state":"active","ping":51},{"user_id":355,"name":"Stev the Prurient Oxymoron","steam_id":76561197999442625,"connected_time":167000000000,"state":"active","ping":69},{"user_id":358,"name":"EduardoLopez2005","steam_id":76561198188481309,"connected_time":110000000000,"state":"active","ping":51},{"user_id":347,"name":"en.wikipedia.org/wiki/Nae_Nae","steam_id":76561198418288939,"connected_time":788000000000,"state":"active","ping":60},{"user_id":349,"name":"K4le","steam_id":76561198747668363,"connected_time":707000000000,"state":"active","ping":65},{"user_id":331,"name":"east coast pan","steam_id":76561198856903497,"connected_time":1714000000000,"state":"active","ping":115},{"user_id":306,"name":"your mom calls me princess too","steam_id":76561198020400899,"connected_time":3847000000000,"state":"active","ping":72},{"user_id":354,"name":"Lucretiel","steam_id":76561197983490423,"connected_time":270000000000,"state":"active","ping":127},{"user_id":341,"name":"Cam(era)","steam_id":76561198285054047,"connected_time":1350000000000,"state":"active","ping":71},{"user_id":350,"name":"CookieJuice200","steam_id":76561198120220280,"connected_time":697000000000,"state":"active","ping":58},{"user_id":342,"name":"Killer_Bite_","steam_id":76561198153259922,"connected_time":1311000000000,"state":"active","ping":39},{"user_id":301,"name":"Buswolley","steam_id":76561197995205571,"connected_time":4139000000000,"state":"active","ping":52},{"user_id":254,"name":"Poopie Babie","steam_id":76561198047500494,"connected_time":6976000000000,"state":"active","ping":60},{"user_id":351,"name":"Thiccums","steam_id":76561198291586739,"connected_time":682000000000,"state":"active","ping":55},{"user_id":310,"name":"Cynicalrage #TF2Center","steam_id":76561198085805532,"connected_time":3788000000000,"state":"active","ping":127}]},{"server_id":18,"name":"Uncletopia | San Francisco | 2 | All Maps","name_short":"sfo-2","host":"sfo-1.us.uncletopia.com","port":27025,"enabled":true,"region":"us-west","cc":"us","latitude":37.77397,"longitude":-122.4313,"reserved":0,"last_update":"0001-01-01T00:00:00Z","name_a2s":"Uncletopia | San Francisco | 2 | All Maps","protocol":17,"map":"cp_mountainlab","folder":"tf","game":"Team Fortress","app_id":440,"player_count":0,"max_players":24,"Bots":0,"server_type":"Dedicated","server_os":"Linux","password":true,"vac":true,"version":"7757534","steam_id":85568392924470000,"keywords":["cp","nocrits","nodmgspread","uncletopia"],"game_id":440,"stv_port":27026,"stv_name":"Uncletopia | San Francisco | 2 | All Maps | STV","players":null},{"server_id":19,"name":"Uncletopia | San Francisco | 3 | Stopwatch Beta","name_short":"sfo-3","host":"sfo-1.us.uncletopia.com","port":27035,"enabled":true,"region":"us-west","cc":"us","latitude":37.77397,"longitude":-122.4313,"reserved":0,"last_update":"0001-01-01T00:00:00Z","name_a2s":"Uncletopia | San Francisco | 3 | Stopwatch Beta","protocol":17,"map":"pl_borneo","folder":"tf","game":"Team Fortress","app_id":440,"player_count":0,"max_players":24,"Bots":0,"server_type":"Dedicated","server_os":"Linux","password":true,"vac":true,"version":"7757534","steam_id":85568392924742824,"keywords":["nocrits","nodmgspread","payload","uncletopia"],"game_id":440,"stv_port":27036,"stv_name":"Uncletopia | San Francisco | 3 | Stopwatch Beta | STV","players":null},{"server_id":20,"name":"Uncletopia | San Francisco | 4 | Community","name_short":"sfo-4","host":"sfo-1.us.uncletopia.com","port":27045,"enabled":true,"region":"us-west","cc":"us","latitude":37.77397,"longitude":-122.4313,"reserved":0,"last_update":"0001-01-01T00:00:00Z","name_a2s":"Uncletopia | San Francisco | 4 | Community","protocol":17,"map":"workshop/cp_fulgur_rc2a.ugc2068252300","folder":"tf","game":"Team Fortress","app_id":440,"player_count":0,"max_players":24,"Bots":0,"server_type":"Dedicated","server_os":"Linux","password":true,"vac":true,"version":"7757534","steam_id":85568392924742826,"keywords":["cp","nocrits","nodmgspread","uncletopia"],"game_id":440,"stv_port":27046,"stv_name":"Uncletopia | San Francisco | 4 | Community | STV","players":null},{"server_id":141,"name":"Uncletopia | Sydney | 1 | All Maps","name_short":"syd-1","host":"syd-1.au.uncletopia.com","port":27015,"enabled":true,"region":"au","cc":"au","latitude":-33.865143,"longitude":151.2099,"reserved":0,"last_update":"0001-01-01T00:00:00Z","name_a2s":"Uncletopia | Sydney | 1 | All Maps","protocol":17,"map":"pl_swiftwater_final1","folder":"tf","game":"Team Fortress","app_id":440,"player_count":24,"max_players":24,"Bots":0,"server_type":"Dedicated","server_os":"Linux","password":true,"vac":true,"version":"7757534","steam_id":85568392924470001,"keywords":["nocrits","nodmgspread","payload","uncletopia"],"game_id":440,"stv_port":27016,"stv_name":"Uncletopia | Sydney | 1 | All Maps | STV","players":[{"user_id":377,"name":"FrontlineNinja","steam_id":76561198046731954,"connected_time":1360000000000,"state":"active","ping":41},{"user_id":284,"name":"Rags","steam_id":76561198179481430,"connected_time":7752000000000,"state":"active","ping":92},{"user_id":216,"name":"neevnope","steam_id":76561198981004996,"connected_time":11611000000000,"state":"active","ping":65},{"user_id":192,"name":"WappowMan","steam_id":76561198136292645,"connected_time":12943000000000,"state":"active","ping":97},{"user_id":390,"name":"Violezine The Luckiest Archer","steam_id":76561199000502615,"connected_time":592000000000,"state":"active","ping":139},{"user_id":383,"name":"freek","steam_id":76561198406237673,"connected_time":1034000000000,"state":"active","ping":52},{"user_id":384,"name":"child protective services","steam_id":76561199428970964,"connected_time":909000000000,"state":"active","ping":106},{"user_id":370,"name":"old chunk of coal","steam_id":76561197990537324,"connected_time":1874000000000,"state":"active","ping":105},{"user_id":381,"name":"Blazey 伊達 政宗","steam_id":76561197971082275,"connected_time":1113000000000,"state":"active","ping":109},{"user_id":369,"name":"maximon54","steam_id":76561198804484552,"connected_time":2098000000000,"state":"active","ping":69},{"user_id":363,"name":"Whomobile","steam_id":76561198005831324,"connected_time":2296000000000,"state":"active","ping":87},{"user_id":341,"name":"fatal exception error","steam_id":76561198115584374,"connected_time":3657000000000,"state":"active","ping":57},{"user_id":367,"name":"Lychee","steam_id":76561198072845816,"connected_time":2169000000000,"state":"active","ping":45},{"user_id":364,"name":"DragRiper","steam_id":76561198050917553,"connected_time":2236000000000,"state":"active","ping":55},{"user_id":372,"name":"Livid","steam_id":76561198060024585,"connected_time":1619000000000,"state":"active","ping":38},{"user_id":385,"name":"oldbie","steam_id":76561198053297711,"connected_time":813000000000,"state":"active","ping":92},{"user_id":314,"name":"l333am","steam_id":76561198363218204,"connected_time":5373000000000,"state":"active","ping":67},{"user_id":371,"name":"Tantei Rotana","steam_id":76561198041204323,"connected_time":1748000000000,"state":"active","ping":60},{"user_id":356,"name":"saudi ambassador messi","steam_id":76561198031293430,"connected_time":3102000000000,"state":"active","ping":84},{"user_id":350,"name":"groggy gary","steam_id":76561198311152272,"connected_time":3152000000000,"state":"active","ping":73},{"user_id":386,"name":"hendog","steam_id":76561198063477445,"connected_time":659000000000,"state":"active","ping":69},{"user_id":357,"name":"Misonan","steam_id":76561198122581915,"connected_time":3077000000000,"state":"active","ping":62},{"user_id":344,"name":"Oysenberry","steam_id":76561198125443335,"connected_time":3617000000000,"state":"active","ping":37},{"user_id":389,"name":"SinisterMagnus","steam_id":76561198133867907,"connected_time":642000000000,"state":"active","ping":68}]},{"server_id":123,"name":"Uncletopia | Sydney | 2 | All Maps","name_short":"syd-2","host":"syd-1.au.uncletopia.com","port":27025,"enabled":true,"region":"au","cc":"au","latitude":-33.865143,"longitude":151.2099,"reserved":0,"last_update":"0001-01-01T00:00:00Z","name_a2s":"Uncletopia | Sydney | 2 | All Maps","protocol":17,"map":"pl_frontier_final","folder":"tf","game":"Team Fortress","app_id":440,"player_count":22,"max_players":24,"Bots":0,"server_type":"Dedicated","server_os":"Linux","password":true,"vac":true,"version":"7757534","steam_id":85568392924470002,"keywords":["nocrits","nodmgspread","payload","uncletopia"],"game_id":440,"stv_port":27026,"stv_name":"Uncletopia | Sydney | 2 | All Maps | STV","players":[{"user_id":74,"name":"Doodles ♛","steam_id":76561198023807247,"connected_time":3482000000000,"state":"active","ping":58},{"user_id":93,"name":"Jaffy","steam_id":76561198050461756,"connected_time":842000000000,"state":"active","ping":64},{"user_id":94,"name":"Docile","steam_id":76561198113688515,"connected_time":828000000000,"state":"active","ping":66},{"user_id":85,"name":"Glockenspe (She/Her)","steam_id":76561199184115241,"connected_time":2108000000000,"state":"active","ping":58},{"user_id":95,"name":"Longfellow","steam_id":76561198026030529,"connected_time":766000000000,"state":"active","ping":113},{"user_id":96,"name":"beanpope","steam_id":76561199005815714,"connected_time":758000000000,"state":"active","ping":52},{"user_id":110,"name":"stupid_cow","steam_id":76561198241303512,"connected_time":269000000000,"state":"active","ping":51},{"user_id":105,"name":"HE SHAKE HIS CAGE HE CRAZY CRAZ","steam_id":76561198150293480,"connected_time":504000000000,"state":"active","ping":72},{"user_id":100,"name":"sleepy","steam_id":76561198025225448,"connected_time":586000000000,"state":"active","ping":76},{"user_id":101,"name":"Easel (any/all)","steam_id":76561198049213583,"connected_time":583000000000,"state":"active","ping":61},{"user_id":102,"name":"tfw they filibuster the scrimbl","steam_id":76561198132937542,"connected_time":579000000000,"state":"active","ping":52},{"user_id":107,"name":"Team Fartress Poo","steam_id":76561198139598106,"connected_time":432000000000,"state":"active","ping":54},{"user_id":119,"name":"Chopperson_","steam_id":76561198873728497,"connected_time":111000000000,"state":"active","ping":386},{"user_id":111,"name":"Del Davis","steam_id":76561198153397177,"connected_time":259000000000,"state":"active","ping":55},{"user_id":112,"name":"GhostDuck","steam_id":76561199013121303,"connected_time":255000000000,"state":"active","ping":64},{"user_id":113,"name":"Turbo_dip","steam_id":76561198446508846,"connected_time":224000000000,"state":"active","ping":69},{"user_id":114,"name":"PigRuler","steam_id":76561198054130501,"connected_time":208000000000,"state":"active","ping":54},{"user_id":123,"name":"Pigeon","steam_id":76561198418737364,"connected_time":9000000000,"state":"spawning","ping":24},{"user_id":116,"name":"Ponderosa","steam_id":76561199436707447,"connected_time":125000000000,"state":"active","ping":55},{"user_id":118,"name":"soupy","steam_id":76561198073734936,"connected_time":118000000000,"state":"active","ping":78},{"user_id":120,"name":"SEN","steam_id":76561198044281135,"connected_time":110000000000,"state":"active","ping":46},{"user_id":122,"name":"blicky","steam_id":76561198029829077,"connected_time":80000000000,"state":"active","ping":90}]},{"server_id":395,"name":"Uncletopia | Sydney | 3 | All Maps","name_short":"syd-3","host":"syd-1.au.uncletopia.com","port":27035,"enabled":true,"region":"au","cc":"au","latitude":-33.865143,"longitude":151.2099,"reserved":0,"last_update":"0001-01-01T00:00:00Z","name_a2s":"Uncletopia | Sydney | 3 | All Maps","protocol":17,"map":"koth_viaduct","folder":"tf","game":"Team Fortress","app_id":440,"player_count":0,"max_players":24,"Bots":0,"server_type":"Dedicated","server_os":"Linux","password":true,"vac":true,"version":"7757534","steam_id":85568392925194467,"keywords":["cp","nocrits","nodmgspread","uncletopia"],"game_id":440,"stv_port":27036,"stv_name":"Uncletopia | Sydney | 3 | All Maps | STV","players":null},{"server_id":396,"name":"Uncletopia | Sydney | 4 | All Maps","name_short":"syd-4","host":"syd-1.au.uncletopia.com","port":27045,"enabled":true,"region":"au","cc":"au","latitude":-33.865143,"longitude":151.2099,"reserved":0,"last_update":"0001-01-01T00:00:00Z","name_a2s":"Uncletopia | Sydney | 4 | All Maps","protocol":17,"map":"koth_lakeside_final","folder":"tf","game":"Team Fortress","app_id":440,"player_count":0,"max_players":24,"Bots":0,"server_type":"Dedicated","server_os":"Linux","password":true,"vac":true,"version":"7757534","steam_id":85568392925397958,"keywords":["cp","nocrits","nodmgspread","uncletopia"],"game_id":440,"stv_port":27046,"stv_name":"Uncletopia | Sydney | 4 | All Maps | STV","players":null},{"server_id":58,"name":"Uncletopia | Sydney | 5 | Stopwatch Beta","name_short":"syd-5","host":"syd-1.au.uncletopia.com","port":27055,"enabled":true,"region":"au","cc":"au","latitude":-33.865143,"longitude":151.2099,"reserved":0,"last_update":"0001-01-01T00:00:00Z","name_a2s":"Uncletopia | Sydney | 5 | Stopwatch Beta","protocol":17,"map":"koth_highpass","folder":"tf","game":"Team Fortress","app_id":440,"player_count":0,"max_players":24,"Bots":0,"server_type":"Dedicated","server_os":"Linux","password":true,"vac":true,"version":"7757534","steam_id":85568392925397959,"keywords":["cp","nocrits","nodmgspread","uncletopia"],"game_id":440,"stv_port":27056,"stv_name":"Uncletopia | Sydney | 5 | Stopwatch Beta | STV","players":null},{"server_id":59,"name":"Uncletopia | Sydney | 6 | Community","name_short":"syd-6","host":"syd-1.au.uncletopia.com","port":27065,"enabled":true,"region":"au","cc":"au","latitude":-33.865143,"longitude":151.2099,"reserved":0,"last_update":"0001-01-01T00:00:00Z","name_a2s":"Uncletopia | Sydney | 6 | Community","protocol":17,"map":"workshop/koth_trenchfoot_b1a.ugc731436616","folder":"tf","game":"Team Fortress","app_id":440,"player_count":0,"max_players":24,"Bots":0,"server_type":"Dedicated","server_os":"Linux","password":true,"vac":true,"version":"7757534","steam_id":85568392925397960,"keywords":["cp","nocrits","nodmgspread","uncletopia"],"game_id":440,"stv_port":27066,"stv_name":"Uncletopia | Sydney | 6 | Community | STV","players":null},{"server_id":49,"name":"Uncletopia | Warsaw | 1 | All Maps","name_short":"waw-1","host":"waw-1.pl.uncletopia.com","port":27015,"enabled":true,"region":"eu","cc":"pl","latitude":52.2297,"longitude":21.017532,"reserved":0,"last_update":"0001-01-01T00:00:00Z","name_a2s":"","protocol":0,"map":"","folder":"","game":"","app_id":0,"player_count":0,"max_players":0,"Bots":0,"server_type":"","server_os":"","password":false,"vac":false,"version":"","steam_id":0,"keywords":null,"game_id":0,"stv_port":0,"stv_name":"","players":null},{"server_id":50,"name":"Uncletopia | Warsaw | 2 | All Maps","name_short":"waw-2","host":"waw-1.pl.uncletopia.com","port":27025,"enabled":true,"region":"eu","cc":"pl","latitude":52.2297,"longitude":21.017532,"reserved":0,"last_update":"0001-01-01T00:00:00Z","name_a2s":"Uncletopia | Warsaw | 2 | All Maps","protocol":17,"map":"koth_highpass","folder":"tf","game":"Team Fortress","app_id":440,"player_count":0,"max_players":24,"Bots":0,"server_type":"Dedicated","server_os":"Linux","password":true,"vac":true,"version":"7757534","steam_id":85568392925397851,"keywords":["cp","nocrits","nodmgspread","uncletopia"],"game_id":440,"stv_port":27026,"stv_name":"Uncletopia | Warsaw | 2 | All Maps | STV","players":null},{"server_id":51,"name":"Uncletopia | Warsaw | 3 | All Maps","name_short":"waw-3","host":"waw-1.pl.uncletopia.com","port":27035,"enabled":true,"region":"eu","cc":"pl","latitude":52.2297,"longitude":21.017532,"reserved":0,"last_update":"0001-01-01T00:00:00Z","name_a2s":"Uncletopia | Warsaw | 3 | All Maps","protocol":17,"map":"pl_barnblitz","folder":"tf","game":"Team Fortress","app_id":440,"player_count":0,"max_players":24,"Bots":0,"server_type":"Dedicated","server_os":"Linux","password":true,"vac":true,"version":"7757534","steam_id":85568392925397852,"keywords":["nocrits","nodmgspread","payload","uncletopia"],"game_id":440,"stv_port":27036,"stv_name":"Uncletopia | Warsaw | 3 | All Maps | STV","players":null},{"server_id":52,"name":"Uncletopia | Warsaw | 4 | All Maps","name_short":"waw-4","host":"waw-1.pl.uncletopia.com","port":27045,"enabled":true,"region":"eu","cc":"pl","latitude":52.2297,"longitude":21.017532,"reserved":0,"last_update":"0001-01-01T00:00:00Z","name_a2s":"Uncletopia | Warsaw | 4 | All Maps","protocol":17,"map":"pl_snowycoast","folder":"tf","game":"Team Fortress","app_id":440,"player_count":0,"max_players":24,"Bots":0,"server_type":"Dedicated","server_os":"Linux","password":true,"vac":true,"version":"7757534","steam_id":85568392925397853,"keywords":["nocrits","nodmgspread","payload","uncletopia"],"game_id":440,"stv_port":27046,"stv_name":"Uncletopia | Warsaw | 4 | All Maps | STV","players":null},{"server_id":53,"name":"Uncletopia | Warsaw | 5 | Stopwatch Beta","name_short":"waw-5","host":"waw-1.pl.uncletopia.com","port":27055,"enabled":true,"region":"eu","cc":"pl","latitude":52.2297,"longitude":21.017532,"reserved":0,"last_update":"0001-01-01T00:00:00Z","name_a2s":"Uncletopia | Warsaw | 5 | Stopwatch Beta","protocol":17,"map":"pl_barnblitz","folder":"tf","game":"Team Fortress","app_id":440,"player_count":0,"max_players":24,"Bots":0,"server_type":"Dedicated","server_os":"Linux","password":true,"vac":true,"version":"7757534","steam_id":85568392925397854,"keywords":["nocrits","nodmgspread","payload","uncletopia"],"game_id":440,"stv_port":27056,"stv_name":"Uncletopia | Warsaw | 5 | Stopwatch Beta | STV","players":null},{"server_id":54,"name":"Uncletopia | Warsaw | 6 | Community","name_short":"waw-6","host":"waw-1.pl.uncletopia.com","port":27065,"enabled":true,"region":"eu","cc":"pl","latitude":52.2297,"longitude":21.017532,"reserved":0,"last_update":"0001-01-01T00:00:00Z","name_a2s":"Uncletopia | Warsaw | 6 | Community","protocol":17,"map":"pl_swiftwater_final1","folder":"tf","game":"Team Fortress","app_id":440,"player_count":0,"max_players":24,"Bots":0,"server_type":"Dedicated","server_os":"Linux","password":true,"vac":true,"version":"7757534","steam_id":85568392925397856,"keywords":["nocrits","nodmgspread","payload","uncletopia"],"game_id":440,"stv_port":27066,"stv_name":"Uncletopia | Warsaw | 6 | Community | STV","players":null}]}