{"status":true,"message":"","result":[{"server_id":9,"name":"Uncletopia | Atlanta | 1 | All Maps","name_short":"atl-1","host":"atl-1.us.uncletopia.com","port":27015,"enabled":true,"region":"us-east","cc":"us","latitude":33.753746,"longitude":-84.38633,"reserved":0,"last_update":"0001-01-01T00:00:00Z","name_a2s":"Uncletopia | Atlanta | 1 | All Maps","protocol":17,"map":"pl_borneo","folder":"tf","game":"Team Fortress","app_id":440,"player_count":24,"max_players":24,"Bots":0,"server_type":"Dedicated","server_os":"Linux","password":true,"vac":true,"version":"7757534","steam_id":85568392924469982,"keywords":["nocrits","nodmgspread","payload","uncletopia"],"game_id":440,"stv_port":27016,"stv_name":"Uncletopia | Atlanta | 1 | All Maps | STV","players":[{"user_id":590,"name":"Draygin","steam_id":76561198060607137,"connected_time":573000000000,"state":"active","ping":51},{"user_id":538,"name":"WarMace","steam_id":76561198395937853,"connected_time":6447000000000,"state":"active","ping":84},{"user_id":586,"name":"GKEmperor","steam_id":76561197995187011,"connected_time":1003000000000,"state":"active","ping":75},{"user_id":584,"name":"NBA Youngboy","steam_id":76561199118797200,"connected_time":1086000000000,"state":"active","ping":62},{"user_id":564,"name":"dabob","steam_id":76561198133102865,"connected_time":3810000000000,"state":"active","ping":59},{"user_id":502,"name":"BIG HOG","steam_id":76561198079923652,"connected_time":11345000000000,"state":"active","ping":63},{"user_id":591,"name":"micah","steam_id":76561197984579630,"connected_time":557000000000,"state":"active","ping":113},{"user_id":475,"name":"Sm0ky","steam_id":76561198418262145,"connected_time":12502000000000,"state":"active","ping":135},{"user_id":595,"name":"slurp","steam_id":76561198323497535,"connected_time":192000000000,"state":"active","ping":66},{"user_id":490,"name":"Darkdrake","steam_id":76561198107200600,"connected_time":12015000000000,"state":"active","ping":57},{"user_id":588,"name":"bkiller","steam_id":76561198029265697,"connected_time":731000000000,"state":"active","ping":64},{"user_id":565,"name":"chasing california","steam_id":76561198079488962,"connected_time":3807000000000,"state":"active","ping":130},{"user_id":576,"name":"Broken Cereal‚àö","steam_id":76561198087489795,"connected_time":2380000000000,"state":"active","ping":63},{"user_id":581,"name":"BurningPride","steam_id":76561198080592800,"connected_time":1867000000000,"state":"active","ping":116},{"user_id":524,"name":"lil hog","steam_id":76561199230929836,"connected_time":8494000000000,"state":"active","ping":87},{"user_id":583,"name":"Nobody","steam_id":76561198160544586,"connected_time":1453000000000,"state":"active","ping":89},{"user_id":593,"name":"OpenDown","steam_id":76561198064132688,"connected_time":403000000000,"state":"active","ping":71},{"user_id":572,"name":"mountain*‚ú©‚Äß‚ÇäÀö","steam_id":76561198078395002,"connected_time":3595000000000,"state":"active","ping":103},{"user_id":587,"name":"El 7 de fontana","steam_id":76561198025668771,"connected_time":857000000000,"state":"active","ping":119},{"user_id":589,"name":"SonicClubCool","steam_id":76561198079187808,"connected_time":625000000000,"state":"active","ping":45},{"user_id":573,"name":"Aniz","steam_id":76561199226665024,"connected_time":3535000000000,"state":"active","ping":160},{"user_id":592,"name":"Cursed Dog","steam_id":76561198090785078,"connected_time":529000000000,"state":"active","ping":97},{"user_id":594,"name":"cassette","steam_id":76561198205546397,"connected_time":398000000000,"state":"active","ping":70},{"user_id":575,"name":"Worst Scenario","steam_id":76561199052130229,"connected_time":3041000000000,"state":"active","ping":82}]},{"server_id":104,"name":"Uncletopia | Atlanta | 2 | All Maps","name_short":"atl-2","host":"atl-1.us.uncletopia.com","port":27025,"enabled":true,"region":"us-east","cc":"us","latitude":33.753746,"longitude":-84.38633,"reserved":0,"last_update":"0001-01-01T00:00:00Z","name_a2s":"Uncletopia | Atlanta | 2 | All Maps","protocol":17,"map":"cp_dustbowl","folder":"tf","game":"Team Fortress","app_id":440,"player_count":17,"max_players":24,"Bots":0,"server_type":"Dedicated","server_os":"Linux","password":true,"vac":true,"version":"7757534","steam_id":85568392924469983,"keywords":["cp","nocrits","nodmgspread","uncletopia"],"game_id":440,"stv_port":27026,"stv_name":"Uncletopia | Atlanta | 2 | All Maps | STV","players":[{"user_id":488,"name":"Pyro","steam_id":76561198312228050,"connected_time":272000000000,"state":"active","ping":52},{"user_id":486,"name":"hashmap","steam_id":76561198043794014,"connected_time":1002000000000,"state":"active","ping":63},{"user_id":489,"name":"eggwuh","steam_id":76561198159723876,"connected_time":268000000000,"state":"active","ping":77},{"user_id":490,"name":"PinguEnjoyer6","steam_id":76561199186723516,"connected_time":182000000000,"state":"active","ping":85},{"user_id":422,"name":"Mount Wannahockaloogie","steam_id":76561198924316615,"connected_time":6145000000000,"state":"active","ping":76},{"user_id":491,"name":"WeedGod72","steam_id":76561198124311404,"connected_time":150000000000,"state":"active","ping":75},{"user_id":464,"name":"WillieMakit","steam_id":76561197985391684,"connected_time":3291000000000,"state":"active","ping":110},{"user_id":492,"name":"bob","steam_id":76561198261060542,"connected_time":73000000000,"state":"active","ping":76},{"user_id":493,"name":"noahjwarner09","steam_id":76561199444479988,"connected_time":25000000000,"state":"active","ping":86},{"user_id":479,"name":"Pepis","steam_id":76561198901179802,"connected_time":1745000000000,"state":"active","ping":114},{"user_id":481,"name":"beyonder","steam_id":76561198045844070,"connected_time":1647000000000,"state":"active","ping":87},{"user_id":428,"name":"VexT","steam_id":76561199471734115,"connected_time":5865000000000,"state":"active","ping":65},{"user_id":482,"name":"BreakfastTacos","steam_id":76561198847620442,"connected_time":1637000000000,"state":"active","ping":90},{"user_id":454,"name":"I Came","steam_id":76561198082938358,"connected_time":4428000000000,"state":"active","ping":80},{"user_id":469,"name":"DerpFamous","steam_id":76561198046167888,"connected_time":2514000000000,"state":"active","ping":32},{"user_id":487,"name":"Biflexual","steam_id":76561198317718938,"connected_time":464000000000,"state":"active","ping":89},{"user_id":457,"name":"i eat pallet","steam_id":76561198101378377,"connected_time":3936000000000,"state":"active","ping":94}]},{"server_id":400,"name":"Uncletopia | Atlanta | 3 | Community","name_short":"atl-3","host":"atl-1.us.uncletopia.com","port":27035,"enabled":true,"region":"us-east","cc":"us","latitude":33.753746,"longitude":-84.38633,"reserved":0,"last_update":"0001-01-01T00:00:00Z","name_a2s":"Uncletopia | Atlanta | 3 | Community","protocol":17,"map":"workshop/cp_glacier_rc6.ugc2905735376","folder":"tf","game":"Team Fortress","app_id":440,"player_count":0,"max_players":24,"Bots":0,"server_type":"Dedicated","server_os":"Linux","password":true,"vac":true,"version":"7757534","steam_id":85568392924515187,"keywords":["cp","nocrits","nodmgspread","uncletopia"],"game_id":440,"stv_port":27036,"stv_name":"Uncletopia | Atlanta | 3 | Community | STV","players":null},{"server_id":401,"name":"Uncletopia | Atlanta | 4 | No Payload","name_short":"atl-4","host":"atl-1.us.uncletopia.com","port":27045,"enabled":true,"region":"us-east","cc":"us","latitude":33.753746,"longitude":-84.38633,"reserved":0,"last_update":"0001-01-01T00:00:00Z","name_a2s":"","protocol":0,"map":"","folder":"","game":"","app_id":0,"player_count":0,"max_players":0,"Bots":0,"server_type":"","server_os":"","password":false,"vac":false,"version":"","steam_id":0,"keywords":null,"game_id":0,"stv_port":0,"stv_name":"","players":null},{"server_id":2,"name":"Uncletopia | Chicago | 1 | All Maps","name_short":"chi-1","host":"chi-1.us.uncletopia.com","port":27015,"enabled":true,"region":"us-central","cc":"us","latitude":41.881832,"longitude":-87.62318,"reserved":0,"last_update":"0001-01-01T00:00:00Z","name_a2s":"Uncletopia | Chicago | 1 | All Maps","protocol":17,"map":"cp_dustbowl","folder":"tf","game":"Team Fortress","app_id":440,"player_count":25,"max_players":24,"Bots":0,"server_type":"Dedicated","server_os":"Linux","password":true,"vac":true,"version":"7757534","steam_id":85568392924469984,"keywords":["cp","nocrits","nodmgspread","uncletopia"],"game_id":440,"stv_port":27016,"stv_name":"Uncletopia | Chicago | 1 | All Maps | STV","players":[{"user_id":651,"name":"Nani?","steam_id":76561198130982692,"connected_time":5368000000000,"state":"active","ping":66},{"user_id":707,"name":"The Pencil Cunts","steam_id":76561198272606252,"connected_time":1707000000000,"state":"active","ping":60},{"user_id":673,"name":"boob","steam_id":76561198117256239,"connected_time":3298000000000,"state":"active","ping":45},{"user_id":745,"name":"Colin102004","steam_id":76561198202384334,"connected_time":842000000000,"state":"active","ping":59},{"user_id":755,"name":"Iron","steam_id":76561198247918478,"connected_time":503000000000,"state":"active","ping":66},{"user_id":718,"name":"Serbian Stalker","steam_id":76561199182959265,"connected_time":976000000000,"state":"active","ping":68},{"user_id":746,"name":"Wang of Wall St","steam_id":76561198047460598,"connected_time":836000000000,"state":"active","ping":79},{"user_id":747,"name":"MaybeMars","steam_id":76561198084736804,"connected_time":831000000000,"state":"active","ping":85},{"user_id":714,"name":"Ozirion","steam_id":76561198108901767,"connected_time":1225000000000,"state":"active","ping":63},{"user_id":671,"name":"Yoshimelon","steam_id":76561198253054325,"connected_time":4158000000000,"state":"active","ping":59},{"user_id":751,"name":"Turnip","steam_id":76561198066309458,"connected_time":697000000000,"state":"active","ping":75},{"user_id":756,"name":"MaDeuce","steam_id":76561198110732835,"connected_time":503000000000,"state":"active","ping":134},{"user_id":705,"name":"Scooter O'Boyl","steam_id":76561197971687069,"connected_time":2187000000000,"state":"active","ping":83},{"user_id":672,"name":"Funkadilla","steam_id":76561198420639264,"connected_time":3314000000000,"state":"active","ping":81},{"user_id":740,"name":"justapikmin","steam_id":76561199023650282,"connected_time":875000000000,"state":"active","ping":82},{"user_id":748,"name":"ecto cooler","steam_id":76561198068409067,"connected_time":806000000000,"state":"active","ping":75},{"user_id":619,"name":"Grilled Of The Cheese","steam_id":76561198145066749,"connected_time":8486000000000,"state":"active","ping":72},{"user_id":762,"name":"lag","steam_id":76561198117898839,"connected_time":4000000000,"state":"spawning","ping":91},{"user_id":674,"name":"01000101","steam_id":76561198027981956,"connected_time":3296000000000,"state":"active","ping":88},{"user_id":593,"name":"i really like this dog :)","steam_id":76561198882404753,"connected_time":11003000000000,"state":"active","ping":82},{"user_id":763,"name":"ZeN","steam_id":76561199098746585,"connected_time":4000000000,"state":"spawning","ping":51},{"user_id":706,"name":"BernardBull","steam_id":76561198036138813,"connected_time":2156000000000,"state":"active","ping":71},{"user_id":753,"name":"Tommy Provolone","steam_id":76561198170062377,"connected_time":663000000000,"state":"active","ping":75},{"user_id":685,"name":"moistwalnut1967","steam_id":76561198044489449,"connected_time":2776000000000,"state":"active","ping":53},{"user_id":761,"name":"Poyo Boyo","steam_id":76561198010201227,"connected_time":293000000000,"state":"active","ping":76}]},{"server_id":106,"name":"Uncletopia | Chicago | 2 | All Maps","name_short":"chi-2","host":"chi-1.us.uncletopia.com","port":27025,"enabled":true,"region":"us-central","cc":"us","latitude":41.881832,"longitude":-87.62318,"reserved":0,"last_update":"0001-01-01T00:00:00Z","name_a2s":"Uncletopia | Chicago | 2 | All Maps","protocol":17,"map":"pl_barnblitz","folder":"tf","game":"Team Fortress","app_id":440,"player_count":24,"max_players":24,"Bots":0,"server_type":"Dedicated","server_os":"Linux","password":true,"vac":true,"version":"7757534","steam_id":85568392924469985,"keywords":["nocrits","nodmgspread","payload","uncletopia"],"game_id":440,"stv_port":27026,"stv_name":"Uncletopia | Chicago | 2 | All Maps | STV","players":[{"user_id":835,"name":"Catterack","steam_id":76561198059207712,"connected_time":626000000000,"state":"active","ping":97},{"user_id":815,"name":"Flowers","steam_id":76561198031669899,"connected_time":1952000000000,"state":"active","ping":83},{"user_id":808,"name":"freya","steam_id":76561198440779667,"connected_time":2150000000000,"state":"active","ping":58},{"user_id":766,"name":"Baka!‚ë®‚ë®‚ë®‚ë®","steam_id":76561198152948254,"connected_time":3396000000000,"state":"active","ping":73},{"user_id":823,"name":"zz ç0…π…î«ù…π…ê…îs","steam_id":76561198416218389,"connected_time":1330000000000,"state":"active","ping":73},{"user_id":827,"name":"Goat (Fat)","steam_id":76561198316667185,"connected_time":1070000000000,"state":"active","ping":52},{"user_id":836,"name":"Aristotle Voulton","steam_id":76561198100174923,"connected_time":338000000000,"state":"active","ping":90},{"user_id":834,"name":"tom hot dog","steam_id":76561198044696803,"connected_time":672000000000,"state":"active","ping":65},{"user_id":768,"name":"frank","steam_id":76561198137777483,"connected_time":3381000000000,"state":"active","ping":70},{"user_id":833,"name":"Red Charge","steam_id":76561198084465764,"connected_time":727000000000,"state":"active","ping":64},{"user_id":824,"name":"Bleok","steam_id":76561198078212322,"connected_time":1204000000000,"state":"active","ping":123},{"user_id":802,"name":"girlpeen supreme","steam_id":76561198031242903,"connected_time":2570000000000,"state":"active","ping":66},{"user_id":832,"name":"The local hobo","steam_id":76561198289650060,"connected_time":745000000000,"state":"active","ping":80},{"user_id":830,"name":"Sableye","steam_id":76561198061247147,"connected_time":853000000000,"state":"active","ping":70},{"user_id":769,"name":"Wizard Raccoon","steam_id":76561198072562591,"connected_time":3350000000000,"state":"active","ping":75},{"user_id":837,"name":"I Spy","steam_id":76561198046366964,"connected_time":191000000000,"state":"active","ping":51},{"user_id":803,"name":"‚õßelly bell‚õß","steam_id":76561198117032513,"connected_time":2426000000000,"state":"active","ping":102},{"user_id":838,"name":"Punished Jeff (Drain Messiah)","steam_id":76561198304252584,"connected_time":176000000000,"state":"active","ping":103},{"user_id":820,"name":"Rain","steam_id":76561198022607401,"connected_time":1634000000000,"state":"active","ping":85},{"user_id":816,"name":"AJTarcza","steam_id":76561198070800190,"connected_time":1944000000000,"state":"active","ping":85},{"user_id":814,"name":"Large Man","steam_id":76561198880396651,"connected_time":1985000000000,"state":"active","ping":80},{"user_id":840,"name":"Lore","steam_id":76561198098407538,"connected_time":55000000000,"state":"active","ping":52},{"user_id":772,"name":"Mush","steam_id":76561198393461065,"connected_time":3318000000000,"state":"active","ping":81},{"user_id":773,"name":"Shazi","steam_id":76561198091906889,"connected_time":3317000000000,"state":"active","ping":93}]},{"server_id":402,"name":"Uncletopia | Chicago | 3 | All Maps","name_short":"chi-3","host":"chi-1.us.uncletopia.com","port":27035,"enabled":true,"region":"us-central","cc":"us","latitude":41.881832,"longitude":-87.62318,"reserved":0,"last_update":"0001-01-01T00:00:00Z","name_a2s":"Uncletopia | Chicago | 3 | All Maps","protocol":17,"map":"pl_borneo","folder":"tf","game":"Team Fortress","app_id":440,"player_count":24,"max_players":24,"Bots":0,"server_type":"Dedicated","server_os":"Linux","password":true,"vac":true,"version":"7757534","steam_id":85568392924515191,"keywords":["nocrits","nodmgspread","payload","uncletopia"],"game_id":440,"stv_port":27036,"stv_name":"Uncletopia | Chicago | 3 | All Maps | STV","players":[{"user_id":358,"name":"aphexjh","steam_id":76561197985854658,"connected_time":3101000000000,"state":"active","ping":53},{"user_id":387,"name":"Commit tax fraud","steam_id":76561197991015780,"connected_time":1723000000000,"state":"active","ping":62},{"user_id":391,"name":"Kasodani Kyouko","steam_id":76561198023178589,"connected_time":1589000000000,"state":"active","ping":85},{"user_id":389,"name":"Reisen Udongein Inaba","steam_id":76561198051082314,"connected_time":1656000000000,"state":"active","ping":106},{"user_id":397,"name":"saber","steam_id":76561197980089457,"connected_time":1540000000000,"state":"active","ping":60},{"user_id":401,"name":"Junko","steam_id":76561198146089003,"connected_time":1318000000000,"state":"active","ping":57},{"user_id":392,"name":"Higgs Gaming","steam_id":76561198058133813,"connected_time":1588000000000,"state":"active","ping":73},{"user_id":422,"name":"Zero","steam_id":76561199383267408,"connected_time":419000000000,"state":"active","ping":80},{"user_id":394,"name":"Cherry Bomb!","steam_id":76561198017947020,"connected_time":1571000000000,"state":"active","ping":62},{"user_id":395,"name":"Delemis","steam_id":76561198148259846,"connected_time":1562000000000,"state":"active","ping":69},{"user_id":398,"name":"aika","steam_id":76561198046787147,"connected_time":1507000000000,"state":"active","ping":102},{"user_id":421,"name":"brorr","steam_id":76561198146138827,"connected_time":428000000000,"state":"active","ping":59},{"user_id":405,"name":"dmlookinviolent","steam_id":76561198125863174,"connected_time":1218000000000,"state":"active","ping":70},{"user_id":420,"name":"sweets n treats","steam_id":76561198013039087,"connected_time":437000000000,"state":"active","ping":47},{"user_id":406,"name":"pinglefingle","steam_id":76561198216580197,"connected_time":1210000000000,"state":"active","ping":74},{"user_id":351,"name":"ultralisk52","steam_id":76561198051666604,"connected_time":3434000000000,"state":"active","ping":62},{"user_id":426,"name":"tildae","steam_id":76561198067507938,"connected_time":86000000000,"state":"active","ping":100},{"user_id":408,"name":"porfer","steam_id":76561199118049168,"connected_time":1116000000000,"state":"active","ping":94},{"user_id":410,"name":"Uzi bin Laden","steam_id":76561198218811453,"connected_time":994000000000,"state":"active","ping":76},{"user_id":411,"name":"Vaughn Haralson","steam_id":76561198166817980,"connected_time":988000000000,"state":"active","ping":73},{"user_id":378,"name":"Distou","steam_id":76561198397886545,"connected_time":2220000000000,"state":"active","ping":105},{"user_id":412,"name":"[S]Mr. X [No Monitor]","steam_id":76561197963746035,"connected_time":975000000000,"state":"active","ping":104},{"user_id":425,"name":"the meat man","steam_id":76561198037921140,"connected_time":116000000000,"state":"active","ping":93},{"user_id":413,"name":"ROCK MAN","steam_id":76561198351378299,"connected_time":972000000000,"state":"active","ping":73}]},{"server_id":403,"name":"Uncletopia | Chicago | 4 | All Maps","name_short":"chi-4","host":"chi-1.us.uncletopia.com","port":27045,"enabled":true,"region":"us-central","cc":"us","latitude":41.881832,"longitude":-87.62318,"reserved":0,"last_update":"0001-01-01T00:00:00Z","name_a2s":"Uncletopia | Chicago | 4 | All Maps","protocol":17,"map":"pl_upward","folder":"tf","game":"Team Fortress","app_id":440,"player_count":24,"max_players":24,"Bots":0,"server_type":"Dedicated","server_os":"Linux","password":true,"vac":true,"version":"7757534","steam_id":85568392924515193,"keywords":["nocrits","nodmgspread","payload","uncletopia"],"game_id":440,"stv_port":27046,"stv_name":"Uncletopia | Chicago | 4 | All Maps | STV","players":[{"user_id":712,"name":"dingking","steam_id":76561198148059714,"connected_time":929000000000,"state":"active","ping":59},{"user_id":626,"name":"griff928","steam_id":76561198149614679,"connected_time":6562000000000,"state":"active","ping":45},{"user_id":710,"name":"Fargo","steam_id":76561198044703931,"connected_time":995000000000,"state":"active","ping":61},{"user_id":698,"name":"I wonder Who","steam_id":76561198044194703,"connected_time":1377000000000,"state":"active","ping":70},{"user_id":693,"name":"Ghost","steam_id":76561198110914180,"connected_time":1760000000000,"state":"active","ping":181},{"user_id":570,"name":"Kng","steam_id":76561198993248203,"connected_time":9233000000000,"state":"active","ping":84},{"user_id":714,"name":"*****setget","steam_id":76561198118824188,"connected_time":835000000000,"state":"active","ping":107},{"user_id":705,"name":"CroMaLaka","steam_id":76561198380926090,"connected_time":1276000000000,"state":"active","ping":44},{"user_id":686,"name":"Soupman_Official","steam_id":76561198314308732,"connected_time":2686000000000,"state":"active","ping":79},{"user_id":706,"name":"Kojo the Toe Sucker","steam_id":76561198389168389,"connected_time":1262000000000,"state":"active","ping":91},{"user_id":556,"name":"Jake from FedEx","steam_id":76561198051258256,"connected_time":10752000000000,"state":"active","ping":91},{"user_id":708,"name":"Gonorrhea Game","steam_id":76561199121158746,"connected_time":1047000000000,"state":"active","ping":72},{"user_id":707,"name":"Rain","steam_id":76561198123437878,"connected_time":1142000000000,"state":"active","ping":89},{"user_id":713,"name":"crankshaft","steam_id":76561197992798282,"connected_time":847000000000,"state":"active","ping":96},{"user_id":721,"name":"TF3 Medic gaming","steam_id":76561199053687718,"connected_time":22000000000,"state":"spawning","ping":118},{"user_id":715,"name":"Herr M√ºller","steam_id":76561198064876829,"connected_time":772000000000,"state":"active","ping":97},{"user_id":719,"name":"CrazyxxGian","steam_id":76561199174621620,"connected_time":553000000000,"state":"active","ping":84},{"user_id":717,"name":"Devoid","steam_id":76561198254039012,"connected_time":746000000000,"state":"active","ping":42},{"user_id":720,"name":"LovingKindne2z","steam_id":76561199064932372,"connected_time":427000000000,"state":"active","ping":100},{"user_id":699,"name":"Micro","steam_id":76561198267196099,"connected_time":1376000000000,"state":"active","ping":110},{"user_id":679,"name":"Stick","steam_id":76561198001509374,"connected_time":3311000000000,"state":"active","ping":60},{"user_id":700,"name":"Mr. Lahey","steam_id":76561198049373818,"connected_time":1375000000000,"state":"active","ping":102},{"user_id":677,"name":"Frontier Psychiatrist","steam_id":76561198038689088,"connected_time":3518000000000,"state":"active","ping":86},{"user_id":709,"name":"yuri reverse mating press","steam_id":76561198114679256,"connected_time":1046000000000,"state":"active","ping":82}]},{"server_id":36,"name":"Uncletopia | Chicago | 5 | All Maps","name_short":"chi-5","host":"chi-2.us.uncletopia.com","port":27015,"enabled":true,"region":"us-central","cc":"us","latitude":41.881832,"longitude":-87.62318,"reserved":0,"last_update":"0001-01-01T00:00:00Z","name_a2s":"Uncletopia | Chicago | 5 | All Maps","protocol":17,"map":"pl_badwater","folder":"tf","game":"Team Fortress","app_id":440,"player_count":24,"max_players":24,"Bots":0,"server_type":"Dedicated","server_os":"Linux","password":true,"vac":true,"version":"7757534","steam_id":85568392924866362,"keywords":["nocrits","nodmgspread","payload","uncletopia"],"game_id":440,"stv_port":27016,"stv_name":"Uncletopia | Chicago | 5 | All Maps | STV","players":[{"user_id":512,"name":"C U M I K A Z E","steam_id":76561198097848420,"connected_time":357000000000,"state":"active","ping":121},{"user_id":507,"name":"lug nut larry","steam_id":76561198170643378,"connected_time":578000000000,"state":"active","ping":73},{"user_id":471,"name":"[BBW] Justario","steam_id":76561198016095410,"connected_time":1989000000000,"state":"active","ping":73},{"user_id":413,"name":"Mr. Dry Lips","steam_id":76561198028157625,"connected_time":3716000000000,"state":"active","ping":87},{"user_id":472,"name":"CHILL WEED VIBEüòéüçÅ","steam_id":76561198150678492,"connected_time":1981000000000,"state":"active","ping":78},{"user_id":505,"name":"Hotspot Gaming","steam_id":76561198212993755,"connected_time":630000000000,"state":"active","ping":104},{"user_id":302,"name":"monsterkill4567","steam_id":76561198272986367,"connected_time":6791000000000,"state":"active","ping":112},{"user_id":516,"name":"Aunt Kat","steam_id":76561198204641019,"connected_time":102000000000,"state":"active","ping":71},{"user_id":506,"name":"Hovg9000.TV","steam_id":76561199191556710,"connected_time":629000000000,"state":"active","ping":87},{"user_id":422,"name":"Glass Joe","steam_id":76561198317365741,"connected_time":3628000000000,"state":"active","ping":66},{"user_id":508,"name":"mcjuice","steam_id":76561198087730829,"connected_time":515000000000,"state":"active","ping":66},{"user_id":382,"name":"chef_hatchet","steam_id":76561198154906329,"connected_time":5146000000000,"state":"active","ping":52},{"user_id":509,"name":"blazen","steam_id":76561198921007863,"connected_time":473000000000,"state":"active","ping":124},{"user_id":486,"name":"TacticalFluke","steam_id":76561198403291862,"connected_time":1028000000000,"state":"active","ping":81},{"user_id":443,"name":"I Vore Friendlies","steam_id":76561198980062131,"connected_time":2980000000000,"state":"active","ping":70},{"user_id":388,"name":"corntent","steam_id":76561198824847948,"connected_time":4819000000000,"state":"active","ping":66},{"user_id":517,"name":"choppa wont miss","steam_id":76561198207921715,"connected_time":74000000000,"state":"active","ping":105},{"user_id":502,"name":"ProbiusSC","steam_id":76561198379167322,"connected_time":794000000000,"state":"active","ping":82},{"user_id":462,"name":"I'm so full of stem cells","steam_id":76561198329087915,"connected_time":2267000000000,"state":"active","ping":106},{"user_id":463,"name":"Metal Mouse","steam_id":76561198271975696,"connected_time":2256000000000,"state":"active","ping":97},{"user_id":518,"name":"PersonMan","steam_id":76561198153426326,"connected_time":47000000000,"state":"active","ping":112},{"user_id":514,"name":"lytewerk","steam_id":76561198002819791,"connected_time":340000000000,"state":"active","ping":77},{"user_id":423,"name":"Marzbee115","steam_id":76561198095821025,"connected_time":3616000000000,"state":"active","ping":90},{"user_id":515,"name":"Eve","steam_id":76561198039832932,"connected_time":334000000000,"state":"active","ping":63}]},{"server_id":37,"name":"Uncletopia | Chicago | 6 | All Maps","name_short":"chi-6","host":"chi-2.us.uncletopia.com","port":27025,"enabled":true,"region":"us-central","cc":"us","latitude":41.881832,"longitude":-87.62318,"reserved":0,"last_update":"0001-01-01T00:00:00Z","name_a2s":"Uncletopia | Chicago | 6 | All Maps","protocol":17,"map":"pl_swiftwater_final1","folder":"tf","game":"Team Fortress","app_id":440,"player_count":24,"max_players":24,"Bots":0,"server_type":"Dedicated","server_os":"Linux","password":true,"vac":true,"version":"7757534","steam_id":85568392924866363,"keywords":["nocrits","nodmgspread","payload","uncletopia"],"game_id":440,"stv_port":27026,"stv_name":"Uncletopia | Chicago | 6 | All Maps | STV","players":[{"user_id":426,"name":"hightower npc","steam_id":76561198097588802,"connected_time":918000000000,"state":"active","ping":45},{"user_id":435,"name":"Zo√©yyy‚ù§","steam_id":76561198368944263,"connected_time":634000000000,"state":"active","ping":85},{"user_id":440,"name":"Crayze4Swayze","steam_id":76561197974210417,"connected_time":565000000000,"state":"active","ping":59},{"user_id":425,"name":"Person","steam_id":76561198093244204,"connected_time":1017000000000,"state":"active","ping":75},{"user_id":436,"name":"Michael","steam_id":76561198111928060,"connected_time":618000000000,"state":"active","ping":59},{"user_id":429,"name":"pee fartress poo","steam_id":76561198063152319,"connected_time":893000000000,"state":"active","ping":67},{"user_id":412,"name":"JellyParrot","steam_id":76561199190990163,"connected_time":1970000000000,"state":"active","ping":69},{"user_id":410,"name":"Jebori","steam_id":76561198213523021,"connected_time":2004000000000,"state":"active","ping":58},{"user_id":430,"name":"SKForm","steam_id":76561198381500437,"connected_time":825000000000,"state":"active","ping":53},{"user_id":366,"name":"enmgxcltayiqoacx","steam_id":76561197974965536,"connected_time":6239000000000,"state":"active","ping":60},{"user_id":416,"name":"bullypow pugs","steam_id":76561198986534519,"connected_time":1946000000000,"state":"active","ping":90},{"user_id":370,"name":"mir #Q$C","steam_id":76561198061734546,"connected_time":6144000000000,"state":"active","ping":64},{"user_id":428,"name":"Aviyarn","steam_id":76561199074194652,"connected_time":909000000000,"state":"active","ping":79},{"user_id":387,"name":"vertical orientation correction","steam_id":76561198007464245,"connected_time":4209000000000,"state":"active","ping":75},{"user_id":431,"name":"Quack","steam_id":76561199086339263,"connected_time":807000000000,"state":"active","ping":85},{"user_id":443,"name":"Big Puff","steam_id":76561198209820681,"connected_time":303000000000,"state":"active","ping":67},{"user_id":229,"name":"Hammerhead","steam_id":76561198897122890,"connected_time":16563000000000,"state":"active","ping":58},{"user_id":437,"name":"awgschamp","steam_id":76561198964134360,"connected_time":605000000000,"state":"active","ping":79},{"user_id":424,"name":"Krome","steam_id":76561198087317232,"connected_time":1073000000000,"state":"active","ping":90},{"user_id":438,"name":"That Canadian Dude","steam_id":76561198024985831,"connected_time":603000000000,"state":"active","ping":63},{"user_id":444,"name":"Robrago-san","steam_id":76561197963638042,"connected_time":211000000000,"state":"active","ping":91},{"user_id":203,"name":"ror!","steam_id":76561198021227843,"connected_time":18411000000000,"state":"active","ping":53},{"user_id":442,"name":"fiber","steam_id":76561198132304022,"connected_time":357000000000,"state":"active","ping":65},{"user_id":441,"name":"hideyochest","steam_id":76561198090366059,"connected_time":541000000000,"state":"active","ping":65}]},{"server_id":38,"name":"Uncletopia | Chicago | 7 | Stopwatch Beta","name_short":"chi-7","host":"chi-2.us.uncletopia.com","port":27035,"enabled":true,"region":"us-central","cc":"us","latitude":41.881832,"longitude":-87.62318,"reserved":0,"last_update":"0001-01-01T00:00:00Z","name_a2s":"Uncletopia | Chicago | 7 | Stopwatch Beta","protocol":17,"map":"workshop/cp_process_f12.ugc2302948105","folder":"tf","game":"Team Fortress","app_id":440,"player_count":22,"max_players":24,"Bots":0,"server_type":"Dedicated","server_os":"Linux","password":true,"vac":true,"version":"7757534","steam_id":85568392924866364,"keywords":["cp","nocrits","nodmgspread","uncletopia"],"game_id":440,"stv_port":27036,"stv_name":"Uncletopia | Chicago | 7 | Stopwatch Beta | STV","players":[{"user_id":249,"name":"Shinies","steam_id":76561198169459631,"connected_time":249000000000,"state":"spawning","ping":90},{"user_id":247,"name":"JonBoy","steam_id":76561198082052480,"connected_time":432000000000,"state":"spawning","ping":129},{"user_id":210,"name":"spaghetti","steam_id":76561198010019214,"connected_time":3897000000000,"state":"spawning","ping":75},{"user_id":208,"name":"java","steam_id":76561198030276792,"connected_time":3928000000000,"state":"spawning","ping":95},{"user_id":231,"name":"get ethernet","steam_id":76561198056434055,"connected_time":2067000000000,"state":"spawning","ping":82},{"user_id":230,"name":"Chad","steam_id":76561198222313772,"connected_time":2101000000000,"state":"spawning","ping":293},{"user_id":223,"name":"steggy","steam_id":76561198000564263,"connected_time":2271000000000,"state":"spawning","ping":65},{"user_id":242,"name":"JigsawPrime","steam_id":76561198049110464,"connected_time":1199000000000,"state":"spawning","ping":138},{"user_id":248,"name":"cornshot","steam_id":76561198043496387,"connected_time":387000000000,"state":"spawning","ping":111},{"user_id":235,"name":"phoebe !!","steam_id":76561198233058324,"connected_time":1782000000000,"state":"spawning","ping":78},{"user_id":201,"name":"Fever Dreams","steam_id":76561198116614620,"connected_time":4597000000000,"state":"spawning","ping":102},{"user_id":188,"name":"lanoc","steam_id":76561198055415367,"connected_time":5458000000000,"state":"spawning","ping":74},{"user_id":251,"name":"Curtis Jump","steam_id":76561198030125905,"connected_time":196000000000,"state":"spawning","ping":74},{"user_id":227,"name":"RedSock","steam_id":76561198161243404,"connected_time":2150000000000,"state":"spawning","ping":257},{"user_id":252,"name":"Andy","steam_id":76561198043115724,"connected_time":181000000000,"state":"spawning","ping":98},{"user_id":234,"name":"GatorAIDS","steam_id":76561198043220092,"connected_time":2020000000000,"state":"spawning","ping":99},{"user_id":237,"name":"ethanf","steam_id":76561198103930234,"connected_time":1630000000000,"state":"spawning","ping":44},{"user_id":253,"name":"Slashes","steam_id":76561197968573499,"connected_time":154000000000,"state":"spawning","ping":49},{"user_id":220,"name":"SpicyTacoMan","steam_id":76561198335699828,"connected_time":3156000000000,"state":"spawning","ping":82},{"user_id":254,"name":"Ace Chromatica","steam_id":76561198042211131,"connected_time":151000000000,"state":"spawning","ping":54},{"user_id":240,"name":"Reverie","steam_id":76561198987005784,"connected_time":1524000000000,"state":"spawning","ping":64},{"user_id":244,"name":"Day","steam_id":76561198346908503,"connected_time":1075000000000,"state":"spawning","ping":299}]},{"server_id":39,"name":"Uncletopia | Chicago | 8 | Community","name_short":"chi-8","host":"chi-2.us.uncletopia.com","port":27045,"enabled":true,"region":"us-central","cc":"us","latitude":41.881832,"longitude":-87.62318,"reserved":0,"last_update":"0001-01-01T00:00:00Z","name_a2s":"Uncletopia | Chicago | 8 | Community","protocol":17,"map":"workshop/koth_bagel_rc6.ugc2514036946","folder":"tf","game":"Team Fortress","app_id":440,"player_count":0,"max_players":24,"Bots":0,"server_type":"Dedicated","server_os":"Linux","password":true,"vac":true,"version":"7757534","steam_id":85568392924866365,"keywords":["cp","nocrits","nodmgspread","uncletopia"],"game_id":440,"stv_port":27046,"stv_name":"Uncletopia | Chicago | 8 | Community | STV","players":null},{"server_id":8,"name":"Uncletopia | Dallas | 1 | All Maps","name_short":"dal-1","host":"dal-1.us.uncletopia.com","port":27015,"enabled":true,"region":"us-central","cc":"us","latitude":32.779167,"longitude":-96.80889,"reserved":0,"last_update":"0001-01-01T00:00:00Z","name_a2s":"Uncletopia | Dallas | 1 | All Maps","protocol":17,"map":"pl_swiftwater_final1","folder":"tf","game":"Team Fortress","app_id":440,"player_count":24,"max_players":24,"Bots":0,"server_type":"Dedicated","server_os":"Linux","password":true,"vac":true,"version":"7757534","steam_id":85568392924469986,"keywords":["nocrits","nodmgspread","payload","uncletopia"],"game_id":440,"stv_port":27016,"stv_name":"Uncletopia | Dallas | 1 | All Maps | STV","players":[{"user_id":556,"name":"Squiliam","steam_id":76561198025278006,"connected_time":1352000000000,"state":"active","ping":38},{"user_id":549,"name":"barrakmf","steam_id":76561198124801907,"connected_time":2580000000000,"state":"active","ping":97},{"user_id":542,"name":"Yords","steam_id":76561198027925729,"connected_time":3249000000000,"state":"active","ping":52},{"user_id":531,"name":"roody","steam_id":76561198066260405,"connected_time":4915000000000,"state":"active","ping":98},{"user_id":533,"name":"Z71Jeffrey05","steam_id":76561198045992418,"connected_time":4867000000000,"state":"active","ping":108},{"user_id":537,"name":"rubber","steam_id":76561198041235345,"connected_time":4427000000000,"state":"active","ping":77},{"user_id":544,"name":"SEX HAVER EXTRAORDINAIRE","steam_id":76561198167816516,"connected_time":3217000000000,"state":"active","ping":69},{"user_id":517,"name":"Bullwinkle J. Moose","steam_id":76561198075977196,"connected_time":6611000000000,"state":"active","ping":59},{"user_id":564,"name":"Choccy Milk","steam_id":76561198085333480,"connected_time":538000000000,"state":"active","ping":110},{"user_id":557,"name":"Knower","steam_id":76561198036213722,"connected_time":1339000000000,"state":"active","ping":71},{"user_id":554,"name":"bangy","steam_id":76561198043889301,"connected_time":1378000000000,"state":"active","ping":58},{"user_id":553,"name":"Quomples","steam_id":76561198140996628,"connected_time":1891000000000,"state":"active","ping":56},{"user_id":534,"name":"Prof. Eggnog","steam_id":76561198193389166,"connected_time":4861000000000,"state":"active","ping":98},{"user_id":500,"name":"pipeline","steam_id":76561198212263380,"connected_time":7628000000000,"state":"active","ping":45},{"user_id":558,"name":"Jezzus","steam_id":76561199289676387,"connected_time":1329000000000,"state":"active","ping":64},{"user_id":520,"name":"carter","steam_id":76561198173565391,"connected_time":6475000000000,"state":"active","ping":66},{"user_id":555,"name":"old_gus","steam_id":76561197964214993,"connected_time":1378000000000,"state":"active","ping":86},{"user_id":551,"name":"errant","steam_id":76561197961758410,"connected_time":1980000000000,"state":"active","ping":43},{"user_id":565,"name":"basilberry","steam_id":76561198145275937,"connected_time":441000000000,"state":"active","ping":71},{"user_id":548,"name":"MeMyBongusAndTheGreatOutdoors","steam_id":76561198097708978,"connected_time":2846000000000,"state":"active","ping":49},{"user_id":560,"name":"Shamrock Shake Oct.10.2020 @8pm","steam_id":76561198833313201,"connected_time":1274000000000,"state":"active","ping":103},{"user_id":563,"name":"A Straw","steam_id":76561199367935846,"connected_time":1009000000000,"state":"active","ping":74},{"user_id":536,"name":"duddlee","steam_id":76561198030052564,"connected_time":4831000000000,"state":"active","ping":110},{"user_id":562,"name":"Xranth","steam_id":76561198040827689,"connected_time":1064000000000,"state":"active","ping":78}]},{"server_id":108,"name":"Uncletopia | Dallas | 2 | All Maps","name_short":"dal-2","host":"dal-1.us.uncletopia.com","port":27025,"enabled":true,"region":"us-central","cc":"us","latitude":32.779167,"longitude":-96.80889,"reserved":0,"last_update":"0001-01-01T00:00:00Z","name_a2s":"Uncletopia | Dallas | 2 | All Maps","protocol":17,"map":"pl_barnblitz","folder":"tf","game":"Team Fortress","app_id":440,"player_count":24,"max_players":24,"Bots":0,"server_type":"Dedicated","server_os":"Linux","password":true,"vac":true,"version":"7757534","steam_id":85568392924469988,"keywords":["nocrits","nodmgspread","payload","uncletopia"],"game_id":440,"stv_port":27026,"stv_name":"Uncletopia | Dallas | 2 | All Maps | STV","players":[{"user_id":467,"name":"Tranq","steam_id":76561197967250757,"connected_time":630000000000,"state":"active","ping":77},{"user_id":465,"name":"BJ Deefstorm","steam_id":76561198297450626,"connected_time":698000000000,"state":"active","ping":50},{"user_id":461,"name":"Miro","steam_id":76561198936412406,"connected_time":1486000000000,"state":"active","ping":79},{"user_id":471,"name":"T√ñZI","steam_id":76561198045268695,"connected_time":254000000000,"state":"active","ping":84},{"user_id":397,"name":"678-999-8212","steam_id":76561198084260378,"connected_time":6059000000000,"state":"active","ping":32},{"user_id":463,"name":"nut nozzle 69","steam_id":76561197974209461,"connected_time":1422000000000,"state":"active","ping":59},{"user_id":444,"name":"briggs","steam_id":76561198045655893,"connected_time":2561000000000,"state":"active","ping":80},{"user_id":456,"name":"CSharp","steam_id":76561199185191710,"connected_time":1869000000000,"state":"active","ping":136},{"user_id":470,"name":"Thingy","steam_id":76561198140161202,"connected_time":263000000000,"state":"active","ping":89},{"user_id":395,"name":"austintacious","steam_id":76561198054118061,"connected_time":6117000000000,"state":"active","ping":72},{"user_id":452,"name":"vic vinegar","steam_id":76561198071775268,"connected_time":2384000000000,"state":"active","ping":92},{"user_id":448,"name":"Taco+Taco=Burrito","steam_id":76561198063128663,"connected_time":2512000000000,"state":"active","ping":68},{"user_id":455,"name":"Not A Rapper","steam_id":76561198077523537,"connected_time":1997000000000,"state":"active","ping":93},{"user_id":466,"name":"Caught a Thundah","steam_id":76561198054495572,"connected_time":693000000000,"state":"active","ping":54},{"user_id":469,"name":"scarecrow (evil)","steam_id":76561198082979347,"connected_time":289000000000,"state":"active","ping":80},{"user_id":389,"name":"BimmyBohns","steam_id":76561198175895250,"connected_time":6195000000000,"state":"active","ping":54},{"user_id":472,"name":"Lipton","steam_id":76561198135397441,"connected_time":243000000000,"state":"active","ping":87},{"user_id":426,"name":"oxbudy","steam_id":76561198022120207,"connected_time":4735000000000,"state":"active","ping":61},{"user_id":464,"name":"Manic","steam_id":76561198128149670,"connected_time":1053000000000,"state":"active","ping":45},{"user_id":414,"name":"Danger McHazard","steam_id":76561198059451274,"connected_time":5252000000000,"state":"active","ping":83},{"user_id":453,"name":"bo scrungulus","steam_id":76561198038036122,"connected_time":2286000000000,"state":"active","ping":74},{"user_id":473,"name":"FullMetalSlugCat","steam_id":76561199193784099,"connected_time":233000000000,"state":"active","ping":67},{"user_id":427,"name":"Lambchop","steam_id":76561198043900363,"connected_time":4717000000000,"state":"active","ping":97},{"user_id":451,"name":"Mapachito Lindo","steam_id":76561198031359995,"connected_time":2494000000000,"state":"active","ping":98}]},{"server_id":5,"name":"Uncletopia | Frankfurt | 1 | All Maps","name_short":"frk-1","host":"frk-1.de.uncletopia.com","port":27015,"enabled":true,"region":"eu","cc":"de","latitude":50.110924,"longitude":8.682127,"reserved":0,"last_update":"0001-01-01T00:00:00Z","name_a2s":"Uncletopia | Frankfurt | 1 | All Maps","protocol":17,"map":"pl_snowycoast","folder":"tf","game":"Team Fortress","app_id":440,"player_count":0,"max_players":24,"Bots":0,"server_type":"Dedicated","server_os":"Linux","password":true,"vac":true,"version":"7757534","steam_id":85568392924469989,"keywords":["nocrits","nodmgspread","payload","uncletopia"],"game_id":440,"stv_port":27016,"stv_name":"Uncletopia | Frankfurt | 1 | All Maps | STV","players":null},{"server_id":110,"name":"Uncletopia | Frankfurt | 2 | All Maps","name_short":"frk-2","host":"frk-1.de.uncletopia.com","port":27025,"enabled":true,"region":"eu","cc":"de","latitude":50.110924,"longitude":8.682127,"reserved":0,"last_update":"0001-01-01T00:00:00Z","name_a2s":"Uncletopia | Frankfurt | 2 | All Maps","protocol":17,"map":"cp_snakewater_final1","folder":"tf","game":"Team Fortress","app_id":440,"player_count":0,"max_players":24,"Bots":0,"server_type":"Dedicated","server_os":"Linux","password":true,"vac":true,"version":"7757534","steam_id":85568392924469990,"keywords":["cp","nocrits","nodmgspread","uncletopia"],"game_id":440,"stv_port":27026,"stv_name":"Uncletopia | Frankfurt | 2 | All Maps | STV","players":null},{"server_id":308,"name":"Uncletopia | Frankfurt | 3 | All Maps","name_short":"frk-3","host":"frk-1.de.uncletopia.com","port":27035,"enabled":true,"region":"eu","cc":"de","latitude":50.110924,"longitude":8.682127,"reserved":0,"last_update":"0001-01-01T00:00:00Z","name_a2s":"Uncletopia | Frankfurt | 3 | All Maps","protocol":17,"map":"pl_swiftwater_final1","folder":"tf","game":"Team Fortress","app_id":440,"player_count":0,"max_players":24,"Bots":0,"server_type":"Dedicated","server_os":"Linux","password":true,"vac":true,"version":"7757534","steam_id":85568392924504274,"keywords":["nocrits","nodmgspread","payload","uncletopia"],"game_id":440,"stv_port":27036,"stv_name":"Uncletopia | Frankfurt | 3 | All Maps | STV","players":null},{"server_id":309,"name":"Uncletopia | Frankfurt | 4 | All Maps","name_short":"frk-4","host":"frk-1.de.uncletopia.com","port":27045,"enabled":true,"region":"eu","cc":"de","latitude":50.110924,"longitude":8.682127,"reserved":0,"last_update":"0001-01-01T00:00:00Z","name_a2s":"Uncletopia | Frankfurt | 4 | All Maps","protocol":17,"map":"koth_viaduct","folder":"tf","game":"Team Fortress","app_id":440,"player_count":0,"max_players":24,"Bots":0,"server_type":"Dedicated","server_os":"Linux","password":true,"vac":true,"version":"7757534","steam_id":85568392924504275,"keywords":["cp","nocrits","nodmgspread","uncletopia"],"game_id":440,"stv_port":27046,"stv_name":"Uncletopia | Frankfurt | 4 | All Maps | STV","players":null},{"server_id":310,"name":"Uncletopia | Frankfurt | 5 | All Maps","name_short":"frk-5","host":"frk-1.de.uncletopia.com","port":27055,"enabled":true,"region":"eu","cc":"de","latitude":50.110924,"longitude":8.682127,"reserved":0,"last_update":"0001-01-01T00:00:00Z","name_a2s":"Uncletopia | Frankfurt | 5 | All Maps","protocol":17,"map":"koth_lakeside_final","folder":"tf","game":"Team Fortress","app_id":440,"player_count":0,"max_players":24,"Bots":0,"server_type":"Dedicated","server_os":"Linux","password":true,"vac":true,"version":"7757534","steam_id":85568392924504277,"keywords":["cp","nocrits","nodmgspread","uncletopia"],"game_id":440,"stv_port":27056,"stv_name":"Uncletopia | Frankfurt | 5 | All Maps | STV","players":null},{"server_id":311,"name":"Uncletopia | Frankfurt | 6 | All Maps","name_short":"frk-6","host":"frk-1.de.uncletopia.com","port":27065,"enabled":true,"region":"eu","cc":"de","latitude":50.110924,"longitude":8.682127,"reserved":0,"last_update":"0001-01-01T00:00:00Z","name_a2s":"Uncletopia | Frankfurt | 6 | All Maps","protocol":17,"map":"pl_frontier_final","folder":"tf","game":"Team Fortress","app_id":440,"player_count":0,"max_players":24,"Bots":0,"server_type":"Dedicated","server_os":"Linux","password":true,"vac":true,"version":"7757534","steam_id":85568392924504278,"keywords":["nocrits","nodmgspread","payload","uncletopia"],"game_id":440,"stv_port":27066,"stv_name":"Uncletopia | Frankfurt | 6 | All Maps | STV","players":null},{"server_id":23,"name":"Uncletopia | Frankfurt | 7 | Stopwatch Beta","name_short":"frk-7","host":"frk-1.de.uncletopia.com","port":27075,"enabled":true,"region":"eu","cc":"de","latitude":50.110924,"longitude":8.682127,"reserved":0,"last_update":"0001-01-01T00:00:00Z","name_a2s":"Uncletopia | Frankfurt | 7 | Stopwatch Beta","protocol":17,"map":"cp_sunshine","folder":"tf","game":"Team Fortress","app_id":440,"player_count":0,"max_players":24,"Bots":0,"server_type":"Dedicated","server_os":"Linux","password":true,"vac":true,"version":"7757534","steam_id":85568392924742827,"keywords":["cp","nocrits","nodmgspread","uncletopia"],"game_id":440,"stv_port":27076,"stv_name":"Uncletopia | Frankfurt | 7 | Stopwatch Beta | STV","players":null},{"server_id":24,"name":"Uncletopia | Frankfurt | 8 | Community","name_short":"frk-8","host":"frk-1.de.uncletopia.com","port":27085,"enabled":true,"region":"eu","cc":"de","latitude":50.110924,"longitude":8.682127,"reserved":0,"last_update":"0001-01-01T00:00:00Z","name_a2s":"Uncletopia | Frankfurt | 8 | Community","protocol":17,"map":"workshop/koth_ashville_final.ugc2130459942","folder":"tf","game":"Team Fortress","app_id":440,"player_count":0,"max_players":24,"Bots":0,"server_type":"Dedicated","server_os":"Linux","password":true,"vac":true,"version":"7757534","steam_id":85568392924742828,"keywords":["cp","nocrits","nodmgspread","uncletopia"],"game_id":440,"stv_port":27086,"stv_name":"Uncletopia | Frankfurt | 8 | Community | STV","players":null},{"server_id":202,"name":"Uncletopia | Hong Kong | 1 | All Maps","name_short":"hgk-1","host":"hgk-1.hk.uncletopia.com","port":27015,"enabled":true,"region":"asia","cc":"hk","latitude":22.302711,"longitude":114.177216,"reserved":0,"last_update":"0001-01-01T00:00:00Z","name_a2s":"Uncletopia | Hong Kong | 1 | All Maps","protocol":17,"map":"pl_upward","folder":"tf","game":"Team Fortress","app_id":440,"player_count":1,"max_players":24,"Bots":0,"server_type":"Dedicated","server_os":"Linux","password":true,"vac":true,"version":"7757534","steam_id":85568392924494504,"keywords":["nocrits","nodmgspread","payload","uncletopia"],"game_id":440,"stv_port":27016,"stv_name":"Uncletopia | Hong Kong | 1 | All Maps | STV","players":[{"user_id":25,"name":"Vortex Artemisio","steam_id":76561198833527091,"connected_time":856000000000,"state":"spawning","ping":90}]},{"server_id":1,"name":"Uncletopia | Los Angeles | 1 | All Maps","name_short":"lax-1","host":"lax-1.us.uncletopia.com","port":27015,"enabled":true,"region":"us-west","cc":"us","latitude":33.94279,"longitude":-118.41004,"reserved":0,"last_update":"0001-01-01T00:00:00Z","name_a2s":"Uncletopia | Los Angeles | 1 | All Maps","protocol":17,"map":"pl_snowycoast","folder":"tf","game":"Team Fortress","app_id":440,"player_count":24,"max_players":24,"Bots":0,"server_type":"Dedicated","server_os":"Linux","password":true,"vac":true,"version":"7757534","steam_id":85568392924469991,"keywords":["nocrits","nodmgspread","payload","uncletopia"],"game_id":440,"stv_port":27016,"stv_name":"Uncletopia | Los Angeles | 1 | All Maps | STV","players":[{"user_id":261,"name":"KYAUW","steam_id":76561198246971940,"connected_time":8982000000000,"state":"active","ping":89},{"user_id":350,"name":"supcupman","steam_id":76561198051513866,"connected_time":979000000000,"state":"active","ping":70},{"user_id":211,"name":"Hindmost","steam_id":76561199081837220,"connected_time":12907000000000,"state":"active","ping":98},{"user_id":349,"name":"HOG RIDER","steam_id":76561198298589502,"connected_time":1592000000000,"state":"active","ping":48},{"user_id":227,"name":"Larry Koopa","steam_id":76561199433618989,"connected_time":11918000000000,"state":"active","ping":80},{"user_id":344,"name":"Cuddly poetatoe ‚ù§","steam_id":76561198355023657,"connected_time":1988000000000,"state":"active","ping":49},{"user_id":352,"name":"xbox record that","steam_id":76561198150117455,"connected_time":952000000000,"state":"active","ping":51},{"user_id":334,"name":"K.A.R.M.A.","steam_id":76561198240750142,"connected_time":3495000000000,"state":"active","ping":46},{"user_id":365,"name":"El Super Monkey Ball","steam_id":76561198135634819,"connected_time":176000000000,"state":"active","ping":53},{"user_id":340,"name":"vioxynteris","steam_id":76561198161428666,"connected_time":2877000000000,"state":"active","ping":43},{"user_id":356,"name":"bash","steam_id":76561199161649534,"connected_time":767000000000,"state":"active","ping":73},{"user_id":306,"name":"Two-Ton Heavy Thing","steam_id":76561198201724274,"connected_time":6185000000000,"state":"active","ping":119},{"user_id":367,"name":"minerkid2004","steam_id":76561198044262827,"connected_time":26000000000,"state":"active","ping":57},{"user_id":307,"name":"‚ù§ Ashley ‚ù§","steam_id":76561198056428303,"connected_time":6095000000000,"state":"active","ping":51},{"user_id":266,"name":"SPOROKEK","steam_id":76561198371370128,"connected_time":8833000000000,"state":"active","ping":135},{"user_id":328,"name":"Spruce","steam_id":76561198081684676,"connected_time":4351000000000,"state":"active","ping":97},{"user_id":308,"name":"self sufficient kitten","steam_id":76561197960592612,"connected_time":6084000000000,"state":"active","ping":77},{"user_id":363,"name":"call police on the lower class","steam_id":76561198068672882,"connected_time":265000000000,"state":"active","ping":68},{"user_id":361,"name":"sweaterfan","steam_id":76561199389567214,"connected_time":304000000000,"state":"active","ping":99},{"user_id":359,"name":"Î©çÏ≤≠Ìïú ÎØ∏Íµ≠Ïù∏","steam_id":76561198041986461,"connected_time":383000000000,"state":"active","ping":68},{"user_id":343,"name":"werolat","steam_id":76561197960544784,"connected_time":2321000000000,"state":"active","ping":51},{"user_id":362,"name":"Red Orbama","steam_id":76561198047002366,"connected_time":298000000000,"state":"active","ping":77},{"user_id":366,"name":"Shu","steam_id":76561198086205207,"connected_time":125000000000,"state":"active","ping":56},{"user_id":348,"name":"Dongus","steam_id":76561197979056451,"connected_time":1625000000000,"state":"active","ping":80}]},{"server_id":112,"name":"Uncletopia | Los Angeles | 2 | All Maps","name_short":"lax-2","host":"lax-1.us.uncletopia.com","port":27025,"enabled":true,"region":"us-west","cc":"us","latitude":33.94279,"longitude":-118.41004,"reserved":0,"last_update":"0001-01-01T00:00:00Z","name_a2s":"Uncletopia | Los Angeles | 2 | All Maps","protocol":17,"map":"cp_gravelpit","folder":"tf","game":"Team Fortress","app_id":440,"player_count":23,"max_players":24,"Bots":0,"server_type":"Dedicated","server_os":"Linux","password":true,"vac":true,"version":"7757534","steam_id":85568392924469992,"keywords":["cp","nocrits","nodmgspread","uncletopia"],"game_id":440,"stv_port":27026,"stv_name":"Uncletopia | Los Angeles | 2 | All Maps | STV","players":[{"user_id":518,"name":"‡πá","steam_id":76561198067666595,"connected_time":2059000000000,"state":"active","ping":74},{"user_id":487,"name":"Vintage TV","steam_id":76561198800334545,"connected_time":4545000000000,"state":"active","ping":44},{"user_id":511,"name":"Flembrane","steam_id":76561197995328898,"connected_time":2258000000000,"state":"active","ping":31},{"user_id":540,"name":"Leidon","steam_id":76561198078386945,"connected_time":479000000000,"state":"active","ping":66},{"user_id":533,"name":"GKumo","steam_id":76561198023175868,"connected_time":1605000000000,"state":"active","ping":67},{"user_id":534,"name":"Agent 11","steam_id":76561198007627899,"connected_time":1564000000000,"state":"active","ping":58},{"user_id":527,"name":"Joe Biden (Deceased)","steam_id":76561198170427507,"connected_time":1716000000000,"state":"active","ping":49},{"user_id":481,"name":"flo rida","steam_id":76561198226169704,"connected_time":4950000000000,"state":"active","ping":54},{"user_id":548,"name":"Noob-a-tron","steam_id":76561197970555113,"connected_time":84000000000,"state":"active","ping":54},{"user_id":525,"name":"Celia [ +/- ] ‚úî","steam_id":76561198067164431,"connected_time":1758000000000,"state":"active","ping":32},{"user_id":541,"name":"PainInTheRuss","steam_id":76561197977960543,"connected_time":414000000000,"state":"active","ping":59},{"user_id":546,"name":"Grungus","steam_id":76561198047700230,"connected_time":108000000000,"state":"active","ping":58},{"user_id":551,"name":"EatSomeBEES","steam_id":76561198047334307,"connected_time":10000000000,"state":"spawning","ping":47},{"user_id":542,"name":"FI LO","steam_id":76561198976530881,"connected_time":382000000000,"state":"active","ping":30},{"user_id":462,"name":"gaming ground_atclicker","steam_id":76561198233978116,"connected_time":5795000000000,"state":"active","ping":77},{"user_id":514,"name":"SanitysEdge","steam_id":76561198130732813,"connected_time":2186000000000,"state":"active","ping":76},{"user_id":538,"name":"Honey Boo Boo","steam_id":76561198119340886,"connected_time":667000000000,"state":"active","ping":100},{"user_id":550,"name":"nut butter","steam_id":76561198130425399,"connected_time":27000000000,"state":"active","ping":101},{"user_id":543,"name":"WorminCrazy","steam_id":76561198927509821,"connected_time":380000000000,"state":"active","ping":71},{"user_id":535,"name":"The Arm","steam_id":76561197983066285,"connected_time":1539000000000,"state":"active","ping":66},{"user_id":547,"name":"SolarusD","steam_id":76561198029279861,"connected_time":104000000000,"state":"active","ping":55},{"user_id":536,"name":"Twombly","steam_id":76561198056532348,"connected_time":840000000000,"state":"active","ping":61},{"user_id":498,"name":"burger king hypnosis ego death ","steam_id":76561198070136627,"connected_time":3629000000000,"state":"active","ping":50}]},{"server_id":324,"name":"Uncletopia | Los Angeles | 3 | All Maps","name_short":"lax-3","host":"lax-1.us.uncletopia.com","port":27035,"enabled":true,"region":"us-west","cc":"us","latitude":33.94279,"longitude":-118.41004,"reserved":0,"last_update":"0001-01-01T00:00:00Z","name_a2s":"Uncletopia | Los Angeles | 3 | All Maps","protocol":17,"map":"cp_dustbowl","folder":"tf","game":"Team Fortress","app_id":440,"player_count":24,"max_players":24,"Bots":0,"server_type":"Dedicated","server_os":"Linux","password":true,"vac":true,"version":"7757534","steam_id":85568392924510198,"keywords":["cp","nocrits","nodmgspread","uncletopia"],"game_id":440,"stv_port":27036,"stv_name":"Uncletopia | Los Angeles | 3 | All Maps | STV","players":[{"user_id":154,"name":"Nugakku","steam_id":76561198082346219,"connected_time":4296000000000,"state":"active","ping":53},{"user_id":210,"name":"Baggage","steam_id":76561198215128080,"connected_time":149000000000,"state":"active","ping":59},{"user_id":196,"name":"murder is OK","steam_id":76561199041466962,"connected_time":1028000000000,"state":"active","ping":56},{"user_id":139,"name":"‚Ä∫ Pikmeir","steam_id":76561198027373503,"connected_time":4898000000000,"state":"active","ping":47},{"user_id":204,"name":"Antonpirulero10","steam_id":76561198253036781,"connected_time":662000000000,"state":"active","ping":73},{"user_id":188,"name":"Blackbeard","steam_id":76561198046952265,"connected_time":1852000000000,"state":"active","ping":76},{"user_id":205,"name":"Bony","steam_id":76561199001748822,"connected_time":644000000000,"state":"active","ping":61},{"user_id":143,"name":"eau:","steam_id":76561198110020262,"connected_time":4786000000000,"state":"active","ping":39},{"user_id":167,"name":"Kdash","steam_id":76561198043829155,"connected_time":3557000000000,"state":"active","ping":88},{"user_id":177,"name":"Googol","steam_id":76561198015967429,"connected_time":2860000000000,"state":"active","ping":36},{"user_id":159,"name":"Deeply","steam_id":76561199000786530,"connected_time":3723000000000,"state":"active","ping":90},{"user_id":125,"name":"rimbl","steam_id":76561198150137369,"connected_time":6290000000000,"state":"active","ping":45},{"user_id":193,"name":"Humancatpost","steam_id":76561197999771809,"connected_time":1339000000000,"state":"active","ping":71},{"user_id":160,"name":"Loaf","steam_id":76561199220083136,"connected_time":3722000000000,"state":"active","ping":106},{"user_id":194,"name":"parallax","steam_id":76561198004438881,"connected_time":1324000000000,"state":"active","ping":62},{"user_id":195,"name":"Auggy","steam_id":76561198041816037,"connected_time":1305000000000,"state":"active","ping":74},{"user_id":171,"name":"God's Goofiest Goober","steam_id":76561198418288939,"connected_time":3281000000000,"state":"active","ping":60},{"user_id":179,"name":"Jonatello","steam_id":76561198045699189,"connected_time":2842000000000,"state":"active","ping":106},{"user_id":209,"name":"Yorai20XX","steam_id":76561198082235591,"connected_time":584000000000,"state":"active","ping":52},{"user_id":172,"name":"pt","steam_id":76561198143023330,"connected_time":3128000000000,"state":"active","ping":47},{"user_id":105,"name":"bigman1","steam_id":76561198050225055,"connected_time":7777000000000,"state":"active","ping":45},{"user_id":183,"name":"HoneyBuns","steam_id":76561198070388256,"connected_time":2596000000000,"state":"active","ping":69},{"user_id":207,"name":"Shockmaster07","steam_id":76561199033361450,"connected_time":618000000000,"state":"active","ping":45},{"user_id":186,"name":"jaruz","steam_id":76561198159447698,"connected_time":2072000000000,"state":"active","ping":63}]},{"server_id":25,"name":"Uncletopia | Los Angeles | 4 | Stopwatch Beta","name_short":"lax-4","host":"lax-1.us.uncletopia.com","port":27045,"enabled":true,"region":"us-west","cc":"us","latitude":33.94279,"longitude":-118.41004,"reserved":0,"last_update":"0001-01-01T00:00:00Z","name_a2s":"Uncletopia | Los Angeles | 4 | Stopwatch Beta","protocol":17,"map":"pl_swiftwater_final1","folder":"tf","game":"Team Fortress","app_id":440,"player_count":0,"max_players":24,"Bots":0,"server_type":"Dedicated","server_os":"Linux","password":true,"vac":true,"version":"7757534","steam_id":85568392924510199,"keywords":["nocrits","nodmgspread","payload","uncletopia"],"game_id":440,"stv_port":27046,"stv_name":"Uncletopia | Los Angeles | 4 | Stopwatch Beta | STV","players":null},{"server_id":11,"name":"Uncletopia | London | 1 | All Maps","name_short":"lon-1","host":"lon-1.uk.uncletopia.com","port":27015,"enabled":true,"region":"eu","cc":"gb","latitude":51.509865,"longitude":-0.118092,"reserved":0,"last_update":"0001-01-01T00:00:00Z","name_a2s":"Uncletopia | London | 1 | All Maps","protocol":17,"map":"pl_swiftwater_final1","folder":"tf","game":"Team Fortress","app_id":440,"player_count":0,"max_players":24,"Bots":0,"server_type":"Dedicated","server_os":"Linux","password":true,"vac":true,"version":"7757534","steam_id":85568392924367362,"keywords":["nocrits","nodmgspread","payload","uncletopia"],"game_id":440,"stv_port":27016,"stv_name":"Uncletopia | London | 1 | All Maps | STV","players":null},{"server_id":114,"name":"Uncletopia | London | 2 | All Maps","name_short":"lon-2","host":"lon-1.uk.uncletopia.com","port":27025,"enabled":true,"region":"eu","cc":"gb","latitude":51.509865,"longitude":-0.118092,"reserved":0,"last_update":"0001-01-01T00:00:00Z","name_a2s":"Uncletopia | London | 2 | All Maps","protocol":17,"map":"koth_viaduct","folder":"tf","game":"Team Fortress","app_id":440,"player_count":0,"max_players":24,"Bots":0,"server_type":"Dedicated","server_os":"Linux","password":true,"vac":true,"version":"7757534","steam_id":85568392924470941,"keywords":["cp","nocrits","nodmgspread","uncletopia"],"game_id":440,"stv_port":27026,"stv_name":"Uncletopia | London | 2 | All Maps | STV","players":null},{"server_id":320,"name":"Uncletopia | London | 3 | All Maps","name_short":"lon-3","host":"lon-1.uk.uncletopia.com","port":27035,"enabled":true,"region":"eu","cc":"gb","latitude":51.509865,"longitude":-0.118092,"reserved":0,"last_update":"0001-01-01T00:00:00Z","name_a2s":"Uncletopia | London | 3 | All Maps","protocol":17,"map":"pl_badwater","folder":"tf","game":"Team Fortress","app_id":440,"player_count":0,"max_players":24,"Bots":0,"server_type":"Dedicated","server_os":"Linux","password":true,"vac":true,"version":"7757534","steam_id":85568392924510192,"keywords":["nocrits","nodmgspread","payload","uncletopia"],"game_id":440,"stv_port":27036,"stv_name":"Uncletopia | London | 3 | All Maps | STV","players":null},{"server_id":321,"name":"Uncletopia | London | 4 | All Maps","name_short":"lon-4","host":"lon-1.uk.uncletopia.com","port":27045,"enabled":true,"region":"eu","cc":"gb","latitude":51.509865,"longitude":-0.118092,"reserved":0,"last_update":"0001-01-01T00:00:00Z","name_a2s":"Uncletopia | London | 4 | All Maps","protocol":17,"map":"pl_borneo","folder":"tf","game":"Team Fortress","app_id":440,"player_count":0,"max_players":24,"Bots":0,"server_type":"Dedicated","server_os":"Linux","password":true,"vac":true,"version":"7757534","steam_id":85568392924510193,"keywords":["nocrits","nodmgspread","payload","uncletopia"],"game_id":440,"stv_port":27046,"stv_name":"Uncletopia | London | 4 | All Maps | STV","players":null},{"server_id":21,"name":"Uncletopia | London | 5 | All Maps","name_short":"lon-5","host":"lon-1.uk.uncletopia.com","port":27055,"enabled":true,"region":"eu","cc":"gb","latitude":51.509865,"longitude":-0.118092,"reserved":0,"last_update":"0001-01-01T00:00:00Z","name_a2s":"Uncletopia | London | 5 | All Maps","protocol":17,"map":"cp_mountainlab","folder":"tf","game":"Team Fortress","app_id":440,"player_count":0,"max_players":24,"Bots":0,"server_type":"Dedicated","server_os":"Linux","password":true,"vac":true,"version":"7757534","steam_id":85568392924742829,"keywords":["cp","nocrits","nodmgspread","uncletopia"],"game_id":440,"stv_port":27056,"stv_name":"Uncletopia | London | 5 | All Maps | STV","players":null},{"server_id":22,"name":"Uncletopia | London | 6 | All Maps","name_short":"lon-6","host":"lon-1.uk.uncletopia.com","port":27065,"enabled":true,"region":"eu","cc":"gb","latitude":51.509865,"longitude":-0.118092,"reserved":0,"last_update":"0001-01-01T00:00:00Z","name_a2s":"Uncletopia | London | 6 | All Maps","protocol":17,"map":"cp_altitude","folder":"tf","game":"Team Fortress","app_id":440,"player_count":0,"max_players":24,"Bots":0,"server_type":"Dedicated","server_os":"Linux","password":true,"vac":true,"version":"7757534","steam_id":85568392924742830,"keywords":["cp","nocrits","nodmgspread","uncletopia"],"game_id":440,"stv_port":27066,"stv_name":"Uncletopia | London | 6 | All Maps | STV","players":null},{"server_id":40,"name":"Uncletopia | London | 7 | No Payload","name_short":"lon-7","host":"lon-1.uk.uncletopia.com","port":27075,"enabled":true,"region":"eu","cc":"gb","latitude":51.509865,"longitude":-0.118092,"reserved":0,"last_update":"0001-01-01T00:00:00Z","name_a2s":"Uncletopia | London | 7 | No Payload","protocol":17,"map":"koth_sawmill","folder":"tf","game":"Team Fortress","app_id":440,"player_count":0,"max_players":24,"Bots":0,"server_type":"Dedicated","server_os":"Linux","password":true,"vac":true,"version":"7757534","steam_id":85568392924964314,"keywords":["cp","nocrits","nodmgspread","uncletopia"],"game_id":440,"stv_port":27076,"stv_name":"Uncletopia | London | 7 | No Payload | STV","players":null},{"server_id":41,"name":"Uncletopia | London | 8 | Community","name_short":"lon-8","host":"lon-1.uk.uncletopia.com","port":27085,"enabled":true,"region":"eu","cc":"gb","latitude":51.509865,"longitude":-0.118092,"reserved":0,"last_update":"0001-01-01T00:00:00Z","name_a2s":"Uncletopia | London | 8 | Community","protocol":17,"map":"pl_barnblitz","folder":"tf","game":"Team Fortress","app_id":440,"player_count":0,"max_players":24,"Bots":0,"server_type":"Dedicated","server_os":"Linux","password":true,"vac":true,"version":"7757534","steam_id":85568392924964315,"keywords":["nocrits","nodmgspread","payload","uncletopia"],"game_id":440,"stv_port":27086,"stv_name":"Uncletopia | London | 8 | Community | STV","players":null},{"server_id":300,"name":"Uncletopia | Montr√©al | 1 | All Maps","name_short":"mtl-1","host":"mtl-1.ca.uncletopia.com","port":27015,"enabled":true,"region":"us-east","cc":"ca","latitude":45.50889,"longitude":-73.56167,"reserved":0,"last_update":"0001-01-01T00:00:00Z","name_a2s":"Uncletopia | Montr√©al | 1 | All Maps","protocol":17,"map":"cp_snakewater_final1","folder":"tf","game":"Team Fortress","app_id":440,"player_count":0,"max_players":24,"Bots":0,"server_type":"Dedicated","server_os":"Linux","password":true,"vac":true,"version":"7757534","steam_id":85568392924500087,"keywords":["cp","nocrits","nodmgspread","uncletopia"],"game_id":440,"stv_port":27016,"stv_name":"Uncletopia | Montr√©al | 1 | All Maps | STV","players":null},{"server_id":301,"name":"Uncletopia | Montr√©al | 2 | All Maps","name_short":"mtl-2","host":"mtl-1.ca.uncletopia.com","port":27025,"enabled":true,"region":"us-east","cc":"ca","latitude":45.50889,"longitude":-73.56167,"reserved":0,"last_update":"0001-01-01T00:00:00Z","name_a2s":"Uncletopia | Montr√©al | 2 | All Maps","protocol":17,"map":"pl_upward","folder":"tf","game":"Team Fortress","app_id":440,"player_count":21,"max_players":24,"Bots":0,"server_type":"Dedicated","server_os":"Linux","password":true,"vac":true,"version":"7757534","steam_id":85568392924500088,"keywords":["nocrits","nodmgspread","payload","uncletopia"],"game_id":440,"stv_port":27026,"stv_name":"Uncletopia | Montr√©al | 2 | All Maps | STV","players":[{"user_id":27,"name":"Chechens Spotted","steam_id":76561199028910893,"connected_time":3517000000000,"state":"active","ping":86},{"user_id":4,"name":"averagesoldiermain","steam_id":76561198158447466,"connected_time":8121000000000,"state":"active","ping":84},{"user_id":5,"name":"Bip","steam_id":76561199022962204,"connected_time":8084000000000,"state":"active","ping":65},{"user_id":60,"name":"9001","steam_id":76561197977486823,"connected_time":1696000000000,"state":"active","ping":52},{"user_id":7,"name":"CivilWarMike","steam_id":76561198141188839,"connected_time":7750000000000,"state":"active","ping":78},{"user_id":79,"name":"Kush","steam_id":76561198021243202,"connected_time":28000000000,"state":"active","ping":104},{"user_id":69,"name":"HappySmiles1010","steam_id":76561199202300463,"connected_time":637000000000,"state":"active","ping":97},{"user_id":31,"name":"Bubber","steam_id":76561198866372431,"connected_time":3289000000000,"state":"active","ping":126},{"user_id":65,"name":"The Mayo Man","steam_id":76561197995377425,"connected_time":1007000000000,"state":"active","ping":83},{"user_id":70,"name":"DonoC","steam_id":76561198274473338,"connected_time":547000000000,"state":"active","ping":106},{"user_id":80,"name":"O Dog","steam_id":76561198133498912,"connected_time":9000000000,"state":"spawning","ping":114},{"user_id":55,"name":"SJDE","steam_id":76561198080689675,"connected_time":2368000000000,"state":"active","ping":60},{"user_id":32,"name":"{SwiggitySwooty}","steam_id":76561198202063638,"connected_time":3249000000000,"state":"active","ping":124},{"user_id":71,"name":"glank","steam_id":76561198049846384,"connected_time":522000000000,"state":"active","ping":85},{"user_id":78,"name":"Mara Roo","steam_id":76561198279341789,"connected_time":51000000000,"state":"active","ping":71},{"user_id":61,"name":"Knight","steam_id":76561198154529952,"connected_time":1528000000000,"state":"active","ping":117},{"user_id":57,"name":"Calling All Runaways","steam_id":76561199238813463,"connected_time":2320000000000,"state":"active","ping":89},{"user_id":73,"name":"HundchenTanque","steam_id":76561198122692754,"connected_time":458000000000,"state":"active","ping":30},{"user_id":74,"name":"Legit_Jaxer","steam_id":76561198172234053,"connected_time":433000000000,"state":"active","ping":104},{"user_id":77,"name":"Eternal Neckbeard","steam_id":76561198201862415,"connected_time":292000000000,"state":"active","ping":45},{"user_id":47,"name":"Xpiredd","steam_id":76561198449525437,"connected_time":2798000000000,"state":"active","ping":44}]},{"server_id":302,"name":"Uncletopia | Montr√©al | 3 | All Maps","name_short":"mtl-3","host":"mtl-1.ca.uncletopia.com","port":27035,"enabled":true,"region":"us-east","cc":"ca","latitude":45.50889,"longitude":-73.56167,"reserved":0,"last_update":"0001-01-01T00:00:00Z","name_a2s":"Uncletopia | Montr√©al | 3 | All Maps","protocol":17,"map":"koth_cascade","folder":"tf","game":"Team Fortress","app_id":440,"player_count":2,"max_players":24,"Bots":0,"server_type":"Dedicated","server_os":"Linux","password":true,"vac":true,"version":"7757534","steam_id":85568392924500089,"keywords":["cp","nocrits","nodmgspread","uncletopia"],"game_id":440,"stv_port":27036,"stv_name":"Uncletopia | Montr√©al | 3 | All Maps | STV","players":[{"user_id":11,"name":"sneakyflamingo","steam_id":76561199093026056,"connected_time":2767000000000,"state":"active","ping":75},{"user_id":15,"name":"narcist üî•","steam_id":76561198255705632,"connected_time":1663000000000,"state":"active","ping":50}]},{"server_id":303,"name":"Uncletopia | Montr√©al | 4 | No Payload","name_short":"mtl-4","host":"mtl-1.ca.uncletopia.com","port":27045,"enabled":true,"region":"us-east","cc":"ca","latitude":45.50889,"longitude":-73.56167,"reserved":0,"last_update":"0001-01-01T00:00:00Z","name_a2s":"Uncletopia | Montr√©al | 4 | No Payload","protocol":17,"map":"koth_suijin","folder":"tf","game":"Team Fortress","app_id":440,"player_count":6,"max_players":24,"Bots":0,"server_type":"Dedicated","server_os":"Linux","password":true,"vac":true,"version":"7757534","steam_id":85568392924500090,"keywords":["cp","nocrits","nodmgspread","uncletopia"],"game_id":440,"stv_port":27046,"stv_name":"Uncletopia | Montr√©al | 4 | No Payload | STV","players":[{"user_id":11,"name":"You Know, Lucas","steam_id":76561198046350957,"connected_time":2598000000000,"state":"active","ping":82},{"user_id":12,"name":"punaise","steam_id":76561198095105411,"connected_time":2586000000000,"state":"active","ping":52},{"user_id":13,"name":"oaty","steam_id":76561198165011303,"connected_time":2246000000000,"state":"active","ping":129},{"user_id":14,"name":"Steem Bengine","steam_id":76561198131685172,"connected_time":2207000000000,"state":"active","ping":118},{"user_id":15,"name":"HÃ∂oÃ∂fÃ∂mÃ∂eÃ∂iÃ∂eÃ∂rÃ∂","steam_id":76561198044535458,"connected_time":1551000000000,"state":"active","ping":133},{"user_id":16,"name":"nyxia-","steam_id":76561198174415170,"connected_time":97000000000,"state":"active","ping":45}]},{"server_id":13,"name":"Uncletopia | New York City | 1 | All Maps","name_short":"nyc-1","host":"nyc-1.us.uncletopia.com","port":27015,"enabled":true,"region":"us-east","cc":"us","latitude":40.73061,"longitude":-73.93524,"reserved":0,"last_update":"0001-01-01T00:00:00Z","name_a2s":"Uncletopia | New York City | 1 | All Maps","protocol":17,"map":"pl_pier","folder":"tf","game":"Team Fortress","app_id":440,"player_count":23,"max_players":24,"Bots":0,"server_type":"Dedicated","server_os":"Linux","password":true,"vac":true,"version":"7757534","steam_id":85568392924469993,"keywords":["nocrits","nodmgspread","payload","uncletopia"],"game_id":440,"stv_port":27016,"stv_name":"Uncletopia | New York City | 1 | All Maps | STV","players":[{"user_id":656,"name":"Gustavo Fring","steam_id":76561198132807405,"connected_time":1393000000000,"state":"active","ping":82},{"user_id":657,"name":"DAN DONGUS","steam_id":76561198374045865,"connected_time":1150000000000,"state":"active","ping":60},{"user_id":667,"name":"frotan","steam_id":76561198090487763,"connected_time":550000000000,"state":"active","ping":94},{"user_id":642,"name":"Simply Mystic","steam_id":76561198055495647,"connected_time":2100000000000,"state":"active","ping":90},{"user_id":676,"name":"for the king","steam_id":76561197973488858,"connected_time":168000000000,"state":"active","ping":45},{"user_id":670,"name":"Ludcmorais","steam_id":76561198359217809,"connected_time":422000000000,"state":"active","ping":177},{"user_id":658,"name":"011","steam_id":76561198882999146,"connected_time":1143000000000,"state":"active","ping":56},{"user_id":596,"name":"Weebmcgee","steam_id":76561198081231557,"connected_time":7353000000000,"state":"active","ping":60},{"user_id":680,"name":"Frosty Nug","steam_id":76561198070187464,"connected_time":48000000000,"state":"active","ping":156},{"user_id":671,"name":"ROGUE-PLANET","steam_id":76561198116023052,"connected_time":383000000000,"state":"active","ping":91},{"user_id":659,"name":"niko","steam_id":76561198891556913,"connected_time":1009000000000,"state":"active","ping":70},{"user_id":668,"name":"Sniff32","steam_id":76561198046707764,"connected_time":537000000000,"state":"active","ping":102},{"user_id":661,"name":"J Keyz #RunThatBack","steam_id":76561198113990147,"connected_time":866000000000,"state":"active","ping":93},{"user_id":669,"name":"Big Money Ascended","steam_id":76561198091762081,"connected_time":485000000000,"state":"active","ping":92},{"user_id":616,"name":"Maddy","steam_id":76561198348941784,"connected_time":4902000000000,"state":"active","ping":88},{"user_id":672,"name":"KentYardAssociate","steam_id":76561198290499758,"connected_time":281000000000,"state":"active","ping":82},{"user_id":681,"name":"leumas","steam_id":76561198240408540,"connected_time":38000000000,"state":"active","ping":44},{"user_id":666,"name":"Jesse Bear","steam_id":76561198217075305,"connected_time":663000000000,"state":"active","ping":62},{"user_id":674,"name":"tesagi","steam_id":76561198026664629,"connected_time":226000000000,"state":"active","ping":50},{"user_id":675,"name":"HOT SOUP","steam_id":76561199077389918,"connected_time":220000000000,"state":"active","ping":62},{"user_id":677,"name":"corpach","steam_id":76561198150418268,"connected_time":158000000000,"state":"active","ping":78},{"user_id":678,"name":"Casual Costanza","steam_id":76561198024409325,"connected_time":131000000000,"state":"active","ping":69},{"user_id":679,"name":"Snoogs","steam_id":76561198444880931,"connected_time":100000000000,"state":"active","ping":56}]},{"server_id":14,"name":"Uncletopia | New York City | 2 | All Maps","name_short":"nyc-2","host":"nyc-1.us.uncletopia.com","port":27025,"enabled":true,"region":"us-east","cc":"us","latitude":40.73061,"longitude":-73.93524,"reserved":0,"last_update":"0001-01-01T00:00:00Z","name_a2s":"Uncletopia | New York City | 2 | All Maps","protocol":17,"map":"cp_powerhouse","folder":"tf","game":"Team Fortress","app_id":440,"player_count":9,"max_players":24,"Bots":0,"server_type":"Dedicated","server_os":"Linux","password":true,"vac":true,"version":"7757534","steam_id":85568392924469994,"keywords":["cp","nocrits","nodmgspread","uncletopia"],"game_id":440,"stv_port":27026,"stv_name":"Uncletopia | New York City | 2 | All Maps | STV","players":[{"user_id":645,"name":"Chestnut","steam_id":76561198078198968,"connected_time":222000000000,"state":"active","ping":74},{"user_id":641,"name":"Ekuseebia","steam_id":76561198037504112,"connected_time":302000000000,"state":"active","ping":84},{"user_id":644,"name":"MagicalKimmie","steam_id":76561198041364775,"connected_time":264000000000,"state":"active","ping":105},{"user_id":584,"name":"Aegis","steam_id":76561198272052750,"connected_time":4637000000000,"state":"active","ping":74},{"user_id":640,"name":"No_Dictators","steam_id":76561199065777321,"connected_time":535000000000,"state":"active","ping":88},{"user_id":601,"name":"Clickle","steam_id":76561198449628030,"connected_time":3047000000000,"state":"active","ping":50},{"user_id":586,"name":"Truffleoil","steam_id":76561198114689041,"connected_time":4593000000000,"state":"active","ping":56},{"user_id":566,"name":"Zeek","steam_id":76561197987204351,"connected_time":5525000000000,"state":"active","ping":44},{"user_id":630,"name":"StrangeSumo","steam_id":76561198182376830,"connected_time":1149000000000,"state":"active","ping":85}]},{"server_id":15,"name":"Uncletopia | New York City | 3 | Stopwatch Beta","name_short":"nyc-3","host":"nyc-1.us.uncletopia.com","port":27035,"enabled":true,"region":"us-east","cc":"us","latitude":40.73061,"longitude":-73.93524,"reserved":0,"last_update":"0001-01-01T00:00:00Z","name_a2s":"Uncletopia | New York City | 3 | Stopwatch Beta","protocol":17,"map":"workshop/koth_ashville_final.ugc2130459942","folder":"tf","game":"Team Fortress","app_id":440,"player_count":0,"max_players":24,"Bots":0,"server_type":"Dedicated","server_os":"Linux","password":true,"vac":true,"version":"7757534","steam_id":85568392924742820,"keywords":["cp","nocrits","nodmgspread","uncletopia"],"game_id":440,"stv_port":27036,"stv_name":"Uncletopia | New York City | 3 | Stopwatch Beta | STV","players":null},{"server_id":16,"name":"Uncletopia | New York City | 4 | Community","name_short":"nyc-4","host":"nyc-1.us.uncletopia.com","port":27045,"enabled":true,"region":"us-east","cc":"us","latitude":40.73061,"longitude":-73.93524,"reserved":0,"last_update":"0001-01-01T00:00:00Z","name_a2s":"Uncletopia | New York City | 4 | Community","protocol":17,"map":"workshop/cp_indulge.ugc528106646","folder":"tf","game":"Team Fortress","app_id":440,"player_count":9,"max_players":24,"Bots":0,"server_type":"Dedicated","server_os":"Linux","password":true,"vac":true,"version":"7757534","steam_id":85568392924742821,"keywords":["cp","nocrits","nodmgspread","uncletopia"],"game_id":440,"stv_port":27046,"stv_name":"Uncletopia | New York City | 4 | Community | STV","players":[{"user_id":272,"name":"Roundbra","steam_id":76561198880614851,"connected_time":398000000000,"state":"active","ping":85},{"user_id":248,"name":"Misty Blu ‚úø (They)","steam_id":76561198011442255,"connected_time":2251000000000,"state":"active","ping":103},{"user_id":267,"name":"Lotus Is A Lie","steam_id":76561199443401295,"connected_time":817000000000,"state":"active","ping":100},{"user_id":247,"name":"Shimshaw Creamtime","steam_id":76561198087144636,"connected_time":2269000000000,"state":"active","ping":55},{"user_id":268,"name":"Frosty4123","steam_id":76561198954076782,"connected_time":816000000000,"state":"active","ping":95},{"user_id":264,"name":"FoxyTheFish","steam_id":76561199074190919,"connected_time":850000000000,"state":"active","ping":126},{"user_id":269,"name":"Feminine Boy","steam_id":76561198168289622,"connected_time":790000000000,"state":"active","ping":45},{"user_id":161,"name":"Kick Down Door 6:00AM TUCK‚òÉRO","steam_id":76561197976146738,"connected_time":8875000000000,"state":"active","ping":74},{"user_id":260,"name":"evannjunkk","steam_id":76561198200016867,"connected_time":1284000000000,"state":"active","ping":96}]},{"server_id":142,"name":"Uncletopia | S√£o Paulo | 1 | All Maps","name_short":"sao-1","host":"sao-1.br.uncletopia.com","port":27015,"enabled":true,"region":"sa","cc":"br","latitude":-23.533773,"longitude":-46.62529,"reserved":0,"last_update":"0001-01-01T00:00:00Z","name_a2s":"Uncletopia | S√£o Paulo | 1 | All Maps","protocol":17,"map":"cp_process_final","folder":"tf","game":"Team Fortress","app_id":440,"player_count":0,"max_players":24,"Bots":0,"server_type":"Dedicated","server_os":"Linux","password":true,"vac":true,"version":"7757534","steam_id":85568392924469996,"keywords":["cp","nocrits","nodmgspread","uncletopia"],"game_id":440,"stv_port":27016,"stv_name":"Uncletopia | S√£o Paulo | 1 | All Maps | STV","players":null},{"server_id":143,"name":"Uncletopia | S√£o Paulo | 2 | All Maps","name_short":"sao-2","host":"sao-2.br.uncletopia.com","port":27015,"enabled":true,"region":"sa","cc":"br","latitude":-23.533773,"longitude":-46.62529,"reserved":0,"last_update":"0001-01-01T00:00:00Z","name_a2s":"Uncletopia | S√£o Paulo | 2 | All Maps","protocol":17,"map":"cp_mountainlab","folder":"tf","game":"Team Fortress","app_id":440,"player_count":0,"max_players":24,"Bots":0,"server_type":"Dedicated","server_os":"Linux","password":true,"vac":true,"version":"7757534","steam_id":85568392924485349,"keywords":["cp","nocrits","nodmgspread","uncletopia"],"game_id":440,"stv_port":27016,"stv_name":"Uncletopia | S√£o Paulo | 2 | All Maps | STV","players":null},{"server_id":7,"name":"Uncletopia | Seattle | 1 | All Maps","name_short":"sea-1","host":"sea-1.us.uncletopia.com","port":27015,"enabled":true,"region":"us-west","cc":"us","latitude":47.608013,"longitude":-122.33517,"reserved":0,"last_update":"0001-01-01T00:00:00Z","name_a2s":"Uncletopia | Seattle | 1 | All Maps","protocol":17,"map":"plr_pipeline","folder":"tf","game":"Team Fortress","app_id":440,"player_count":24,"max_players":24,"Bots":0,"server_type":"Dedicated","server_os":"Linux","password":true,"vac":true,"version":"7757534","steam_id":85568392924469997,"keywords":["nocrits","nodmgspread","payload","uncletopia"],"game_id":440,"stv_port":27016,"stv_name":"Uncletopia | Seattle | 1 | All Maps | STV","players":[{"user_id":635,"name":"Idontknow","steam_id":76561199207044048,"connected_time":5085000000000,"state":"active","ping":46},{"user_id":693,"name":"doozy","steam_id":76561198033106776,"connected_time":145000000000,"state":"active","ping":82},{"user_id":618,"name":"Snorgdarf","steam_id":76561198047962582,"connected_time":7196000000000,"state":"active","ping":47},{"user_id":655,"name":"MegumiTame","steam_id":76561198450280686,"connected_time":2896000000000,"state":"active","ping":52},{"user_id":666,"name":"Cam","steam_id":76561198285054047,"connected_time":2370000000000,"state":"active","ping":78},{"user_id":657,"name":"Keamy","steam_id":76561199471434875,"connected_time":2890000000000,"state":"active","ping":43},{"user_id":678,"name":"korean bts man","steam_id":76561198074716338,"connected_time":1487000000000,"state":"active","ping":70},{"user_id":679,"name":"makeshift_burrito","steam_id":76561198042510825,"connected_time":1237000000000,"state":"active","ping":75},{"user_id":692,"name":"Mitch McHoover","steam_id":76561198178827614,"connected_time":225000000000,"state":"active","ping":60},{"user_id":691,"name":"Mvemba A Zinga","steam_id":76561198131466634,"connected_time":327000000000,"state":"active","ping":162},{"user_id":687,"name":"The King of Piss World","steam_id":76561198082806956,"connected_time":618000000000,"state":"active","ping":122},{"user_id":695,"name":"SD","steam_id":76561198217410988,"connected_time":38000000000,"state":"active","ping":69},{"user_id":686,"name":"SadFapping","steam_id":76561198076651049,"connected_time":648000000000,"state":"active","ping":64},{"user_id":688,"name":"da bong lord","steam_id":76561198301019618,"connected_time":607000000000,"state":"active","ping":80},{"user_id":683,"name":"exephur","steam_id":76561198135763234,"connected_time":762000000000,"state":"active","ping":68},{"user_id":682,"name":"Lou Wii Gee","steam_id":76561198308449320,"connected_time":896000000000,"state":"active","ping":89},{"user_id":593,"name":"rat gets the cheese","steam_id":76561198031234032,"connected_time":9292000000000,"state":"active","ping":106},{"user_id":665,"name":"Mexican Lad","steam_id":76561198060874570,"connected_time":2679000000000,"state":"active","ping":84},{"user_id":694,"name":"stoned jester","steam_id":76561198079609974,"connected_time":144000000000,"state":"active","ping":84},{"user_id":675,"name":"5392vin","steam_id":76561198880493511,"connected_time":1717000000000,"state":"active","ping":66},{"user_id":676,"name":"blorbule","steam_id":76561198872316133,"connected_time":1673000000000,"state":"active","ping":65},{"user_id":667,"name":"MetalKidDoc","steam_id":76561198108741986,"connected_time":2344000000000,"state":"active","ping":109},{"user_id":669,"name":"zzrat","steam_id":76561198014925415,"connected_time":1739000000000,"state":"active","ping":63},{"user_id":672,"name":"pineaple","steam_id":76561198119048742,"connected_time":1732000000000,"state":"active","ping":78}]},{"server_id":119,"name":"Uncletopia | Seattle | 2 | All Maps","name_short":"sea-2","host":"sea-1.us.uncletopia.com","port":27025,"enabled":true,"region":"us-west","cc":"us","latitude":47.608013,"longitude":-122.33517,"reserved":0,"last_update":"0001-01-01T00:00:00Z","name_a2s":"Uncletopia | Seattle | 2 | All Maps","protocol":17,"map":"pl_swiftwater_final1","folder":"tf","game":"Team Fortress","app_id":440,"player_count":24,"max_players":24,"Bots":0,"server_type":"Dedicated","server_os":"Linux","password":true,"vac":true,"version":"7757534","steam_id":85568392924469998,"keywords":["nocrits","nodmgspread","payload","uncletopia"],"game_id":440,"stv_port":27026,"stv_name":"Uncletopia | Seattle | 2 | All Maps | STV","players":[{"user_id":628,"name":"oil","steam_id":76561198099980149,"connected_time":2958000000000,"state":"active","ping":81},{"user_id":649,"name":"pandoRA","steam_id":76561198075490385,"connected_time":372000000000,"state":"active","ping":78},{"user_id":644,"name":"TROY","steam_id":76561197983852176,"connected_time":1468000000000,"state":"active","ping":75},{"user_id":604,"name":"Lentil Soup","steam_id":76561198051834684,"connected_time":6280000000000,"state":"active","ping":62},{"user_id":603,"name":"gorlab","steam_id":76561198025089694,"connected_time":6332000000000,"state":"active","ping":60},{"user_id":648,"name":"delight","steam_id":76561197980280272,"connected_time":414000000000,"state":"active","ping":45},{"user_id":582,"name":"DoctorHa","steam_id":76561198044026008,"connected_time":7777000000000,"state":"active","ping":94},{"user_id":645,"name":"Tom Skirrett","steam_id":76561198014600788,"connected_time":1459000000000,"state":"active","ping":62},{"user_id":623,"name":"ed","steam_id":76561198080475712,"connected_time":3673000000000,"state":"active","ping":67},{"user_id":534,"name":"bobbymcbobington","steam_id":76561199089411172,"connected_time":12480000000000,"state":"active","ping":173},{"user_id":633,"name":"Disc0","steam_id":76561198067337267,"connected_time":2902000000000,"state":"active","ping":46},{"user_id":626,"name":"thunderous prophet","steam_id":76561198131166135,"connected_time":2969000000000,"state":"active","ping":44},{"user_id":587,"name":"Agent86","steam_id":76561198046794593,"connected_time":7089000000000,"state":"active","ping":105},{"user_id":650,"name":"Shia Thing","steam_id":76561198271939793,"connected_time":142000000000,"state":"active","ping":57},{"user_id":643,"name":"RING DONG DORINGOS","steam_id":76561198043558709,"connected_time":1496000000000,"state":"active","ping":59},{"user_id":624,"name":"S Q U I S H E  T H A T  C A T","steam_id":76561198293865429,"connected_time":3293000000000,"state":"active","ping":44},{"user_id":639,"name":"dodecadron","steam_id":76561198027397222,"connected_time":2320000000000,"state":"active","ping":73},{"user_id":621,"name":"150cc lightning cup andy","steam_id":76561198121268007,"connected_time":4037000000000,"state":"active","ping":81},{"user_id":638,"name":"toodles","steam_id":76561198025463883,"connected_time":2401000000000,"state":"active","ping":54},{"user_id":622,"name":"twitch.tv/rainzang2","steam_id":76561198143912191,"connected_time":3816000000000,"state":"active","ping":89},{"user_id":637,"name":"TheDudeofDC","steam_id":76561199059346175,"connected_time":2628000000000,"state":"active","ping":128},{"user_id":635,"name":"El Duderino","steam_id":76561199427900685,"connected_time":2872000000000,"state":"active","ping":104},{"user_id":646,"name":"El Gato Paranoico","steam_id":76561198116567116,"connected_time":1091000000000,"state":"active","ping":126},{"user_id":601,"name":"jorts","steam_id":76561199041179985,"connected_time":6626000000000,"state":"active","ping":67}]},{"server_id":406,"name":"Uncletopia | Seattle | 3 | Stopwatch Beta","name_short":"sea-3","host":"sea-1.us.uncletopia.com","port":27035,"enabled":true,"region":"us-west","cc":"us","latitude":47.608013,"longitude":-122.33517,"reserved":0,"last_update":"0001-01-01T00:00:00Z","name_a2s":"Uncletopia | Seattle | 3 | Stopwatch Beta","protocol":17,"map":"koth_lakeside_final","folder":"tf","game":"Team Fortress","app_id":440,"player_count":0,"max_players":24,"Bots":0,"server_type":"Dedicated","server_os":"Linux","password":true,"vac":true,"version":"7757534","steam_id":85568392924515217,"keywords":["cp","nocrits","nodmgspread","uncletopia"],"game_id":440,"stv_port":27036,"stv_name":"Uncletopia | Seattle | 3 | Stopwatch Beta | STV","players":null},{"server_id":17,"name":"Uncletopia | San Francisco | 1 | All Maps","name_short":"sfo-1","host":"sfo-1.us.uncletopia.com","port":27015,"enabled":true,"region":"us-west","cc":"us","latitude":37.77397,"longitude":-122.4313,"reserved":0,"last_update":"0001-01-01T00:00:00Z","name_a2s":"Uncletopia | San Francisco | 1 | All Maps","protocol":17,"map":"cp_mossrock","folder":"tf","game":"Team Fortress","app_id":440,"player_count":23,"max_players":24,"Bots":0,"server_type":"Dedicated","server_os":"Linux","password":true,"vac":true,"version":"7757534","steam_id":85568392924469999,"keywords":["cp","nocrits","nodmgspread","uncletopia"],"game_id":440,"stv_port":27016,"stv_name":"Uncletopia | San Francisco | 1 | All Maps | STV","players":[{"user_id":509,"name":"Cleaver Scout","steam_id":76561198140517330,"connected_time":32000000000,"state":"active","ping":105},{"user_id":502,"name":"I THINK COOLSVILLE SUCKS","steam_id":76561198066855998,"connected_time":173000000000,"state":"active","ping":63},{"user_id":501,"name":"Sunny","steam_id":76561198261667312,"connected_time":187000000000,"state":"active","ping":65},{"user_id":483,"name":"SaltyService","steam_id":76561198120366751,"connected_time":1886000000000,"state":"active","ping":70},{"user_id":304,"name":"DemoLiberTF2","steam_id":76561198095378689,"connected_time":14799000000000,"state":"active","ping":90},{"user_id":489,"name":"SvicidalBug","steam_id":76561198221390504,"connected_time":859000000000,"state":"active","ping":79},{"user_id":505,"name":"level 7 firemancer","steam_id":76561198209571677,"connected_time":106000000000,"state":"active","ping":105},{"user_id":499,"name":"beatrix","steam_id":76561199057103062,"connected_time":486000000000,"state":"active","ping":63},{"user_id":453,"name":"CHIKN","steam_id":76561198277792665,"connected_time":3549000000000,"state":"active","ping":55},{"user_id":506,"name":"GaMeRbOi","steam_id":76561199094353617,"connected_time":100000000000,"state":"active","ping":70},{"user_id":490,"name":"mafia is mafia","steam_id":76561198042574722,"connected_time":800000000000,"state":"active","ping":71},{"user_id":491,"name":"Exo","steam_id":76561198067943883,"connected_time":766000000000,"state":"active","ping":64},{"user_id":507,"name":"Skabbety","steam_id":76561198168044257,"connected_time":72000000000,"state":"active","ping":56},{"user_id":494,"name":"BasedGod","steam_id":76561198061177973,"connected_time":726000000000,"state":"active","ping":45},{"user_id":503,"name":"Funkmaster Yee","steam_id":76561198037738918,"connected_time":172000000000,"state":"active","ping":61},{"user_id":508,"name":"charley","steam_id":76561198828238339,"connected_time":60000000000,"state":"active","ping":65},{"user_id":460,"name":"Ian","steam_id":76561198159334435,"connected_time":3109000000000,"state":"active","ping":166},{"user_id":493,"name":"laggy mcstab","steam_id":76561198106379962,"connected_time":743000000000,"state":"active","ping":96},{"user_id":472,"name":"Buswolley","steam_id":76561197995205571,"connected_time":2736000000000,"state":"active","ping":51},{"user_id":486,"name":"Feel the bern","steam_id":76561198078824519,"connected_time":1196000000000,"state":"active","ping":76},{"user_id":459,"name":"D0VE","steam_id":76561198151618566,"connected_time":3114000000000,"state":"active","ping":74},{"user_id":481,"name":"Quon Grene for Vice Prez","steam_id":76561198127545817,"connected_time":2035000000000,"state":"active","ping":73},{"user_id":307,"name":"ScoutSecoTF2","steam_id":76561198366212156,"connected_time":14787000000000,"state":"active","ping":119}]},{"server_id":18,"name":"Uncletopia | San Francisco | 2 | All Maps","name_short":"sfo-2","host":"sfo-1.us.uncletopia.com","port":27025,"enabled":true,"region":"us-west","cc":"us","latitude":37.77397,"longitude":-122.4313,"reserved":0,"last_update":"0001-01-01T00:00:00Z","name_a2s":"Uncletopia | San Francisco | 2 | All Maps","protocol":17,"map":"pl_barnblitz","folder":"tf","game":"Team Fortress","app_id":440,"player_count":24,"max_players":24,"Bots":0,"server_type":"Dedicated","server_os":"Linux","password":true,"vac":true,"version":"7757534","steam_id":85568392924470000,"keywords":["nocrits","nodmgspread","payload","uncletopia"],"game_id":440,"stv_port":27026,"stv_name":"Uncletopia | San Francisco | 2 | All Maps | STV","players":[{"user_id":220,"name":"chimplicity","steam_id":76561198012097062,"connected_time":4240000000000,"state":"active","ping":81},{"user_id":242,"name":"Giantbob","steam_id":76561199043760220,"connected_time":1831000000000,"state":"active","ping":74},{"user_id":228,"name":"‚õ§","steam_id":76561198212421513,"connected_time":3506000000000,"state":"active","ping":60},{"user_id":260,"name":"Sadodere Grimace","steam_id":76561198008332028,"connected_time":589000000000,"state":"active","ping":69},{"user_id":243,"name":"Carte","steam_id":76561198077424488,"connected_time":1830000000000,"state":"active","ping":51},{"user_id":206,"name":"ghostglitch","steam_id":76561197991608573,"connected_time":5375000000000,"state":"active","ping":50},{"user_id":244,"name":"Just a Good Friend","steam_id":76561198140052403,"connected_time":1668000000000,"state":"active","ping":43},{"user_id":237,"name":"sagekiss","steam_id":76561198038831240,"connected_time":2516000000000,"state":"active","ping":75},{"user_id":250,"name":"trackpad gaming | f2p","steam_id":76561198840414371,"connected_time":1171000000000,"state":"active","ping":70},{"user_id":229,"name":"Ghoulbreath","steam_id":76561198062517442,"connected_time":3505000000000,"state":"active","ping":84},{"user_id":267,"name":"huynhy","steam_id":76561198007041258,"connected_time":259000000000,"state":"active","ping":68},{"user_id":219,"name":"Nitro","steam_id":76561198044877244,"connected_time":4272000000000,"state":"active","ping":87},{"user_id":241,"name":"Renota","steam_id":76561198058224488,"connected_time":1909000000000,"state":"active","ping":129},{"user_id":263,"name":"Livin' Like Larry","steam_id":76561198313360974,"connected_time":397000000000,"state":"active","ping":37},{"user_id":236,"name":"Amogous Supreme","steam_id":76561198025476774,"connected_time":2539000000000,"state":"active","ping":62},{"user_id":248,"name":"Lord Pretty Flocko Jordye","steam_id":76561198962880749,"connected_time":1263000000000,"state":"active","ping":73},{"user_id":265,"name":"owa owa","steam_id":76561198204169516,"connected_time":360000000000,"state":"active","ping":71},{"user_id":235,"name":"Gr8butnotreally","steam_id":76561198133924450,"connected_time":2906000000000,"state":"active","ping":79},{"user_id":251,"name":"Drakon","steam_id":76561198078210822,"connected_time":1170000000000,"state":"active","ping":64},{"user_id":253,"name":"noellehound","steam_id":76561198108844158,"connected_time":1104000000000,"state":"active","ping":156},{"user_id":261,"name":"merlin","steam_id":76561198334511480,"connected_time":587000000000,"state":"active","ping":86},{"user_id":259,"name":"Agent Q","steam_id":76561198830829003,"connected_time":1003000000000,"state":"active","ping":81},{"user_id":266,"name":"cicada","steam_id":76561198069190432,"connected_time":345000000000,"state":"active","ping":127},{"user_id":257,"name":"Dealer","steam_id":76561198801450794,"connected_time":1065000000000,"state":"active","ping":112}]},{"server_id":19,"name":"Uncletopia | San Francisco | 3 | Stopwatch Beta","name_short":"sfo-3","host":"sfo-1.us.uncletopia.com","port":27035,"enabled":true,"region":"us-west","cc":"us","latitude":37.77397,"longitude":-122.4313,"reserved":0,"last_update":"0001-01-01T00:00:00Z","name_a2s":"Uncletopia | San Francisco | 3 | Stopwatch Beta","protocol":17,"map":"workshop/cp_process_f12.ugc2302948105","folder":"tf","game":"Team Fortress","app_id":440,"player_count":2,"max_players":24,"Bots":0,"server_type":"Dedicated","server_os":"Linux","password":true,"vac":true,"version":"7757534","steam_id":85568392924742824,"keywords":["cp","nocrits","nodmgspread","uncletopia"],"game_id":440,"stv_port":27036,"stv_name":"Uncletopia | San Francisco | 3 | Stopwatch Beta | STV","players":[{"user_id":7,"name":"chrome","steam_id":76561198158053923,"connected_time":94000000000,"state":"active","ping":57},{"user_id":8,"name":"frostbrooka","steam_id":76561199411161766,"connected_time":71000000000,"state":"active","ping":254}]},{"server_id":20,"name":"Uncletopia | San Francisco | 4 | Community","name_short":"sfo-4","host":"sfo-1.us.uncletopia.com","port":27045,"enabled":true,"region":"us-west","cc":"us","latitude":37.77397,"longitude":-122.4313,"reserved":0,"last_update":"0001-01-01T00:00:00Z","name_a2s":"Uncletopia | San Francisco | 4 | Community","protocol":17,"map":"workshop/koth_slaughter_rc1.ugc1712845210","folder":"tf","game":"Team Fortress","app_id":440,"player_count":0,"max_players":24,"Bots":0,"server_type":"Dedicated","server_os":"Linux","password":true,"vac":true,"version":"7757534","steam_id":85568392924742826,"keywords":["cp","nocrits","nodmgspread","uncletopia"],"game_id":440,"stv_port":27046,"stv_name":"Uncletopia | San Francisco | 4 | Community | STV","players":null},{"server_id":141,"name":"Uncletopia | Sydney | 1 | All Maps","name_short":"syd-1","host":"syd-1.au.uncletopia.com","port":27015,"enabled":true,"region":"au","cc":"au","latitude":-33.865143,"longitude":151.2099,"reserved":0,"last_update":"0001-01-01T00:00:00Z","name_a2s":"Uncletopia | Sydney | 1 | All Maps","protocol":17,"map":"cp_dustbowl","folder":"tf","game":"Team Fortress","app_id":440,"player_count":22,"max_players":24,"Bots":0,"server_type":"Dedicated","server_os":"Linux","password":true,"vac":true,"version":"7757534","steam_id":85568392924470001,"keywords":["cp","nocrits","nodmgspread","uncletopia"],"game_id":440,"stv_port":27016,"stv_name":"Uncletopia | Sydney | 1 | All Maps | STV","players":[{"user_id":80,"name":"Ai Ohto Gaming","steam_id":76561198972625527,"connected_time":2598000000000,"state":"active","ping":142},{"user_id":76,"name":"saudi ambassador messi","steam_id":76561198031293430,"connected_time":2921000000000,"state":"active","ping":84},{"user_id":90,"name":"Snowy","steam_id":76561198255720598,"connected_time":1865000000000,"state":"active","ping":43},{"user_id":97,"name":"sweet","steam_id":76561198075311236,"connected_time":1344000000000,"state":"active","ping":50},{"user_id":86,"name":"thepixel","steam_id":76561198155396809,"connected_time":2305000000000,"state":"active","ping":56},{"user_id":98,"name":"amps","steam_id":76561198060894632,"connected_time":1334000000000,"state":"active","ping":76},{"user_id":24,"name":"Jodelk√∂nig Franzl Lang","steam_id":76561198007667830,"connected_time":5211000000000,"state":"active","ping":53},{"user_id":112,"name":"AptGetGnome","steam_id":76561198063849132,"connected_time":275000000000,"state":"active","ping":45},{"user_id":106,"name":"sf/k","steam_id":76561198047758776,"connected_time":1111000000000,"state":"active","ping":42},{"user_id":99,"name":"chonk","steam_id":76561198002924796,"connected_time":1305000000000,"state":"active","ping":59},{"user_id":109,"name":"Samboys Chips","steam_id":76561198059382306,"connected_time":620000000000,"state":"active","ping":44},{"user_id":104,"name":"electro599","steam_id":76561198058148858,"connected_time":1199000000000,"state":"active","ping":55},{"user_id":110,"name":"Nyk","steam_id":76561198125000580,"connected_time":607000000000,"state":"active","ping":40},{"user_id":38,"name":"GattlingGoose","steam_id":76561199021498300,"connected_time":4326000000000,"state":"active","ping":80},{"user_id":101,"name":"MrMuffin16","steam_id":76561198257303774,"connected_time":1259000000000,"state":"active","ping":62},{"user_id":81,"name":"L.ion","steam_id":76561198261172910,"connected_time":2540000000000,"state":"active","ping":47},{"user_id":105,"name":"david malouf","steam_id":76561198107085849,"connected_time":1175000000000,"state":"active","ping":52},{"user_id":94,"name":"Warmwalker","steam_id":76561198025089589,"connected_time":1610000000000,"state":"active","ping":140},{"user_id":113,"name":"shaymii","steam_id":76561198058562392,"connected_time":275000000000,"state":"active","ping":81},{"user_id":87,"name":"Tofu","steam_id":76561198025637573,"connected_time":2253000000000,"state":"active","ping":36},{"user_id":88,"name":"Sentry Gun (EpicGuy4227)","steam_id":76561198094132328,"connected_time":2250000000000,"state":"active","ping":62},{"user_id":95,"name":"TheTophatterOfTophats","steam_id":76561199142504761,"connected_time":1572000000000,"state":"active","ping":44}]},{"server_id":123,"name":"Uncletopia | Sydney | 2 | All Maps","name_short":"syd-2","host":"syd-1.au.uncletopia.com","port":27025,"enabled":true,"region":"au","cc":"au","latitude":-33.865143,"longitude":151.2099,"reserved":0,"last_update":"0001-01-01T00:00:00Z","name_a2s":"Uncletopia | Sydney | 2 | All Maps","protocol":17,"map":"cp_dustbowl","folder":"tf","game":"Team Fortress","app_id":440,"player_count":0,"max_players":24,"Bots":0,"server_type":"Dedicated","server_os":"Linux","password":true,"vac":true,"version":"7757534","steam_id":85568392924470002,"keywords":["cp","nocrits","nodmgspread","uncletopia"],"game_id":440,"stv_port":27026,"stv_name":"Uncletopia | Sydney | 2 | All Maps | STV","players":null},{"server_id":395,"name":"Uncletopia | Sydney | 3 | All Maps","name_short":"syd-3","host":"syd-1.au.uncletopia.com","port":27035,"enabled":true,"region":"au","cc":"au","latitude":-33.865143,"longitude":151.2099,"reserved":0,"last_update":"0001-01-01T00:00:00Z","name_a2s":"Uncletopia | Sydney | 3 | All Maps","protocol":17,"map":"cp_sunshine","folder":"tf","game":"Team Fortress","app_id":440,"player_count":0,"max_players":24,"Bots":0,"server_type":"Dedicated","server_os":"Linux","password":true,"vac":true,"version":"7757534","steam_id":85568392925194467,"keywords":["cp","nocrits","nodmgspread","uncletopia"],"game_id":440,"stv_port":27036,"stv_name":"Uncletopia | Sydney | 3 | All Maps | STV","players":null},{"server_id":396,"name":"Uncletopia | Sydney | 4 | All Maps","name_short":"syd-4","host":"syd-1.au.uncletopia.com","port":27045,"enabled":true,"region":"au","cc":"au","latitude":-33.865143,"longitude":151.2099,"reserved":0,"last_update":"0001-01-01T00:00:00Z","name_a2s":"Uncletopia | Sydney | 4 | All Maps","protocol":17,"map":"koth_highpass","folder":"tf","game":"Team Fortress","app_id":440,"player_count":0,"max_players":24,"Bots":0,"server_type":"Dedicated","server_os":"Linux","password":true,"vac":true,"version":"7757534","steam_id":85568392925397958,"keywords":["cp","nocrits","nodmgspread","uncletopia"],"game_id":440,"stv_port":27046,"stv_name":"Uncletopia | Sydney | 4 | All Maps | STV","players":null},{"server_id":58,"name":"Uncletopia | Sydney | 5 | Stopwatch Beta","name_short":"syd-5","host":"syd-1.au.uncletopia.com","port":27055,"enabled":true,"region":"au","cc":"au","latitude":-33.865143,"longitude":151.2099,"reserved":0,"last_update":"0001-01-01T00:00:00Z","name_a2s":"Uncletopia | Sydney | 5 | Stopwatch Beta","protocol":17,"map":"koth_cascade","folder":"tf","game":"Team Fortress","app_id":440,"player_count":0,"max_players":24,"Bots":0,"server_type":"Dedicated","server_os":"Linux","password":true,"vac":true,"version":"7757534","steam_id":85568392925397959,"keywords":["cp","nocrits","nodmgspread","uncletopia"],"game_id":440,"stv_port":27056,"stv_name":"Uncletopia | Sydney | 5 | Stopwatch Beta | STV","players":null},{"server_id":59,"name":"Uncletopia | Sydney | 6 | Community","name_short":"syd-6","host":"syd-1.au.uncletopia.com","port":27065,"enabled":true,"region":"au","cc":"au","latitude":-33.865143,"longitude":151.2099,"reserved":0,"last_update":"0001-01-01T00:00:00Z","name_a2s":"Uncletopia | Sydney | 6 | Community","protocol":17,"map":"cp_snakewater_final1","folder":"tf","game":"Team Fortress","app_id":440,"player_count":0,"max_players":24,"Bots":0,"server_type":"Dedicated","server_os":"Linux","password":true,"vac":true,"version":"7757534","steam_id":85568392925397960,"keywords":["cp","nocrits","nodmgspread","uncletopia"],"game_id":440,"stv_port":27066,"stv_name":"Uncletopia | Sydney | 6 | Community | STV","players":null},{"server_id":49,"name":"Uncletopia | Warsaw | 1 | All Maps","name_short":"waw-1","host":"waw-1.pl.uncletopia.com","port":27015,"enabled":true,"region":"eu","cc":"pl","latitude":52.2297,"longitude":21.017532,"reserved":0,"last_update":"0001-01-01T00:00:00Z","name_a2s":"","protocol":0,"map":"","folder":"","game":"","app_id":0,"player_count":0,"max_players":0,"Bots":0,"server_type":"","server_os":"","password":false,"vac":false,"version":"","steam_id":0,"keywords":null,"game_id":0,"stv_port":0,"stv_name":"","players":null},{"server_id":50,"name":"Uncletopia | Warsaw | 2 | All Maps","name_short":"waw-2","host":"waw-1.pl.uncletopia.com","port":27025,"enabled":true,"region":"eu","cc":"pl","latitude":52.2297,"longitude":21.017532,"reserved":0,"last_update":"0001-01-01T00:00:00Z","name_a2s":"Uncletopia | Warsaw | 2 | All Maps","protocol":17,"map":"koth_viaduct","folder":"tf","game":"Team Fortress","app_id":440,"player_count":0,"max_players":24,"Bots":0,"server_type":"Dedicated","server_os":"Linux","password":true,"vac":true,"version":"7757534","steam_id":85568392925397851,"keywords":["cp","nocrits","nodmgspread","uncletopia"],"game_id":440,"stv_port":27026,"stv_name":"Uncletopia | Warsaw | 2 | All Maps | STV","players":null},{"server_id":51,"name":"Uncletopia | Warsaw | 3 | All Maps","name_short":"waw-3","host":"waw-1.pl.uncletopia.com","port":27035,"enabled":true,"region":"eu","cc":"pl","latitude":52.2297,"longitude":21.017532,"reserved":0,"last_update":"0001-01-01T00:00:00Z","name_a2s":"Uncletopia | Warsaw | 3 | All Maps","protocol":17,"map":"pl_badwater","folder":"tf","game":"Team Fortress","app_id":440,"player_count":0,"max_players":24,"Bots":0,"server_type":"Dedicated","server_os":"Linux","password":true,"vac":true,"version":"7757534","steam_id":85568392925397852,"keywords":["nocrits","nodmgspread","payload","uncletopia"],"game_id":440,"stv_port":27036,"stv_name":"Uncletopia | Warsaw | 3 | All Maps | STV","players":null},{"server_id":52,"name":"Uncletopia | Warsaw | 4 | All Maps","name_short":"waw-4","host":"waw-1.pl.uncletopia.com","port":27045,"enabled":true,"region":"eu","cc":"pl","latitude":52.2297,"longitude":21.017532,"reserved":0,"last_update":"0001-01-01T00:00:00Z","name_a2s":"Uncletopia | Warsaw | 4 | All Maps","protocol":17,"map":"koth_lakeside_final","folder":"tf","game":"Team Fortress","app_id":440,"player_count":0,"max_players":24,"Bots":0,"server_type":"Dedicated","server_os":"Linux","password":true,"vac":true,"version":"7757534","steam_id":85568392925397853,"keywords":["cp","nocrits","nodmgspread","uncletopia"],"game_id":440,"stv_port":27046,"stv_name":"Uncletopia | Warsaw | 4 | All Maps | STV","players":null},{"server_id":53,"name":"Uncletopia | Warsaw | 5 | Stopwatch Beta","name_short":"waw-5","host":"waw-1.pl.uncletopia.com","port":27055,"enabled":true,"region":"eu","cc":"pl","latitude":52.2297,"longitude":21.017532,"reserved":0,"last_update":"0001-01-01T00:00:00Z","name_a2s":"Uncletopia | Warsaw | 5 | Stopwatch Beta","protocol":17,"map":"pl_borneo","folder":"tf","game":"Team Fortress","app_id":440,"player_count":0,"max_players":24,"Bots":0,"server_type":"Dedicated","server_os":"Linux","password":true,"vac":true,"version":"7757534","steam_id":85568392925397854,"keywords":["nocrits","nodmgspread","payload","uncletopia"],"game_id":440,"stv_port":27056,"stv_name":"Uncletopia | Warsaw | 5 | Stopwatch Beta | STV","players":null},{"server_id":54,"name":"Uncletopia | Warsaw | 6 | Community","name_short":"waw-6","host":"waw-1.pl.uncletopia.com","port":27065,"enabled":true,"region":"eu","cc":"pl","latitude":52.2297,"longitude":21.017532,"reserved":0,"last_update":"0001-01-01T00:00:00Z","name_a2s":"Uncletopia | Warsaw | 6 | Community","protocol":17,"map":"koth_lakeside_final","folder":"tf","game":"Team Fortress","app_id":440,"player_count":0,"max_players":24,"Bots":0,"server_type":"Dedicated","server_os":"Linux","password":true,"vac":true,"version":"7757534","steam_id":85568392925397856,"keywords":["cp","nocrits","nodmgspread","uncletopia"],"game_id":440,"stv_port":27066,"stv_name":"Uncletopia | Warsaw | 6 | Community | STV","players":null}]}