{"status":true,"message":"","result":[{"server_id":9,"name":"Uncletopia | Atlanta | 1 | All Maps","name_short":"atl-1","host":"atl-1.us.uncletopia.com","port":27015,"enabled":true,"region":"us-east","cc":"us","latitude":33.753746,"longitude":-84.38633,"reserved":0,"last_update":"0001-01-01T00:00:00Z","name_a2s":"Uncletopia | Atlanta | 1 | All Maps","protocol":17,"map":"koth_viaduct","folder":"tf","game":"Team Fortress","app_id":440,"player_count":0,"max_players":24,"Bots":0,"server_type":"Dedicated","server_os":"Linux","password":true,"vac":true,"version":"7961495","steam_id":85568392924469982,"keywords":["cp","nocrits","nodmgspread","uncletopia"],"game_id":440,"stv_port":27016,"stv_name":"Uncletopia | Atlanta | 1 | All Maps | STV","players":null},{"server_id":104,"name":"Uncletopia | Atlanta | 2 | All Maps","name_short":"atl-2","host":"atl-1.us.uncletopia.com","port":27025,"enabled":true,"region":"us-east","cc":"us","latitude":33.753746,"longitude":-84.38633,"reserved":0,"last_update":"0001-01-01T00:00:00Z","name_a2s":"Uncletopia | Atlanta | 2 | All Maps","protocol":17,"map":"koth_cascade","folder":"tf","game":"Team Fortress","app_id":440,"player_count":0,"max_players":24,"Bots":0,"server_type":"Dedicated","server_os":"Linux","password":true,"vac":true,"version":"7961495","steam_id":85568392924469983,"keywords":["cp","nocrits","nodmgspread","uncletopia"],"game_id":440,"stv_port":27026,"stv_name":"Uncletopia | Atlanta | 2 | All Maps | STV","players":null},{"server_id":400,"name":"Uncletopia | Atlanta | 3 | Stopwatch","name_short":"atl-3","host":"atl-1.us.uncletopia.com","port":27035,"enabled":true,"region":"us-east","cc":"us","latitude":33.753746,"longitude":-84.38633,"reserved":0,"last_update":"0001-01-01T00:00:00Z","name_a2s":"Uncletopia | Atlanta | 3 | Stopwatch","protocol":17,"map":"pl_badwater","folder":"tf","game":"Team Fortress","app_id":440,"player_count":0,"max_players":24,"Bots":0,"server_type":"Dedicated","server_os":"Linux","password":true,"vac":true,"version":"7961495","steam_id":85568392924515187,"keywords":["nocrits","nodmgspread","payload","uncletopia"],"game_id":440,"stv_port":27036,"stv_name":"Uncletopia | Atlanta | 3 | Stopwatch | STV","players":null},{"server_id":401,"name":"Uncletopia | Atlanta | 4 | Community","name_short":"atl-4","host":"atl-1.us.uncletopia.com","port":27045,"enabled":true,"region":"us-east","cc":"us","latitude":33.753746,"longitude":-84.38633,"reserved":0,"last_update":"0001-01-01T00:00:00Z","name_a2s":"Uncletopia | Atlanta | 4 | Community","protocol":17,"map":"cp_sunshine","folder":"tf","game":"Team Fortress","app_id":440,"player_count":0,"max_players":24,"Bots":0,"server_type":"Dedicated","server_os":"Linux","password":true,"vac":true,"version":"7961495","steam_id":85568392924515188,"keywords":["cp","nocrits","nodmgspread","uncletopia"],"game_id":440,"stv_port":27046,"stv_name":"Uncletopia | Atlanta | 4 | Community | STV","players":null},{"server_id":2,"name":"Uncletopia | Chicago | 1 | All Maps","name_short":"chi-1","host":"chi-1.us.uncletopia.com","port":27015,"enabled":true,"region":"us-central","cc":"us","latitude":41.881832,"longitude":-87.62318,"reserved":0,"last_update":"0001-01-01T00:00:00Z","name_a2s":"Uncletopia | Chicago | 1 | All Maps","protocol":17,"map":"pl_upward","folder":"tf","game":"Team Fortress","app_id":440,"player_count":24,"max_players":24,"Bots":0,"server_type":"Dedicated","server_os":"Linux","password":true,"vac":true,"version":"7961495","steam_id":85568392924469984,"keywords":["nocrits","nodmgspread","payload","uncletopia"],"game_id":440,"stv_port":27016,"stv_name":"Uncletopia | Chicago | 1 | All Maps | STV","players":[{"user_id":60,"name":"wayffles","steam_id":76561198044032876,"connected_time":484000000000,"state":"active","ping":67},{"user_id":64,"name":"PaulPer_TF2","steam_id":76561198060217979,"connected_time":324000000000,"state":"active","ping":88},{"user_id":16,"name":"Tri-Dot","steam_id":76561199075186597,"connected_time":2617000000000,"state":"active","ping":77},{"user_id":67,"name":"Emile Louis","steam_id":76561198130122296,"connected_time":201000000000,"state":"active","ping":66},{"user_id":18,"name":"aimboat","steam_id":76561198218131923,"connected_time":2530000000000,"state":"active","ping":54},{"user_id":19,"name":"abom","steam_id":76561198167974713,"connected_time":2521000000000,"state":"active","ping":75},{"user_id":20,"name":"Volks","steam_id":76561198018552479,"connected_time":2493000000000,"state":"active","ping":73},{"user_id":21,"name":"Petrivus","steam_id":76561198202152453,"connected_time":2486000000000,"state":"active","ping":101},{"user_id":58,"name":"Rin \"Hindwing\" Redtail","steam_id":76561199074865638,"connected_time":689000000000,"state":"active","ping":69},{"user_id":23,"name":"Superxbossman","steam_id":76561199162569586,"connected_time":2448000000000,"state":"active","ping":63},{"user_id":24,"name":"NikoOS (NO SOUND)","steam_id":76561198180020521,"connected_time":2429000000000,"state":"active","ping":128},{"user_id":46,"name":"Lucon","steam_id":76561198067147724,"connected_time":1479000000000,"state":"active","ping":54},{"user_id":36,"name":"Soul Garg Plushy","steam_id":76561198044480181,"connected_time":2194000000000,"state":"active","ping":47},{"user_id":57,"name":"Uck Fupward","steam_id":76561198107249245,"connected_time":852000000000,"state":"active","ping":71},{"user_id":62,"name":"Sir Thomas Foolery","steam_id":76561198040017296,"connected_time":435000000000,"state":"active","ping":77},{"user_id":32,"name":"HEAVYHEAVYHEAVYHEAVYHEAVYHEAVYH","steam_id":76561198083276946,"connected_time":2272000000000,"state":"active","ping":67},{"user_id":52,"name":"zzz","steam_id":76561198302976864,"connected_time":1296000000000,"state":"active","ping":78},{"user_id":65,"name":"Discourse","steam_id":76561198984286678,"connected_time":287000000000,"state":"active","ping":55},{"user_id":66,"name":"wormburnerturner","steam_id":76561198143607463,"connected_time":278000000000,"state":"active","ping":89},{"user_id":59,"name":"Rx Auntie","steam_id":76561198051618393,"connected_time":650000000000,"state":"active","ping":67},{"user_id":49,"name":"Sex Monster","steam_id":76561199426920744,"connected_time":1457000000000,"state":"active","ping":180},{"user_id":54,"name":"Wii Fit Trainer","steam_id":76561198110817823,"connected_time":1146000000000,"state":"active","ping":63},{"user_id":53,"name":"Sunflower","steam_id":76561198081223793,"connected_time":1296000000000,"state":"active","ping":55},{"user_id":56,"name":"FUCK UPWARD","steam_id":76561198006569710,"connected_time":944000000000,"state":"active","ping":83}]},{"server_id":106,"name":"Uncletopia | Chicago | 2 | All Maps","name_short":"chi-2","host":"chi-1.us.uncletopia.com","port":27025,"enabled":true,"region":"us-central","cc":"us","latitude":41.881832,"longitude":-87.62318,"reserved":0,"last_update":"0001-01-01T00:00:00Z","name_a2s":"Uncletopia | Chicago | 2 | All Maps","protocol":17,"map":"koth_cascade","folder":"tf","game":"Team Fortress","app_id":440,"player_count":0,"max_players":24,"Bots":0,"server_type":"Dedicated","server_os":"Linux","password":true,"vac":true,"version":"7961495","steam_id":85568392924469985,"keywords":["cp","nocrits","nodmgspread","uncletopia"],"game_id":440,"stv_port":27026,"stv_name":"Uncletopia | Chicago | 2 | All Maps | STV","players":null},{"server_id":402,"name":"Uncletopia | Chicago | 3 | All Maps","name_short":"chi-3","host":"chi-1.us.uncletopia.com","port":27035,"enabled":true,"region":"us-central","cc":"us","latitude":41.881832,"longitude":-87.62318,"reserved":0,"last_update":"0001-01-01T00:00:00Z","name_a2s":"Uncletopia | Chicago | 3 | All Maps","protocol":17,"map":"pl_pier","folder":"tf","game":"Team Fortress","app_id":440,"player_count":24,"max_players":24,"Bots":0,"server_type":"Dedicated","server_os":"Linux","password":true,"vac":true,"version":"7961495","steam_id":85568392924515191,"keywords":["nocrits","nodmgspread","payload","uncletopia"],"game_id":440,"stv_port":27036,"stv_name":"Uncletopia | Chicago | 3 | All Maps | STV","players":[{"user_id":7,"name":"Sneerful","steam_id":76561198032663494,"connected_time":1744000000000,"state":"active","ping":71},{"user_id":8,"name":"dirty disgusting troll","steam_id":76561198882404753,"connected_time":1494000000000,"state":"active","ping":75},{"user_id":23,"name":"pluto965","steam_id":76561198122743085,"connected_time":798000000000,"state":"active","ping":70},{"user_id":15,"name":"Erchius","steam_id":76561198256892300,"connected_time":1147000000000,"state":"active","ping":79},{"user_id":11,"name":"Kuyumiester","steam_id":76561198126835302,"connected_time":1292000000000,"state":"active","ping":64},{"user_id":12,"name":"Hey_Juice","steam_id":76561199013117553,"connected_time":1236000000000,"state":"active","ping":75},{"user_id":14,"name":"shakoiwa","steam_id":76561199059441773,"connected_time":1178000000000,"state":"active","ping":100},{"user_id":39,"name":"Disco Ball","steam_id":76561198359079379,"connected_time":267000000000,"state":"active","ping":70},{"user_id":17,"name":"That Dude","steam_id":76561198980486227,"connected_time":1063000000000,"state":"active","ping":99},{"user_id":18,"name":"InstantOzone","steam_id":76561198067556825,"connected_time":1012000000000,"state":"active","ping":67},{"user_id":19,"name":"BigChunkyKong","steam_id":76561198067446388,"connected_time":968000000000,"state":"active","ping":46},{"user_id":20,"name":"Huntpk","steam_id":76561198340591674,"connected_time":897000000000,"state":"active","ping":41},{"user_id":36,"name":"Shorty","steam_id":76561198044873248,"connected_time":436000000000,"state":"active","ping":45},{"user_id":35,"name":"4ling","steam_id":76561197994398381,"connected_time":612000000000,"state":"active","ping":75},{"user_id":24,"name":"Jessicamustdie","steam_id":76561198045230921,"connected_time":791000000000,"state":"active","ping":60},{"user_id":25,"name":"fortnite56k","steam_id":76561198404564240,"connected_time":776000000000,"state":"active","ping":61},{"user_id":26,"name":"Calypso","steam_id":76561199015827567,"connected_time":763000000000,"state":"active","ping":80},{"user_id":27,"name":"hank","steam_id":76561199041547921,"connected_time":760000000000,"state":"active","ping":76},{"user_id":29,"name":"SoundslikeJustice","steam_id":76561198963640645,"connected_time":693000000000,"state":"active","ping":75},{"user_id":30,"name":"Zombie_Damage","steam_id":76561197963901630,"connected_time":678000000000,"state":"active","ping":67},{"user_id":40,"name":"6t26j","steam_id":76561198278282836,"connected_time":253000000000,"state":"active","ping":49},{"user_id":32,"name":"TonesMcGroans","steam_id":76561197996691606,"connected_time":650000000000,"state":"active","ping":65},{"user_id":33,"name":"Sunshine","steam_id":76561198885528098,"connected_time":643000000000,"state":"active","ping":74},{"user_id":34,"name":"CoralDawn","steam_id":76561198292292930,"connected_time":637000000000,"state":"active","ping":69}]},{"server_id":403,"name":"Uncletopia | Chicago | 4 | All Maps","name_short":"chi-4","host":"chi-1.us.uncletopia.com","port":27045,"enabled":true,"region":"us-central","cc":"us","latitude":41.881832,"longitude":-87.62318,"reserved":0,"last_update":"0001-01-01T00:00:00Z","name_a2s":"Uncletopia | Chicago | 4 | All Maps","protocol":17,"map":"pl_borneo","folder":"tf","game":"Team Fortress","app_id":440,"player_count":24,"max_players":24,"Bots":0,"server_type":"Dedicated","server_os":"Linux","password":true,"vac":true,"version":"7961495","steam_id":85568392924515193,"keywords":["nocrits","nodmgspread","payload","uncletopia"],"game_id":440,"stv_port":27046,"stv_name":"Uncletopia | Chicago | 4 | All Maps | STV","players":[{"user_id":76,"name":"Onionboy","steam_id":76561198110340279,"connected_time":1994000000000,"state":"active","ping":81},{"user_id":8,"name":"Drachma","steam_id":76561198007310514,"connected_time":7610000000000,"state":"active","ping":56},{"user_id":68,"name":"Fitts1099","steam_id":76561198044986906,"connected_time":2634000000000,"state":"active","ping":46},{"user_id":41,"name":"Placcid","steam_id":76561197996898905,"connected_time":5749000000000,"state":"active","ping":86},{"user_id":81,"name":"Stephen","steam_id":76561197989467462,"connected_time":876000000000,"state":"active","ping":74},{"user_id":79,"name":"firetamer2","steam_id":76561198040886980,"connected_time":1364000000000,"state":"active","ping":62},{"user_id":80,"name":"O'brien","steam_id":76561198289339403,"connected_time":1193000000000,"state":"active","ping":89},{"user_id":47,"name":"_Ati","steam_id":76561198339777801,"connected_time":4599000000000,"state":"active","ping":110},{"user_id":66,"name":"AMU","steam_id":76561198092346231,"connected_time":2748000000000,"state":"active","ping":65},{"user_id":34,"name":"Mecha","steam_id":76561198014927379,"connected_time":6128000000000,"state":"active","ping":63},{"user_id":82,"name":"Ibrahim","steam_id":76561198028320625,"connected_time":865000000000,"state":"active","ping":67},{"user_id":29,"name":"Oopsie Daisy ❋","steam_id":76561198042144492,"connected_time":6345000000000,"state":"active","ping":72},{"user_id":75,"name":"Spoofle","steam_id":76561199003655066,"connected_time":2185000000000,"state":"active","ping":88},{"user_id":83,"name":"SoCal Kaizer","steam_id":76561198334361081,"connected_time":856000000000,"state":"active","ping":128},{"user_id":88,"name":"ThePatheticMedic","steam_id":76561198873083105,"connected_time":61000000000,"state":"active","ping":59},{"user_id":70,"name":"Transbian mommy GF","steam_id":76561198153233822,"connected_time":2504000000000,"state":"active","ping":84},{"user_id":85,"name":"eaglesfan609","steam_id":76561198151032242,"connected_time":623000000000,"state":"active","ping":69},{"user_id":55,"name":"Sprucelass","steam_id":76561197998391724,"connected_time":3968000000000,"state":"active","ping":61},{"user_id":71,"name":"-W3E- grim10465","steam_id":76561198045698581,"connected_time":2320000000000,"state":"active","ping":46},{"user_id":84,"name":"Ze_Über_Nerd","steam_id":76561198091148675,"connected_time":820000000000,"state":"active","ping":69},{"user_id":86,"name":"Hyperactivedimwit","steam_id":76561198134221704,"connected_time":478000000000,"state":"active","ping":56},{"user_id":78,"name":"Lia_Rein TTV","steam_id":76561198151569597,"connected_time":1628000000000,"state":"active","ping":144},{"user_id":58,"name":"Ursus Ludius","steam_id":76561198025470722,"connected_time":3873000000000,"state":"active","ping":124},{"user_id":87,"name":"Tenerance Love","steam_id":76561199132268907,"connected_time":365000000000,"state":"active","ping":52}]},{"server_id":36,"name":"Uncletopia | Chicago | 5 | All Maps","name_short":"chi-5","host":"chi-2.us.uncletopia.com","port":27015,"enabled":true,"region":"us-central","cc":"us","latitude":41.881832,"longitude":-87.62318,"reserved":0,"last_update":"0001-01-01T00:00:00Z","name_a2s":"Uncletopia | Chicago | 5 | All Maps","protocol":17,"map":"koth_viaduct","folder":"tf","game":"Team Fortress","app_id":440,"player_count":0,"max_players":24,"Bots":0,"server_type":"Dedicated","server_os":"Linux","password":true,"vac":true,"version":"7961495","steam_id":85568392924866362,"keywords":["cp","nocrits","nodmgspread","uncletopia"],"game_id":440,"stv_port":27016,"stv_name":"Uncletopia | Chicago | 5 | All Maps | STV","players":null},{"server_id":37,"name":"Uncletopia | Chicago | 6 | All Maps","name_short":"chi-6","host":"chi-2.us.uncletopia.com","port":27025,"enabled":true,"region":"us-central","cc":"us","latitude":41.881832,"longitude":-87.62318,"reserved":0,"last_update":"0001-01-01T00:00:00Z","name_a2s":"Uncletopia | Chicago | 6 | All Maps","protocol":17,"map":"koth_cascade","folder":"tf","game":"Team Fortress","app_id":440,"player_count":0,"max_players":24,"Bots":0,"server_type":"Dedicated","server_os":"Linux","password":true,"vac":true,"version":"7961495","steam_id":85568392924866363,"keywords":["cp","nocrits","nodmgspread","uncletopia"],"game_id":440,"stv_port":27026,"stv_name":"Uncletopia | Chicago | 6 | All Maps | STV","players":null},{"server_id":38,"name":"Uncletopia | Chicago | 7 | Stopwatch","name_short":"chi-7","host":"chi-2.us.uncletopia.com","port":27035,"enabled":true,"region":"us-central","cc":"us","latitude":41.881832,"longitude":-87.62318,"reserved":0,"last_update":"0001-01-01T00:00:00Z","name_a2s":"Uncletopia | Chicago | 7 | Stopwatch","protocol":17,"map":"pl_badwater","folder":"tf","game":"Team Fortress","app_id":440,"player_count":0,"max_players":24,"Bots":0,"server_type":"Dedicated","server_os":"Linux","password":true,"vac":true,"version":"7961495","steam_id":85568392924866364,"keywords":["nocrits","nodmgspread","payload","uncletopia"],"game_id":440,"stv_port":27036,"stv_name":"Uncletopia | Chicago | 7 | Stopwatch | STV","players":null},{"server_id":39,"name":"Uncletopia | Chicago | 8 | Community","name_short":"chi-8","host":"chi-2.us.uncletopia.com","port":27045,"enabled":true,"region":"us-central","cc":"us","latitude":41.881832,"longitude":-87.62318,"reserved":0,"last_update":"0001-01-01T00:00:00Z","name_a2s":"Uncletopia | Chicago | 8 | Community","protocol":17,"map":"pl_pier","folder":"tf","game":"Team Fortress","app_id":440,"player_count":0,"max_players":24,"Bots":0,"server_type":"Dedicated","server_os":"Linux","password":true,"vac":true,"version":"7961495","steam_id":85568392924866365,"keywords":["nocrits","nodmgspread","payload","uncletopia"],"game_id":440,"stv_port":27046,"stv_name":"Uncletopia | Chicago | 8 | Community | STV","players":null},{"server_id":8,"name":"Uncletopia | Dallas | 1 | All Maps","name_short":"dal-1","host":"dal-1.us.uncletopia.com","port":27015,"enabled":true,"region":"us-central","cc":"us","latitude":32.779167,"longitude":-96.80889,"reserved":0,"last_update":"0001-01-01T00:00:00Z","name_a2s":"Uncletopia | Dallas | 1 | All Maps","protocol":17,"map":"pl_badwater","folder":"tf","game":"Team Fortress","app_id":440,"player_count":24,"max_players":24,"Bots":0,"server_type":"Dedicated","server_os":"Linux","password":true,"vac":true,"version":"7961495","steam_id":85568392924469986,"keywords":["nocrits","nodmgspread","payload","uncletopia"],"game_id":440,"stv_port":27016,"stv_name":"Uncletopia | Dallas | 1 | All Maps | STV","players":[{"user_id":216,"name":"Zeetch","steam_id":76561198110579765,"connected_time":386000000000,"state":"active","ping":90},{"user_id":208,"name":"󠀡󠀡","steam_id":76561199063210283,"connected_time":1034000000000,"state":"active","ping":92},{"user_id":198,"name":"magnanimity","steam_id":76561198242842394,"connected_time":1853000000000,"state":"active","ping":51},{"user_id":220,"name":"Onyx","steam_id":76561198275349640,"connected_time":193000000000,"state":"active","ping":72},{"user_id":205,"name":"jack","steam_id":76561198397804555,"connected_time":1127000000000,"state":"active","ping":124},{"user_id":202,"name":"Chestnut","steam_id":76561198078198968,"connected_time":1264000000000,"state":"active","ping":88},{"user_id":206,"name":"Papeese","steam_id":76561198297839897,"connected_time":1077000000000,"state":"active","ping":117},{"user_id":218,"name":"Nemiel Zaharion","steam_id":76561197999234678,"connected_time":323000000000,"state":"active","ping":51},{"user_id":221,"name":"meo ♥","steam_id":76561197992719272,"connected_time":190000000000,"state":"active","ping":79},{"user_id":182,"name":"real worm","steam_id":76561199065645094,"connected_time":3215000000000,"state":"active","ping":78},{"user_id":222,"name":"Mikael_01","steam_id":76561199080253129,"connected_time":186000000000,"state":"active","ping":178},{"user_id":199,"name":"GLG.Liz","steam_id":76561198021957956,"connected_time":1393000000000,"state":"active","ping":45},{"user_id":194,"name":"Portaldude626","steam_id":76561198954610452,"connected_time":2117000000000,"state":"active","ping":65},{"user_id":212,"name":"alejandro","steam_id":76561198095113674,"connected_time":653000000000,"state":"active","ping":76},{"user_id":178,"name":"Darling","steam_id":76561198127525888,"connected_time":3826000000000,"state":"active","ping":57},{"user_id":223,"name":"lilorphanterio","steam_id":76561198996539622,"connected_time":145000000000,"state":"active","ping":67},{"user_id":224,"name":"Gigacheat","steam_id":76561198862843572,"connected_time":135000000000,"state":"active","ping":84},{"user_id":225,"name":"jerma but crying and lesbian","steam_id":76561198110661425,"connected_time":100000000000,"state":"active","ping":77},{"user_id":226,"name":"Bluemaniac963","steam_id":76561199232474869,"connected_time":44000000000,"state":"active","ping":97},{"user_id":211,"name":"You Want Me","steam_id":76561198135492119,"connected_time":786000000000,"state":"active","ping":83},{"user_id":101,"name":"Clumsy","steam_id":76561198056345245,"connected_time":9194000000000,"state":"active","ping":67},{"user_id":227,"name":"mop","steam_id":76561199207457676,"connected_time":34000000000,"state":"active","ping":62},{"user_id":215,"name":"toerpe","steam_id":76561198055678550,"connected_time":540000000000,"state":"active","ping":63},{"user_id":197,"name":"A Straw","steam_id":76561199367935846,"connected_time":2039000000000,"state":"active","ping":79}]},{"server_id":108,"name":"Uncletopia | Dallas | 2 | All Maps","name_short":"dal-2","host":"dal-1.us.uncletopia.com","port":27025,"enabled":true,"region":"us-central","cc":"us","latitude":32.779167,"longitude":-96.80889,"reserved":0,"last_update":"0001-01-01T00:00:00Z","name_a2s":"Uncletopia | Dallas | 2 | All Maps","protocol":17,"map":"pl_borneo","folder":"tf","game":"Team Fortress","app_id":440,"player_count":0,"max_players":24,"Bots":0,"server_type":"Dedicated","server_os":"Linux","password":true,"vac":true,"version":"7961495","steam_id":85568392924469988,"keywords":["nocrits","nodmgspread","payload","uncletopia"],"game_id":440,"stv_port":27026,"stv_name":"Uncletopia | Dallas | 2 | All Maps | STV","players":null},{"server_id":404,"name":"Uncletopia | Dallas | 3 | All Maps","name_short":"dal-3","host":"dal-1.us.uncletopia.com","port":27035,"enabled":true,"region":"us-central","cc":"us","latitude":32.779167,"longitude":-96.80889,"reserved":0,"last_update":"0001-01-01T00:00:00Z","name_a2s":"Uncletopia | Dallas | 3 | All Maps","protocol":17,"map":"pl_badwater","folder":"tf","game":"Team Fortress","app_id":440,"player_count":0,"max_players":24,"Bots":0,"server_type":"Dedicated","server_os":"Linux","password":true,"vac":true,"version":"7961495","steam_id":85568392924515219,"keywords":["nocrits","nodmgspread","payload","uncletopia"],"game_id":440,"stv_port":27036,"stv_name":"Uncletopia | Dallas | 3 | All Maps | STV","players":null},{"server_id":405,"name":"Uncletopia | Dallas | 4 | Community","name_short":"dal-4","host":"dal-1.us.uncletopia.com","port":27045,"enabled":true,"region":"us-central","cc":"us","latitude":32.779167,"longitude":-96.80889,"reserved":0,"last_update":"0001-01-01T00:00:00Z","name_a2s":"Uncletopia | Dallas | 4 | Community","protocol":17,"map":"workshop/koth_product_final.ugc454272353","folder":"tf","game":"Team Fortress","app_id":440,"player_count":0,"max_players":24,"Bots":0,"server_type":"Dedicated","server_os":"Linux","password":true,"vac":true,"version":"7961495","steam_id":85568392924515220,"keywords":["cp","nocrits","nodmgspread","uncletopia"],"game_id":440,"stv_port":27046,"stv_name":"Uncletopia | Dallas | 4 | Community | STV","players":null},{"server_id":5,"name":"Uncletopia | Frankfurt | 1 | All Maps","name_short":"frk-1","host":"frk-1.de.uncletopia.com","port":27015,"enabled":true,"region":"eu","cc":"de","latitude":50.110924,"longitude":8.682127,"reserved":0,"last_update":"0001-01-01T00:00:00Z","name_a2s":"Uncletopia | Frankfurt | 1 | All Maps","protocol":17,"map":"pl_borneo","folder":"tf","game":"Team Fortress","app_id":440,"player_count":24,"max_players":24,"Bots":0,"server_type":"Dedicated","server_os":"Linux","password":true,"vac":true,"version":"7961495","steam_id":85568392924469989,"keywords":["nocrits","nodmgspread","payload","uncletopia"],"game_id":440,"stv_port":27016,"stv_name":"Uncletopia | Frankfurt | 1 | All Maps | STV","players":[{"user_id":304,"name":"Piox","steam_id":76561198125689157,"connected_time":499000000000,"state":"active","ping":60},{"user_id":248,"name":"luma","steam_id":76561198081649669,"connected_time":5009000000000,"state":"active","ping":63},{"user_id":221,"name":"Makeways","steam_id":76561198274466477,"connected_time":7650000000000,"state":"active","ping":96},{"user_id":285,"name":"Francis","steam_id":76561198987134265,"connected_time":2490000000000,"state":"active","ping":72},{"user_id":238,"name":"the one who grips","steam_id":76561198381106289,"connected_time":5627000000000,"state":"active","ping":75},{"user_id":270,"name":"nevim","steam_id":76561199120843402,"connected_time":3792000000000,"state":"active","ping":56},{"user_id":280,"name":"G/3","steam_id":76561198234844188,"connected_time":2696000000000,"state":"active","ping":60},{"user_id":276,"name":"wyro","steam_id":76561199176835169,"connected_time":2960000000000,"state":"active","ping":67},{"user_id":291,"name":"Kitoglav Kito","steam_id":76561198359912140,"connected_time":1943000000000,"state":"active","ping":77},{"user_id":256,"name":"Urfangonultasadana","steam_id":76561199389286151,"connected_time":4547000000000,"state":"active","ping":120},{"user_id":295,"name":"Alice","steam_id":76561198052410860,"connected_time":1609000000000,"state":"active","ping":138},{"user_id":298,"name":"Mitt","steam_id":76561199011013919,"connected_time":1276000000000,"state":"active","ping":72},{"user_id":277,"name":"submackeen","steam_id":76561198799855913,"connected_time":2950000000000,"state":"active","ping":166},{"user_id":305,"name":"Gaattori","steam_id":76561198065624683,"connected_time":340000000000,"state":"active","ping":89},{"user_id":301,"name":"Boki","steam_id":76561198044553351,"connected_time":641000000000,"state":"active","ping":80},{"user_id":272,"name":"Optimist 50","steam_id":76561198039631442,"connected_time":3347000000000,"state":"active","ping":81},{"user_id":307,"name":"Can't outsmart bullet","steam_id":76561199239168617,"connected_time":58000000000,"state":"active","ping":60},{"user_id":294,"name":"Haha?","steam_id":76561198056882245,"connected_time":1654000000000,"state":"active","ping":45},{"user_id":279,"name":"LeGerooo","steam_id":76561199110422160,"connected_time":2788000000000,"state":"active","ping":92},{"user_id":303,"name":"mr sparkles","steam_id":76561197980736364,"connected_time":620000000000,"state":"active","ping":75},{"user_id":306,"name":"RXQ","steam_id":76561199423258992,"connected_time":268000000000,"state":"active","ping":190},{"user_id":308,"name":"chili235","steam_id":76561198883935945,"connected_time":45000000000,"state":"active","ping":63},{"user_id":273,"name":"LivEssense","steam_id":76561198052476979,"connected_time":3035000000000,"state":"active","ping":90},{"user_id":284,"name":"jermany","steam_id":76561198126599355,"connected_time":2657000000000,"state":"active","ping":50}]},{"server_id":110,"name":"Uncletopia | Frankfurt | 2 | All Maps","name_short":"frk-2","host":"frk-1.de.uncletopia.com","port":27025,"enabled":true,"region":"eu","cc":"de","latitude":50.110924,"longitude":8.682127,"reserved":0,"last_update":"0001-01-01T00:00:00Z","name_a2s":"Uncletopia | Frankfurt | 2 | All Maps","protocol":17,"map":"pl_pier","folder":"tf","game":"Team Fortress","app_id":440,"player_count":24,"max_players":24,"Bots":0,"server_type":"Dedicated","server_os":"Linux","password":true,"vac":true,"version":"7961495","steam_id":85568392924469990,"keywords":["nocrits","nodmgspread","payload","uncletopia"],"game_id":440,"stv_port":27026,"stv_name":"Uncletopia | Frankfurt | 2 | All Maps | STV","players":[{"user_id":251,"name":"birthday chimp","steam_id":76561198132062857,"connected_time":2415000000000,"state":"active","ping":60},{"user_id":271,"name":"Regular Pashka","steam_id":76561198070502697,"connected_time":1097000000000,"state":"active","ping":64},{"user_id":262,"name":"competitive sex","steam_id":76561198060530483,"connected_time":1345000000000,"state":"active","ping":74},{"user_id":117,"name":"After8","steam_id":76561198090750865,"connected_time":11663000000000,"state":"active","ping":62},{"user_id":284,"name":"Jonak","steam_id":76561198080832458,"connected_time":138000000000,"state":"active","ping":61},{"user_id":265,"name":"zek","steam_id":76561198862763731,"connected_time":1319000000000,"state":"active","ping":51},{"user_id":281,"name":"your_local_penguin","steam_id":76561199224954346,"connected_time":379000000000,"state":"active","ping":94},{"user_id":279,"name":"NukePigg","steam_id":76561198131324143,"connected_time":518000000000,"state":"active","ping":51},{"user_id":260,"name":"night.s","steam_id":76561198326287823,"connected_time":1350000000000,"state":"active","ping":78},{"user_id":250,"name":"meriones","steam_id":76561198034234373,"connected_time":2434000000000,"state":"active","ping":53},{"user_id":266,"name":"Skippie","steam_id":76561198102029146,"connected_time":1317000000000,"state":"active","ping":73},{"user_id":243,"name":"Rops","steam_id":76561198031608011,"connected_time":2744000000000,"state":"active","ping":80},{"user_id":248,"name":"Whirlwind","steam_id":76561198942024930,"connected_time":2450000000000,"state":"active","ping":90},{"user_id":278,"name":"kaczuszka","steam_id":76561198969373800,"connected_time":551000000000,"state":"active","ping":70},{"user_id":231,"name":"[P-roc] Cmm Bert","steam_id":76561198016658674,"connected_time":3226000000000,"state":"active","ping":72},{"user_id":256,"name":"Pierdu","steam_id":76561198028705770,"connected_time":2004000000000,"state":"active","ping":55},{"user_id":227,"name":"tzlil","steam_id":76561198399916290,"connected_time":3440000000000,"state":"active","ping":105},{"user_id":285,"name":"Master Of Noob","steam_id":76561198217926783,"connected_time":135000000000,"state":"active","ping":67},{"user_id":263,"name":"󠀡󠀡","steam_id":76561198059375315,"connected_time":1343000000000,"state":"active","ping":55},{"user_id":264,"name":"mushroom","steam_id":76561198817034571,"connected_time":1340000000000,"state":"active","ping":95},{"user_id":286,"name":"ArcunY","steam_id":76561198859200186,"connected_time":2000000000,"state":"spawning","ping":78},{"user_id":216,"name":"Sustavo","steam_id":76561198344435644,"connected_time":4358000000000,"state":"active","ping":60},{"user_id":269,"name":"Idenitity_Ception","steam_id":76561198407626603,"connected_time":1286000000000,"state":"active","ping":171},{"user_id":270,"name":"Narvhalø","steam_id":76561198147495474,"connected_time":1283000000000,"state":"active","ping":57}]},{"server_id":308,"name":"Uncletopia | Frankfurt | 3 | All Maps","name_short":"frk-3","host":"frk-1.de.uncletopia.com","port":27035,"enabled":true,"region":"eu","cc":"de","latitude":50.110924,"longitude":8.682127,"reserved":0,"last_update":"0001-01-01T00:00:00Z","name_a2s":"Uncletopia | Frankfurt | 3 | All Maps","protocol":17,"map":"koth_cascade","folder":"tf","game":"Team Fortress","app_id":440,"player_count":2,"max_players":24,"Bots":0,"server_type":"Dedicated","server_os":"Linux","password":true,"vac":true,"version":"7961495","steam_id":85568392924504274,"keywords":["cp","nocrits","nodmgspread","uncletopia"],"game_id":440,"stv_port":27036,"stv_name":"Uncletopia | Frankfurt | 3 | All Maps | STV","players":[{"user_id":32,"name":"I-I","steam_id":76561198267969436,"connected_time":294000000000,"state":"active","ping":60},{"user_id":33,"name":"MisterLegitimate","steam_id":76561199198559715,"connected_time":151000000000,"state":"active","ping":68}]},{"server_id":309,"name":"Uncletopia | Frankfurt | 4 | All Maps","name_short":"frk-4","host":"frk-1.de.uncletopia.com","port":27045,"enabled":true,"region":"eu","cc":"de","latitude":50.110924,"longitude":8.682127,"reserved":0,"last_update":"0001-01-01T00:00:00Z","name_a2s":"Uncletopia | Frankfurt | 4 | All Maps","protocol":17,"map":"pl_upward","folder":"tf","game":"Team Fortress","app_id":440,"player_count":16,"max_players":24,"Bots":0,"server_type":"Dedicated","server_os":"Linux","password":true,"vac":true,"version":"7961495","steam_id":85568392924504275,"keywords":["nocrits","nodmgspread","payload","uncletopia"],"game_id":440,"stv_port":27046,"stv_name":"Uncletopia | Frankfurt | 4 | All Maps | STV","players":[{"user_id":339,"name":"Pelaxisツ","steam_id":76561198180030121,"connected_time":154000000000,"state":"active","ping":64},{"user_id":340,"name":"Kornel","steam_id":76561199000320652,"connected_time":76000000000,"state":"active","ping":123},{"user_id":343,"name":"abrax","steam_id":76561198252035180,"connected_time":9000000000,"state":"active","ping":63},{"user_id":341,"name":"CBT","steam_id":76561199439141531,"connected_time":51000000000,"state":"active","ping":52},{"user_id":324,"name":"zssz","steam_id":76561198148400154,"connected_time":1892000000000,"state":"active","ping":60},{"user_id":342,"name":"iq drops","steam_id":76561198035795130,"connected_time":19000000000,"state":"active","ping":57},{"user_id":293,"name":"Dark","steam_id":76561199162752036,"connected_time":3967000000000,"state":"active","ping":72},{"user_id":316,"name":"Genesis","steam_id":76561198999652040,"connected_time":2342000000000,"state":"active","ping":38},{"user_id":337,"name":"Muppburg","steam_id":76561198031070682,"connected_time":246000000000,"state":"active","ping":62},{"user_id":344,"name":"epic party rat","steam_id":76561199100632053,"connected_time":3000000000,"state":"spawning","ping":64},{"user_id":301,"name":"Seb, Comrade","steam_id":76561198040279587,"connected_time":3580000000000,"state":"active","ping":94},{"user_id":333,"name":"waddle dork","steam_id":76561198297349985,"connected_time":992000000000,"state":"active","ping":55},{"user_id":332,"name":"Acxra","steam_id":76561198055979128,"connected_time":1174000000000,"state":"active","ping":170},{"user_id":314,"name":"Keijo","steam_id":76561198010255870,"connected_time":2761000000000,"state":"active","ping":89},{"user_id":330,"name":"Real (Real)","steam_id":76561198323425034,"connected_time":1280000000000,"state":"active","ping":84},{"user_id":328,"name":"Heinrich","steam_id":76561198063897745,"connected_time":1532000000000,"state":"active","ping":68}]},{"server_id":310,"name":"Uncletopia | Frankfurt | 5 | All Maps","name_short":"frk-5","host":"frk-1.de.uncletopia.com","port":27055,"enabled":true,"region":"eu","cc":"de","latitude":50.110924,"longitude":8.682127,"reserved":0,"last_update":"0001-01-01T00:00:00Z","name_a2s":"Uncletopia | Frankfurt | 5 | All Maps","protocol":17,"map":"pl_borneo","folder":"tf","game":"Team Fortress","app_id":440,"player_count":23,"max_players":24,"Bots":0,"server_type":"Dedicated","server_os":"Linux","password":true,"vac":true,"version":"7961495","steam_id":85568392924504277,"keywords":["nocrits","nodmgspread","payload","uncletopia"],"game_id":440,"stv_port":27056,"stv_name":"Uncletopia | Frankfurt | 5 | All Maps | STV","players":[{"user_id":415,"name":"wheel bread","steam_id":76561199062586342,"connected_time":70000000000,"state":"active","ping":84},{"user_id":395,"name":"Empyrean | TF2.LT","steam_id":76561198138552502,"connected_time":1026000000000,"state":"active","ping":69},{"user_id":408,"name":"vipRLH","steam_id":76561198103030238,"connected_time":423000000000,"state":"active","ping":42},{"user_id":380,"name":"endlesshills","steam_id":76561198081908373,"connected_time":2316000000000,"state":"active","ping":55},{"user_id":398,"name":"Knösta","steam_id":76561198143422139,"connected_time":940000000000,"state":"active","ping":109},{"user_id":409,"name":"Soulman25 (FIN)","steam_id":76561198103611974,"connected_time":409000000000,"state":"active","ping":100},{"user_id":405,"name":"VIN WEASEL","steam_id":76561198014387066,"connected_time":440000000000,"state":"active","ping":58},{"user_id":363,"name":"SICKO MODE MONKEY","steam_id":76561199188734915,"connected_time":3417000000000,"state":"active","ping":69},{"user_id":407,"name":"vetzakski","steam_id":76561198988041775,"connected_time":436000000000,"state":"active","ping":74},{"user_id":375,"name":"Joe","steam_id":76561198145639903,"connected_time":2686000000000,"state":"active","ping":105},{"user_id":410,"name":"snsmac","steam_id":76561198082821185,"connected_time":393000000000,"state":"active","ping":45},{"user_id":416,"name":"Uriziel","steam_id":76561198046950794,"connected_time":14000000000,"state":"spawning","ping":86},{"user_id":324,"name":"supercharger832","steam_id":76561198871408515,"connected_time":5319000000000,"state":"active","ping":65},{"user_id":365,"name":"Pico","steam_id":76561198063552545,"connected_time":3296000000000,"state":"active","ping":100},{"user_id":387,"name":"[T]aKer","steam_id":76561198001778013,"connected_time":1840000000000,"state":"active","ping":50},{"user_id":406,"name":"Resigner112","steam_id":76561197984261307,"connected_time":439000000000,"state":"active","ping":93},{"user_id":376,"name":"cat","steam_id":76561198837071509,"connected_time":2642000000000,"state":"active","ping":81},{"user_id":404,"name":"Xriasp","steam_id":76561198104721321,"connected_time":497000000000,"state":"active","ping":89},{"user_id":412,"name":"else1","steam_id":76561197996558319,"connected_time":334000000000,"state":"active","ping":75},{"user_id":381,"name":"Mr_Pulse_","steam_id":76561198095001602,"connected_time":2242000000000,"state":"active","ping":90},{"user_id":393,"name":"rez777ka","steam_id":76561198107605938,"connected_time":1057000000000,"state":"active","ping":91},{"user_id":391,"name":"snert","steam_id":76561198451550309,"connected_time":1634000000000,"state":"active","ping":48},{"user_id":413,"name":"ŽEROU SUICIDEBOYS NUDLE???","steam_id":76561198103161948,"connected_time":321000000000,"state":"active","ping":70}]},{"server_id":311,"name":"Uncletopia | Frankfurt | 6 | All Maps","name_short":"frk-6","host":"frk-1.de.uncletopia.com","port":27065,"enabled":true,"region":"eu","cc":"de","latitude":50.110924,"longitude":8.682127,"reserved":0,"last_update":"0001-01-01T00:00:00Z","name_a2s":"Uncletopia | Frankfurt | 6 | All Maps","protocol":17,"map":"koth_cascade","folder":"tf","game":"Team Fortress","app_id":440,"player_count":0,"max_players":24,"Bots":0,"server_type":"Dedicated","server_os":"Linux","password":true,"vac":true,"version":"7961495","steam_id":85568392924504278,"keywords":["cp","nocrits","nodmgspread","uncletopia"],"game_id":440,"stv_port":27066,"stv_name":"Uncletopia | Frankfurt | 6 | All Maps | STV","players":null},{"server_id":23,"name":"Uncletopia | Frankfurt | 7 | Stopwatch","name_short":"frk-7","host":"frk-1.de.uncletopia.com","port":27075,"enabled":true,"region":"eu","cc":"de","latitude":50.110924,"longitude":8.682127,"reserved":0,"last_update":"0001-01-01T00:00:00Z","name_a2s":"Uncletopia | Frankfurt | 7 | Stopwatch","protocol":17,"map":"workshop/pl_summercoast_rc8e.ugc1761528829","folder":"tf","game":"Team Fortress","app_id":440,"player_count":0,"max_players":24,"Bots":0,"server_type":"Dedicated","server_os":"Linux","password":true,"vac":true,"version":"7961495","steam_id":85568392924742827,"keywords":["nocrits","nodmgspread","payload","uncletopia"],"game_id":440,"stv_port":27076,"stv_name":"Uncletopia | Frankfurt | 7 | Stopwatch | STV","players":null},{"server_id":24,"name":"Uncletopia | Frankfurt | 8 | Community","name_short":"frk-8","host":"frk-1.de.uncletopia.com","port":27085,"enabled":true,"region":"eu","cc":"de","latitude":50.110924,"longitude":8.682127,"reserved":0,"last_update":"0001-01-01T00:00:00Z","name_a2s":"Uncletopia | Frankfurt | 8 | Community","protocol":17,"map":"workshop/koth_kemptown_rc1.ugc767410655","folder":"tf","game":"Team Fortress","app_id":440,"player_count":0,"max_players":24,"Bots":0,"server_type":"Dedicated","server_os":"Linux","password":true,"vac":true,"version":"7961495","steam_id":85568392924742828,"keywords":["cp","nocrits","nodmgspread","uncletopia"],"game_id":440,"stv_port":27086,"stv_name":"Uncletopia | Frankfurt | 8 | Community | STV","players":null},{"server_id":202,"name":"Uncletopia | Hong Kong | 1 | All Maps","name_short":"hgk-1","host":"hgk-1.hk.uncletopia.com","port":27015,"enabled":true,"region":"asia","cc":"hk","latitude":22.302711,"longitude":114.177216,"reserved":0,"last_update":"0001-01-01T00:00:00Z","name_a2s":"Uncletopia | Hong Kong | 1 | All Maps","protocol":17,"map":"pl_upward","folder":"tf","game":"Team Fortress","app_id":440,"player_count":24,"max_players":24,"Bots":0,"server_type":"Dedicated","server_os":"Linux","password":true,"vac":true,"version":"7961495","steam_id":85568392924494504,"keywords":["nocrits","nodmgspread","payload","uncletopia"],"game_id":440,"stv_port":27016,"stv_name":"Uncletopia | Hong Kong | 1 | All Maps | STV","players":[{"user_id":549,"name":"SakuLightning","steam_id":76561198039422369,"connected_time":5867000000000,"state":"active","ping":111},{"user_id":604,"name":"thelucidletters","steam_id":76561199014081185,"connected_time":742000000000,"state":"active","ping":119},{"user_id":564,"name":"P","steam_id":76561198304514505,"connected_time":4842000000000,"state":"active","ping":76},{"user_id":500,"name":"Kurtie","steam_id":76561198144737876,"connected_time":8958000000000,"state":"active","ping":69},{"user_id":603,"name":"meowsh","steam_id":76561198060448954,"connected_time":810000000000,"state":"active","ping":75},{"user_id":606,"name":"toadツ","steam_id":76561198082199290,"connected_time":528000000000,"state":"active","ping":44},{"user_id":562,"name":"Othopeus","steam_id":76561198283534382,"connected_time":4915000000000,"state":"active","ping":69},{"user_id":530,"name":"Samoyed","steam_id":76561198299150410,"connected_time":6956000000000,"state":"active","ping":82},{"user_id":612,"name":"sQew^","steam_id":76561198160775457,"connected_time":337000000000,"state":"active","ping":108},{"user_id":608,"name":"Azi","steam_id":76561198147872523,"connected_time":411000000000,"state":"active","ping":73},{"user_id":601,"name":"sakuchan_39","steam_id":76561198095278714,"connected_time":1509000000000,"state":"active","ping":42},{"user_id":611,"name":"steame17","steam_id":76561199387872784,"connected_time":364000000000,"state":"active","ping":116},{"user_id":567,"name":"母の肉団子@hao123.com","steam_id":76561198069561896,"connected_time":4614000000000,"state":"active","ping":45},{"user_id":592,"name":"imma quit this game soon","steam_id":76561198187995386,"connected_time":2584000000000,"state":"active","ping":86},{"user_id":596,"name":"jasonrat","steam_id":76561198367940388,"connected_time":1931000000000,"state":"active","ping":105},{"user_id":597,"name":"dax.","steam_id":76561198321885643,"connected_time":1792000000000,"state":"active","ping":46},{"user_id":532,"name":"U・♀・U kitty","steam_id":76561198149684436,"connected_time":6934000000000,"state":"active","ping":42},{"user_id":578,"name":"Milf (The fan O'Milk)","steam_id":76561198213031155,"connected_time":3432000000000,"state":"active","ping":103},{"user_id":594,"name":"monkeyman536","steam_id":76561197997717737,"connected_time":2527000000000,"state":"active","ping":131},{"user_id":616,"name":"是Cocoa嗎","steam_id":76561198972098557,"connected_time":101000000000,"state":"active","ping":58},{"user_id":570,"name":"Stewb","steam_id":76561198131423270,"connected_time":4190000000000,"state":"active","ping":69},{"user_id":595,"name":"13MAN","steam_id":76561198900023603,"connected_time":2462000000000,"state":"active","ping":93},{"user_id":579,"name":"HF","steam_id":76561198873180855,"connected_time":3128000000000,"state":"active","ping":83},{"user_id":613,"name":"average 2fort enjoyer","steam_id":76561198062112214,"connected_time":332000000000,"state":"active","ping":120}]},{"server_id":1,"name":"Uncletopia | Los Angeles | 1 | All Maps","name_short":"lax-1","host":"lax-1.us.uncletopia.com","port":27015,"enabled":true,"region":"us-west","cc":"us","latitude":33.94279,"longitude":-118.41004,"reserved":0,"last_update":"0001-01-01T00:00:00Z","name_a2s":"Uncletopia | Los Angeles | 1 | All Maps","protocol":17,"map":"pl_snowycoast","folder":"tf","game":"Team Fortress","app_id":440,"player_count":0,"max_players":24,"Bots":0,"server_type":"Dedicated","server_os":"Linux","password":true,"vac":true,"version":"7961495","steam_id":85568392924469991,"keywords":["nocrits","nodmgspread","payload","uncletopia"],"game_id":440,"stv_port":27016,"stv_name":"Uncletopia | Los Angeles | 1 | All Maps | STV","players":null},{"server_id":112,"name":"Uncletopia | Los Angeles | 2 | All Maps","name_short":"lax-2","host":"lax-1.us.uncletopia.com","port":27025,"enabled":true,"region":"us-west","cc":"us","latitude":33.94279,"longitude":-118.41004,"reserved":0,"last_update":"0001-01-01T00:00:00Z","name_a2s":"Uncletopia | Los Angeles | 2 | All Maps","protocol":17,"map":"cp_mountainlab","folder":"tf","game":"Team Fortress","app_id":440,"player_count":0,"max_players":24,"Bots":0,"server_type":"Dedicated","server_os":"Linux","password":true,"vac":true,"version":"7961495","steam_id":85568392924469992,"keywords":["cp","nocrits","nodmgspread","uncletopia"],"game_id":440,"stv_port":27026,"stv_name":"Uncletopia | Los Angeles | 2 | All Maps | STV","players":null},{"server_id":324,"name":"Uncletopia | Los Angeles | 3 | All Maps","name_short":"lax-3","host":"lax-1.us.uncletopia.com","port":27035,"enabled":true,"region":"us-west","cc":"us","latitude":33.94279,"longitude":-118.41004,"reserved":0,"last_update":"0001-01-01T00:00:00Z","name_a2s":"Uncletopia | Los Angeles | 3 | All Maps","protocol":17,"map":"pl_frontier_final","folder":"tf","game":"Team Fortress","app_id":440,"player_count":0,"max_players":24,"Bots":0,"server_type":"Dedicated","server_os":"Linux","password":true,"vac":true,"version":"7961495","steam_id":85568392924510198,"keywords":["nocrits","nodmgspread","payload","uncletopia"],"game_id":440,"stv_port":27036,"stv_name":"Uncletopia | Los Angeles | 3 | All Maps | STV","players":null},{"server_id":25,"name":"Uncletopia | Los Angeles | 4 | Stopwatch","name_short":"lax-4","host":"lax-1.us.uncletopia.com","port":27045,"enabled":true,"region":"us-west","cc":"us","latitude":33.94279,"longitude":-118.41004,"reserved":0,"last_update":"0001-01-01T00:00:00Z","name_a2s":"Uncletopia | Los Angeles | 4 | Stopwatch","protocol":17,"map":"pl_barnblitz","folder":"tf","game":"Team Fortress","app_id":440,"player_count":0,"max_players":24,"Bots":0,"server_type":"Dedicated","server_os":"Linux","password":true,"vac":true,"version":"7961495","steam_id":85568392924510199,"keywords":["nocrits","nodmgspread","payload","uncletopia"],"game_id":440,"stv_port":27046,"stv_name":"Uncletopia | Los Angeles | 4 | Stopwatch | STV","players":null},{"server_id":11,"name":"Uncletopia | London | 1 | All Maps","name_short":"lon-1","host":"lon-1.uk.uncletopia.com","port":27015,"enabled":true,"region":"eu","cc":"gb","latitude":51.509865,"longitude":-0.118092,"reserved":0,"last_update":"0001-01-01T00:00:00Z","name_a2s":"Uncletopia | London | 1 | All Maps","protocol":17,"map":"pl_swiftwater_final1","folder":"tf","game":"Team Fortress","app_id":440,"player_count":24,"max_players":24,"Bots":0,"server_type":"Dedicated","server_os":"Linux","password":true,"vac":true,"version":"7961495","steam_id":85568392924367362,"keywords":["nocrits","nodmgspread","payload","uncletopia"],"game_id":440,"stv_port":27016,"stv_name":"Uncletopia | London | 1 | All Maps | STV","players":[{"user_id":505,"name":"GoblinGaming","steam_id":76561198360395476,"connected_time":457000000000,"state":"active","ping":50},{"user_id":498,"name":"mr.resetti","steam_id":76561198974520642,"connected_time":946000000000,"state":"active","ping":70},{"user_id":487,"name":"mon0","steam_id":76561198924650063,"connected_time":1224000000000,"state":"active","ping":43},{"user_id":402,"name":"vurtun","steam_id":76561198857395274,"connected_time":7671000000000,"state":"active","ping":59},{"user_id":506,"name":"shooer!","steam_id":76561198110531281,"connected_time":272000000000,"state":"active","ping":69},{"user_id":444,"name":"Bonkovich","steam_id":76561198256800084,"connected_time":4144000000000,"state":"active","ping":118},{"user_id":485,"name":"D_for_Dumbass","steam_id":76561198908993740,"connected_time":1290000000000,"state":"active","ping":73},{"user_id":445,"name":"Mankor","steam_id":76561198020439322,"connected_time":4139000000000,"state":"active","ping":72},{"user_id":491,"name":"Jørn","steam_id":76561199073257952,"connected_time":1141000000000,"state":"active","ping":64},{"user_id":439,"name":"Roman","steam_id":76561197967683724,"connected_time":4946000000000,"state":"active","ping":49},{"user_id":504,"name":"Flared","steam_id":76561198018673136,"connected_time":470000000000,"state":"active","ping":84},{"user_id":502,"name":"Woman (Real)","steam_id":76561199151823932,"connected_time":609000000000,"state":"active","ping":87},{"user_id":507,"name":"Tommy Toughknuckles","steam_id":76561198180438386,"connected_time":244000000000,"state":"active","ping":45},{"user_id":501,"name":"Akkie.","steam_id":76561198017619091,"connected_time":680000000000,"state":"active","ping":58},{"user_id":410,"name":"sparkynerd","steam_id":76561199040106887,"connected_time":7159000000000,"state":"active","ping":58},{"user_id":446,"name":"hyvakii705","steam_id":76561198086630552,"connected_time":4134000000000,"state":"active","ping":88},{"user_id":456,"name":"VEH-DEH-VEH","steam_id":76561198010978989,"connected_time":3350000000000,"state":"active","ping":70},{"user_id":500,"name":"Huskai","steam_id":76561198141512362,"connected_time":892000000000,"state":"active","ping":43},{"user_id":486,"name":"Ley #savetf2","steam_id":76561198989206104,"connected_time":1288000000000,"state":"active","ping":118},{"user_id":508,"name":"Tywhip","steam_id":76561199207545191,"connected_time":217000000000,"state":"active","ping":58},{"user_id":492,"name":"UwU IMPOSTOL","steam_id":76561198356586169,"connected_time":1114000000000,"state":"active","ping":78},{"user_id":468,"name":"Andy","steam_id":76561198046918834,"connected_time":2620000000000,"state":"active","ping":64},{"user_id":494,"name":"Portal79","steam_id":76561198095499584,"connected_time":1107000000000,"state":"active","ping":71},{"user_id":503,"name":"KnugenIV","steam_id":76561198127091993,"connected_time":592000000000,"state":"active","ping":65}]},{"server_id":114,"name":"Uncletopia | London | 2 | All Maps","name_short":"lon-2","host":"lon-1.uk.uncletopia.com","port":27025,"enabled":true,"region":"eu","cc":"gb","latitude":51.509865,"longitude":-0.118092,"reserved":0,"last_update":"0001-01-01T00:00:00Z","name_a2s":"Uncletopia | London | 2 | All Maps","protocol":17,"map":"cp_mountainlab","folder":"tf","game":"Team Fortress","app_id":440,"player_count":24,"max_players":24,"Bots":0,"server_type":"Dedicated","server_os":"Linux","password":true,"vac":true,"version":"7961495","steam_id":85568392924470941,"keywords":["cp","nocrits","nodmgspread","uncletopia"],"game_id":440,"stv_port":27026,"stv_name":"Uncletopia | London | 2 | All Maps | STV","players":[{"user_id":203,"name":"Sir Cauterize","steam_id":76561198047079422,"connected_time":29000000000,"state":"active","ping":56},{"user_id":193,"name":"DenKing2203","steam_id":76561198862585543,"connected_time":866000000000,"state":"active","ping":59},{"user_id":110,"name":"zach12","steam_id":76561198051101008,"connected_time":4506000000000,"state":"active","ping":57},{"user_id":199,"name":"Derek Pappalardo Gaming","steam_id":76561198215428069,"connected_time":482000000000,"state":"active","ping":66},{"user_id":164,"name":"Mobster Tortoise","steam_id":76561199036837091,"connected_time":3050000000000,"state":"active","ping":87},{"user_id":198,"name":"Plep","steam_id":76561198840259819,"connected_time":554000000000,"state":"active","ping":57},{"user_id":190,"name":"Ullr","steam_id":76561198140547483,"connected_time":924000000000,"state":"active","ping":39},{"user_id":196,"name":"AWP Bodyshot :) ❤","steam_id":76561198029928533,"connected_time":795000000000,"state":"active","ping":50},{"user_id":131,"name":"Lauralide","steam_id":76561198291713082,"connected_time":4108000000000,"state":"active","ping":82},{"user_id":200,"name":"MudFlap","steam_id":76561198257541676,"connected_time":260000000000,"state":"active","ping":102},{"user_id":202,"name":"Natt-Attack","steam_id":76561198111469704,"connected_time":201000000000,"state":"active","ping":61},{"user_id":191,"name":"Sakari","steam_id":76561197997811299,"connected_time":898000000000,"state":"active","ping":60},{"user_id":197,"name":"R!not","steam_id":76561197986328786,"connected_time":758000000000,"state":"active","ping":40},{"user_id":133,"name":"貞子ちゃんがすきです!","steam_id":76561198248239796,"connected_time":3993000000000,"state":"active","ping":57},{"user_id":185,"name":"Proud Jojo Fan #TF2SP","steam_id":76561198847327216,"connected_time":1379000000000,"state":"active","ping":72},{"user_id":140,"name":"TheMikirog","steam_id":76561198076052686,"connected_time":3765000000000,"state":"active","ping":76},{"user_id":179,"name":"Tummy","steam_id":76561198045654910,"connected_time":1867000000000,"state":"active","ping":43},{"user_id":194,"name":"Jeffrey Harpen","steam_id":76561199073314677,"connected_time":850000000000,"state":"active","ping":80},{"user_id":155,"name":"I have 42 pipe bombs in my ass","steam_id":76561199111979000,"connected_time":3318000000000,"state":"active","ping":58},{"user_id":195,"name":"Desnot","steam_id":76561198862581894,"connected_time":843000000000,"state":"active","ping":74},{"user_id":173,"name":"Finem Belli","steam_id":76561198227177976,"connected_time":2132000000000,"state":"active","ping":46},{"user_id":136,"name":"aphextwinsucks","steam_id":76561198132185926,"connected_time":3820000000000,"state":"active","ping":74},{"user_id":184,"name":"Tattletails","steam_id":76561198055690341,"connected_time":1429000000000,"state":"active","ping":57},{"user_id":186,"name":"Gety0","steam_id":76561198044387185,"connected_time":1373000000000,"state":"active","ping":87}]},{"server_id":320,"name":"Uncletopia | London | 3 | All Maps","name_short":"lon-3","host":"lon-1.uk.uncletopia.com","port":27035,"enabled":true,"region":"eu","cc":"gb","latitude":51.509865,"longitude":-0.118092,"reserved":0,"last_update":"0001-01-01T00:00:00Z","name_a2s":"Uncletopia | London | 3 | All Maps","protocol":17,"map":"pl_borneo","folder":"tf","game":"Team Fortress","app_id":440,"player_count":24,"max_players":24,"Bots":0,"server_type":"Dedicated","server_os":"Linux","password":true,"vac":true,"version":"7961495","steam_id":85568392924510192,"keywords":["nocrits","nodmgspread","payload","uncletopia"],"game_id":440,"stv_port":27036,"stv_name":"Uncletopia | London | 3 | All Maps | STV","players":[{"user_id":69,"name":"Taez","steam_id":76561198261820803,"connected_time":1002000000000,"state":"active","ping":65},{"user_id":33,"name":"Dreamy Snoozer","steam_id":76561198268184742,"connected_time":2940000000000,"state":"active","ping":54},{"user_id":19,"name":"ピドラス","steam_id":76561198092463910,"connected_time":3587000000000,"state":"active","ping":101},{"user_id":20,"name":"MagicCraftMaster","steam_id":76561198179156615,"connected_time":3524000000000,"state":"active","ping":164},{"user_id":67,"name":"Personano","steam_id":76561198994355577,"connected_time":1293000000000,"state":"active","ping":55},{"user_id":24,"name":"leo","steam_id":76561198090848620,"connected_time":3384000000000,"state":"active","ping":87},{"user_id":25,"name":"Vins van Space","steam_id":76561198073054440,"connected_time":3374000000000,"state":"active","ping":74},{"user_id":77,"name":"Hey, I´m Andy!","steam_id":76561198060337777,"connected_time":539000000000,"state":"active","ping":83},{"user_id":41,"name":"Diamhair","steam_id":76561198109020178,"connected_time":2530000000000,"state":"active","ping":63},{"user_id":79,"name":"Creative","steam_id":76561198835034247,"connected_time":187000000000,"state":"active","ping":77},{"user_id":75,"name":"Bill_nye_epic","steam_id":76561199216249214,"connected_time":627000000000,"state":"active","ping":150},{"user_id":36,"name":"The Bugs Under Your Skin","steam_id":76561198064795519,"connected_time":2799000000000,"state":"active","ping":60},{"user_id":68,"name":"my mom","steam_id":76561199225201569,"connected_time":1276000000000,"state":"active","ping":120},{"user_id":71,"name":"TheEventGuy","steam_id":76561197972797744,"connected_time":859000000000,"state":"active","ping":80},{"user_id":57,"name":"twitch.tv/red_naxela","steam_id":76561197998803950,"connected_time":1650000000000,"state":"active","ping":65},{"user_id":80,"name":"Swift","steam_id":76561197998799889,"connected_time":186000000000,"state":"active","ping":46},{"user_id":81,"name":"panakid","steam_id":76561198364121077,"connected_time":154000000000,"state":"active","ping":95},{"user_id":73,"name":"The legendery balls","steam_id":76561199139344747,"connected_time":823000000000,"state":"active","ping":97},{"user_id":47,"name":"orneps489","steam_id":76561199124755916,"connected_time":2386000000000,"state":"active","ping":126},{"user_id":48,"name":"quickfast","steam_id":76561199438900919,"connected_time":2384000000000,"state":"active","ping":44},{"user_id":74,"name":"zayd","steam_id":76561198895235231,"connected_time":804000000000,"state":"active","ping":59},{"user_id":64,"name":"Sam04","steam_id":76561199004535941,"connected_time":1464000000000,"state":"active","ping":116},{"user_id":52,"name":"Verggy","steam_id":76561198068565268,"connected_time":2364000000000,"state":"active","ping":96},{"user_id":53,"name":"Lidlo","steam_id":76561198054024627,"connected_time":2325000000000,"state":"active","ping":70}]},{"server_id":321,"name":"Uncletopia | London | 4 | All Maps","name_short":"lon-4","host":"lon-1.uk.uncletopia.com","port":27045,"enabled":true,"region":"eu","cc":"gb","latitude":51.509865,"longitude":-0.118092,"reserved":0,"last_update":"0001-01-01T00:00:00Z","name_a2s":"Uncletopia | London | 4 | All Maps","protocol":17,"map":"cp_mossrock","folder":"tf","game":"Team Fortress","app_id":440,"player_count":24,"max_players":24,"Bots":0,"server_type":"Dedicated","server_os":"Linux","password":true,"vac":true,"version":"7961495","steam_id":85568392924510193,"keywords":["cp","nocrits","nodmgspread","uncletopia"],"game_id":440,"stv_port":27046,"stv_name":"Uncletopia | London | 4 | All Maps | STV","players":[{"user_id":285,"name":"Farfhal","steam_id":76561199495593538,"connected_time":711000000000,"state":"active","ping":38},{"user_id":259,"name":"Falcon","steam_id":76561198211463916,"connected_time":2405000000000,"state":"active","ping":94},{"user_id":229,"name":"Royal Dutch Shell","steam_id":76561198215986979,"connected_time":3407000000000,"state":"active","ping":45},{"user_id":286,"name":"soupalognionycrouton","steam_id":76561199021878433,"connected_time":588000000000,"state":"active","ping":71},{"user_id":288,"name":"rets_","steam_id":76561198061551392,"connected_time":410000000000,"state":"active","ping":64},{"user_id":280,"name":"Olekman","steam_id":76561198035446981,"connected_time":860000000000,"state":"active","ping":72},{"user_id":215,"name":"TSx* Bargal","steam_id":76561198040266872,"connected_time":4281000000000,"state":"active","ping":87},{"user_id":273,"name":"sinkuchan","steam_id":76561198054012474,"connected_time":1764000000000,"state":"active","ping":47},{"user_id":279,"name":"TSx* {Demon-Angel}","steam_id":76561198151486463,"connected_time":979000000000,"state":"active","ping":88},{"user_id":216,"name":"TSx* Naxer","steam_id":76561198011986779,"connected_time":4280000000000,"state":"active","ping":78},{"user_id":284,"name":"MK-Ultra Violence","steam_id":76561198081328238,"connected_time":727000000000,"state":"active","ping":76},{"user_id":217,"name":"TSx* Osa__PL","steam_id":76561198027016799,"connected_time":4278000000000,"state":"active","ping":75},{"user_id":224,"name":"TSx* Dante","steam_id":76561198139309331,"connected_time":4138000000000,"state":"active","ping":74},{"user_id":275,"name":"breaT","steam_id":76561198091462641,"connected_time":1650000000000,"state":"active","ping":78},{"user_id":267,"name":"BELADIT","steam_id":76561198011911501,"connected_time":1979000000000,"state":"active","ping":82},{"user_id":268,"name":"Doogie","steam_id":76561198846924693,"connected_time":1978000000000,"state":"active","ping":52},{"user_id":278,"name":"Tamer","steam_id":76561199101501051,"connected_time":1211000000000,"state":"active","ping":69},{"user_id":292,"name":"avielol052009","steam_id":76561199169774814,"connected_time":104000000000,"state":"active","ping":141},{"user_id":269,"name":"spurdala","steam_id":76561198886546942,"connected_time":1967000000000,"state":"active","ping":55},{"user_id":291,"name":"jaes bund","steam_id":76561199496044105,"connected_time":176000000000,"state":"active","ping":104},{"user_id":287,"name":"cute pyro","steam_id":76561198258504847,"connected_time":546000000000,"state":"active","ping":54},{"user_id":258,"name":"guh","steam_id":76561198257158275,"connected_time":2419000000000,"state":"active","ping":155},{"user_id":159,"name":"Jucatron","steam_id":76561198044259577,"connected_time":8337000000000,"state":"active","ping":76},{"user_id":277,"name":"killerdiam","steam_id":76561198806422317,"connected_time":1332000000000,"state":"active","ping":54}]},{"server_id":21,"name":"Uncletopia | London | 5 | All Maps","name_short":"lon-5","host":"lon-1.uk.uncletopia.com","port":27055,"enabled":true,"region":"eu","cc":"gb","latitude":51.509865,"longitude":-0.118092,"reserved":0,"last_update":"0001-01-01T00:00:00Z","name_a2s":"Uncletopia | London | 5 | All Maps","protocol":17,"map":"pl_goldrush","folder":"tf","game":"Team Fortress","app_id":440,"player_count":20,"max_players":24,"Bots":0,"server_type":"Dedicated","server_os":"Linux","password":true,"vac":true,"version":"7961495","steam_id":85568392924742829,"keywords":["nocrits","nodmgspread","payload","uncletopia"],"game_id":440,"stv_port":27056,"stv_name":"Uncletopia | London | 5 | All Maps | STV","players":[{"user_id":155,"name":"artonzhun","steam_id":76561198259104010,"connected_time":496000000000,"state":"active","ping":83},{"user_id":157,"name":"Niko","steam_id":76561199006295285,"connected_time":456000000000,"state":"active","ping":82},{"user_id":174,"name":"H1DD3 gaming","steam_id":76561198855897385,"connected_time":3000000000,"state":"spawning","ping":55},{"user_id":171,"name":"blazeeight","steam_id":76561198159456502,"connected_time":134000000000,"state":"active","ping":52},{"user_id":156,"name":"Jonkheervanflep","steam_id":76561198006853101,"connected_time":472000000000,"state":"active","ping":78},{"user_id":168,"name":"steve","steam_id":76561198021489597,"connected_time":230000000000,"state":"active","ping":66},{"user_id":133,"name":"neJ","steam_id":76561198003397488,"connected_time":2034000000000,"state":"active","ping":78},{"user_id":140,"name":"Contemporary_Chaos","steam_id":76561198138784538,"connected_time":1563000000000,"state":"active","ping":81},{"user_id":118,"name":"DrFast","steam_id":76561198138637093,"connected_time":2722000000000,"state":"active","ping":54},{"user_id":151,"name":"Streaker","steam_id":76561198859213547,"connected_time":637000000000,"state":"active","ping":108},{"user_id":158,"name":"f4f_cricket","steam_id":76561197985879993,"connected_time":456000000000,"state":"active","ping":69},{"user_id":159,"name":"walter","steam_id":76561198021950957,"connected_time":450000000000,"state":"active","ping":64},{"user_id":160,"name":"Pitipit","steam_id":76561198343333412,"connected_time":427000000000,"state":"active","ping":95},{"user_id":161,"name":"‡LIĆVIN TROL‡","steam_id":76561198113127466,"connected_time":409000000000,"state":"active","ping":118},{"user_id":163,"name":"Pao_is_good","steam_id":76561199071206846,"connected_time":379000000000,"state":"active","ping":112},{"user_id":164,"name":"BonnieDrag","steam_id":76561199149216429,"connected_time":370000000000,"state":"active","ping":86},{"user_id":167,"name":"JetDeRotule #HarambeKudasai","steam_id":76561198031387267,"connected_time":269000000000,"state":"active","ping":59},{"user_id":170,"name":"Redumpus Demarcus U. the 3rd","steam_id":76561199162894483,"connected_time":141000000000,"state":"spawning","ping":198},{"user_id":172,"name":"TheEventGuy (Decoy)","steam_id":76561198146194820,"connected_time":110000000000,"state":"active","ping":56},{"user_id":173,"name":"₪ PluNgBe ₪","steam_id":76561198131100420,"connected_time":52000000000,"state":"active","ping":60}]},{"server_id":22,"name":"Uncletopia | London | 6 | All Maps","name_short":"lon-6","host":"lon-1.uk.uncletopia.com","port":27065,"enabled":true,"region":"eu","cc":"gb","latitude":51.509865,"longitude":-0.118092,"reserved":0,"last_update":"0001-01-01T00:00:00Z","name_a2s":"Uncletopia | London | 6 | All Maps","protocol":17,"map":"pl_upward","folder":"tf","game":"Team Fortress","app_id":440,"player_count":24,"max_players":24,"Bots":0,"server_type":"Dedicated","server_os":"Linux","password":true,"vac":true,"version":"7961495","steam_id":85568392924742830,"keywords":["nocrits","nodmgspread","payload","uncletopia"],"game_id":440,"stv_port":27066,"stv_name":"Uncletopia | London | 6 | All Maps | STV","players":[{"user_id":441,"name":"Kahvi","steam_id":76561198723244199,"connected_time":1996000000000,"state":"active","ping":76},{"user_id":442,"name":"fénix","steam_id":76561198083199151,"connected_time":1966000000000,"state":"active","ping":57},{"user_id":443,"name":"AirBlast de LezoDroide","steam_id":76561197991467898,"connected_time":1956000000000,"state":"active","ping":83},{"user_id":399,"name":"mark","steam_id":76561198309246388,"connected_time":5135000000000,"state":"active","ping":56},{"user_id":459,"name":"x","steam_id":76561198043837480,"connected_time":1303000000000,"state":"active","ping":62},{"user_id":458,"name":"[Ṩ\u0026Ṩ]•MλYKλ-💜","steam_id":76561197998713539,"connected_time":1453000000000,"state":"active","ping":60},{"user_id":470,"name":"zoinks!","steam_id":76561198068645362,"connected_time":726000000000,"state":"active","ping":42},{"user_id":444,"name":"Cúspide","steam_id":76561197984928034,"connected_time":1953000000000,"state":"active","ping":76},{"user_id":299,"name":"Fat Pigeon","steam_id":76561198817940142,"connected_time":13542000000000,"state":"active","ping":47},{"user_id":463,"name":"Verculum","steam_id":76561198894912634,"connected_time":1210000000000,"state":"active","ping":107},{"user_id":400,"name":"Ivan (f2p)","steam_id":76561198211042371,"connected_time":5093000000000,"state":"active","ping":53},{"user_id":471,"name":"sphere","steam_id":76561197971059842,"connected_time":725000000000,"state":"active","ping":37},{"user_id":465,"name":"true","steam_id":76561198031145243,"connected_time":1187000000000,"state":"active","ping":84},{"user_id":445,"name":"Vic","steam_id":76561198071162624,"connected_time":1948000000000,"state":"active","ping":67},{"user_id":413,"name":"Penis Contortionist","steam_id":76561198073663784,"connected_time":4489000000000,"state":"active","ping":41},{"user_id":446,"name":"mixxxa_french","steam_id":76561198085098243,"connected_time":1941000000000,"state":"active","ping":123},{"user_id":472,"name":"dunduu","steam_id":76561198875240717,"connected_time":638000000000,"state":"active","ping":82},{"user_id":476,"name":"skulling person","steam_id":76561198007018020,"connected_time":302000000000,"state":"active","ping":39},{"user_id":474,"name":":\u003e","steam_id":76561198059049825,"connected_time":437000000000,"state":"active","ping":122},{"user_id":455,"name":"kakaobune","steam_id":76561199179816950,"connected_time":1750000000000,"state":"active","ping":74},{"user_id":477,"name":"T4S3","steam_id":76561199105565603,"connected_time":302000000000,"state":"active","ping":99},{"user_id":451,"name":"♥ Cirno ♥","steam_id":76561198834982738,"connected_time":1849000000000,"state":"active","ping":73},{"user_id":466,"name":"OriginalName The Pyro Main","steam_id":76561199087937797,"connected_time":1178000000000,"state":"active","ping":163},{"user_id":478,"name":"♥aura♥","steam_id":76561198066258544,"connected_time":272000000000,"state":"active","ping":81}]},{"server_id":40,"name":"Uncletopia | London | 7 | Stopwatch","name_short":"lon-7","host":"lon-1.uk.uncletopia.com","port":27075,"enabled":true,"region":"eu","cc":"gb","latitude":51.509865,"longitude":-0.118092,"reserved":0,"last_update":"0001-01-01T00:00:00Z","name_a2s":"Uncletopia | London | 7 | Stopwatch","protocol":17,"map":"workshop/pl_badwater_pro_v12.ugc2142942074","folder":"tf","game":"Team Fortress","app_id":440,"player_count":0,"max_players":24,"Bots":0,"server_type":"Dedicated","server_os":"Linux","password":true,"vac":true,"version":"7961495","steam_id":85568392924964314,"keywords":["nocrits","nodmgspread","payload","uncletopia"],"game_id":440,"stv_port":27076,"stv_name":"Uncletopia | London | 7 | Stopwatch | STV","players":null},{"server_id":41,"name":"Uncletopia | London | 8 | Community","name_short":"lon-8","host":"lon-1.uk.uncletopia.com","port":27085,"enabled":true,"region":"eu","cc":"gb","latitude":51.509865,"longitude":-0.118092,"reserved":0,"last_update":"0001-01-01T00:00:00Z","name_a2s":"Uncletopia | London | 8 | Community","protocol":17,"map":"workshop/koth_synthetic_rc6a.ugc1549817316","folder":"tf","game":"Team Fortress","app_id":440,"player_count":0,"max_players":24,"Bots":0,"server_type":"Dedicated","server_os":"Linux","password":true,"vac":true,"version":"7961495","steam_id":85568392924964315,"keywords":["cp","nocrits","nodmgspread","uncletopia"],"game_id":440,"stv_port":27086,"stv_name":"Uncletopia | London | 8 | Community | STV","players":null},{"server_id":300,"name":"Uncletopia | Montréal | 1 | All Maps","name_short":"mtl-1","host":"mtl-1.ca.uncletopia.com","port":27015,"enabled":true,"region":"us-east","cc":"ca","latitude":45.50889,"longitude":-73.56167,"reserved":0,"last_update":"0001-01-01T00:00:00Z","name_a2s":"","protocol":0,"map":"","folder":"","game":"","app_id":0,"player_count":0,"max_players":0,"Bots":0,"server_type":"","server_os":"","password":false,"vac":false,"version":"","steam_id":0,"keywords":null,"game_id":0,"stv_port":0,"stv_name":"","players":null},{"server_id":301,"name":"Uncletopia | Montréal | 2 | ???","name_short":"mtl-2","host":"mtl-1.ca.uncletopia.com","port":27025,"enabled":true,"region":"us-east","cc":"ca","latitude":45.50889,"longitude":-73.56167,"reserved":0,"last_update":"0001-01-01T00:00:00Z","name_a2s":"","protocol":0,"map":"","folder":"","game":"","app_id":0,"player_count":0,"max_players":0,"Bots":0,"server_type":"","server_os":"","password":false,"vac":false,"version":"","steam_id":0,"keywords":null,"game_id":0,"stv_port":0,"stv_name":"","players":null},{"server_id":13,"name":"Uncletopia | New York City | 1 | All Maps","name_short":"nyc-1","host":"nyc-1.us.uncletopia.com","port":27015,"enabled":true,"region":"us-east","cc":"us","latitude":40.73061,"longitude":-73.93524,"reserved":0,"last_update":"0001-01-01T00:00:00Z","name_a2s":"Uncletopia | New York City | 1 | All Maps","protocol":17,"map":"pl_frontier_final","folder":"tf","game":"Team Fortress","app_id":440,"player_count":24,"max_players":24,"Bots":0,"server_type":"Dedicated","server_os":"Linux","password":true,"vac":true,"version":"7961495","steam_id":85568392924469993,"keywords":["nocrits","nodmgspread","payload","uncletopia"],"game_id":440,"stv_port":27016,"stv_name":"Uncletopia | New York City | 1 | All Maps | STV","players":[{"user_id":76,"name":"Reality Loser","steam_id":76561198001541433,"connected_time":2633000000000,"state":"active","ping":61},{"user_id":82,"name":"Vegerot","steam_id":76561197997843710,"connected_time":1815000000000,"state":"active","ping":45},{"user_id":84,"name":"tiananmensquare1989","steam_id":76561199076837870,"connected_time":1538000000000,"state":"active","ping":90},{"user_id":56,"name":"MillerWhite","steam_id":76561198076060357,"connected_time":4148000000000,"state":"active","ping":69},{"user_id":43,"name":"SasukeGOD","steam_id":76561199077255310,"connected_time":5209000000000,"state":"active","ping":84},{"user_id":83,"name":"pop7up","steam_id":76561198159869674,"connected_time":1803000000000,"state":"active","ping":65},{"user_id":95,"name":"JuiceTeamSix","steam_id":76561198039155649,"connected_time":274000000000,"state":"active","ping":32},{"user_id":80,"name":"Mr.Bananas","steam_id":76561198065345105,"connected_time":1997000000000,"state":"active","ping":84},{"user_id":57,"name":"Eviscerator","steam_id":76561197980073637,"connected_time":4147000000000,"state":"active","ping":86},{"user_id":65,"name":"Andrestor","steam_id":76561198005934930,"connected_time":3524000000000,"state":"active","ping":121},{"user_id":93,"name":"Vorco","steam_id":76561197996937734,"connected_time":381000000000,"state":"active","ping":80},{"user_id":90,"name":"Godmode","steam_id":76561198076240365,"connected_time":663000000000,"state":"active","ping":73},{"user_id":91,"name":"the pest","steam_id":76561198826298849,"connected_time":636000000000,"state":"active","ping":90},{"user_id":54,"name":"Cooksandcleans™","steam_id":76561198049696128,"connected_time":4172000000000,"state":"active","ping":94},{"user_id":88,"name":"spherewithahat","steam_id":76561199122192660,"connected_time":1074000000000,"state":"active","ping":56},{"user_id":96,"name":"Gheeotine","steam_id":76561198010181698,"connected_time":166000000000,"state":"active","ping":74},{"user_id":85,"name":"Kamin","steam_id":76561198255299559,"connected_time":1527000000000,"state":"active","ping":104},{"user_id":36,"name":"101_the_Robot","steam_id":76561198331039848,"connected_time":5282000000000,"state":"active","ping":81},{"user_id":37,"name":"The Zimbabwean Defense Force","steam_id":76561198081120402,"connected_time":5269000000000,"state":"active","ping":99},{"user_id":72,"name":"Unk","steam_id":76561198031717617,"connected_time":3396000000000,"state":"active","ping":40},{"user_id":67,"name":"crusty toilet stains","steam_id":76561198156873737,"connected_time":3464000000000,"state":"active","ping":45},{"user_id":73,"name":"Kitt(eh) ∑:3","steam_id":76561198110858518,"connected_time":3392000000000,"state":"active","ping":50},{"user_id":52,"name":"chen","steam_id":76561198064872330,"connected_time":4591000000000,"state":"active","ping":56},{"user_id":86,"name":"sillylokisparkles","steam_id":76561198872251615,"connected_time":1523000000000,"state":"active","ping":73}]},{"server_id":14,"name":"Uncletopia | New York City | 2 | All Maps","name_short":"nyc-2","host":"nyc-1.us.uncletopia.com","port":27025,"enabled":true,"region":"us-east","cc":"us","latitude":40.73061,"longitude":-73.93524,"reserved":0,"last_update":"0001-01-01T00:00:00Z","name_a2s":"Uncletopia | New York City | 2 | All Maps","protocol":17,"map":"pl_badwater","folder":"tf","game":"Team Fortress","app_id":440,"player_count":24,"max_players":24,"Bots":0,"server_type":"Dedicated","server_os":"Linux","password":true,"vac":true,"version":"7961495","steam_id":85568392924469994,"keywords":["nocrits","nodmgspread","payload","uncletopia"],"game_id":440,"stv_port":27026,"stv_name":"Uncletopia | New York City | 2 | All Maps | STV","players":[{"user_id":160,"name":"sirrad","steam_id":76561199403589748,"connected_time":221000000000,"state":"active","ping":82},{"user_id":124,"name":"Dan","steam_id":76561199236719411,"connected_time":2695000000000,"state":"active","ping":86},{"user_id":161,"name":"Moonkey","steam_id":76561199013741389,"connected_time":219000000000,"state":"active","ping":45},{"user_id":162,"name":"quatelhelix","steam_id":76561198066708113,"connected_time":206000000000,"state":"active","ping":73},{"user_id":163,"name":"GaiBerd","steam_id":76561198177100634,"connected_time":203000000000,"state":"active","ping":49},{"user_id":164,"name":"id","steam_id":76561198238325710,"connected_time":195000000000,"state":"active","ping":47},{"user_id":147,"name":"piss brother#RustCases.com","steam_id":76561199391829425,"connected_time":1507000000000,"state":"active","ping":143},{"user_id":165,"name":"Spamton G. Spamton","steam_id":76561199476198856,"connected_time":189000000000,"state":"active","ping":108},{"user_id":108,"name":"LOKKI","steam_id":76561198259022887,"connected_time":4307000000000,"state":"active","ping":150},{"user_id":73,"name":"󠁳 ⁧Argo","steam_id":76561198353725622,"connected_time":7435000000000,"state":"active","ping":69},{"user_id":148,"name":"onion connoisseur","steam_id":76561198065266282,"connected_time":1497000000000,"state":"active","ping":60},{"user_id":168,"name":"i wish you obelisk","steam_id":76561198032482394,"connected_time":127000000000,"state":"active","ping":68},{"user_id":166,"name":"Alexthegreat","steam_id":76561197996796222,"connected_time":184000000000,"state":"active","ping":47},{"user_id":128,"name":"Man Without A Plan","steam_id":76561199229300969,"connected_time":2538000000000,"state":"active","ping":64},{"user_id":131,"name":"super clickteam fusion","steam_id":76561198275101482,"connected_time":2414000000000,"state":"active","ping":128},{"user_id":169,"name":"A_Malebolgia","steam_id":76561198097722818,"connected_time":92000000000,"state":"active","ping":92},{"user_id":171,"name":"WolfintheWires","steam_id":76561197998385084,"connected_time":45000000000,"state":"active","ping":71},{"user_id":170,"name":"TheAshenDerp","steam_id":76561198848585450,"connected_time":86000000000,"state":"active","ping":38},{"user_id":149,"name":"GreatTimBones","steam_id":76561198409145748,"connected_time":1491000000000,"state":"active","ping":71},{"user_id":151,"name":"Vin","steam_id":76561198043601929,"connected_time":1195000000000,"state":"active","ping":129},{"user_id":142,"name":"Pixeled","steam_id":76561198088917077,"connected_time":1968000000000,"state":"active","ping":85},{"user_id":150,"name":"shoxidizer","steam_id":76561198981983698,"connected_time":1490000000000,"state":"active","ping":78},{"user_id":167,"name":"Snugboo","steam_id":76561198147970327,"connected_time":184000000000,"state":"active","ping":42},{"user_id":133,"name":"alexthecaptain","steam_id":76561198072632194,"connected_time":2392000000000,"state":"active","ping":102}]},{"server_id":15,"name":"Uncletopia | New York City | 3 | Stopwatch","name_short":"nyc-3","host":"nyc-1.us.uncletopia.com","port":27035,"enabled":true,"region":"us-east","cc":"us","latitude":40.73061,"longitude":-73.93524,"reserved":0,"last_update":"0001-01-01T00:00:00Z","name_a2s":"Uncletopia | New York City | 3 | Stopwatch","protocol":17,"map":"cp_snakewater_final1","folder":"tf","game":"Team Fortress","app_id":440,"player_count":18,"max_players":24,"Bots":0,"server_type":"Dedicated","server_os":"Linux","password":true,"vac":true,"version":"7961495","steam_id":85568392924742820,"keywords":["cp","nocrits","nodmgspread","uncletopia"],"game_id":440,"stv_port":27036,"stv_name":"Uncletopia | New York City | 3 | Stopwatch | STV","players":[{"user_id":17,"name":"HorizonPear","steam_id":76561198179808389,"connected_time":1483000000000,"state":"active","ping":63},{"user_id":22,"name":"vinny6","steam_id":76561198386735728,"connected_time":1185000000000,"state":"active","ping":47},{"user_id":33,"name":"blue sweater","steam_id":76561198986175272,"connected_time":483000000000,"state":"active","ping":56},{"user_id":10,"name":"Noxcat lunacy | csxshell","steam_id":76561199088881426,"connected_time":2201000000000,"state":"active","ping":129},{"user_id":14,"name":"Toxicus","steam_id":76561198044791978,"connected_time":1717000000000,"state":"active","ping":67},{"user_id":16,"name":"demoman","steam_id":76561199101808144,"connected_time":1542000000000,"state":"active","ping":100},{"user_id":18,"name":"WaltuhWithDrip","steam_id":76561199496725837,"connected_time":1398000000000,"state":"active","ping":152},{"user_id":19,"name":"Rat Poison","steam_id":76561199089290128,"connected_time":1383000000000,"state":"active","ping":131},{"user_id":24,"name":"GibbusGod","steam_id":76561199232436690,"connected_time":895000000000,"state":"active","ping":67},{"user_id":25,"name":"pipebombrater","steam_id":76561199029030831,"connected_time":817000000000,"state":"active","ping":59},{"user_id":38,"name":"Garfield","steam_id":76561199251237007,"connected_time":124000000000,"state":"active","ping":151},{"user_id":28,"name":"unappreciated_engineer","steam_id":76561199163489550,"connected_time":730000000000,"state":"active","ping":78},{"user_id":37,"name":"Cammers","steam_id":76561199121995011,"connected_time":188000000000,"state":"active","ping":61},{"user_id":30,"name":"Horse","steam_id":76561198004583631,"connected_time":686000000000,"state":"active","ping":72},{"user_id":31,"name":"IPlayGamez","steam_id":76561198041387508,"connected_time":556000000000,"state":"active","ping":50},{"user_id":35,"name":"Cube","steam_id":76561199021614213,"connected_time":286000000000,"state":"active","ping":160},{"user_id":39,"name":"Plinko","steam_id":76561197968530638,"connected_time":108000000000,"state":"active","ping":52},{"user_id":40,"name":"hoos","steam_id":76561198045985910,"connected_time":15000000000,"state":"spawning","ping":86}]},{"server_id":16,"name":"Uncletopia | New York City | 4 | Community","name_short":"nyc-4","host":"nyc-1.us.uncletopia.com","port":27045,"enabled":true,"region":"us-east","cc":"us","latitude":40.73061,"longitude":-73.93524,"reserved":0,"last_update":"0001-01-01T00:00:00Z","name_a2s":"Uncletopia | New York City | 4 | Community","protocol":17,"map":"workshop/cp_villa_b19.ugc2113052569","folder":"tf","game":"Team Fortress","app_id":440,"player_count":0,"max_players":24,"Bots":0,"server_type":"Dedicated","server_os":"Linux","password":true,"vac":true,"version":"7961495","steam_id":85568392924742821,"keywords":["cp","nocrits","nodmgspread","uncletopia"],"game_id":440,"stv_port":27046,"stv_name":"Uncletopia | New York City | 4 | Community | STV","players":null},{"server_id":142,"name":"Uncletopia | São Paulo | 1 | All Maps","name_short":"sao-1","host":"sao-1.br.uncletopia.com","port":27015,"enabled":true,"region":"sa","cc":"br","latitude":-23.533773,"longitude":-46.62529,"reserved":0,"last_update":"0001-01-01T00:00:00Z","name_a2s":"Uncletopia | São Paulo | 1 | All Maps","protocol":17,"map":"cp_snakewater_final1","folder":"tf","game":"Team Fortress","app_id":440,"player_count":0,"max_players":24,"Bots":0,"server_type":"Dedicated","server_os":"Linux","password":true,"vac":true,"version":"7961495","steam_id":85568392924469996,"keywords":["cp","nocrits","nodmgspread","uncletopia"],"game_id":440,"stv_port":27016,"stv_name":"Uncletopia | São Paulo | 1 | All Maps | STV","players":null},{"server_id":143,"name":"Uncletopia | São Paulo | 2 | Community","name_short":"sao-2","host":"sao-2.br.uncletopia.com","port":27015,"enabled":true,"region":"sa","cc":"br","latitude":-23.533773,"longitude":-46.62529,"reserved":0,"last_update":"0001-01-01T00:00:00Z","name_a2s":"Uncletopia | São Paulo | 2 | Community","protocol":17,"map":"workshop/pl_eruption_b9a.ugc2807898013","folder":"tf","game":"Team Fortress","app_id":440,"player_count":0,"max_players":24,"Bots":0,"server_type":"Dedicated","server_os":"Linux","password":true,"vac":true,"version":"7961495","steam_id":85568392924485349,"keywords":["nocrits","nodmgspread","payload","uncletopia"],"game_id":440,"stv_port":27016,"stv_name":"Uncletopia | São Paulo | 2 | Community | STV","players":null},{"server_id":7,"name":"Uncletopia | Seattle | 1 | All Maps","name_short":"sea-1","host":"sea-1.us.uncletopia.com","port":27015,"enabled":true,"region":"us-west","cc":"us","latitude":47.608013,"longitude":-122.33517,"reserved":0,"last_update":"0001-01-01T00:00:00Z","name_a2s":"Uncletopia | Seattle | 1 | All Maps","protocol":17,"map":"pl_badwater","folder":"tf","game":"Team Fortress","app_id":440,"player_count":24,"max_players":24,"Bots":0,"server_type":"Dedicated","server_os":"Linux","password":true,"vac":true,"version":"7961495","steam_id":85568392924469997,"keywords":["nocrits","nodmgspread","payload","uncletopia"],"game_id":440,"stv_port":27016,"stv_name":"Uncletopia | Seattle | 1 | All Maps | STV","players":[{"user_id":99,"name":"sneakysquid (real)","steam_id":76561198800721329,"connected_time":4880000000000,"state":"active","ping":120},{"user_id":147,"name":"Olitude","steam_id":76561199238964574,"connected_time":2516000000000,"state":"active","ping":64},{"user_id":162,"name":"gordon freeman","steam_id":76561198210412701,"connected_time":837000000000,"state":"active","ping":112},{"user_id":129,"name":"Zetta","steam_id":76561198045710113,"connected_time":3596000000000,"state":"active","ping":83},{"user_id":156,"name":"Proto","steam_id":76561197984119828,"connected_time":1503000000000,"state":"active","ping":86},{"user_id":170,"name":"bear1boss fan","steam_id":76561198047850813,"connected_time":443000000000,"state":"active","ping":45},{"user_id":155,"name":"Ultra Pinstinct","steam_id":76561198336604599,"connected_time":1597000000000,"state":"active","ping":59},{"user_id":148,"name":"Winblu","steam_id":76561199039856584,"connected_time":2478000000000,"state":"active","ping":51},{"user_id":157,"name":"diddy bong","steam_id":76561198870649125,"connected_time":1143000000000,"state":"active","ping":81},{"user_id":169,"name":"What are you doing?!","steam_id":76561198405248691,"connected_time":556000000000,"state":"active","ping":63},{"user_id":134,"name":"Natsuki the Scunt","steam_id":76561199175922684,"connected_time":3491000000000,"state":"active","ping":88},{"user_id":174,"name":"Phos","steam_id":76561198122339506,"connected_time":396000000000,"state":"active","ping":76},{"user_id":167,"name":"rad killl raccoon","steam_id":76561198980975595,"connected_time":671000000000,"state":"active","ping":53},{"user_id":178,"name":"Pained_Panini","steam_id":76561199160704643,"connected_time":142000000000,"state":"active","ping":79},{"user_id":120,"name":"wolf_71","steam_id":76561198963570945,"connected_time":3802000000000,"state":"active","ping":104},{"user_id":164,"name":"SmoothieMcButtcheeks","steam_id":76561198164799046,"connected_time":715000000000,"state":"active","ping":67},{"user_id":177,"name":"space dog","steam_id":76561198153384032,"connected_time":206000000000,"state":"active","ping":76},{"user_id":175,"name":"John Johnson","steam_id":76561198347510093,"connected_time":333000000000,"state":"active","ping":49},{"user_id":126,"name":"Sahalanthro","steam_id":76561199073298722,"connected_time":3661000000000,"state":"active","ping":76},{"user_id":176,"name":"KOR","steam_id":76561198017202040,"connected_time":283000000000,"state":"active","ping":60},{"user_id":165,"name":"jayeskae","steam_id":76561198144220801,"connected_time":702000000000,"state":"active","ping":45},{"user_id":168,"name":"Neptune˖⁺｡˚⋆˙♥","steam_id":76561199054203198,"connected_time":654000000000,"state":"active","ping":136},{"user_id":166,"name":"Monkey D. Management","steam_id":76561198400603422,"connected_time":689000000000,"state":"active","ping":109},{"user_id":143,"name":"Themasterman75","steam_id":76561199385573293,"connected_time":3122000000000,"state":"active","ping":60}]},{"server_id":119,"name":"Uncletopia | Seattle | 2 | All Maps","name_short":"sea-2","host":"sea-1.us.uncletopia.com","port":27025,"enabled":true,"region":"us-west","cc":"us","latitude":47.608013,"longitude":-122.33517,"reserved":0,"last_update":"0001-01-01T00:00:00Z","name_a2s":"Uncletopia | Seattle | 2 | All Maps","protocol":17,"map":"cp_snakewater_final1","folder":"tf","game":"Team Fortress","app_id":440,"player_count":0,"max_players":24,"Bots":0,"server_type":"Dedicated","server_os":"Linux","password":true,"vac":true,"version":"7961495","steam_id":85568392924469998,"keywords":["cp","nocrits","nodmgspread","uncletopia"],"game_id":440,"stv_port":27026,"stv_name":"Uncletopia | Seattle | 2 | All Maps | STV","players":null},{"server_id":406,"name":"Uncletopia | Seattle | 3 | Stopwatch","name_short":"sea-3","host":"sea-1.us.uncletopia.com","port":27035,"enabled":true,"region":"us-west","cc":"us","latitude":47.608013,"longitude":-122.33517,"reserved":0,"last_update":"0001-01-01T00:00:00Z","name_a2s":"Uncletopia | Seattle | 3 | Stopwatch","protocol":17,"map":"cp_snakewater_final1","folder":"tf","game":"Team Fortress","app_id":440,"player_count":0,"max_players":24,"Bots":0,"server_type":"Dedicated","server_os":"Linux","password":true,"vac":true,"version":"7961495","steam_id":85568392924515217,"keywords":["cp","nocrits","nodmgspread","uncletopia"],"game_id":440,"stv_port":27036,"stv_name":"Uncletopia | Seattle | 3 | Stopwatch | STV","players":null},{"server_id":17,"name":"Uncletopia | San Francisco | 1 | All Maps","name_short":"sfo-1","host":"sfo-1.us.uncletopia.com","port":27015,"enabled":true,"region":"us-west","cc":"us","latitude":37.77397,"longitude":-122.4313,"reserved":0,"last_update":"0001-01-01T00:00:00Z","name_a2s":"Uncletopia | San Francisco | 1 | All Maps","protocol":17,"map":"koth_cascade","folder":"tf","game":"Team Fortress","app_id":440,"player_count":0,"max_players":24,"Bots":0,"server_type":"Dedicated","server_os":"Linux","password":true,"vac":true,"version":"7961495","steam_id":85568392924469999,"keywords":["cp","nocrits","nodmgspread","uncletopia"],"game_id":440,"stv_port":27016,"stv_name":"Uncletopia | San Francisco | 1 | All Maps | STV","players":null},{"server_id":18,"name":"Uncletopia | San Francisco | 2 | All Maps","name_short":"sfo-2","host":"sfo-1.us.uncletopia.com","port":27025,"enabled":true,"region":"us-west","cc":"us","latitude":37.77397,"longitude":-122.4313,"reserved":0,"last_update":"0001-01-01T00:00:00Z","name_a2s":"Uncletopia | San Francisco | 2 | All Maps","protocol":17,"map":"pl_frontier_final","folder":"tf","game":"Team Fortress","app_id":440,"player_count":0,"max_players":24,"Bots":0,"server_type":"Dedicated","server_os":"Linux","password":true,"vac":true,"version":"7961495","steam_id":85568392924470000,"keywords":["nocrits","nodmgspread","payload","uncletopia"],"game_id":440,"stv_port":27026,"stv_name":"Uncletopia | San Francisco | 2 | All Maps | STV","players":null},{"server_id":19,"name":"Uncletopia | San Francisco | 3 | Stopwatch","name_short":"sfo-3","host":"sfo-1.us.uncletopia.com","port":27035,"enabled":true,"region":"us-west","cc":"us","latitude":37.77397,"longitude":-122.4313,"reserved":0,"last_update":"0001-01-01T00:00:00Z","name_a2s":"Uncletopia | San Francisco | 3 | Stopwatch","protocol":17,"map":"pl_pier","folder":"tf","game":"Team Fortress","app_id":440,"player_count":0,"max_players":24,"Bots":0,"server_type":"Dedicated","server_os":"Linux","password":true,"vac":true,"version":"7961495","steam_id":85568392924742824,"keywords":["nocrits","nodmgspread","payload","uncletopia"],"game_id":440,"stv_port":27036,"stv_name":"Uncletopia | San Francisco | 3 | Stopwatch | STV","players":null},{"server_id":20,"name":"Uncletopia | San Francisco | 4 | Community","name_short":"sfo-4","host":"sfo-1.us.uncletopia.com","port":27045,"enabled":true,"region":"us-west","cc":"us","latitude":37.77397,"longitude":-122.4313,"reserved":0,"last_update":"0001-01-01T00:00:00Z","name_a2s":"Uncletopia | San Francisco | 4 | Community","protocol":17,"map":"pl_pier","folder":"tf","game":"Team Fortress","app_id":440,"player_count":0,"max_players":24,"Bots":0,"server_type":"Dedicated","server_os":"Linux","password":true,"vac":true,"version":"7961495","steam_id":85568392924742826,"keywords":["nocrits","nodmgspread","payload","uncletopia"],"game_id":440,"stv_port":27046,"stv_name":"Uncletopia | San Francisco | 4 | Community | STV","players":null},{"server_id":141,"name":"Uncletopia | Sydney | 1 | All Maps","name_short":"syd-1","host":"syd-1.au.uncletopia.com","port":27015,"enabled":true,"region":"au","cc":"au","latitude":-33.865143,"longitude":151.2099,"reserved":0,"last_update":"0001-01-01T00:00:00Z","name_a2s":"Uncletopia | Sydney | 1 | All Maps","protocol":17,"map":"koth_lakeside_final","folder":"tf","game":"Team Fortress","app_id":440,"player_count":0,"max_players":24,"Bots":0,"server_type":"Dedicated","server_os":"Linux","password":true,"vac":true,"version":"7961495","steam_id":85568392924470001,"keywords":["cp","nocrits","nodmgspread","uncletopia"],"game_id":440,"stv_port":27016,"stv_name":"Uncletopia | Sydney | 1 | All Maps | STV","players":null},{"server_id":123,"name":"Uncletopia | Sydney | 2 | All Maps","name_short":"syd-2","host":"syd-1.au.uncletopia.com","port":27025,"enabled":true,"region":"au","cc":"au","latitude":-33.865143,"longitude":151.2099,"reserved":0,"last_update":"0001-01-01T00:00:00Z","name_a2s":"Uncletopia | Sydney | 2 | All Maps","protocol":17,"map":"pl_frontier_final","folder":"tf","game":"Team Fortress","app_id":440,"player_count":13,"max_players":24,"Bots":0,"server_type":"Dedicated","server_os":"Linux","password":true,"vac":true,"version":"7961495","steam_id":85568392924470002,"keywords":["nocrits","nodmgspread","payload","uncletopia"],"game_id":440,"stv_port":27026,"stv_name":"Uncletopia | Sydney | 2 | All Maps | STV","players":[{"user_id":412,"name":"Snuky","steam_id":76561198117902338,"connected_time":872000000000,"state":"active","ping":44},{"user_id":414,"name":"Waltar","steam_id":76561199369603059,"connected_time":706000000000,"state":"active","ping":68},{"user_id":418,"name":"peppino spagheti","steam_id":76561198972047000,"connected_time":245000000000,"state":"active","ping":360},{"user_id":419,"name":"bing soy","steam_id":76561199238207915,"connected_time":188000000000,"state":"active","ping":333},{"user_id":393,"name":"Bring it on, big boy","steam_id":76561198238031616,"connected_time":1641000000000,"state":"active","ping":78},{"user_id":405,"name":"tachyon beam cannon","steam_id":76561198101261057,"connected_time":1368000000000,"state":"active","ping":37},{"user_id":420,"name":"Ham","steam_id":76561198354938886,"connected_time":40000000000,"state":"spawning","ping":166},{"user_id":398,"name":"smegmoid","steam_id":76561198060612098,"connected_time":1467000000000,"state":"active","ping":63},{"user_id":400,"name":"Quick Fix And Chill","steam_id":76561198153518995,"connected_time":1420000000000,"state":"active","ping":32},{"user_id":415,"name":"Heart Failure Gaming","steam_id":76561198295183353,"connected_time":675000000000,"state":"active","ping":80},{"user_id":302,"name":"Mooty","steam_id":76561198301293435,"connected_time":8917000000000,"state":"active","ping":48},{"user_id":406,"name":"kroom","steam_id":76561198066571719,"connected_time":1332000000000,"state":"active","ping":41},{"user_id":416,"name":"Barm","steam_id":76561198974929560,"connected_time":663000000000,"state":"active","ping":62}]},{"server_id":395,"name":"Uncletopia | Sydney | 3 | All Maps","name_short":"syd-3","host":"syd-1.au.uncletopia.com","port":27035,"enabled":true,"region":"au","cc":"au","latitude":-33.865143,"longitude":151.2099,"reserved":0,"last_update":"0001-01-01T00:00:00Z","name_a2s":"Uncletopia | Sydney | 3 | All Maps","protocol":17,"map":"koth_lakeside_final","folder":"tf","game":"Team Fortress","app_id":440,"player_count":0,"max_players":24,"Bots":0,"server_type":"Dedicated","server_os":"Linux","password":true,"vac":true,"version":"7961495","steam_id":85568392925194467,"keywords":["cp","nocrits","nodmgspread","uncletopia"],"game_id":440,"stv_port":27036,"stv_name":"Uncletopia | Sydney | 3 | All Maps | STV","players":null},{"server_id":396,"name":"Uncletopia | Sydney | 4 | All Maps","name_short":"syd-4","host":"syd-1.au.uncletopia.com","port":27045,"enabled":true,"region":"au","cc":"au","latitude":-33.865143,"longitude":151.2099,"reserved":0,"last_update":"0001-01-01T00:00:00Z","name_a2s":"Uncletopia | Sydney | 4 | All Maps","protocol":17,"map":"koth_highpass","folder":"tf","game":"Team Fortress","app_id":440,"player_count":0,"max_players":24,"Bots":0,"server_type":"Dedicated","server_os":"Linux","password":true,"vac":true,"version":"7961495","steam_id":85568392925397958,"keywords":["cp","nocrits","nodmgspread","uncletopia"],"game_id":440,"stv_port":27046,"stv_name":"Uncletopia | Sydney | 4 | All Maps | STV","players":null},{"server_id":58,"name":"Uncletopia | Sydney | 5 | Stopwatch","name_short":"syd-5","host":"syd-1.au.uncletopia.com","port":27055,"enabled":true,"region":"au","cc":"au","latitude":-33.865143,"longitude":151.2099,"reserved":0,"last_update":"0001-01-01T00:00:00Z","name_a2s":"Uncletopia | Sydney | 5 | Stopwatch","protocol":17,"map":"workshop/koth_clearcut_b15.ugc2107050255","folder":"tf","game":"Team Fortress","app_id":440,"player_count":0,"max_players":24,"Bots":0,"server_type":"Dedicated","server_os":"Linux","password":true,"vac":true,"version":"7961495","steam_id":85568392925397959,"keywords":["cp","nocrits","nodmgspread","uncletopia"],"game_id":440,"stv_port":27056,"stv_name":"Uncletopia | Sydney | 5 | Stopwatch | STV","players":null},{"server_id":59,"name":"Uncletopia | Sydney | 6 | Community","name_short":"syd-6","host":"syd-1.au.uncletopia.com","port":27065,"enabled":true,"region":"au","cc":"au","latitude":-33.865143,"longitude":151.2099,"reserved":0,"last_update":"0001-01-01T00:00:00Z","name_a2s":"Uncletopia | Sydney | 6 | Community","protocol":17,"map":"workshop/koth_ramjam_rc1.ugc459778887","folder":"tf","game":"Team Fortress","app_id":440,"player_count":0,"max_players":24,"Bots":0,"server_type":"Dedicated","server_os":"Linux","password":true,"vac":true,"version":"7961495","steam_id":85568392925397960,"keywords":["cp","nocrits","nodmgspread","uncletopia"],"game_id":440,"stv_port":27066,"stv_name":"Uncletopia | Sydney | 6 | Community | STV","players":null},{"server_id":49,"name":"Uncletopia | Warsaw | 1 | All Maps","name_short":"waw-1","host":"waw-1.pl.uncletopia.com","port":27015,"enabled":true,"region":"eu","cc":"pl","latitude":52.2297,"longitude":21.017532,"reserved":0,"last_update":"0001-01-01T00:00:00Z","name_a2s":"Uncletopia | Warsaw | 1 | All Maps","protocol":17,"map":"koth_lakeside_final","folder":"tf","game":"Team Fortress","app_id":440,"player_count":0,"max_players":24,"Bots":0,"server_type":"Dedicated","server_os":"Linux","password":true,"vac":true,"version":"7961495","steam_id":85568392925397850,"keywords":["cp","nocrits","nodmgspread","uncletopia"],"game_id":440,"stv_port":27016,"stv_name":"Uncletopia | Warsaw | 1 | All Maps | STV","players":null},{"server_id":50,"name":"Uncletopia | Warsaw | 2 | All Maps","name_short":"waw-2","host":"waw-1.pl.uncletopia.com","port":27025,"enabled":true,"region":"eu","cc":"pl","latitude":52.2297,"longitude":21.017532,"reserved":0,"last_update":"0001-01-01T00:00:00Z","name_a2s":"Uncletopia | Warsaw | 2 | All Maps","protocol":17,"map":"pl_frontier_final","folder":"tf","game":"Team Fortress","app_id":440,"player_count":0,"max_players":24,"Bots":0,"server_type":"Dedicated","server_os":"Linux","password":true,"vac":true,"version":"7961495","steam_id":85568392925397851,"keywords":["nocrits","nodmgspread","payload","uncletopia"],"game_id":440,"stv_port":27026,"stv_name":"Uncletopia | Warsaw | 2 | All Maps | STV","players":null},{"server_id":51,"name":"Uncletopia | Warsaw | 3 | All Maps","name_short":"waw-3","host":"waw-1.pl.uncletopia.com","port":27035,"enabled":true,"region":"eu","cc":"pl","latitude":52.2297,"longitude":21.017532,"reserved":0,"last_update":"0001-01-01T00:00:00Z","name_a2s":"Uncletopia | Warsaw | 3 | All Maps","protocol":17,"map":"cp_sunshine","folder":"tf","game":"Team Fortress","app_id":440,"player_count":0,"max_players":24,"Bots":0,"server_type":"Dedicated","server_os":"Linux","password":true,"vac":true,"version":"7961495","steam_id":85568392925397852,"keywords":["cp","nocrits","nodmgspread","uncletopia"],"game_id":440,"stv_port":27036,"stv_name":"Uncletopia | Warsaw | 3 | All Maps | STV","players":null},{"server_id":52,"name":"Uncletopia | Warsaw | 4 | All Maps","name_short":"waw-4","host":"waw-1.pl.uncletopia.com","port":27045,"enabled":true,"region":"eu","cc":"pl","latitude":52.2297,"longitude":21.017532,"reserved":0,"last_update":"0001-01-01T00:00:00Z","name_a2s":"Uncletopia | Warsaw | 4 | All Maps","protocol":17,"map":"pl_upward","folder":"tf","game":"Team Fortress","app_id":440,"player_count":8,"max_players":24,"Bots":0,"server_type":"Dedicated","server_os":"Linux","password":true,"vac":true,"version":"7961495","steam_id":85568392925397853,"keywords":["nocrits","nodmgspread","payload","uncletopia"],"game_id":440,"stv_port":27046,"stv_name":"Uncletopia | Warsaw | 4 | All Maps | STV","players":[{"user_id":81,"name":"Flying skyhigh","steam_id":76561198372971096,"connected_time":179000000000,"state":"active","ping":90},{"user_id":82,"name":"rai","steam_id":76561199408923294,"connected_time":164000000000,"state":"active","ping":44},{"user_id":44,"name":"stefanbejenari","steam_id":76561199466718294,"connected_time":1825000000000,"state":"active","ping":76},{"user_id":57,"name":"iPadkid2009","steam_id":76561198183949987,"connected_time":1314000000000,"state":"active","ping":85},{"user_id":59,"name":"KatterMaw","steam_id":76561198147143250,"connected_time":1248000000000,"state":"active","ping":129},{"user_id":78,"name":"Cheese","steam_id":76561198146419076,"connected_time":370000000000,"state":"active","ping":62},{"user_id":74,"name":"JareJare","steam_id":76561199040893751,"connected_time":697000000000,"state":"active","ping":63},{"user_id":75,"name":"Vaffeljarn","steam_id":76561198151060365,"connected_time":692000000000,"state":"active","ping":80}]},{"server_id":53,"name":"Uncletopia | Warsaw | 5 | Stopwatch","name_short":"waw-5","host":"waw-1.pl.uncletopia.com","port":27055,"enabled":true,"region":"eu","cc":"pl","latitude":52.2297,"longitude":21.017532,"reserved":0,"last_update":"0001-01-01T00:00:00Z","name_a2s":"Uncletopia | Warsaw | 5 | Stopwatch","protocol":17,"map":"workshop/cp_reckoner_rc6.ugc674719999","folder":"tf","game":"Team Fortress","app_id":440,"player_count":0,"max_players":24,"Bots":0,"server_type":"Dedicated","server_os":"Linux","password":true,"vac":true,"version":"7961495","steam_id":85568392925397854,"keywords":["cp","nocrits","nodmgspread","uncletopia"],"game_id":440,"stv_port":27056,"stv_name":"Uncletopia | Warsaw | 5 | Stopwatch | STV","players":null},{"server_id":54,"name":"Uncletopia | Warsaw | 6 | Community","name_short":"waw-6","host":"waw-1.pl.uncletopia.com","port":27065,"enabled":true,"region":"eu","cc":"pl","latitude":52.2297,"longitude":21.017532,"reserved":0,"last_update":"0001-01-01T00:00:00Z","name_a2s":"Uncletopia | Warsaw | 6 | Community","protocol":17,"map":"workshop/cp_hazyfort_rc6.ugc1365963729","folder":"tf","game":"Team Fortress","app_id":440,"player_count":0,"max_players":24,"Bots":0,"server_type":"Dedicated","server_os":"Linux","password":true,"vac":true,"version":"7961495","steam_id":85568392925397856,"keywords":["cp","nocrits","nodmgspread","uncletopia"],"game_id":440,"stv_port":27066,"stv_name":"Uncletopia | Warsaw | 6 | Community | STV","players":null}]}