{"status":true,"message":"","result":[{"server_id":9,"name":"Uncletopia | Atlanta | 1 | All Maps","name_short":"atl-1","host":"atl-1.us.uncletopia.com","port":27015,"enabled":true,"region":"us-east","cc":"us","latitude":33.753746,"longitude":-84.38633,"reserved":0,"last_update":"0001-01-01T00:00:00Z","name_a2s":"Uncletopia | Atlanta | 1 | All Maps","protocol":17,"map":"pl_barnblitz","folder":"tf","game":"Team Fortress","app_id":440,"player_count":24,"max_players":24,"Bots":0,"server_type":"Dedicated","server_os":"Linux","password":true,"vac":true,"version":"7757534","steam_id":85568392924469982,"keywords":["nocrits","nodmgspread","payload","uncletopia"],"game_id":440,"stv_port":27016,"stv_name":"Uncletopia | Atlanta | 1 | All Maps | STV","players":[{"user_id":230,"name":"PerpetuaForever","steam_id":76561198347444353,"connected_time":636000000000,"state":"active","ping":72},{"user_id":192,"name":"Monochrome","steam_id":76561198377320040,"connected_time":4641000000000,"state":"active","ping":62},{"user_id":206,"name":"the_Qcumber","steam_id":76561199152515819,"connected_time":3558000000000,"state":"active","ping":167},{"user_id":234,"name":"BIG HOG","steam_id":76561198079923652,"connected_time":183000000000,"state":"active","ping":66},{"user_id":227,"name":"Sithayo","steam_id":76561198027950572,"connected_time":673000000000,"state":"active","ping":108},{"user_id":215,"name":"Tony","steam_id":76561197995848919,"connected_time":2878000000000,"state":"active","ping":122},{"user_id":226,"name":"Sex on the peach","steam_id":76561198002353326,"connected_time":1373000000000,"state":"active","ping":87},{"user_id":169,"name":"Obelisk","steam_id":76561198049416866,"connected_time":6580000000000,"state":"active","ping":54},{"user_id":229,"name":"Decolour","steam_id":76561199045608372,"connected_time":660000000000,"state":"active","ping":80},{"user_id":231,"name":"BOTBOT","steam_id":76561198271928618,"connected_time":625000000000,"state":"active","ping":83},{"user_id":200,"name":"Matchstick","steam_id":76561198399856863,"connected_time":4038000000000,"state":"active","ping":104},{"user_id":225,"name":"mayhem","steam_id":76561199246637881,"connected_time":1434000000000,"state":"active","ping":51},{"user_id":232,"name":"FlyingToaster","steam_id":76561198310769053,"connected_time":277000000000,"state":"active","ping":48},{"user_id":220,"name":"Motorolª","steam_id":76561198358119669,"connected_time":2075000000000,"state":"active","ping":109},{"user_id":233,"name":"Boop","steam_id":76561198376703875,"connected_time":277000000000,"state":"active","ping":75},{"user_id":171,"name":"ATL 1 | Save your wifi","steam_id":76561198286147372,"connected_time":5684000000000,"state":"active","ping":53},{"user_id":168,"name":"Wren","steam_id":76561198071109787,"connected_time":6635000000000,"state":"active","ping":88},{"user_id":219,"name":"Recursive Gamer","steam_id":76561198042102952,"connected_time":2179000000000,"state":"active","ping":83},{"user_id":223,"name":"Albino Jellyfish","steam_id":76561198208561097,"connected_time":1717000000000,"state":"active","ping":71},{"user_id":221,"name":"ATL1 | Lancer Fan Club","steam_id":76561198355495948,"connected_time":1788000000000,"state":"active","ping":51},{"user_id":224,"name":"I Eat FheeseWurger's","steam_id":76561198829607485,"connected_time":1536000000000,"state":"active","ping":49},{"user_id":205,"name":"Lost","steam_id":76561198093713427,"connected_time":3588000000000,"state":"active","ping":80},{"user_id":209,"name":"Kami","steam_id":76561199039249396,"connected_time":3472000000000,"state":"active","ping":100},{"user_id":214,"name":"Alkivo","steam_id":76561198315999766,"connected_time":2935000000000,"state":"active","ping":78}]},{"server_id":104,"name":"Uncletopia | Atlanta | 2 | All Maps","name_short":"atl-2","host":"atl-1.us.uncletopia.com","port":27025,"enabled":true,"region":"us-east","cc":"us","latitude":33.753746,"longitude":-84.38633,"reserved":0,"last_update":"0001-01-01T00:00:00Z","name_a2s":"Uncletopia | Atlanta | 2 | All Maps","protocol":17,"map":"pl_borneo","folder":"tf","game":"Team Fortress","app_id":440,"player_count":24,"max_players":24,"Bots":0,"server_type":"Dedicated","server_os":"Linux","password":true,"vac":true,"version":"7757534","steam_id":85568392924469983,"keywords":["nocrits","nodmgspread","payload","uncletopia"],"game_id":440,"stv_port":27026,"stv_name":"Uncletopia | Atlanta | 2 | All Maps | STV","players":[{"user_id":124,"name":"Drapph","steam_id":76561199384213314,"connected_time":361000000000,"state":"active","ping":91},{"user_id":58,"name":"Mike Charlie","steam_id":76561199470538309,"connected_time":5638000000000,"state":"active","ping":75},{"user_id":127,"name":"WM1 PYRO","steam_id":76561198045893896,"connected_time":326000000000,"state":"active","ping":111},{"user_id":77,"name":"Shwaey","steam_id":76561198218886668,"connected_time":3890000000000,"state":"active","ping":67},{"user_id":79,"name":"Erin","steam_id":76561198394148072,"connected_time":3797000000000,"state":"active","ping":75},{"user_id":119,"name":"sasharudzik","steam_id":76561199126617781,"connected_time":971000000000,"state":"active","ping":93},{"user_id":93,"name":"King","steam_id":76561198039763676,"connected_time":2386000000000,"state":"active","ping":56},{"user_id":102,"name":"sex (real)","steam_id":76561198396414319,"connected_time":1908000000000,"state":"active","ping":109},{"user_id":112,"name":"duckypotato","steam_id":76561198047703790,"connected_time":1286000000000,"state":"active","ping":90},{"user_id":117,"name":"Romando007","steam_id":76561198741242813,"connected_time":1091000000000,"state":"active","ping":195},{"user_id":128,"name":"Jeeper","steam_id":76561198155583692,"connected_time":289000000000,"state":"active","ping":67},{"user_id":125,"name":"Demoman With One Joke","steam_id":76561197993467034,"connected_time":356000000000,"state":"active","ping":73},{"user_id":123,"name":"MarshalTheFilthyRat","steam_id":76561198054192888,"connected_time":554000000000,"state":"active","ping":68},{"user_id":130,"name":"Si1entSn1pa","steam_id":76561198170095479,"connected_time":102000000000,"state":"active","ping":72},{"user_id":121,"name":"Pathara44","steam_id":76561198048238620,"connected_time":967000000000,"state":"active","ping":82},{"user_id":114,"name":"Iron","steam_id":76561199231729436,"connected_time":1164000000000,"state":"active","ping":83},{"user_id":120,"name":"DualiTea","steam_id":76561198081733870,"connected_time":969000000000,"state":"active","ping":71},{"user_id":107,"name":"lifted tater","steam_id":76561198404564240,"connected_time":1639000000000,"state":"active","ping":65},{"user_id":115,"name":"TeriyakiDynamite","steam_id":76561198050049346,"connected_time":1157000000000,"state":"active","ping":120},{"user_id":110,"name":"Walka","steam_id":76561198074325951,"connected_time":1419000000000,"state":"active","ping":95},{"user_id":92,"name":"Menacing Pile of Frogs","steam_id":76561198360134800,"connected_time":2562000000000,"state":"active","ping":70},{"user_id":126,"name":"Xx-CostcoShopper-xX","steam_id":76561198066429444,"connected_time":340000000000,"state":"active","ping":63},{"user_id":76,"name":"jaydn","steam_id":76561198086615208,"connected_time":4339000000000,"state":"active","ping":45},{"user_id":100,"name":"Jetology","steam_id":76561198102782759,"connected_time":2073000000000,"state":"active","ping":96}]},{"server_id":400,"name":"Uncletopia | Atlanta | 3 | Community","name_short":"atl-3","host":"atl-1.us.uncletopia.com","port":27035,"enabled":true,"region":"us-east","cc":"us","latitude":33.753746,"longitude":-84.38633,"reserved":0,"last_update":"0001-01-01T00:00:00Z","name_a2s":"Uncletopia | Atlanta | 3 | Community","protocol":17,"map":"workshop/cp_alloy_rc3.ugc592805587","folder":"tf","game":"Team Fortress","app_id":440,"player_count":0,"max_players":24,"Bots":0,"server_type":"Dedicated","server_os":"Linux","password":true,"vac":true,"version":"7757534","steam_id":85568392924515187,"keywords":["cp","nocrits","nodmgspread","uncletopia"],"game_id":440,"stv_port":27036,"stv_name":"Uncletopia | Atlanta | 3 | Community | STV","players":null},{"server_id":401,"name":"Uncletopia | Atlanta | 4 | No Payload","name_short":"atl-4","host":"atl-1.us.uncletopia.com","port":27045,"enabled":true,"region":"us-east","cc":"us","latitude":33.753746,"longitude":-84.38633,"reserved":0,"last_update":"0001-01-01T00:00:00Z","name_a2s":"","protocol":0,"map":"","folder":"","game":"","app_id":0,"player_count":0,"max_players":0,"Bots":0,"server_type":"","server_os":"","password":false,"vac":false,"version":"","steam_id":0,"keywords":null,"game_id":0,"stv_port":0,"stv_name":"","players":null},{"server_id":2,"name":"Uncletopia | Chicago | 1 | All Maps","name_short":"chi-1","host":"chi-1.us.uncletopia.com","port":27015,"enabled":true,"region":"us-central","cc":"us","latitude":41.881832,"longitude":-87.62318,"reserved":0,"last_update":"0001-01-01T00:00:00Z","name_a2s":"Uncletopia | Chicago | 1 | All Maps","protocol":17,"map":"koth_highpass","folder":"tf","game":"Team Fortress","app_id":440,"player_count":24,"max_players":24,"Bots":0,"server_type":"Dedicated","server_os":"Linux","password":true,"vac":true,"version":"7757534","steam_id":85568392924469984,"keywords":["cp","nocrits","nodmgspread","uncletopia"],"game_id":440,"stv_port":27016,"stv_name":"Uncletopia | Chicago | 1 | All Maps | STV","players":[{"user_id":182,"name":"carrion goat","steam_id":76561198262064871,"connected_time":299000000000,"state":"active","ping":59},{"user_id":105,"name":"Amazingamerhawk","steam_id":76561199064935924,"connected_time":5265000000000,"state":"active","ping":67},{"user_id":159,"name":"Kuro Fox","steam_id":76561198141743790,"connected_time":1762000000000,"state":"active","ping":185},{"user_id":137,"name":"DarthEthanBoy","steam_id":76561198441643581,"connected_time":3524000000000,"state":"active","ping":67},{"user_id":183,"name":"Mr.Frundles","steam_id":76561198134559026,"connected_time":289000000000,"state":"active","ping":66},{"user_id":149,"name":"x3 ♡","steam_id":76561198132011077,"connected_time":2849000000000,"state":"active","ping":64},{"user_id":152,"name":"Influrrno","steam_id":76561198398893302,"connected_time":2580000000000,"state":"active","ping":73},{"user_id":178,"name":"tA.CHRONIC","steam_id":76561197960760990,"connected_time":705000000000,"state":"active","ping":61},{"user_id":172,"name":"BarrowBaron","steam_id":76561198013633236,"connected_time":1336000000000,"state":"active","ping":67},{"user_id":187,"name":"forkes","steam_id":76561198130478202,"connected_time":142000000000,"state":"active","ping":40},{"user_id":162,"name":"Fresh 1026","steam_id":76561198050651475,"connected_time":1714000000000,"state":"active","ping":75},{"user_id":165,"name":"Chicanery","steam_id":76561198977589038,"connected_time":1644000000000,"state":"active","ping":80},{"user_id":188,"name":"IPlayGamez","steam_id":76561198041387508,"connected_time":49000000000,"state":"active","ping":60},{"user_id":179,"name":"asbestos","steam_id":76561198079178866,"connected_time":491000000000,"state":"active","ping":61},{"user_id":176,"name":"DuckKey","steam_id":76561198904477889,"connected_time":875000000000,"state":"active","ping":60},{"user_id":164,"name":":^|","steam_id":76561198119826352,"connected_time":1710000000000,"state":"active","ping":75},{"user_id":177,"name":"Ringo x Seiran","steam_id":76561198357437908,"connected_time":771000000000,"state":"active","ping":59},{"user_id":156,"name":"bappo","steam_id":76561199294792123,"connected_time":2003000000000,"state":"active","ping":49},{"user_id":174,"name":"BREAD BOY","steam_id":76561198068953694,"connected_time":1167000000000,"state":"active","ping":88},{"user_id":167,"name":"Stardust Birds","steam_id":76561198056816698,"connected_time":1608000000000,"state":"active","ping":66},{"user_id":184,"name":"incredirocks","steam_id":76561198061079993,"connected_time":278000000000,"state":"active","ping":45},{"user_id":185,"name":"teaspinator","steam_id":76561199069748074,"connected_time":252000000000,"state":"active","ping":54},{"user_id":181,"name":"Mixomin","steam_id":76561198295061570,"connected_time":320000000000,"state":"active","ping":99},{"user_id":171,"name":"Training Arc","steam_id":76561198038832034,"connected_time":1542000000000,"state":"active","ping":104}]},{"server_id":106,"name":"Uncletopia | Chicago | 2 | All Maps","name_short":"chi-2","host":"chi-1.us.uncletopia.com","port":27025,"enabled":true,"region":"us-central","cc":"us","latitude":41.881832,"longitude":-87.62318,"reserved":0,"last_update":"0001-01-01T00:00:00Z","name_a2s":"Uncletopia | Chicago | 2 | All Maps","protocol":17,"map":"cp_dustbowl","folder":"tf","game":"Team Fortress","app_id":440,"player_count":24,"max_players":24,"Bots":0,"server_type":"Dedicated","server_os":"Linux","password":true,"vac":true,"version":"7757534","steam_id":85568392924469985,"keywords":["cp","nocrits","nodmgspread","uncletopia"],"game_id":440,"stv_port":27026,"stv_name":"Uncletopia | Chicago | 2 | All Maps | STV","players":[{"user_id":118,"name":"reymundo","steam_id":76561197989412830,"connected_time":728000000000,"state":"active","ping":118},{"user_id":138,"name":"Marijuanaut","steam_id":76561198069814977,"connected_time":334000000000,"state":"active","ping":65},{"user_id":146,"name":"KeyBoardLess","steam_id":76561198808996121,"connected_time":238000000000,"state":"active","ping":110},{"user_id":127,"name":"JOEMO","steam_id":76561198170381402,"connected_time":427000000000,"state":"active","ping":58},{"user_id":139,"name":"tacoodoom","steam_id":76561199123075248,"connected_time":313000000000,"state":"active","ping":74},{"user_id":87,"name":"Brother Pudge","steam_id":76561198247815090,"connected_time":3599000000000,"state":"active","ping":48},{"user_id":122,"name":"Wang of Wall St","steam_id":76561198047460598,"connected_time":665000000000,"state":"active","ping":74},{"user_id":124,"name":"I'm Going Goblin Mode","steam_id":76561198084167611,"connected_time":642000000000,"state":"active","ping":63},{"user_id":117,"name":"JoeMeteor","steam_id":76561198081809147,"connected_time":783000000000,"state":"active","ping":80},{"user_id":132,"name":"ultralisk52","steam_id":76561198051666604,"connected_time":399000000000,"state":"active","ping":60},{"user_id":151,"name":"Smoker Lung","steam_id":76561198077167395,"connected_time":174000000000,"state":"active","ping":45},{"user_id":150,"name":"Samitch","steam_id":76561198038247982,"connected_time":210000000000,"state":"active","ping":56},{"user_id":106,"name":"SunSet :^)","steam_id":76561198067598194,"connected_time":1901000000000,"state":"active","ping":75},{"user_id":131,"name":"Gel electrophoresis railgun","steam_id":76561198032259680,"connected_time":404000000000,"state":"active","ping":76},{"user_id":141,"name":"Oil (feat. Stevie Nicks)","steam_id":76561198398677744,"connected_time":291000000000,"state":"active","ping":105},{"user_id":135,"name":"Daehypeels","steam_id":76561198268981599,"connected_time":375000000000,"state":"active","ping":62},{"user_id":137,"name":"Brian_F's SFV Spreadsheet","steam_id":76561198257691881,"connected_time":353000000000,"state":"active","ping":93},{"user_id":72,"name":"I'm in your walls","steam_id":76561198153502981,"connected_time":4841000000000,"state":"active","ping":61},{"user_id":145,"name":"rainingmudkips","steam_id":76561198018010854,"connected_time":244000000000,"state":"active","ping":62},{"user_id":154,"name":"Cherry Bomb!","steam_id":76561198017947020,"connected_time":65000000000,"state":"active","ping":60},{"user_id":89,"name":"AquaPhoenix","steam_id":76561198157474924,"connected_time":3568000000000,"state":"active","ping":76},{"user_id":147,"name":"nickname 123","steam_id":76561198080234033,"connected_time":236000000000,"state":"active","ping":60},{"user_id":82,"name":"Peter Popoff","steam_id":76561198027171160,"connected_time":4590000000000,"state":"active","ping":42},{"user_id":148,"name":"Twinkiegoesowo","steam_id":76561199326170824,"connected_time":234000000000,"state":"active","ping":93}]},{"server_id":402,"name":"Uncletopia | Chicago | 3 | All Maps","name_short":"chi-3","host":"chi-1.us.uncletopia.com","port":27035,"enabled":true,"region":"us-central","cc":"us","latitude":41.881832,"longitude":-87.62318,"reserved":0,"last_update":"0001-01-01T00:00:00Z","name_a2s":"Uncletopia | Chicago | 3 | All Maps","protocol":17,"map":"pl_snowycoast","folder":"tf","game":"Team Fortress","app_id":440,"player_count":0,"max_players":24,"Bots":0,"server_type":"Dedicated","server_os":"Linux","password":true,"vac":true,"version":"7757534","steam_id":85568392924515191,"keywords":["nocrits","nodmgspread","payload","uncletopia"],"game_id":440,"stv_port":27036,"stv_name":"Uncletopia | Chicago | 3 | All Maps | STV","players":null},{"server_id":403,"name":"Uncletopia | Chicago | 4 | All Maps","name_short":"chi-4","host":"chi-1.us.uncletopia.com","port":27045,"enabled":true,"region":"us-central","cc":"us","latitude":41.881832,"longitude":-87.62318,"reserved":0,"last_update":"0001-01-01T00:00:00Z","name_a2s":"Uncletopia | Chicago | 4 | All Maps","protocol":17,"map":"koth_lazarus","folder":"tf","game":"Team Fortress","app_id":440,"player_count":24,"max_players":24,"Bots":0,"server_type":"Dedicated","server_os":"Linux","password":true,"vac":true,"version":"7757534","steam_id":85568392924515193,"keywords":["cp","nocrits","nodmgspread","uncletopia"],"game_id":440,"stv_port":27046,"stv_name":"Uncletopia | Chicago | 4 | All Maps | STV","players":[{"user_id":64,"name":"Edder","steam_id":76561198011088393,"connected_time":1397000000000,"state":"active","ping":81},{"user_id":82,"name":"PurplePond","steam_id":76561199062421006,"connected_time":224000000000,"state":"active","ping":54},{"user_id":11,"name":"CTHUWU","steam_id":76561198012388926,"connected_time":3688000000000,"state":"active","ping":72},{"user_id":13,"name":"god gamer","steam_id":76561198168149434,"connected_time":3638000000000,"state":"active","ping":120},{"user_id":78,"name":"LunarrD","steam_id":76561198811220107,"connected_time":348000000000,"state":"active","ping":84},{"user_id":72,"name":"Sunshine","steam_id":76561198885528098,"connected_time":692000000000,"state":"active","ping":73},{"user_id":81,"name":"kiviviviviviviviviviviviviviviv","steam_id":76561198838223023,"connected_time":253000000000,"state":"active","ping":56},{"user_id":62,"name":"Robin","steam_id":76561198121165149,"connected_time":1429000000000,"state":"active","ping":46},{"user_id":83,"name":"DogThrowUp","steam_id":76561198109028172,"connected_time":145000000000,"state":"active","ping":73},{"user_id":56,"name":"volta","steam_id":76561199214283884,"connected_time":2116000000000,"state":"active","ping":111},{"user_id":60,"name":"Lightatex","steam_id":76561199068097196,"connected_time":1808000000000,"state":"active","ping":59},{"user_id":74,"name":"Gary Budussy","steam_id":76561197969793969,"connected_time":550000000000,"state":"active","ping":61},{"user_id":61,"name":"Cyber Glitch","steam_id":76561199277801462,"connected_time":1461000000000,"state":"active","ping":73},{"user_id":70,"name":"threethree","steam_id":76561198177354155,"connected_time":962000000000,"state":"active","ping":74},{"user_id":80,"name":"♜","steam_id":76561198232617936,"connected_time":302000000000,"state":"active","ping":60},{"user_id":36,"name":"19037189","steam_id":76561198053960810,"connected_time":3217000000000,"state":"active","ping":86},{"user_id":77,"name":"J_Bug","steam_id":76561198163362175,"connected_time":373000000000,"state":"active","ping":66},{"user_id":45,"name":"Kuyumiester","steam_id":76561198126835302,"connected_time":2846000000000,"state":"active","ping":61},{"user_id":69,"name":"Drachma","steam_id":76561198007310514,"connected_time":969000000000,"state":"active","ping":56},{"user_id":79,"name":"Tlaloc","steam_id":76561198375215983,"connected_time":347000000000,"state":"active","ping":154},{"user_id":66,"name":"TheKees301","steam_id":76561198827506371,"connected_time":1376000000000,"state":"active","ping":155},{"user_id":52,"name":"|WS| Don't_Taze_Me_Bro","steam_id":76561198043289495,"connected_time":2749000000000,"state":"active","ping":77},{"user_id":73,"name":"HostileEnvironment","steam_id":76561198087019876,"connected_time":610000000000,"state":"active","ping":94},{"user_id":54,"name":"Walkiing","steam_id":76561198074473413,"connected_time":2702000000000,"state":"active","ping":37}]},{"server_id":36,"name":"Uncletopia | Chicago | 5 | All Maps","name_short":"chi-5","host":"chi-2.us.uncletopia.com","port":27015,"enabled":true,"region":"us-central","cc":"us","latitude":41.881832,"longitude":-87.62318,"reserved":0,"last_update":"0001-01-01T00:00:00Z","name_a2s":"Uncletopia | Chicago | 5 | All Maps","protocol":17,"map":"pl_badwater","folder":"tf","game":"Team Fortress","app_id":440,"player_count":24,"max_players":24,"Bots":0,"server_type":"Dedicated","server_os":"Linux","password":true,"vac":true,"version":"7757534","steam_id":85568392924866362,"keywords":["nocrits","nodmgspread","payload","uncletopia"],"game_id":440,"stv_port":27016,"stv_name":"Uncletopia | Chicago | 5 | All Maps | STV","players":[{"user_id":41,"name":"loyaldandan0764","steam_id":76561199231020424,"connected_time":208000000000,"state":"active","ping":103},{"user_id":39,"name":"Sloppy Hoes","steam_id":76561198114922735,"connected_time":221000000000,"state":"active","ping":74},{"user_id":40,"name":"Mr.PennyStocks MoneyTalk$$$$$$$","steam_id":76561198077934343,"connected_time":219000000000,"state":"active","ping":59},{"user_id":42,"name":"trepidotractatos","steam_id":76561198815950232,"connected_time":198000000000,"state":"active","ping":77},{"user_id":12,"name":"Fresh Lychee","steam_id":76561198045399559,"connected_time":989000000000,"state":"active","ping":49},{"user_id":13,"name":"The World's Softest Sandwich","steam_id":76561198015577707,"connected_time":986000000000,"state":"active","ping":78},{"user_id":38,"name":"a hedgehog","steam_id":76561198019010682,"connected_time":231000000000,"state":"active","ping":45},{"user_id":15,"name":"Mullins111","steam_id":76561198196125909,"connected_time":928000000000,"state":"active","ping":89},{"user_id":43,"name":"Asanez3","steam_id":76561198037381436,"connected_time":183000000000,"state":"active","ping":101},{"user_id":17,"name":"Red","steam_id":76561198255311543,"connected_time":859000000000,"state":"active","ping":73},{"user_id":18,"name":"Pluto","steam_id":76561198338593690,"connected_time":834000000000,"state":"active","ping":78},{"user_id":19,"name":":)","steam_id":76561198070923665,"connected_time":829000000000,"state":"active","ping":76},{"user_id":20,"name":"Once in a Lifetime","steam_id":76561199180652178,"connected_time":822000000000,"state":"active","ping":89},{"user_id":35,"name":"jazaniac","steam_id":76561198059955588,"connected_time":410000000000,"state":"active","ping":85},{"user_id":23,"name":"PyroManiac","steam_id":76561198005988491,"connected_time":752000000000,"state":"active","ping":115},{"user_id":24,"name":"sassy loli","steam_id":76561198402316065,"connected_time":706000000000,"state":"active","ping":114},{"user_id":25,"name":"Crackmire","steam_id":76561199016285746,"connected_time":701000000000,"state":"active","ping":86},{"user_id":26,"name":"MattJettskie","steam_id":76561199229493583,"connected_time":683000000000,"state":"active","ping":93},{"user_id":28,"name":"anhedonia","steam_id":76561198014557455,"connected_time":573000000000,"state":"active","ping":60},{"user_id":29,"name":"twizted","steam_id":76561197960407274,"connected_time":539000000000,"state":"active","ping":67},{"user_id":30,"name":"cass","steam_id":76561198074502046,"connected_time":504000000000,"state":"active","ping":73},{"user_id":44,"name":"Sh/7 Stain","steam_id":76561198408817739,"connected_time":172000000000,"state":"active","ping":68},{"user_id":33,"name":"Sussin'","steam_id":76561198059813696,"connected_time":476000000000,"state":"active","ping":90},{"user_id":34,"name":"Aureum","steam_id":76561199001172403,"connected_time":462000000000,"state":"active","ping":77}]},{"server_id":37,"name":"Uncletopia | Chicago | 6 | All Maps","name_short":"chi-6","host":"chi-2.us.uncletopia.com","port":27025,"enabled":true,"region":"us-central","cc":"us","latitude":41.881832,"longitude":-87.62318,"reserved":0,"last_update":"0001-01-01T00:00:00Z","name_a2s":"Uncletopia | Chicago | 6 | All Maps","protocol":17,"map":"koth_lakeside_final","folder":"tf","game":"Team Fortress","app_id":440,"player_count":0,"max_players":24,"Bots":0,"server_type":"Dedicated","server_os":"Linux","password":true,"vac":true,"version":"7757534","steam_id":85568392924866363,"keywords":["cp","nocrits","nodmgspread","uncletopia"],"game_id":440,"stv_port":27026,"stv_name":"Uncletopia | Chicago | 6 | All Maps | STV","players":null},{"server_id":38,"name":"Uncletopia | Chicago | 7 | Stopwatch Beta","name_short":"chi-7","host":"chi-2.us.uncletopia.com","port":27035,"enabled":true,"region":"us-central","cc":"us","latitude":41.881832,"longitude":-87.62318,"reserved":0,"last_update":"0001-01-01T00:00:00Z","name_a2s":"Uncletopia | Chicago | 7 | Stopwatch Beta","protocol":17,"map":"pl_barnblitz","folder":"tf","game":"Team Fortress","app_id":440,"player_count":0,"max_players":24,"Bots":0,"server_type":"Dedicated","server_os":"Linux","password":true,"vac":true,"version":"7757534","steam_id":85568392924866364,"keywords":["nocrits","nodmgspread","payload","uncletopia"],"game_id":440,"stv_port":27036,"stv_name":"Uncletopia | Chicago | 7 | Stopwatch Beta | STV","players":null},{"server_id":39,"name":"Uncletopia | Chicago | 8 | Community","name_short":"chi-8","host":"chi-2.us.uncletopia.com","port":27045,"enabled":true,"region":"us-central","cc":"us","latitude":41.881832,"longitude":-87.62318,"reserved":0,"last_update":"0001-01-01T00:00:00Z","name_a2s":"Uncletopia | Chicago | 8 | Community","protocol":17,"map":"workshop/koth_slaughter_rc1.ugc1712845210","folder":"tf","game":"Team Fortress","app_id":440,"player_count":0,"max_players":24,"Bots":0,"server_type":"Dedicated","server_os":"Linux","password":true,"vac":true,"version":"7757534","steam_id":85568392924866365,"keywords":["cp","nocrits","nodmgspread","uncletopia"],"game_id":440,"stv_port":27046,"stv_name":"Uncletopia | Chicago | 8 | Community | STV","players":null},{"server_id":8,"name":"Uncletopia | Dallas | 1 | All Maps","name_short":"dal-1","host":"dal-1.us.uncletopia.com","port":27015,"enabled":true,"region":"us-central","cc":"us","latitude":32.779167,"longitude":-96.80889,"reserved":0,"last_update":"0001-01-01T00:00:00Z","name_a2s":"Uncletopia | Dallas | 1 | All Maps","protocol":17,"map":"koth_harvest_final","folder":"tf","game":"Team Fortress","app_id":440,"player_count":24,"max_players":24,"Bots":0,"server_type":"Dedicated","server_os":"Linux","password":true,"vac":true,"version":"7757534","steam_id":85568392924469986,"keywords":["cp","nocrits","nodmgspread","uncletopia"],"game_id":440,"stv_port":27016,"stv_name":"Uncletopia | Dallas | 1 | All Maps | STV","players":[{"user_id":282,"name":"Mellou","steam_id":76561198212048740,"connected_time":659000000000,"state":"active","ping":45},{"user_id":260,"name":"cant speak english (chinese)","steam_id":76561198397662124,"connected_time":1808000000000,"state":"active","ping":62},{"user_id":253,"name":"big balls but only 2","steam_id":76561199001464827,"connected_time":2023000000000,"state":"active","ping":59},{"user_id":279,"name":"Faust main","steam_id":76561198971799149,"connected_time":729000000000,"state":"active","ping":74},{"user_id":263,"name":"Zombiegamer4724","steam_id":76561199082373311,"connected_time":1638000000000,"state":"active","ping":76},{"user_id":250,"name":"Frambouille","steam_id":76561198210342928,"connected_time":2055000000000,"state":"active","ping":163},{"user_id":270,"name":"Skyrim killable children mod","steam_id":76561198862836173,"connected_time":1025000000000,"state":"active","ping":65},{"user_id":274,"name":"Trash Man","steam_id":76561198874518834,"connected_time":935000000000,"state":"active","ping":80},{"user_id":286,"name":"ZodiacThundaga","steam_id":76561199025117814,"connected_time":332000000000,"state":"active","ping":102},{"user_id":251,"name":"Cervidé","steam_id":76561198098579497,"connected_time":2052000000000,"state":"active","ping":100},{"user_id":244,"name":"Motreir","steam_id":76561198151717946,"connected_time":2339000000000,"state":"active","ping":80},{"user_id":285,"name":"Kyle H. McCloud","steam_id":76561198025050432,"connected_time":553000000000,"state":"active","ping":87},{"user_id":224,"name":"T̵̲̒H̶̪̐E̴͉͂̊M̶̾͆\ufffd","steam_id":76561198091875604,"connected_time":3898000000000,"state":"active","ping":71},{"user_id":287,"name":"girl smell","steam_id":76561198118962168,"connected_time":254000000000,"state":"active","ping":70},{"user_id":284,"name":"Coolshroomish","steam_id":76561199109440924,"connected_time":626000000000,"state":"active","ping":104},{"user_id":266,"name":"Monsieur l'INGENIEUR","steam_id":76561198090504334,"connected_time":1407000000000,"state":"active","ping":95},{"user_id":277,"name":"gandalf zaza","steam_id":76561198059787688,"connected_time":779000000000,"state":"active","ping":75},{"user_id":265,"name":"Nugakku","steam_id":76561198082346219,"connected_time":1617000000000,"state":"active","ping":79},{"user_id":273,"name":"BeefChuck MuscleFuck","steam_id":76561198023361567,"connected_time":1002000000000,"state":"active","ping":77},{"user_id":278,"name":"Gad","steam_id":76561198020792373,"connected_time":731000000000,"state":"active","ping":66},{"user_id":256,"name":"Winterchillz","steam_id":76561198886519094,"connected_time":1980000000000,"state":"active","ping":102},{"user_id":233,"name":"Drive-By-Fish-Guy","steam_id":76561198105513652,"connected_time":3711000000000,"state":"active","ping":87},{"user_id":276,"name":"Shitstain","steam_id":76561199388529538,"connected_time":885000000000,"state":"active","ping":107},{"user_id":258,"name":"Bush.exe","steam_id":76561198124385307,"connected_time":1916000000000,"state":"active","ping":87}]},{"server_id":108,"name":"Uncletopia | Dallas | 2 | All Maps","name_short":"dal-2","host":"dal-1.us.uncletopia.com","port":27025,"enabled":true,"region":"us-central","cc":"us","latitude":32.779167,"longitude":-96.80889,"reserved":0,"last_update":"0001-01-01T00:00:00Z","name_a2s":"Uncletopia | Dallas | 2 | All Maps","protocol":17,"map":"cp_snakewater_final1","folder":"tf","game":"Team Fortress","app_id":440,"player_count":6,"max_players":24,"Bots":0,"server_type":"Dedicated","server_os":"Linux","password":true,"vac":true,"version":"7757534","steam_id":85568392924469988,"keywords":["cp","nocrits","nodmgspread","uncletopia"],"game_id":440,"stv_port":27026,"stv_name":"Uncletopia | Dallas | 2 | All Maps | STV","players":[{"user_id":12,"name":"Captin_Ciyro","steam_id":76561198861899909,"connected_time":1178000000000,"state":"active","ping":84},{"user_id":13,"name":"Kenku","steam_id":76561199086762926,"connected_time":945000000000,"state":"active","ping":64},{"user_id":14,"name":"john","steam_id":76561198850447852,"connected_time":108000000000,"state":"active","ping":60},{"user_id":16,"name":"name420","steam_id":76561198129374525,"connected_time":63000000000,"state":"active","ping":49},{"user_id":17,"name":"Breadn","steam_id":76561199478078821,"connected_time":60000000000,"state":"active","ping":68},{"user_id":18,"name":"lynks disease no sound","steam_id":76561198043465434,"connected_time":27000000000,"state":"active","ping":84}]},{"server_id":5,"name":"Uncletopia | Frankfurt | 1 | All Maps","name_short":"frk-1","host":"frk-1.de.uncletopia.com","port":27015,"enabled":true,"region":"eu","cc":"de","latitude":50.110924,"longitude":8.682127,"reserved":0,"last_update":"0001-01-01T00:00:00Z","name_a2s":"Uncletopia | Frankfurt | 1 | All Maps","protocol":17,"map":"pl_upward","folder":"tf","game":"Team Fortress","app_id":440,"player_count":24,"max_players":24,"Bots":0,"server_type":"Dedicated","server_os":"Linux","password":true,"vac":true,"version":"7757534","steam_id":85568392924469989,"keywords":["nocrits","nodmgspread","payload","uncletopia"],"game_id":440,"stv_port":27016,"stv_name":"Uncletopia | Frankfurt | 1 | All Maps | STV","players":[{"user_id":535,"name":"Raze32","steam_id":76561198059871919,"connected_time":644000000000,"state":"active","ping":81},{"user_id":493,"name":"zvekan","steam_id":76561198381101196,"connected_time":3946000000000,"state":"active","ping":65},{"user_id":533,"name":"Zizman","steam_id":76561198446562910,"connected_time":692000000000,"state":"active","ping":150},{"user_id":555,"name":"Mr_Joergen","steam_id":76561198364713702,"connected_time":11000000000,"state":"spawning","ping":98},{"user_id":556,"name":"iokoieon","steam_id":76561198065009070,"connected_time":11000000000,"state":"active","ping":130},{"user_id":552,"name":"Mayor Wank from Wanker Town","steam_id":76561197998253588,"connected_time":83000000000,"state":"active","ping":47},{"user_id":467,"name":"LivEssense","steam_id":76561198052476979,"connected_time":5185000000000,"state":"active","ping":75},{"user_id":532,"name":"テイルス","steam_id":76561198022403271,"connected_time":705000000000,"state":"active","ping":42},{"user_id":538,"name":"powej","steam_id":76561198056381418,"connected_time":591000000000,"state":"active","ping":48},{"user_id":539,"name":"Znoz","steam_id":76561198012093928,"connected_time":576000000000,"state":"active","ping":89},{"user_id":417,"name":"OreHaX","steam_id":76561198272166623,"connected_time":9249000000000,"state":"active","ping":70},{"user_id":546,"name":"Turkumies","steam_id":76561198014967489,"connected_time":413000000000,"state":"active","ping":99},{"user_id":531,"name":"flr","steam_id":76561198249327786,"connected_time":752000000000,"state":"active","ping":61},{"user_id":524,"name":"Carl","steam_id":76561198045638738,"connected_time":1912000000000,"state":"active","ping":76},{"user_id":548,"name":"stepbro","steam_id":76561198119607160,"connected_time":335000000000,"state":"active","ping":67},{"user_id":492,"name":"YuraGreek","steam_id":76561198050182252,"connected_time":4002000000000,"state":"active","ping":79},{"user_id":550,"name":"Malkuth","steam_id":76561198058567662,"connected_time":202000000000,"state":"active","ping":87},{"user_id":551,"name":"Tesla","steam_id":76561198378649144,"connected_time":94000000000,"state":"active","ping":60},{"user_id":526,"name":"Tea guy","steam_id":76561198797847641,"connected_time":1448000000000,"state":"active","ping":79},{"user_id":545,"name":"acskama","steam_id":76561198136743845,"connected_time":460000000000,"state":"active","ping":60},{"user_id":554,"name":"Zedsuø","steam_id":76561198360428767,"connected_time":46000000000,"state":"active","ping":49},{"user_id":525,"name":"failwife","steam_id":76561198183999845,"connected_time":1777000000000,"state":"active","ping":82},{"user_id":491,"name":"Shovelhalfrusty","steam_id":76561198346447513,"connected_time":4058000000000,"state":"active","ping":85},{"user_id":529,"name":"Miss.Sparklez","steam_id":76561198101745576,"connected_time":1319000000000,"state":"active","ping":66}]},{"server_id":110,"name":"Uncletopia | Frankfurt | 2 | All Maps","name_short":"frk-2","host":"frk-1.de.uncletopia.com","port":27025,"enabled":true,"region":"eu","cc":"de","latitude":50.110924,"longitude":8.682127,"reserved":0,"last_update":"0001-01-01T00:00:00Z","name_a2s":"Uncletopia | Frankfurt | 2 | All Maps","protocol":17,"map":"cp_dustbowl","folder":"tf","game":"Team Fortress","app_id":440,"player_count":0,"max_players":24,"Bots":0,"server_type":"Dedicated","server_os":"Linux","password":true,"vac":true,"version":"7757534","steam_id":85568392924469990,"keywords":["cp","nocrits","nodmgspread","uncletopia"],"game_id":440,"stv_port":27026,"stv_name":"Uncletopia | Frankfurt | 2 | All Maps | STV","players":null},{"server_id":308,"name":"Uncletopia | Frankfurt | 3 | All Maps","name_short":"frk-3","host":"frk-1.de.uncletopia.com","port":27035,"enabled":true,"region":"eu","cc":"de","latitude":50.110924,"longitude":8.682127,"reserved":0,"last_update":"0001-01-01T00:00:00Z","name_a2s":"Uncletopia | Frankfurt | 3 | All Maps","protocol":17,"map":"pl_snowycoast","folder":"tf","game":"Team Fortress","app_id":440,"player_count":24,"max_players":24,"Bots":0,"server_type":"Dedicated","server_os":"Linux","password":true,"vac":true,"version":"7757534","steam_id":85568392924504274,"keywords":["nocrits","nodmgspread","payload","uncletopia"],"game_id":440,"stv_port":27036,"stv_name":"Uncletopia | Frankfurt | 3 | All Maps | STV","players":[{"user_id":409,"name":"Pruff","steam_id":76561198377084417,"connected_time":430000000000,"state":"active","ping":62},{"user_id":407,"name":"Dodo","steam_id":76561198001877653,"connected_time":654000000000,"state":"active","ping":55},{"user_id":410,"name":"benibachi","steam_id":76561198190816499,"connected_time":379000000000,"state":"active","ping":74},{"user_id":383,"name":"Ohad","steam_id":76561198067989324,"connected_time":1965000000000,"state":"active","ping":113},{"user_id":385,"name":"ksg","steam_id":76561198042894236,"connected_time":1946000000000,"state":"active","ping":69},{"user_id":386,"name":"[sigma] rwota","steam_id":76561198385769722,"connected_time":1932000000000,"state":"active","ping":104},{"user_id":398,"name":"HugeE*venomxhairs","steam_id":76561198245495152,"connected_time":1223000000000,"state":"active","ping":60},{"user_id":372,"name":"Lord z Párnie","steam_id":76561198070815677,"connected_time":2839000000000,"state":"active","ping":64},{"user_id":403,"name":"Kjat","steam_id":76561198839433592,"connected_time":763000000000,"state":"active","ping":50},{"user_id":375,"name":"69 ME 2NITE","steam_id":76561199124261801,"connected_time":2630000000000,"state":"active","ping":100},{"user_id":396,"name":"usmanov.inc","steam_id":76561198263734652,"connected_time":1413000000000,"state":"active","ping":113},{"user_id":397,"name":"lyudmilakh","steam_id":76561198362779878,"connected_time":1368000000000,"state":"active","ping":81},{"user_id":411,"name":"Saint","steam_id":76561198003296382,"connected_time":273000000000,"state":"active","ping":66},{"user_id":350,"name":"BlinkedUp","steam_id":76561198249985618,"connected_time":4631000000000,"state":"active","ping":62},{"user_id":346,"name":"Special Agent Big Smoke","steam_id":76561198154468827,"connected_time":4719000000000,"state":"active","ping":75},{"user_id":400,"name":"WATANG!","steam_id":76561198040478926,"connected_time":1025000000000,"state":"active","ping":65},{"user_id":391,"name":"Stefel","steam_id":76561198803244101,"connected_time":1697000000000,"state":"active","ping":74},{"user_id":406,"name":"(wm) Das Fleisch","steam_id":76561198001250715,"connected_time":736000000000,"state":"active","ping":51},{"user_id":405,"name":"Toxicò","steam_id":76561199031920676,"connected_time":748000000000,"state":"active","ping":83},{"user_id":412,"name":"yurkur","steam_id":76561198407108497,"connected_time":91000000000,"state":"active","ping":53},{"user_id":392,"name":"he smonk(need e-wife)","steam_id":76561197996468677,"connected_time":1694000000000,"state":"active","ping":60},{"user_id":408,"name":"HarMala","steam_id":76561198055298143,"connected_time":652000000000,"state":"active","ping":79},{"user_id":401,"name":"Egor Pomidor","steam_id":76561199175688390,"connected_time":978000000000,"state":"active","ping":75}]},{"server_id":309,"name":"Uncletopia | Frankfurt | 4 | All Maps","name_short":"frk-4","host":"frk-1.de.uncletopia.com","port":27045,"enabled":true,"region":"eu","cc":"de","latitude":50.110924,"longitude":8.682127,"reserved":0,"last_update":"0001-01-01T00:00:00Z","name_a2s":"Uncletopia | Frankfurt | 4 | All Maps","protocol":17,"map":"koth_viaduct","folder":"tf","game":"Team Fortress","app_id":440,"player_count":3,"max_players":24,"Bots":0,"server_type":"Dedicated","server_os":"Linux","password":true,"vac":true,"version":"7757534","steam_id":85568392924504275,"keywords":["cp","nocrits","nodmgspread","uncletopia"],"game_id":440,"stv_port":27046,"stv_name":"Uncletopia | Frankfurt | 4 | All Maps | STV","players":[{"user_id":24,"name":"sp00ky","steam_id":76561198279985917,"connected_time":1584000000000,"state":"active","ping":69},{"user_id":26,"name":"Void","steam_id":76561198810434231,"connected_time":1066000000000,"state":"active","ping":84},{"user_id":30,"name":"FluoducK","steam_id":76561198158175778,"connected_time":52000000000,"state":"active","ping":59}]},{"server_id":310,"name":"Uncletopia | Frankfurt | 5 | All Maps","name_short":"frk-5","host":"frk-1.de.uncletopia.com","port":27055,"enabled":true,"region":"eu","cc":"de","latitude":50.110924,"longitude":8.682127,"reserved":0,"last_update":"0001-01-01T00:00:00Z","name_a2s":"Uncletopia | Frankfurt | 5 | All Maps","protocol":17,"map":"pl_upward","folder":"tf","game":"Team Fortress","app_id":440,"player_count":24,"max_players":24,"Bots":0,"server_type":"Dedicated","server_os":"Linux","password":true,"vac":true,"version":"7757534","steam_id":85568392924504277,"keywords":["nocrits","nodmgspread","payload","uncletopia"],"game_id":440,"stv_port":27056,"stv_name":"Uncletopia | Frankfurt | 5 | All Maps | STV","players":[{"user_id":447,"name":"eNine the FOREVER","steam_id":76561198890193313,"connected_time":1779000000000,"state":"active","ping":62},{"user_id":428,"name":"Mircoxi","steam_id":76561199407632710,"connected_time":3227000000000,"state":"active","ping":71},{"user_id":470,"name":"Dio","steam_id":76561198117685434,"connected_time":585000000000,"state":"active","ping":87},{"user_id":372,"name":"sm0ke","steam_id":76561198198977226,"connected_time":6897000000000,"state":"active","ping":67},{"user_id":385,"name":"bigwish | bmod.tf","steam_id":76561197997859723,"connected_time":6229000000000,"state":"active","ping":80},{"user_id":462,"name":"AmadStatistician","steam_id":76561198163654770,"connected_time":954000000000,"state":"active","ping":69},{"user_id":474,"name":"Carol Olston","steam_id":76561198080257273,"connected_time":299000000000,"state":"active","ping":55},{"user_id":469,"name":"MatesThePlayer","steam_id":76561198066156449,"connected_time":749000000000,"state":"active","ping":56},{"user_id":432,"name":"Dark ^^","steam_id":76561198036241064,"connected_time":2394000000000,"state":"active","ping":67},{"user_id":461,"name":"Udinese Dion","steam_id":76561198067931573,"connected_time":975000000000,"state":"active","ping":70},{"user_id":454,"name":"R@DIO","steam_id":76561197995533046,"connected_time":1108000000000,"state":"active","ping":78},{"user_id":471,"name":"Tamirdadon","steam_id":76561198317551573,"connected_time":503000000000,"state":"active","ping":89},{"user_id":453,"name":"Ixion","steam_id":76561198041660675,"connected_time":1239000000000,"state":"active","ping":72},{"user_id":408,"name":"spy in the base","steam_id":76561198284570752,"connected_time":4781000000000,"state":"active","ping":60},{"user_id":463,"name":"POOTISMAN","steam_id":76561197986793136,"connected_time":942000000000,"state":"active","ping":50},{"user_id":475,"name":"slnc","steam_id":76561198041151496,"connected_time":287000000000,"state":"active","ping":60},{"user_id":444,"name":"AWP Bodyshot :) ❤","steam_id":76561198029928533,"connected_time":2044000000000,"state":"active","ping":45},{"user_id":472,"name":"¬_¬","steam_id":76561198118412910,"connected_time":445000000000,"state":"active","ping":74},{"user_id":423,"name":"COTHuK","steam_id":76561198330633932,"connected_time":3730000000000,"state":"active","ping":74},{"user_id":465,"name":"3igen3ggy","steam_id":76561197989548015,"connected_time":834000000000,"state":"active","ping":68},{"user_id":440,"name":"dabri88","steam_id":76561198103645497,"connected_time":2130000000000,"state":"active","ping":162},{"user_id":390,"name":"pain train tf2","steam_id":76561198111568728,"connected_time":5717000000000,"state":"active","ping":47},{"user_id":398,"name":"medicinal man","steam_id":76561198202668788,"connected_time":5316000000000,"state":"active","ping":67},{"user_id":450,"name":"ScarredPixel123","steam_id":76561199165112703,"connected_time":1304000000000,"state":"active","ping":72}]},{"server_id":311,"name":"Uncletopia | Frankfurt | 6 | All Maps","name_short":"frk-6","host":"frk-1.de.uncletopia.com","port":27065,"enabled":true,"region":"eu","cc":"de","latitude":50.110924,"longitude":8.682127,"reserved":0,"last_update":"0001-01-01T00:00:00Z","name_a2s":"Uncletopia | Frankfurt | 6 | All Maps","protocol":17,"map":"pl_upward","folder":"tf","game":"Team Fortress","app_id":440,"player_count":24,"max_players":24,"Bots":0,"server_type":"Dedicated","server_os":"Linux","password":true,"vac":true,"version":"7757534","steam_id":85568392924504278,"keywords":["nocrits","nodmgspread","payload","uncletopia"],"game_id":440,"stv_port":27066,"stv_name":"Uncletopia | Frankfurt | 6 | All Maps | STV","players":[{"user_id":500,"name":"Boki","steam_id":76561198044553351,"connected_time":1562000000000,"state":"active","ping":76},{"user_id":491,"name":"0","steam_id":76561198984436595,"connected_time":2329000000000,"state":"active","ping":75},{"user_id":509,"name":"waffle toaster","steam_id":76561198799089628,"connected_time":898000000000,"state":"active","ping":59},{"user_id":493,"name":"Ladi","steam_id":76561198047735194,"connected_time":1622000000000,"state":"active","ping":65},{"user_id":392,"name":"Killer8880","steam_id":76561199094449560,"connected_time":8831000000000,"state":"active","ping":89},{"user_id":507,"name":"pfear","steam_id":76561197999207328,"connected_time":1038000000000,"state":"active","ping":75},{"user_id":429,"name":"Team Fortress","steam_id":76561198058722801,"connected_time":7085000000000,"state":"active","ping":53},{"user_id":486,"name":"Mr. Mundy","steam_id":76561198132008918,"connected_time":2814000000000,"state":"active","ping":72},{"user_id":492,"name":"2:31","steam_id":76561198046921199,"connected_time":1687000000000,"state":"active","ping":64},{"user_id":505,"name":"Hoff","steam_id":76561198138540938,"connected_time":1099000000000,"state":"active","ping":76},{"user_id":515,"name":"Doctor Mobius","steam_id":76561197971281806,"connected_time":250000000000,"state":"active","ping":68},{"user_id":510,"name":"Rohnus","steam_id":76561198074049934,"connected_time":888000000000,"state":"active","ping":68},{"user_id":511,"name":"torn","steam_id":76561198223003236,"connected_time":737000000000,"state":"active","ping":49},{"user_id":502,"name":"Digio","steam_id":76561199065101964,"connected_time":1137000000000,"state":"active","ping":79},{"user_id":497,"name":"Ecy","steam_id":76561198110756682,"connected_time":1590000000000,"state":"active","ping":53},{"user_id":514,"name":"Dåvid","steam_id":76561198184135755,"connected_time":436000000000,"state":"active","ping":62},{"user_id":477,"name":"CAR DOOR","steam_id":76561198055283295,"connected_time":3657000000000,"state":"active","ping":45},{"user_id":516,"name":"nynon","steam_id":76561197998432126,"connected_time":201000000000,"state":"active","ping":88},{"user_id":487,"name":"Salih","steam_id":76561198287934839,"connected_time":2811000000000,"state":"active","ping":58},{"user_id":489,"name":"maiden","steam_id":76561197994492154,"connected_time":2791000000000,"state":"active","ping":71},{"user_id":455,"name":"Jackriz","steam_id":76561198024882111,"connected_time":5210000000000,"state":"active","ping":76},{"user_id":503,"name":"mike\"3loavesofbread\"jones","steam_id":76561198064342804,"connected_time":1132000000000,"state":"active","ping":76},{"user_id":504,"name":"Average Gunspy enjoyer","steam_id":76561198295868113,"connected_time":1116000000000,"state":"active","ping":68},{"user_id":499,"name":"Luuk","steam_id":76561198088266026,"connected_time":1589000000000,"state":"active","ping":56}]},{"server_id":23,"name":"Uncletopia | Frankfurt | 7 | Stopwatch Beta","name_short":"frk-7","host":"frk-1.de.uncletopia.com","port":27075,"enabled":true,"region":"eu","cc":"de","latitude":50.110924,"longitude":8.682127,"reserved":0,"last_update":"0001-01-01T00:00:00Z","name_a2s":"Uncletopia | Frankfurt | 7 | Stopwatch Beta","protocol":17,"map":"workshop/koth_ramjam_rc1.ugc459778887","folder":"tf","game":"Team Fortress","app_id":440,"player_count":0,"max_players":24,"Bots":0,"server_type":"Dedicated","server_os":"Linux","password":true,"vac":true,"version":"7757534","steam_id":85568392924742827,"keywords":["cp","nocrits","nodmgspread","uncletopia"],"game_id":440,"stv_port":27076,"stv_name":"Uncletopia | Frankfurt | 7 | Stopwatch Beta | STV","players":null},{"server_id":24,"name":"Uncletopia | Frankfurt | 8 | Community","name_short":"frk-8","host":"frk-1.de.uncletopia.com","port":27085,"enabled":true,"region":"eu","cc":"de","latitude":50.110924,"longitude":8.682127,"reserved":0,"last_update":"0001-01-01T00:00:00Z","name_a2s":"Uncletopia | Frankfurt | 8 | Community","protocol":17,"map":"workshop/cp_overgrown_rc7b.ugc503939302","folder":"tf","game":"Team Fortress","app_id":440,"player_count":1,"max_players":24,"Bots":0,"server_type":"Dedicated","server_os":"Linux","password":true,"vac":true,"version":"7757534","steam_id":85568392924742828,"keywords":["cp","nocrits","nodmgspread","uncletopia"],"game_id":440,"stv_port":27086,"stv_name":"Uncletopia | Frankfurt | 8 | Community | STV","players":[{"user_id":33,"name":"Maintain a smooth ride","steam_id":76561199475596186,"connected_time":138000000000,"state":"active","ping":123}]},{"server_id":202,"name":"Uncletopia | Hong Kong | 1 | All Maps","name_short":"hgk-1","host":"hgk-1.hk.uncletopia.com","port":27015,"enabled":true,"region":"asia","cc":"hk","latitude":22.302711,"longitude":114.177216,"reserved":0,"last_update":"0001-01-01T00:00:00Z","name_a2s":"Uncletopia | Hong Kong | 1 | All Maps","protocol":17,"map":"koth_lakeside_final","folder":"tf","game":"Team Fortress","app_id":440,"player_count":0,"max_players":24,"Bots":0,"server_type":"Dedicated","server_os":"Linux","password":true,"vac":true,"version":"7757534","steam_id":85568392924494504,"keywords":["cp","nocrits","nodmgspread","uncletopia"],"game_id":440,"stv_port":27016,"stv_name":"Uncletopia | Hong Kong | 1 | All Maps | STV","players":null},{"server_id":1,"name":"Uncletopia | Los Angeles | 1 | All Maps","name_short":"lax-1","host":"lax-1.us.uncletopia.com","port":27015,"enabled":true,"region":"us-west","cc":"us","latitude":33.94279,"longitude":-118.41004,"reserved":0,"last_update":"0001-01-01T00:00:00Z","name_a2s":"Uncletopia | Los Angeles | 1 | All Maps","protocol":17,"map":"koth_lakeside_final","folder":"tf","game":"Team Fortress","app_id":440,"player_count":0,"max_players":24,"Bots":0,"server_type":"Dedicated","server_os":"Linux","password":true,"vac":true,"version":"7757534","steam_id":85568392924469991,"keywords":["cp","nocrits","nodmgspread","uncletopia"],"game_id":440,"stv_port":27016,"stv_name":"Uncletopia | Los Angeles | 1 | All Maps | STV","players":null},{"server_id":112,"name":"Uncletopia | Los Angeles | 2 | All Maps","name_short":"lax-2","host":"lax-1.us.uncletopia.com","port":27025,"enabled":true,"region":"us-west","cc":"us","latitude":33.94279,"longitude":-118.41004,"reserved":0,"last_update":"0001-01-01T00:00:00Z","name_a2s":"Uncletopia | Los Angeles | 2 | All Maps","protocol":17,"map":"pl_borneo","folder":"tf","game":"Team Fortress","app_id":440,"player_count":0,"max_players":24,"Bots":0,"server_type":"Dedicated","server_os":"Linux","password":true,"vac":true,"version":"7757534","steam_id":85568392924469992,"keywords":["nocrits","nodmgspread","payload","uncletopia"],"game_id":440,"stv_port":27026,"stv_name":"Uncletopia | Los Angeles | 2 | All Maps | STV","players":null},{"server_id":324,"name":"Uncletopia | Los Angeles | 3 | All Maps","name_short":"lax-3","host":"lax-1.us.uncletopia.com","port":27035,"enabled":true,"region":"us-west","cc":"us","latitude":33.94279,"longitude":-118.41004,"reserved":0,"last_update":"0001-01-01T00:00:00Z","name_a2s":"Uncletopia | Los Angeles | 3 | All Maps","protocol":17,"map":"pl_barnblitz","folder":"tf","game":"Team Fortress","app_id":440,"player_count":0,"max_players":24,"Bots":0,"server_type":"Dedicated","server_os":"Linux","password":true,"vac":true,"version":"7757534","steam_id":85568392924510198,"keywords":["nocrits","nodmgspread","payload","uncletopia"],"game_id":440,"stv_port":27036,"stv_name":"Uncletopia | Los Angeles | 3 | All Maps | STV","players":null},{"server_id":25,"name":"Uncletopia | Los Angeles | 4 | Stopwatch Beta","name_short":"lax-4","host":"lax-1.us.uncletopia.com","port":27045,"enabled":true,"region":"us-west","cc":"us","latitude":33.94279,"longitude":-118.41004,"reserved":0,"last_update":"0001-01-01T00:00:00Z","name_a2s":"Uncletopia | Los Angeles | 4 | Stopwatch Beta","protocol":17,"map":"pl_swiftwater_final1","folder":"tf","game":"Team Fortress","app_id":440,"player_count":0,"max_players":24,"Bots":0,"server_type":"Dedicated","server_os":"Linux","password":true,"vac":true,"version":"7757534","steam_id":85568392924510199,"keywords":["nocrits","nodmgspread","payload","uncletopia"],"game_id":440,"stv_port":27046,"stv_name":"Uncletopia | Los Angeles | 4 | Stopwatch Beta | STV","players":null},{"server_id":11,"name":"Uncletopia | London | 1 | All Maps","name_short":"lon-1","host":"lon-1.uk.uncletopia.com","port":27015,"enabled":true,"region":"eu","cc":"gb","latitude":51.509865,"longitude":-0.118092,"reserved":0,"last_update":"0001-01-01T00:00:00Z","name_a2s":"Uncletopia | London | 1 | All Maps","protocol":17,"map":"cp_mountainlab","folder":"tf","game":"Team Fortress","app_id":440,"player_count":24,"max_players":24,"Bots":0,"server_type":"Dedicated","server_os":"Linux","password":true,"vac":true,"version":"7757534","steam_id":85568392924367362,"keywords":["cp","nocrits","nodmgspread","uncletopia"],"game_id":440,"stv_port":27016,"stv_name":"Uncletopia | London | 1 | All Maps | STV","players":[{"user_id":540,"name":"\u003c  \u003e #savetf2","steam_id":76561199213338939,"connected_time":1313000000000,"state":"active","ping":130},{"user_id":550,"name":"nhstefanov","steam_id":76561198811811405,"connected_time":408000000000,"state":"active","ping":69},{"user_id":547,"name":"Backup","steam_id":76561197999557567,"connected_time":733000000000,"state":"active","ping":61},{"user_id":543,"name":"lofimonkeyjazz","steam_id":76561198117059662,"connected_time":1117000000000,"state":"active","ping":78},{"user_id":530,"name":"unFunny Valentine","steam_id":76561198203242543,"connected_time":2060000000000,"state":"active","ping":96},{"user_id":552,"name":"Kentucky Fried Children","steam_id":76561198145686102,"connected_time":325000000000,"state":"active","ping":47},{"user_id":554,"name":"Gorogaz","steam_id":76561198207157679,"connected_time":4000000000,"state":"spawning","ping":65},{"user_id":546,"name":"SnowShot","steam_id":76561198004766638,"connected_time":813000000000,"state":"active","ping":80},{"user_id":539,"name":"noahjwarner09","steam_id":76561199444479988,"connected_time":1349000000000,"state":"active","ping":153},{"user_id":529,"name":"Slim3rs","steam_id":76561199088010585,"connected_time":2077000000000,"state":"active","ping":185},{"user_id":513,"name":"Starly","steam_id":76561198055771921,"connected_time":2977000000000,"state":"active","ping":47},{"user_id":544,"name":"MannicM","steam_id":76561199063372247,"connected_time":1085000000000,"state":"active","ping":58},{"user_id":501,"name":"Hive","steam_id":76561199480966681,"connected_time":3912000000000,"state":"active","ping":74},{"user_id":514,"name":"cheezy27","steam_id":76561198071067236,"connected_time":2859000000000,"state":"active","ping":91},{"user_id":536,"name":"Debbie M (radio gal)","steam_id":76561198063093802,"connected_time":1594000000000,"state":"active","ping":47},{"user_id":541,"name":"The Pestilence","steam_id":76561199081252282,"connected_time":1285000000000,"state":"active","ping":168},{"user_id":511,"name":"icy_spicy","steam_id":76561199481524657,"connected_time":3057000000000,"state":"active","ping":60},{"user_id":553,"name":"balanced diet","steam_id":76561198240320806,"connected_time":26000000000,"state":"active","ping":66},{"user_id":548,"name":"Thundermind","steam_id":76561198278414090,"connected_time":706000000000,"state":"active","ping":91},{"user_id":507,"name":"JOHN GAMING (#1 gunspy)","steam_id":76561199085822219,"connected_time":3418000000000,"state":"active","ping":89},{"user_id":537,"name":"casual schizophrenic","steam_id":76561198255357694,"connected_time":1462000000000,"state":"active","ping":90},{"user_id":516,"name":"Koli","steam_id":76561197992428783,"connected_time":2601000000000,"state":"active","ping":60},{"user_id":533,"name":"no.","steam_id":76561198988350454,"connected_time":2033000000000,"state":"active","ping":68},{"user_id":545,"name":"impossible whopper eater","steam_id":76561198058641805,"connected_time":887000000000,"state":"active","ping":60}]},{"server_id":114,"name":"Uncletopia | London | 2 | All Maps","name_short":"lon-2","host":"lon-1.uk.uncletopia.com","port":27025,"enabled":true,"region":"eu","cc":"gb","latitude":51.509865,"longitude":-0.118092,"reserved":0,"last_update":"0001-01-01T00:00:00Z","name_a2s":"Uncletopia | London | 2 | All Maps","protocol":17,"map":"koth_cascade","folder":"tf","game":"Team Fortress","app_id":440,"player_count":23,"max_players":24,"Bots":0,"server_type":"Dedicated","server_os":"Linux","password":true,"vac":true,"version":"7757534","steam_id":85568392924470941,"keywords":["cp","nocrits","nodmgspread","uncletopia"],"game_id":440,"stv_port":27026,"stv_name":"Uncletopia | London | 2 | All Maps | STV","players":[{"user_id":373,"name":"B4R10N","steam_id":76561198047167954,"connected_time":1890000000000,"state":"active","ping":36},{"user_id":432,"name":"casual pepper","steam_id":76561199375398998,"connected_time":464000000000,"state":"active","ping":77},{"user_id":209,"name":"ThatGamingKiwi","steam_id":76561199170522237,"connected_time":11355000000000,"state":"active","ping":150},{"user_id":374,"name":"Theran_1","steam_id":76561198082232097,"connected_time":1884000000000,"state":"active","ping":73},{"user_id":442,"name":"The_Jaystone","steam_id":76561198126280691,"connected_time":197000000000,"state":"active","ping":32},{"user_id":316,"name":"Providence","steam_id":76561198003920270,"connected_time":5729000000000,"state":"active","ping":74},{"user_id":421,"name":"The Appleguy","steam_id":76561198444982569,"connected_time":767000000000,"state":"active","ping":84},{"user_id":415,"name":"Drac","steam_id":76561198031636019,"connected_time":845000000000,"state":"active","ping":57},{"user_id":371,"name":"quickfast","steam_id":76561199438900919,"connected_time":1978000000000,"state":"active","ping":43},{"user_id":413,"name":"Pipp Petals2014","steam_id":76561198147668373,"connected_time":901000000000,"state":"active","ping":63},{"user_id":376,"name":"Dr. Le Quack","steam_id":76561197995711176,"connected_time":1801000000000,"state":"active","ping":94},{"user_id":424,"name":"Kolargole","steam_id":76561198159322070,"connected_time":677000000000,"state":"active","ping":60},{"user_id":378,"name":"Petight","steam_id":76561197999438798,"connected_time":1790000000000,"state":"active","ping":31},{"user_id":389,"name":"[Sheep] Tomco","steam_id":76561198388549261,"connected_time":1551000000000,"state":"active","ping":66},{"user_id":379,"name":"pensami forte","steam_id":76561198066071855,"connected_time":1789000000000,"state":"active","ping":67},{"user_id":390,"name":"Regan","steam_id":76561198100631086,"connected_time":1542000000000,"state":"active","ping":62},{"user_id":398,"name":"money goblin","steam_id":76561198103175187,"connected_time":1198000000000,"state":"active","ping":72},{"user_id":385,"name":"gary1239871","steam_id":76561199262295365,"connected_time":1746000000000,"state":"active","ping":48},{"user_id":428,"name":"Oxy:*","steam_id":76561198275120049,"connected_time":583000000000,"state":"active","ping":70},{"user_id":357,"name":"Panique","steam_id":76561197993239675,"connected_time":3545000000000,"state":"active","ping":52},{"user_id":407,"name":"zek","steam_id":76561198862763731,"connected_time":1003000000000,"state":"active","ping":71},{"user_id":403,"name":"Der Geist des Hans Rosling","steam_id":76561198049231109,"connected_time":1088000000000,"state":"active","ping":72},{"user_id":420,"name":"b ull","steam_id":76561199233979726,"connected_time":788000000000,"state":"active","ping":96}]},{"server_id":320,"name":"Uncletopia | London | 3 | All Maps","name_short":"lon-3","host":"lon-1.uk.uncletopia.com","port":27035,"enabled":true,"region":"eu","cc":"gb","latitude":51.509865,"longitude":-0.118092,"reserved":0,"last_update":"0001-01-01T00:00:00Z","name_a2s":"Uncletopia | London | 3 | All Maps","protocol":17,"map":"pl_pier","folder":"tf","game":"Team Fortress","app_id":440,"player_count":24,"max_players":24,"Bots":0,"server_type":"Dedicated","server_os":"Linux","password":true,"vac":true,"version":"7757534","steam_id":85568392924510192,"keywords":["nocrits","nodmgspread","payload","uncletopia"],"game_id":440,"stv_port":27036,"stv_name":"Uncletopia | London | 3 | All Maps | STV","players":[{"user_id":482,"name":"Crimea a bridge","steam_id":76561198030898371,"connected_time":267000000000,"state":"active","ping":86},{"user_id":480,"name":"meriones","steam_id":76561198034234373,"connected_time":343000000000,"state":"active","ping":43},{"user_id":470,"name":"no1-","steam_id":76561198067524060,"connected_time":883000000000,"state":"active","ping":76},{"user_id":486,"name":"Avarus","steam_id":76561198040324008,"connected_time":193000000000,"state":"active","ping":58},{"user_id":483,"name":"Flump","steam_id":76561198106352373,"connected_time":257000000000,"state":"active","ping":42},{"user_id":439,"name":"goodguydragg","steam_id":76561198305104891,"connected_time":2364000000000,"state":"active","ping":75},{"user_id":484,"name":"SirSangoor","steam_id":76561198044462559,"connected_time":237000000000,"state":"active","ping":119},{"user_id":443,"name":"Labial","steam_id":76561198385163046,"connected_time":2346000000000,"state":"active","ping":39},{"user_id":485,"name":"Flytrap McBam","steam_id":76561197968685729,"connected_time":210000000000,"state":"active","ping":65},{"user_id":437,"name":"$nØw","steam_id":76561198238781028,"connected_time":2586000000000,"state":"active","ping":100},{"user_id":478,"name":"Sch","steam_id":76561198071341689,"connected_time":419000000000,"state":"active","ping":60},{"user_id":409,"name":"A Shiny Meat Bicycle","steam_id":76561198358757709,"connected_time":4406000000000,"state":"active","ping":170},{"user_id":464,"name":"Birb mister","steam_id":76561199207235620,"connected_time":1229000000000,"state":"active","ping":64},{"user_id":468,"name":"wake me up before you go-go","steam_id":76561198179324075,"connected_time":1065000000000,"state":"active","ping":61},{"user_id":481,"name":"juntao","steam_id":76561198363882056,"connected_time":287000000000,"state":"active","ping":45},{"user_id":454,"name":"(Voice) God","steam_id":76561198118605824,"connected_time":1402000000000,"state":"active","ping":120},{"user_id":479,"name":"Soerlssoelssöen","steam_id":76561197993060585,"connected_time":383000000000,"state":"active","ping":82},{"user_id":279,"name":"slightly drunk","steam_id":76561199184873889,"connected_time":16025000000000,"state":"active","ping":72},{"user_id":444,"name":"twitch.tv/red_naxela","steam_id":76561197998803950,"connected_time":2201000000000,"state":"active","ping":61},{"user_id":475,"name":"ticklemytush","steam_id":76561199206080182,"connected_time":631000000000,"state":"active","ping":142},{"user_id":442,"name":"idfk","steam_id":76561199013486916,"connected_time":2355000000000,"state":"active","ping":103},{"user_id":476,"name":"juku06","steam_id":76561198953966982,"connected_time":573000000000,"state":"active","ping":109},{"user_id":456,"name":"Een schaap zonder slaap","steam_id":76561198084808410,"connected_time":1368000000000,"state":"active","ping":58},{"user_id":445,"name":"Ježek :)","steam_id":76561198127703483,"connected_time":1650000000000,"state":"active","ping":68}]},{"server_id":321,"name":"Uncletopia | London | 4 | All Maps","name_short":"lon-4","host":"lon-1.uk.uncletopia.com","port":27045,"enabled":true,"region":"eu","cc":"gb","latitude":51.509865,"longitude":-0.118092,"reserved":0,"last_update":"0001-01-01T00:00:00Z","name_a2s":"Uncletopia | London | 4 | All Maps","protocol":17,"map":"pl_frontier_final","folder":"tf","game":"Team Fortress","app_id":440,"player_count":0,"max_players":24,"Bots":0,"server_type":"Dedicated","server_os":"Linux","password":true,"vac":true,"version":"7757534","steam_id":85568392924510193,"keywords":["nocrits","nodmgspread","payload","uncletopia"],"game_id":440,"stv_port":27046,"stv_name":"Uncletopia | London | 4 | All Maps | STV","players":null},{"server_id":21,"name":"Uncletopia | London | 5 | All Maps","name_short":"lon-5","host":"lon-1.uk.uncletopia.com","port":27055,"enabled":true,"region":"eu","cc":"gb","latitude":51.509865,"longitude":-0.118092,"reserved":0,"last_update":"0001-01-01T00:00:00Z","name_a2s":"Uncletopia | London | 5 | All Maps","protocol":17,"map":"pl_hoodoo_final","folder":"tf","game":"Team Fortress","app_id":440,"player_count":23,"max_players":24,"Bots":0,"server_type":"Dedicated","server_os":"Linux","password":true,"vac":true,"version":"7757534","steam_id":85568392924742829,"keywords":["nocrits","nodmgspread","payload","uncletopia"],"game_id":440,"stv_port":27056,"stv_name":"Uncletopia | London | 5 | All Maps | STV","players":[{"user_id":262,"name":"Gnarville","steam_id":76561198006373329,"connected_time":1594000000000,"state":"active","ping":48},{"user_id":254,"name":"Cypher","steam_id":76561197996967254,"connected_time":1834000000000,"state":"active","ping":74},{"user_id":244,"name":"Alcohol Hominid","steam_id":76561198320313950,"connected_time":1883000000000,"state":"active","ping":167},{"user_id":176,"name":"do you believe in magic?","steam_id":76561198193357946,"connected_time":6841000000000,"state":"active","ping":107},{"user_id":276,"name":"whyamialive","steam_id":76561199070008862,"connected_time":375000000000,"state":"active","ping":43},{"user_id":270,"name":"Swimpz","steam_id":76561198137479945,"connected_time":1029000000000,"state":"active","ping":98},{"user_id":232,"name":"NitPig","steam_id":76561198212991935,"connected_time":3362000000000,"state":"active","ping":101},{"user_id":263,"name":"Sparky","steam_id":76561198036754195,"connected_time":1436000000000,"state":"active","ping":46},{"user_id":251,"name":"Noob_with_source","steam_id":76561198870362103,"connected_time":1854000000000,"state":"active","ping":56},{"user_id":282,"name":"PixelHyde","steam_id":76561198040878617,"connected_time":110000000000,"state":"spawning","ping":88},{"user_id":278,"name":"Oriuke","steam_id":76561197992166123,"connected_time":311000000000,"state":"active","ping":51},{"user_id":188,"name":"midlpsyzl47","steam_id":76561199475972637,"connected_time":6269000000000,"state":"active","ping":64},{"user_id":269,"name":"Sylvanas","steam_id":76561198154904165,"connected_time":1093000000000,"state":"active","ping":107},{"user_id":274,"name":"THEJamiboi","steam_id":76561198034696965,"connected_time":675000000000,"state":"active","ping":57},{"user_id":271,"name":"Bob.","steam_id":76561198330093822,"connected_time":988000000000,"state":"active","ping":88},{"user_id":275,"name":"go play rimworld","steam_id":76561199397932924,"connected_time":550000000000,"state":"active","ping":87},{"user_id":265,"name":"sin","steam_id":76561198193416785,"connected_time":1389000000000,"state":"active","ping":55},{"user_id":250,"name":"keri","steam_id":76561199066513442,"connected_time":1859000000000,"state":"active","ping":68},{"user_id":248,"name":"metamikko","steam_id":76561198324704234,"connected_time":1873000000000,"state":"active","ping":121},{"user_id":279,"name":"Kokos","steam_id":76561198085501501,"connected_time":264000000000,"state":"active","ping":90},{"user_id":272,"name":"Doecheldorf","steam_id":76561198291628630,"connected_time":959000000000,"state":"active","ping":69},{"user_id":224,"name":"Ruvix","steam_id":76561198239689346,"connected_time":4259000000000,"state":"active","ping":71},{"user_id":281,"name":"the babadook","steam_id":76561198040168682,"connected_time":140000000000,"state":"active","ping":45}]},{"server_id":22,"name":"Uncletopia | London | 6 | All Maps","name_short":"lon-6","host":"lon-1.uk.uncletopia.com","port":27065,"enabled":true,"region":"eu","cc":"gb","latitude":51.509865,"longitude":-0.118092,"reserved":0,"last_update":"0001-01-01T00:00:00Z","name_a2s":"Uncletopia | London | 6 | All Maps","protocol":17,"map":"koth_cascade","folder":"tf","game":"Team Fortress","app_id":440,"player_count":0,"max_players":24,"Bots":0,"server_type":"Dedicated","server_os":"Linux","password":true,"vac":true,"version":"7757534","steam_id":85568392924742830,"keywords":["cp","nocrits","nodmgspread","uncletopia"],"game_id":440,"stv_port":27066,"stv_name":"Uncletopia | London | 6 | All Maps | STV","players":null},{"server_id":40,"name":"Uncletopia | London | 7 | No Payload","name_short":"lon-7","host":"lon-1.uk.uncletopia.com","port":27075,"enabled":true,"region":"eu","cc":"gb","latitude":51.509865,"longitude":-0.118092,"reserved":0,"last_update":"0001-01-01T00:00:00Z","name_a2s":"Uncletopia | London | 7 | No Payload","protocol":17,"map":"cp_mountainlab","folder":"tf","game":"Team Fortress","app_id":440,"player_count":3,"max_players":24,"Bots":0,"server_type":"Dedicated","server_os":"Linux","password":true,"vac":true,"version":"7757534","steam_id":85568392924964314,"keywords":["cp","nocrits","nodmgspread","uncletopia"],"game_id":440,"stv_port":27076,"stv_name":"Uncletopia | London | 7 | No Payload | STV","players":[{"user_id":7,"name":"Mister_Toonz","steam_id":76561199096517057,"connected_time":582000000000,"state":"active","ping":88},{"user_id":8,"name":"susan took the kids","steam_id":76561199040756915,"connected_time":467000000000,"state":"active","ping":107},{"user_id":10,"name":"Chibune","steam_id":76561198165651778,"connected_time":62000000000,"state":"active","ping":161}]},{"server_id":41,"name":"Uncletopia | London | 8 | Community","name_short":"lon-8","host":"lon-1.uk.uncletopia.com","port":27085,"enabled":true,"region":"eu","cc":"gb","latitude":51.509865,"longitude":-0.118092,"reserved":0,"last_update":"0001-01-01T00:00:00Z","name_a2s":"Uncletopia | London | 8 | Community","protocol":17,"map":"workshop/koth_ashville_final.ugc2130459942","folder":"tf","game":"Team Fortress","app_id":440,"player_count":0,"max_players":24,"Bots":0,"server_type":"Dedicated","server_os":"Linux","password":true,"vac":true,"version":"7757534","steam_id":85568392924964315,"keywords":["cp","nocrits","nodmgspread","uncletopia"],"game_id":440,"stv_port":27086,"stv_name":"Uncletopia | London | 8 | Community | STV","players":null},{"server_id":300,"name":"Uncletopia | Montréal | 1 | All Maps","name_short":"mtl-1","host":"mtl-1.ca.uncletopia.com","port":27015,"enabled":true,"region":"us-east","cc":"ca","latitude":45.50889,"longitude":-73.56167,"reserved":0,"last_update":"0001-01-01T00:00:00Z","name_a2s":"Uncletopia | Montréal | 1 | All Maps","protocol":17,"map":"pl_upward","folder":"tf","game":"Team Fortress","app_id":440,"player_count":1,"max_players":24,"Bots":0,"server_type":"Dedicated","server_os":"Linux","password":true,"vac":true,"version":"7757534","steam_id":85568392924500087,"keywords":["nocrits","nodmgspread","payload","uncletopia"],"game_id":440,"stv_port":27016,"stv_name":"Uncletopia | Montréal | 1 | All Maps | STV","players":[{"user_id":3,"name":"Reza The Cool","steam_id":76561198372285506,"connected_time":666000000000,"state":"active","ping":56}]},{"server_id":301,"name":"Uncletopia | Montréal | 2 | All Maps","name_short":"mtl-2","host":"mtl-1.ca.uncletopia.com","port":27025,"enabled":true,"region":"us-east","cc":"ca","latitude":45.50889,"longitude":-73.56167,"reserved":0,"last_update":"0001-01-01T00:00:00Z","name_a2s":"Uncletopia | Montréal | 2 | All Maps","protocol":17,"map":"pl_snowycoast","folder":"tf","game":"Team Fortress","app_id":440,"player_count":0,"max_players":24,"Bots":0,"server_type":"Dedicated","server_os":"Linux","password":true,"vac":true,"version":"7757534","steam_id":85568392924500088,"keywords":["nocrits","nodmgspread","payload","uncletopia"],"game_id":440,"stv_port":27026,"stv_name":"Uncletopia | Montréal | 2 | All Maps | STV","players":null},{"server_id":302,"name":"Uncletopia | Montréal | 3 | All Maps","name_short":"mtl-3","host":"mtl-1.ca.uncletopia.com","port":27035,"enabled":true,"region":"us-east","cc":"ca","latitude":45.50889,"longitude":-73.56167,"reserved":0,"last_update":"0001-01-01T00:00:00Z","name_a2s":"Uncletopia | Montréal | 3 | All Maps","protocol":17,"map":"cp_sunshine","folder":"tf","game":"Team Fortress","app_id":440,"player_count":0,"max_players":24,"Bots":0,"server_type":"Dedicated","server_os":"Linux","password":true,"vac":true,"version":"7757534","steam_id":85568392924500089,"keywords":["cp","nocrits","nodmgspread","uncletopia"],"game_id":440,"stv_port":27036,"stv_name":"Uncletopia | Montréal | 3 | All Maps | STV","players":null},{"server_id":303,"name":"Uncletopia | Montréal | 4 | No Payload","name_short":"mtl-4","host":"mtl-1.ca.uncletopia.com","port":27045,"enabled":true,"region":"us-east","cc":"ca","latitude":45.50889,"longitude":-73.56167,"reserved":0,"last_update":"0001-01-01T00:00:00Z","name_a2s":"Uncletopia | Montréal | 4 | No Payload","protocol":17,"map":"pl_pier","folder":"tf","game":"Team Fortress","app_id":440,"player_count":0,"max_players":24,"Bots":0,"server_type":"Dedicated","server_os":"Linux","password":true,"vac":true,"version":"7757534","steam_id":85568392924500090,"keywords":["nocrits","nodmgspread","payload","uncletopia"],"game_id":440,"stv_port":27046,"stv_name":"Uncletopia | Montréal | 4 | No Payload | STV","players":null},{"server_id":13,"name":"Uncletopia | New York City | 1 | All Maps","name_short":"nyc-1","host":"nyc-1.us.uncletopia.com","port":27015,"enabled":true,"region":"us-east","cc":"us","latitude":40.73061,"longitude":-73.93524,"reserved":0,"last_update":"0001-01-01T00:00:00Z","name_a2s":"Uncletopia | New York City | 1 | All Maps","protocol":17,"map":"pl_borneo","folder":"tf","game":"Team Fortress","app_id":440,"player_count":23,"max_players":24,"Bots":0,"server_type":"Dedicated","server_os":"Linux","password":true,"vac":true,"version":"7757534","steam_id":85568392924469993,"keywords":["nocrits","nodmgspread","payload","uncletopia"],"game_id":440,"stv_port":27016,"stv_name":"Uncletopia | New York City | 1 | All Maps | STV","players":[{"user_id":227,"name":"wes","steam_id":76561198273536400,"connected_time":119000000000,"state":"active","ping":68},{"user_id":221,"name":"Meh","steam_id":76561198078187920,"connected_time":555000000000,"state":"active","ping":91},{"user_id":228,"name":"Mecha","steam_id":76561198014927379,"connected_time":45000000000,"state":"active","ping":62},{"user_id":188,"name":"GIGAMODE","steam_id":76561198027140064,"connected_time":2476000000000,"state":"active","ping":72},{"user_id":219,"name":"wushi","steam_id":76561198078330635,"connected_time":594000000000,"state":"active","ping":53},{"user_id":229,"name":"tyg","steam_id":76561198056246867,"connected_time":32000000000,"state":"active","ping":48},{"user_id":189,"name":"dicksnip","steam_id":76561198356515396,"connected_time":2432000000000,"state":"active","ping":89},{"user_id":224,"name":"The magic doo bus","steam_id":76561198243387974,"connected_time":474000000000,"state":"active","ping":45},{"user_id":214,"name":"LÅNGFJÄLL","steam_id":76561198993641831,"connected_time":1098000000000,"state":"active","ping":58},{"user_id":230,"name":"abed","steam_id":76561198072856511,"connected_time":29000000000,"state":"active","ping":78},{"user_id":209,"name":"win free ipod","steam_id":76561198057356807,"connected_time":1324000000000,"state":"active","ping":39},{"user_id":205,"name":"GanZ","steam_id":76561199378883538,"connected_time":1556000000000,"state":"active","ping":63},{"user_id":210,"name":"Franz","steam_id":76561198041929745,"connected_time":1272000000000,"state":"active","ping":113},{"user_id":190,"name":"jema","steam_id":76561198276513608,"connected_time":2423000000000,"state":"active","ping":164},{"user_id":225,"name":"MOOMAN","steam_id":76561198013620634,"connected_time":305000000000,"state":"active","ping":88},{"user_id":222,"name":"QWERTY_KKL","steam_id":76561199156419203,"connected_time":542000000000,"state":"active","ping":82},{"user_id":215,"name":"Skill Saw Stan","steam_id":76561199013064727,"connected_time":1081000000000,"state":"active","ping":105},{"user_id":185,"name":"g00bur","steam_id":76561197993622520,"connected_time":2636000000000,"state":"active","ping":51},{"user_id":218,"name":"DeviserDude","steam_id":76561198298631671,"connected_time":749000000000,"state":"active","ping":61},{"user_id":192,"name":"Small Tiddies Loli Trap","steam_id":76561198088563129,"connected_time":2390000000000,"state":"active","ping":62},{"user_id":223,"name":"Ceiling Man","steam_id":76561198003959902,"connected_time":504000000000,"state":"active","ping":44},{"user_id":199,"name":"Gabe Newell","steam_id":76561199215798445,"connected_time":2003000000000,"state":"active","ping":128},{"user_id":213,"name":"ATastyDonut","steam_id":76561198984819894,"connected_time":1120000000000,"state":"active","ping":47}]},{"server_id":14,"name":"Uncletopia | New York City | 2 | All Maps","name_short":"nyc-2","host":"nyc-1.us.uncletopia.com","port":27025,"enabled":true,"region":"us-east","cc":"us","latitude":40.73061,"longitude":-73.93524,"reserved":0,"last_update":"0001-01-01T00:00:00Z","name_a2s":"Uncletopia | New York City | 2 | All Maps","protocol":17,"map":"pl_borneo","folder":"tf","game":"Team Fortress","app_id":440,"player_count":24,"max_players":24,"Bots":0,"server_type":"Dedicated","server_os":"Linux","password":true,"vac":true,"version":"7757534","steam_id":85568392924469994,"keywords":["nocrits","nodmgspread","payload","uncletopia"],"game_id":440,"stv_port":27026,"stv_name":"Uncletopia | New York City | 2 | All Maps | STV","players":[{"user_id":163,"name":"xxreal_gamerxx","steam_id":76561198203332668,"connected_time":927000000000,"state":"active","ping":75},{"user_id":115,"name":"Goat","steam_id":76561198068447650,"connected_time":5186000000000,"state":"active","ping":103},{"user_id":83,"name":"John West","steam_id":76561198018783676,"connected_time":7480000000000,"state":"active","ping":120},{"user_id":166,"name":"Commie","steam_id":76561198149370115,"connected_time":898000000000,"state":"active","ping":61},{"user_id":137,"name":"earth sprite","steam_id":76561199102542822,"connected_time":2324000000000,"state":"active","ping":76},{"user_id":138,"name":"SkyGhost","steam_id":76561198271474593,"connected_time":2314000000000,"state":"active","ping":61},{"user_id":155,"name":"xen","steam_id":76561198048568188,"connected_time":1511000000000,"state":"active","ping":48},{"user_id":164,"name":"lazarust","steam_id":76561198355322731,"connected_time":924000000000,"state":"active","ping":98},{"user_id":177,"name":"wahooka","steam_id":76561197981211922,"connected_time":20000000000,"state":"active","ping":60},{"user_id":169,"name":"Zeyno","steam_id":76561198797582823,"connected_time":800000000000,"state":"active","ping":93},{"user_id":149,"name":"Fiendish Frog","steam_id":76561198029478821,"connected_time":2089000000000,"state":"active","ping":56},{"user_id":133,"name":"Jameszzezz","steam_id":76561198317677617,"connected_time":3322000000000,"state":"active","ping":71},{"user_id":178,"name":"SubZeroDestruction","steam_id":76561198145082209,"connected_time":12000000000,"state":"spawning","ping":60},{"user_id":140,"name":"Outlander","steam_id":76561199032887232,"connected_time":2301000000000,"state":"active","ping":93},{"user_id":156,"name":"Green Icicle","steam_id":76561198069624529,"connected_time":1426000000000,"state":"active","ping":107},{"user_id":172,"name":"creeeeeee","steam_id":76561198392539722,"connected_time":177000000000,"state":"active","ping":76},{"user_id":150,"name":"Gaben Gaming","steam_id":76561198330119627,"connected_time":2089000000000,"state":"active","ping":75},{"user_id":153,"name":"CoconutNeutral","steam_id":76561198277110108,"connected_time":1599000000000,"state":"active","ping":69},{"user_id":171,"name":"One Chill Daddio","steam_id":76561198074026282,"connected_time":351000000000,"state":"active","ping":66},{"user_id":141,"name":"Riandox","steam_id":76561198130577326,"connected_time":2293000000000,"state":"active","ping":73},{"user_id":170,"name":"help me","steam_id":76561199041547921,"connected_time":798000000000,"state":"active","ping":76},{"user_id":174,"name":"reverendericd","steam_id":76561198086173783,"connected_time":103000000000,"state":"active","ping":80},{"user_id":143,"name":"MR.CRAB","steam_id":76561198329833659,"connected_time":2243000000000,"state":"active","ping":146},{"user_id":162,"name":"Floating Necc","steam_id":76561199040115358,"connected_time":937000000000,"state":"active","ping":59}]},{"server_id":15,"name":"Uncletopia | New York City | 3 | Stopwatch Beta","name_short":"nyc-3","host":"nyc-1.us.uncletopia.com","port":27035,"enabled":true,"region":"us-east","cc":"us","latitude":40.73061,"longitude":-73.93524,"reserved":0,"last_update":"0001-01-01T00:00:00Z","name_a2s":"Uncletopia | New York City | 3 | Stopwatch Beta","protocol":17,"map":"pl_upward","folder":"tf","game":"Team Fortress","app_id":440,"player_count":0,"max_players":24,"Bots":0,"server_type":"Dedicated","server_os":"Linux","password":true,"vac":true,"version":"7757534","steam_id":85568392924742820,"keywords":["nocrits","nodmgspread","payload","uncletopia"],"game_id":440,"stv_port":27036,"stv_name":"Uncletopia | New York City | 3 | Stopwatch Beta | STV","players":null},{"server_id":16,"name":"Uncletopia | New York City | 4 | Community","name_short":"nyc-4","host":"nyc-1.us.uncletopia.com","port":27045,"enabled":true,"region":"us-east","cc":"us","latitude":40.73061,"longitude":-73.93524,"reserved":0,"last_update":"0001-01-01T00:00:00Z","name_a2s":"Uncletopia | New York City | 4 | Community","protocol":17,"map":"workshop/pl_divulgence_b4b.ugc2884808746","folder":"tf","game":"Team Fortress","app_id":440,"player_count":0,"max_players":24,"Bots":0,"server_type":"Dedicated","server_os":"Linux","password":true,"vac":true,"version":"7757534","steam_id":85568392924742821,"keywords":["nocrits","nodmgspread","payload","uncletopia"],"game_id":440,"stv_port":27046,"stv_name":"Uncletopia | New York City | 4 | Community | STV","players":null},{"server_id":142,"name":"Uncletopia | São Paulo | 1 | All Maps","name_short":"sao-1","host":"sao-1.br.uncletopia.com","port":27015,"enabled":true,"region":"sa","cc":"br","latitude":-23.533773,"longitude":-46.62529,"reserved":0,"last_update":"0001-01-01T00:00:00Z","name_a2s":"Uncletopia | São Paulo | 1 | All Maps","protocol":17,"map":"koth_viaduct","folder":"tf","game":"Team Fortress","app_id":440,"player_count":0,"max_players":24,"Bots":0,"server_type":"Dedicated","server_os":"Linux","password":true,"vac":true,"version":"7757534","steam_id":85568392924469996,"keywords":["cp","nocrits","nodmgspread","uncletopia"],"game_id":440,"stv_port":27016,"stv_name":"Uncletopia | São Paulo | 1 | All Maps | STV","players":null},{"server_id":143,"name":"Uncletopia | São Paulo | 2 | All Maps","name_short":"sao-2","host":"sao-2.br.uncletopia.com","port":27015,"enabled":true,"region":"sa","cc":"br","latitude":-23.533773,"longitude":-46.62529,"reserved":0,"last_update":"0001-01-01T00:00:00Z","name_a2s":"Uncletopia | São Paulo | 2 | All Maps","protocol":17,"map":"pl_barnblitz","folder":"tf","game":"Team Fortress","app_id":440,"player_count":4,"max_players":24,"Bots":0,"server_type":"Dedicated","server_os":"Linux","password":true,"vac":true,"version":"7757534","steam_id":85568392924485349,"keywords":["nocrits","nodmgspread","payload","uncletopia"],"game_id":440,"stv_port":27016,"stv_name":"Uncletopia | São Paulo | 2 | All Maps | STV","players":[{"user_id":16,"name":"牛肉とクリーム","steam_id":76561198391399039,"connected_time":1697000000000,"state":"active","ping":60},{"user_id":17,"name":"Tj","steam_id":76561199144268605,"connected_time":1687000000000,"state":"active","ping":73},{"user_id":18,"name":"demopan","steam_id":76561199041872569,"connected_time":1246000000000,"state":"active","ping":61},{"user_id":21,"name":"HeadShotGamerBR","steam_id":76561198116856702,"connected_time":463000000000,"state":"active","ping":65}]},{"server_id":7,"name":"Uncletopia | Seattle | 1 | All Maps","name_short":"sea-1","host":"sea-1.us.uncletopia.com","port":27015,"enabled":true,"region":"us-west","cc":"us","latitude":47.608013,"longitude":-122.33517,"reserved":0,"last_update":"0001-01-01T00:00:00Z","name_a2s":"Uncletopia | Seattle | 1 | All Maps","protocol":17,"map":"plr_nightfall_final","folder":"tf","game":"Team Fortress","app_id":440,"player_count":24,"max_players":24,"Bots":0,"server_type":"Dedicated","server_os":"Linux","password":true,"vac":true,"version":"7757534","steam_id":85568392924469997,"keywords":["nocrits","nodmgspread","payload","uncletopia"],"game_id":440,"stv_port":27016,"stv_name":"Uncletopia | Seattle | 1 | All Maps | STV","players":[{"user_id":127,"name":"Power Jake","steam_id":76561198051510260,"connected_time":5542000000000,"state":"active","ping":60},{"user_id":4,"name":"Flesh Eating Turtle","steam_id":76561198116742139,"connected_time":15252000000000,"state":"active","ping":52},{"user_id":102,"name":"༘ ⋆˚🎧Caffeine☕*˖°","steam_id":76561199259309294,"connected_time":6645000000000,"state":"active","ping":127},{"user_id":135,"name":"crashymicsplody","steam_id":76561198213916765,"connected_time":5170000000000,"state":"active","ping":114},{"user_id":164,"name":"endo","steam_id":76561197995204381,"connected_time":2154000000000,"state":"active","ping":92},{"user_id":182,"name":"coolestdude2496","steam_id":76561198257151145,"connected_time":652000000000,"state":"active","ping":46},{"user_id":104,"name":"Belmore","steam_id":76561198009355231,"connected_time":6615000000000,"state":"active","ping":77},{"user_id":183,"name":"--)YawgMoss(-- \"The Salt\"","steam_id":76561198072971649,"connected_time":574000000000,"state":"active","ping":57},{"user_id":62,"name":"They/Them Rattussy","steam_id":76561198238186628,"connected_time":10916000000000,"state":"active","ping":80},{"user_id":163,"name":"AmiableNebula","steam_id":76561198094306627,"connected_time":2244000000000,"state":"active","ping":74},{"user_id":157,"name":"HaphazardHazel","steam_id":76561198316812693,"connected_time":2880000000000,"state":"active","ping":141},{"user_id":129,"name":"DIGGY","steam_id":76561198991238982,"connected_time":5482000000000,"state":"active","ping":51},{"user_id":160,"name":"dearender","steam_id":76561199427644498,"connected_time":2724000000000,"state":"active","ping":70},{"user_id":174,"name":"Skabbety","steam_id":76561198168044257,"connected_time":1083000000000,"state":"active","ping":37},{"user_id":184,"name":"O","steam_id":76561198450073779,"connected_time":542000000000,"state":"active","ping":45},{"user_id":150,"name":"Saul Goodman","steam_id":76561199082247402,"connected_time":3631000000000,"state":"active","ping":88},{"user_id":159,"name":"XxDragon4321xX","steam_id":76561198046705735,"connected_time":2799000000000,"state":"active","ping":101},{"user_id":161,"name":"PopcornBucketGames","steam_id":76561199089562026,"connected_time":2404000000000,"state":"active","ping":53},{"user_id":185,"name":"Highground","steam_id":76561199197544789,"connected_time":529000000000,"state":"active","ping":171},{"user_id":180,"name":"SibilantSerpent","steam_id":76561198154488754,"connected_time":680000000000,"state":"active","ping":53},{"user_id":169,"name":"HideOnTate","steam_id":76561198209880837,"connected_time":1593000000000,"state":"active","ping":45},{"user_id":173,"name":"lilbombtech212","steam_id":76561198203055223,"connected_time":1245000000000,"state":"active","ping":59},{"user_id":186,"name":"Dimple #TF2Center","steam_id":76561198980324190,"connected_time":523000000000,"state":"active","ping":60},{"user_id":176,"name":"some nerd","steam_id":76561198297272878,"connected_time":917000000000,"state":"active","ping":67}]},{"server_id":119,"name":"Uncletopia | Seattle | 2 | All Maps","name_short":"sea-2","host":"sea-1.us.uncletopia.com","port":27025,"enabled":true,"region":"us-west","cc":"us","latitude":47.608013,"longitude":-122.33517,"reserved":0,"last_update":"0001-01-01T00:00:00Z","name_a2s":"Uncletopia | Seattle | 2 | All Maps","protocol":17,"map":"pl_badwater","folder":"tf","game":"Team Fortress","app_id":440,"player_count":0,"max_players":24,"Bots":0,"server_type":"Dedicated","server_os":"Linux","password":true,"vac":true,"version":"7757534","steam_id":85568392924469998,"keywords":["nocrits","nodmgspread","payload","uncletopia"],"game_id":440,"stv_port":27026,"stv_name":"Uncletopia | Seattle | 2 | All Maps | STV","players":null},{"server_id":406,"name":"Uncletopia | Seattle | 3 | Stopwatch Beta","name_short":"sea-3","host":"sea-1.us.uncletopia.com","port":27035,"enabled":true,"region":"us-west","cc":"us","latitude":47.608013,"longitude":-122.33517,"reserved":0,"last_update":"0001-01-01T00:00:00Z","name_a2s":"Uncletopia | Seattle | 3 | Stopwatch Beta","protocol":17,"map":"workshop/pl_badwater_pro_v12.ugc2142942074","folder":"tf","game":"Team Fortress","app_id":440,"player_count":0,"max_players":24,"Bots":0,"server_type":"Dedicated","server_os":"Linux","password":true,"vac":true,"version":"7757534","steam_id":85568392924515217,"keywords":["nocrits","nodmgspread","payload","uncletopia"],"game_id":440,"stv_port":27036,"stv_name":"Uncletopia | Seattle | 3 | Stopwatch Beta | STV","players":null},{"server_id":17,"name":"Uncletopia | San Francisco | 1 | All Maps","name_short":"sfo-1","host":"sfo-1.us.uncletopia.com","port":27015,"enabled":true,"region":"us-west","cc":"us","latitude":37.77397,"longitude":-122.4313,"reserved":0,"last_update":"0001-01-01T00:00:00Z","name_a2s":"Uncletopia | San Francisco | 1 | All Maps","protocol":17,"map":"cp_process_final","folder":"tf","game":"Team Fortress","app_id":440,"player_count":0,"max_players":24,"Bots":0,"server_type":"Dedicated","server_os":"Linux","password":true,"vac":true,"version":"7757534","steam_id":85568392924469999,"keywords":["cp","nocrits","nodmgspread","uncletopia"],"game_id":440,"stv_port":27016,"stv_name":"Uncletopia | San Francisco | 1 | All Maps | STV","players":null},{"server_id":18,"name":"Uncletopia | San Francisco | 2 | All Maps","name_short":"sfo-2","host":"sfo-1.us.uncletopia.com","port":27025,"enabled":true,"region":"us-west","cc":"us","latitude":37.77397,"longitude":-122.4313,"reserved":0,"last_update":"0001-01-01T00:00:00Z","name_a2s":"Uncletopia | San Francisco | 2 | All Maps","protocol":17,"map":"koth_highpass","folder":"tf","game":"Team Fortress","app_id":440,"player_count":0,"max_players":24,"Bots":0,"server_type":"Dedicated","server_os":"Linux","password":true,"vac":true,"version":"7757534","steam_id":85568392924470000,"keywords":["cp","nocrits","nodmgspread","uncletopia"],"game_id":440,"stv_port":27026,"stv_name":"Uncletopia | San Francisco | 2 | All Maps | STV","players":null},{"server_id":19,"name":"Uncletopia | San Francisco | 3 | Stopwatch Beta","name_short":"sfo-3","host":"sfo-1.us.uncletopia.com","port":27035,"enabled":true,"region":"us-west","cc":"us","latitude":37.77397,"longitude":-122.4313,"reserved":0,"last_update":"0001-01-01T00:00:00Z","name_a2s":"Uncletopia | San Francisco | 3 | Stopwatch Beta","protocol":17,"map":"koth_lakeside_final","folder":"tf","game":"Team Fortress","app_id":440,"player_count":0,"max_players":24,"Bots":0,"server_type":"Dedicated","server_os":"Linux","password":true,"vac":true,"version":"7757534","steam_id":85568392924742824,"keywords":["cp","nocrits","nodmgspread","uncletopia"],"game_id":440,"stv_port":27036,"stv_name":"Uncletopia | San Francisco | 3 | Stopwatch Beta | STV","players":null},{"server_id":20,"name":"Uncletopia | San Francisco | 4 | Community","name_short":"sfo-4","host":"sfo-1.us.uncletopia.com","port":27045,"enabled":true,"region":"us-west","cc":"us","latitude":37.77397,"longitude":-122.4313,"reserved":0,"last_update":"0001-01-01T00:00:00Z","name_a2s":"Uncletopia | San Francisco | 4 | Community","protocol":17,"map":"workshop/koth_synthetic_rc6a.ugc1549817316","folder":"tf","game":"Team Fortress","app_id":440,"player_count":24,"max_players":24,"Bots":0,"server_type":"Dedicated","server_os":"Linux","password":true,"vac":true,"version":"7757534","steam_id":85568392924742826,"keywords":["cp","nocrits","nodmgspread","uncletopia"],"game_id":440,"stv_port":27046,"stv_name":"Uncletopia | San Francisco | 4 | Community | STV","players":[{"user_id":53,"name":"Turtimos","steam_id":76561198093519137,"connected_time":1801000000000,"state":"active","ping":73},{"user_id":28,"name":"rustyorion","steam_id":76561198439186347,"connected_time":2966000000000,"state":"active","ping":70},{"user_id":55,"name":"reiidaya","steam_id":76561198325306660,"connected_time":1412000000000,"state":"active","ping":67},{"user_id":62,"name":"lyraaaaaaaaaaa","steam_id":76561198259331758,"connected_time":1063000000000,"state":"active","ping":92},{"user_id":69,"name":"sunny","steam_id":76561198069380992,"connected_time":867000000000,"state":"active","ping":84},{"user_id":10,"name":"Cpt. Medrash","steam_id":76561198035981656,"connected_time":4327000000000,"state":"active","ping":119},{"user_id":58,"name":"YahYeeterson","steam_id":76561198120480906,"connected_time":1171000000000,"state":"active","ping":91},{"user_id":68,"name":"Spicy Within Reason","steam_id":76561198066700370,"connected_time":952000000000,"state":"active","ping":73},{"user_id":22,"name":"hoOmIN","steam_id":76561198334947079,"connected_time":3420000000000,"state":"active","ping":50},{"user_id":23,"name":"Dolphinator","steam_id":76561198089270171,"connected_time":3382000000000,"state":"active","ping":86},{"user_id":44,"name":"123","steam_id":76561198106308056,"connected_time":2432000000000,"state":"active","ping":59},{"user_id":31,"name":"Ass Blaster, Disaster Master","steam_id":76561197997774469,"connected_time":2751000000000,"state":"active","ping":55},{"user_id":56,"name":"JS","steam_id":76561198149183514,"connected_time":1349000000000,"state":"active","ping":66},{"user_id":46,"name":"Mom","steam_id":76561198207936000,"connected_time":2376000000000,"state":"active","ping":40},{"user_id":70,"name":"Spring Beans","steam_id":76561197978546259,"connected_time":812000000000,"state":"active","ping":75},{"user_id":36,"name":"hypotenuse","steam_id":76561198062479158,"connected_time":2585000000000,"state":"active","ping":74},{"user_id":54,"name":"jayzak24","steam_id":76561198354267509,"connected_time":1473000000000,"state":"active","ping":58},{"user_id":48,"name":"boulder","steam_id":76561198347225801,"connected_time":2371000000000,"state":"active","ping":64},{"user_id":41,"name":"Reeder0417","steam_id":76561198160340032,"connected_time":2512000000000,"state":"active","ping":86},{"user_id":42,"name":"Explosions990","steam_id":76561199212000482,"connected_time":2507000000000,"state":"active","ping":63},{"user_id":73,"name":"็","steam_id":76561198067666595,"connected_time":174000000000,"state":"active","ping":58},{"user_id":67,"name":"name","steam_id":76561199153026367,"connected_time":974000000000,"state":"active","ping":93},{"user_id":71,"name":"Green_GarBear","steam_id":76561199468912415,"connected_time":656000000000,"state":"active","ping":54},{"user_id":52,"name":"blue_tristan03","steam_id":76561199468377688,"connected_time":2312000000000,"state":"active","ping":53}]},{"server_id":141,"name":"Uncletopia | Sydney | 1 | All Maps","name_short":"syd-1","host":"syd-1.au.uncletopia.com","port":27015,"enabled":true,"region":"au","cc":"au","latitude":-33.865143,"longitude":151.2099,"reserved":0,"last_update":"0001-01-01T00:00:00Z","name_a2s":"Uncletopia | Sydney | 1 | All Maps","protocol":17,"map":"koth_lakeside_final","folder":"tf","game":"Team Fortress","app_id":440,"player_count":0,"max_players":24,"Bots":0,"server_type":"Dedicated","server_os":"Linux","password":true,"vac":true,"version":"7757534","steam_id":85568392924470001,"keywords":["cp","nocrits","nodmgspread","uncletopia"],"game_id":440,"stv_port":27016,"stv_name":"Uncletopia | Sydney | 1 | All Maps | STV","players":null},{"server_id":123,"name":"Uncletopia | Sydney | 2 | All Maps","name_short":"syd-2","host":"syd-1.au.uncletopia.com","port":27025,"enabled":true,"region":"au","cc":"au","latitude":-33.865143,"longitude":151.2099,"reserved":0,"last_update":"0001-01-01T00:00:00Z","name_a2s":"Uncletopia | Sydney | 2 | All Maps","protocol":17,"map":"koth_lakeside_final","folder":"tf","game":"Team Fortress","app_id":440,"player_count":0,"max_players":24,"Bots":0,"server_type":"Dedicated","server_os":"Linux","password":true,"vac":true,"version":"7757534","steam_id":85568392924470002,"keywords":["cp","nocrits","nodmgspread","uncletopia"],"game_id":440,"stv_port":27026,"stv_name":"Uncletopia | Sydney | 2 | All Maps | STV","players":null},{"server_id":395,"name":"Uncletopia | Sydney | 3 | All Maps","name_short":"syd-3","host":"syd-1.au.uncletopia.com","port":27035,"enabled":true,"region":"au","cc":"au","latitude":-33.865143,"longitude":151.2099,"reserved":0,"last_update":"0001-01-01T00:00:00Z","name_a2s":"Uncletopia | Sydney | 3 | All Maps","protocol":17,"map":"koth_lakeside_final","folder":"tf","game":"Team Fortress","app_id":440,"player_count":0,"max_players":24,"Bots":0,"server_type":"Dedicated","server_os":"Linux","password":true,"vac":true,"version":"7757534","steam_id":85568392925194467,"keywords":["cp","nocrits","nodmgspread","uncletopia"],"game_id":440,"stv_port":27036,"stv_name":"Uncletopia | Sydney | 3 | All Maps | STV","players":null},{"server_id":396,"name":"Uncletopia | Sydney | 4 | All Maps","name_short":"syd-4","host":"syd-1.au.uncletopia.com","port":27045,"enabled":true,"region":"au","cc":"au","latitude":-33.865143,"longitude":151.2099,"reserved":0,"last_update":"0001-01-01T00:00:00Z","name_a2s":"Uncletopia | Sydney | 4 | All Maps","protocol":17,"map":"pl_frontier_final","folder":"tf","game":"Team Fortress","app_id":440,"player_count":0,"max_players":24,"Bots":0,"server_type":"Dedicated","server_os":"Linux","password":true,"vac":true,"version":"7757534","steam_id":85568392925397958,"keywords":["nocrits","nodmgspread","payload","uncletopia"],"game_id":440,"stv_port":27046,"stv_name":"Uncletopia | Sydney | 4 | All Maps | STV","players":null},{"server_id":58,"name":"Uncletopia | Sydney | 5 | Stopwatch Beta","name_short":"syd-5","host":"syd-1.au.uncletopia.com","port":27055,"enabled":true,"region":"au","cc":"au","latitude":-33.865143,"longitude":151.2099,"reserved":0,"last_update":"0001-01-01T00:00:00Z","name_a2s":"Uncletopia | Sydney | 5 | Stopwatch Beta","protocol":17,"map":"workshop/pl_summercoast_rc8e.ugc1761528829","folder":"tf","game":"Team Fortress","app_id":440,"player_count":0,"max_players":24,"Bots":0,"server_type":"Dedicated","server_os":"Linux","password":true,"vac":true,"version":"7757534","steam_id":85568392925397959,"keywords":["nocrits","nodmgspread","payload","uncletopia"],"game_id":440,"stv_port":27056,"stv_name":"Uncletopia | Sydney | 5 | Stopwatch Beta | STV","players":null},{"server_id":59,"name":"Uncletopia | Sydney | 6 | Community","name_short":"syd-6","host":"syd-1.au.uncletopia.com","port":27065,"enabled":true,"region":"au","cc":"au","latitude":-33.865143,"longitude":151.2099,"reserved":0,"last_update":"0001-01-01T00:00:00Z","name_a2s":"Uncletopia | Sydney | 6 | Community","protocol":17,"map":"workshop/cp_snowbase_b18.ugc2081770490","folder":"tf","game":"Team Fortress","app_id":440,"player_count":0,"max_players":24,"Bots":0,"server_type":"Dedicated","server_os":"Linux","password":true,"vac":true,"version":"7757534","steam_id":85568392925397960,"keywords":["cp","nocrits","nodmgspread","uncletopia"],"game_id":440,"stv_port":27066,"stv_name":"Uncletopia | Sydney | 6 | Community | STV","players":null},{"server_id":49,"name":"Uncletopia | Warsaw | 1 | All Maps","name_short":"waw-1","host":"waw-1.pl.uncletopia.com","port":27015,"enabled":true,"region":"eu","cc":"pl","latitude":52.2297,"longitude":21.017532,"reserved":0,"last_update":"0001-01-01T00:00:00Z","name_a2s":"","protocol":0,"map":"","folder":"","game":"","app_id":0,"player_count":0,"max_players":0,"Bots":0,"server_type":"","server_os":"","password":false,"vac":false,"version":"","steam_id":0,"keywords":null,"game_id":0,"stv_port":0,"stv_name":"","players":null},{"server_id":50,"name":"Uncletopia | Warsaw | 2 | All Maps","name_short":"waw-2","host":"waw-1.pl.uncletopia.com","port":27025,"enabled":true,"region":"eu","cc":"pl","latitude":52.2297,"longitude":21.017532,"reserved":0,"last_update":"0001-01-01T00:00:00Z","name_a2s":"Uncletopia | Warsaw | 2 | All Maps","protocol":17,"map":"koth_viaduct","folder":"tf","game":"Team Fortress","app_id":440,"player_count":0,"max_players":24,"Bots":0,"server_type":"Dedicated","server_os":"Linux","password":true,"vac":true,"version":"7757534","steam_id":85568392925397851,"keywords":["cp","nocrits","nodmgspread","uncletopia"],"game_id":440,"stv_port":27026,"stv_name":"Uncletopia | Warsaw | 2 | All Maps | STV","players":null},{"server_id":51,"name":"Uncletopia | Warsaw | 3 | All Maps","name_short":"waw-3","host":"waw-1.pl.uncletopia.com","port":27035,"enabled":true,"region":"eu","cc":"pl","latitude":52.2297,"longitude":21.017532,"reserved":0,"last_update":"0001-01-01T00:00:00Z","name_a2s":"Uncletopia | Warsaw | 3 | All Maps","protocol":17,"map":"ctf_2fort","folder":"tf","game":"Team Fortress","app_id":440,"player_count":24,"max_players":24,"Bots":0,"server_type":"Dedicated","server_os":"Linux","password":true,"vac":true,"version":"7757534","steam_id":85568392925397852,"keywords":["ctf","nocrits","nodmgspread","uncletopia"],"game_id":440,"stv_port":27036,"stv_name":"Uncletopia | Warsaw | 3 | All Maps | STV","players":[{"user_id":8,"name":"The","steam_id":76561199028541854,"connected_time":8138000000000,"state":"active","ping":95},{"user_id":66,"name":"Angry Toast.exe","steam_id":76561198959812805,"connected_time":1089000000000,"state":"active","ping":84},{"user_id":53,"name":"LFGGGGGG","steam_id":76561199062586342,"connected_time":1605000000000,"state":"active","ping":98},{"user_id":78,"name":"Woman (Real)","steam_id":76561198131411627,"connected_time":201000000000,"state":"active","ping":324},{"user_id":24,"name":"Niki 🌍","steam_id":76561198044238129,"connected_time":2628000000000,"state":"active","ping":98},{"user_id":79,"name":"Ape","steam_id":76561198322703872,"connected_time":170000000000,"state":"active","ping":82},{"user_id":23,"name":"SAS41","steam_id":76561197998649851,"connected_time":2637000000000,"state":"active","ping":78},{"user_id":25,"name":"Acheron","steam_id":76561198306593373,"connected_time":2585000000000,"state":"active","ping":89},{"user_id":61,"name":"Wir suchen dich!","steam_id":76561198307613521,"connected_time":1337000000000,"state":"active","ping":60},{"user_id":27,"name":"Bosak","steam_id":76561198003037363,"connected_time":2479000000000,"state":"active","ping":86},{"user_id":80,"name":"Michael","steam_id":76561198003146906,"connected_time":147000000000,"state":"active","ping":79},{"user_id":33,"name":"zapdos981","steam_id":76561198119674397,"connected_time":2279000000000,"state":"active","ping":84},{"user_id":74,"name":"Chadrysiaque","steam_id":76561198061333310,"connected_time":359000000000,"state":"active","ping":74},{"user_id":35,"name":"...","steam_id":76561198969234594,"connected_time":2080000000000,"state":"active","ping":67},{"user_id":36,"name":"♥ Cirno ♥","steam_id":76561198834982738,"connected_time":2073000000000,"state":"active","ping":69},{"user_id":75,"name":"Chucko Kokos","steam_id":76561198112553005,"connected_time":353000000000,"state":"active","ping":47},{"user_id":55,"name":"the uncle from uncle dane","steam_id":76561198326214068,"connected_time":1525000000000,"state":"active","ping":88},{"user_id":56,"name":"NUTS from Big Joey Slap Nuts","steam_id":76561199098984554,"connected_time":1502000000000,"state":"active","ping":46},{"user_id":76,"name":"Dark Wizart","steam_id":76561198377689439,"connected_time":318000000000,"state":"active","ping":58},{"user_id":81,"name":"Bing Chilling","steam_id":76561198259054682,"connected_time":134000000000,"state":"active","ping":121},{"user_id":82,"name":"Mowelic","steam_id":76561198873641222,"connected_time":107000000000,"state":"active","ping":97},{"user_id":83,"name":"BreadAcres","steam_id":76561198098217082,"connected_time":99000000000,"state":"active","ping":68},{"user_id":70,"name":"doomslayer","steam_id":76561199480190730,"connected_time":847000000000,"state":"active","ping":77},{"user_id":64,"name":"strobery","steam_id":76561198988675980,"connected_time":1190000000000,"state":"active","ping":46}]},{"server_id":52,"name":"Uncletopia | Warsaw | 4 | All Maps","name_short":"waw-4","host":"waw-1.pl.uncletopia.com","port":27045,"enabled":true,"region":"eu","cc":"pl","latitude":52.2297,"longitude":21.017532,"reserved":0,"last_update":"0001-01-01T00:00:00Z","name_a2s":"Uncletopia | Warsaw | 4 | All Maps","protocol":17,"map":"koth_lakeside_final","folder":"tf","game":"Team Fortress","app_id":440,"player_count":0,"max_players":24,"Bots":0,"server_type":"Dedicated","server_os":"Linux","password":true,"vac":true,"version":"7757534","steam_id":85568392925397853,"keywords":["cp","nocrits","nodmgspread","uncletopia"],"game_id":440,"stv_port":27046,"stv_name":"Uncletopia | Warsaw | 4 | All Maps | STV","players":null},{"server_id":53,"name":"Uncletopia | Warsaw | 5 | Stopwatch Beta","name_short":"waw-5","host":"waw-1.pl.uncletopia.com","port":27055,"enabled":true,"region":"eu","cc":"pl","latitude":52.2297,"longitude":21.017532,"reserved":0,"last_update":"0001-01-01T00:00:00Z","name_a2s":"Uncletopia | Warsaw | 5 | Stopwatch Beta","protocol":17,"map":"pl_borneo","folder":"tf","game":"Team Fortress","app_id":440,"player_count":0,"max_players":24,"Bots":0,"server_type":"Dedicated","server_os":"Linux","password":true,"vac":true,"version":"7757534","steam_id":85568392925397854,"keywords":["nocrits","nodmgspread","payload","uncletopia"],"game_id":440,"stv_port":27056,"stv_name":"Uncletopia | Warsaw | 5 | Stopwatch Beta | STV","players":null},{"server_id":54,"name":"Uncletopia | Warsaw | 6 | Community","name_short":"waw-6","host":"waw-1.pl.uncletopia.com","port":27065,"enabled":true,"region":"eu","cc":"pl","latitude":52.2297,"longitude":21.017532,"reserved":0,"last_update":"0001-01-01T00:00:00Z","name_a2s":"Uncletopia | Warsaw | 6 | Community","protocol":17,"map":"workshop/cp_glacier_rc6.ugc2905735376","folder":"tf","game":"Team Fortress","app_id":440,"player_count":0,"max_players":24,"Bots":0,"server_type":"Dedicated","server_os":"Linux","password":true,"vac":true,"version":"7757534","steam_id":85568392925397856,"keywords":["cp","nocrits","nodmgspread","uncletopia"],"game_id":440,"stv_port":27066,"stv_name":"Uncletopia | Warsaw | 6 | Community | STV","players":null}]}