{"status":true,"message":"","result":[{"server_id":9,"name":"Uncletopia | Atlanta | 1 | All Maps","name_short":"atl-1","host":"atl-1.us.uncletopia.com","port":27015,"enabled":true,"region":"us-east","cc":"us","latitude":33.753746,"longitude":-84.38633,"reserved":0,"last_update":"0001-01-01T00:00:00Z","name_a2s":"Uncletopia | Atlanta | 1 | All Maps","protocol":17,"map":"pl_borneo","folder":"tf","game":"Team Fortress","app_id":440,"player_count":0,"max_players":24,"Bots":0,"server_type":"Dedicated","server_os":"Linux","password":true,"vac":true,"version":"7961495","steam_id":85568392924469982,"keywords":["nocrits","nodmgspread","payload","uncletopia"],"game_id":440,"stv_port":27016,"stv_name":"Uncletopia | Atlanta | 1 | All Maps | STV","players":null},{"server_id":104,"name":"Uncletopia | Atlanta | 2 | All Maps","name_short":"atl-2","host":"atl-1.us.uncletopia.com","port":27025,"enabled":true,"region":"us-east","cc":"us","latitude":33.753746,"longitude":-84.38633,"reserved":0,"last_update":"0001-01-01T00:00:00Z","name_a2s":"Uncletopia | Atlanta | 2 | All Maps","protocol":17,"map":"cp_altitude","folder":"tf","game":"Team Fortress","app_id":440,"player_count":0,"max_players":24,"Bots":0,"server_type":"Dedicated","server_os":"Linux","password":true,"vac":true,"version":"7961495","steam_id":85568392924469983,"keywords":["cp","nocrits","nodmgspread","uncletopia"],"game_id":440,"stv_port":27026,"stv_name":"Uncletopia | Atlanta | 2 | All Maps | STV","players":null},{"server_id":400,"name":"Uncletopia | Atlanta | 3 | Stopwatch","name_short":"atl-3","host":"atl-1.us.uncletopia.com","port":27035,"enabled":true,"region":"us-east","cc":"us","latitude":33.753746,"longitude":-84.38633,"reserved":0,"last_update":"0001-01-01T00:00:00Z","name_a2s":"Uncletopia | Atlanta | 3 | Stopwatch","protocol":17,"map":"koth_lakeside_final","folder":"tf","game":"Team Fortress","app_id":440,"player_count":0,"max_players":24,"Bots":0,"server_type":"Dedicated","server_os":"Linux","password":true,"vac":true,"version":"7961495","steam_id":85568392924515187,"keywords":["cp","nocrits","nodmgspread","uncletopia"],"game_id":440,"stv_port":27036,"stv_name":"Uncletopia | Atlanta | 3 | Stopwatch | STV","players":null},{"server_id":401,"name":"Uncletopia | Atlanta | 4 | Community","name_short":"atl-4","host":"atl-1.us.uncletopia.com","port":27045,"enabled":true,"region":"us-east","cc":"us","latitude":33.753746,"longitude":-84.38633,"reserved":0,"last_update":"0001-01-01T00:00:00Z","name_a2s":"Uncletopia | Atlanta | 4 | Community","protocol":17,"map":"workshop/koth_slaughter_rc1.ugc1712845210","folder":"tf","game":"Team Fortress","app_id":440,"player_count":0,"max_players":24,"Bots":0,"server_type":"Dedicated","server_os":"Linux","password":true,"vac":true,"version":"7961495","steam_id":85568392924515188,"keywords":["cp","nocrits","nodmgspread","uncletopia"],"game_id":440,"stv_port":27046,"stv_name":"Uncletopia | Atlanta | 4 | Community | STV","players":null},{"server_id":2,"name":"Uncletopia | Chicago | 1 | All Maps","name_short":"chi-1","host":"chi-1.us.uncletopia.com","port":27015,"enabled":true,"region":"us-central","cc":"us","latitude":41.881832,"longitude":-87.62318,"reserved":0,"last_update":"0001-01-01T00:00:00Z","name_a2s":"Uncletopia | Chicago | 1 | All Maps","protocol":17,"map":"pl_badwater","folder":"tf","game":"Team Fortress","app_id":440,"player_count":24,"max_players":24,"Bots":0,"server_type":"Dedicated","server_os":"Linux","password":true,"vac":true,"version":"7961495","steam_id":85568392924469984,"keywords":["nocrits","nodmgspread","payload","uncletopia"],"game_id":440,"stv_port":27016,"stv_name":"Uncletopia | Chicago | 1 | All Maps | STV","players":[{"user_id":759,"name":"Fu Qian Qian","steam_id":76561199081837220,"connected_time":2456000000000,"state":"active","ping":63},{"user_id":748,"name":"Spy Gaming","steam_id":76561198453295613,"connected_time":2924000000000,"state":"active","ping":111},{"user_id":778,"name":"Architect","steam_id":76561198015242016,"connected_time":662000000000,"state":"active","ping":36},{"user_id":774,"name":"Stunner","steam_id":76561198063197896,"connected_time":1049000000000,"state":"active","ping":104},{"user_id":775,"name":"God","steam_id":76561198131089513,"connected_time":1022000000000,"state":"active","ping":45},{"user_id":722,"name":"Snoogs","steam_id":76561198444880931,"connected_time":3896000000000,"state":"active","ping":71},{"user_id":746,"name":"Fumio Kishida Gaming","steam_id":76561198046413310,"connected_time":2989000000000,"state":"active","ping":74},{"user_id":765,"name":"Cooler Ye","steam_id":76561198068830312,"connected_time":1732000000000,"state":"active","ping":45},{"user_id":783,"name":"kezii","steam_id":76561198012418529,"connected_time":48000000000,"state":"active","ping":60},{"user_id":766,"name":"arr matey","steam_id":76561198000757362,"connected_time":1610000000000,"state":"active","ping":62},{"user_id":753,"name":"dum bnuy","steam_id":76561198170574941,"connected_time":2658000000000,"state":"active","ping":46},{"user_id":707,"name":"Tobo","steam_id":76561198085846393,"connected_time":5336000000000,"state":"active","ping":86},{"user_id":773,"name":"Weebmcgee","steam_id":76561198081231557,"connected_time":1139000000000,"state":"active","ping":64},{"user_id":779,"name":"Nuts Berserk","steam_id":76561198145709870,"connected_time":629000000000,"state":"active","ping":81},{"user_id":780,"name":"for the king","steam_id":76561197973488858,"connected_time":607000000000,"state":"active","ping":48},{"user_id":770,"name":"lcy13vv","steam_id":76561197995997446,"connected_time":1371000000000,"state":"active","ping":58},{"user_id":747,"name":"Mox Nix","steam_id":76561198978778718,"connected_time":2949000000000,"state":"active","ping":146},{"user_id":776,"name":"porz","steam_id":76561198195711453,"connected_time":997000000000,"state":"active","ping":63},{"user_id":777,"name":"juanjoesc","steam_id":76561198186368430,"connected_time":995000000000,"state":"active","ping":124},{"user_id":731,"name":"Grinder02","steam_id":76561198133882416,"connected_time":3602000000000,"state":"active","ping":59},{"user_id":781,"name":"lag","steam_id":76561198117898839,"connected_time":590000000000,"state":"active","ping":115},{"user_id":699,"name":"Howard Hamlin","steam_id":76561198881039861,"connected_time":6206000000000,"state":"active","ping":76},{"user_id":757,"name":"Thug shaker","steam_id":76561198840484105,"connected_time":2551000000000,"state":"active","ping":87},{"user_id":764,"name":"NOLSEY","steam_id":76561198108959504,"connected_time":1838000000000,"state":"active","ping":36}]},{"server_id":106,"name":"Uncletopia | Chicago | 2 | All Maps","name_short":"chi-2","host":"chi-1.us.uncletopia.com","port":27025,"enabled":true,"region":"us-central","cc":"us","latitude":41.881832,"longitude":-87.62318,"reserved":0,"last_update":"0001-01-01T00:00:00Z","name_a2s":"Uncletopia | Chicago | 2 | All Maps","protocol":17,"map":"ctf_2fort","folder":"tf","game":"Team Fortress","app_id":440,"player_count":6,"max_players":24,"Bots":0,"server_type":"Dedicated","server_os":"Linux","password":true,"vac":true,"version":"7961495","steam_id":85568392924469985,"keywords":["ctf","nocrits","nodmgspread","uncletopia"],"game_id":440,"stv_port":27026,"stv_name":"Uncletopia | Chicago | 2 | All Maps | STV","players":[{"user_id":473,"name":"dave","steam_id":76561198135961731,"connected_time":206000000000,"state":"active","ping":85},{"user_id":475,"name":"Bodacious Meat","steam_id":76561198058742270,"connected_time":140000000000,"state":"active","ping":59},{"user_id":472,"name":"Sharmat","steam_id":76561198103492042,"connected_time":259000000000,"state":"active","ping":56},{"user_id":464,"name":"ultralisk52","steam_id":76561198051666604,"connected_time":1428000000000,"state":"active","ping":53},{"user_id":468,"name":"bouncyhousin","steam_id":76561198852902827,"connected_time":957000000000,"state":"active","ping":82},{"user_id":474,"name":"WAR_CRIMES |HM|","steam_id":76561199481159545,"connected_time":196000000000,"state":"active","ping":73}]},{"server_id":402,"name":"Uncletopia | Chicago | 3 | All Maps","name_short":"chi-3","host":"chi-1.us.uncletopia.com","port":27035,"enabled":true,"region":"us-central","cc":"us","latitude":41.881832,"longitude":-87.62318,"reserved":0,"last_update":"0001-01-01T00:00:00Z","name_a2s":"Uncletopia | Chicago | 3 | All Maps","protocol":17,"map":"pl_upward","folder":"tf","game":"Team Fortress","app_id":440,"player_count":24,"max_players":24,"Bots":0,"server_type":"Dedicated","server_os":"Linux","password":true,"vac":true,"version":"7961495","steam_id":85568392924515191,"keywords":["nocrits","nodmgspread","payload","uncletopia"],"game_id":440,"stv_port":27036,"stv_name":"Uncletopia | Chicago | 3 | All Maps | STV","players":[{"user_id":725,"name":"Seskova","steam_id":76561198090207032,"connected_time":591000000000,"state":"active","ping":113},{"user_id":722,"name":"sfoster","steam_id":76561197993895857,"connected_time":695000000000,"state":"active","ping":85},{"user_id":729,"name":"zpalmtree","steam_id":76561198134307620,"connected_time":173000000000,"state":"active","ping":60},{"user_id":674,"name":"Matt","steam_id":76561198102154265,"connected_time":3494000000000,"state":"active","ping":108},{"user_id":726,"name":"Yakul","steam_id":76561198100040013,"connected_time":536000000000,"state":"active","ping":84},{"user_id":719,"name":"ohohaye","steam_id":76561198043911164,"connected_time":772000000000,"state":"active","ping":103},{"user_id":715,"name":"Emerald Blaziken","steam_id":76561198821943366,"connected_time":1255000000000,"state":"active","ping":100},{"user_id":675,"name":"«Dᵃʳᵏ.,,.Tᵉᵐᵖ»","steam_id":76561198018185884,"connected_time":3440000000000,"state":"active","ping":95},{"user_id":667,"name":"RanchEater","steam_id":76561198836436110,"connected_time":3731000000000,"state":"active","ping":63},{"user_id":708,"name":"feed lips","steam_id":76561197971152439,"connected_time":2136000000000,"state":"active","ping":63},{"user_id":720,"name":"Y Dough","steam_id":76561198003827633,"connected_time":746000000000,"state":"active","ping":99},{"user_id":688,"name":"Hovg9000","steam_id":76561199191556710,"connected_time":2986000000000,"state":"active","ping":89},{"user_id":695,"name":"Amoxicilina","steam_id":76561198168486429,"connected_time":2829000000000,"state":"active","ping":118},{"user_id":635,"name":"gooch_masta","steam_id":76561198151578423,"connected_time":5401000000000,"state":"active","ping":90},{"user_id":721,"name":"Kelpshake Reborn","steam_id":76561198014553898,"connected_time":734000000000,"state":"active","ping":86},{"user_id":704,"name":"GoldtoothFour","steam_id":76561198055529332,"connected_time":2395000000000,"state":"active","ping":57},{"user_id":728,"name":"MrAbear","steam_id":76561197969204912,"connected_time":331000000000,"state":"active","ping":78},{"user_id":723,"name":"sunglasses","steam_id":76561198173747227,"connected_time":681000000000,"state":"active","ping":83},{"user_id":713,"name":"Axis","steam_id":76561197969568037,"connected_time":1781000000000,"state":"active","ping":71},{"user_id":559,"name":"Hipster_Giraffe","steam_id":76561198069701092,"connected_time":11984000000000,"state":"active","ping":94},{"user_id":693,"name":"SiltyStar85","steam_id":76561198309175923,"connected_time":2879000000000,"state":"active","ping":93},{"user_id":716,"name":"Rudy","steam_id":76561198013456828,"connected_time":999000000000,"state":"active","ping":71},{"user_id":690,"name":"TheGuyWhoPlays","steam_id":76561198277363002,"connected_time":2963000000000,"state":"active","ping":63},{"user_id":727,"name":"super-oofio64","steam_id":76561198954052123,"connected_time":534000000000,"state":"active","ping":112}]},{"server_id":403,"name":"Uncletopia | Chicago | 4 | All Maps","name_short":"chi-4","host":"chi-1.us.uncletopia.com","port":27045,"enabled":true,"region":"us-central","cc":"us","latitude":41.881832,"longitude":-87.62318,"reserved":0,"last_update":"0001-01-01T00:00:00Z","name_a2s":"Uncletopia | Chicago | 4 | All Maps","protocol":17,"map":"pl_barnblitz","folder":"tf","game":"Team Fortress","app_id":440,"player_count":24,"max_players":24,"Bots":0,"server_type":"Dedicated","server_os":"Linux","password":true,"vac":true,"version":"7961495","steam_id":85568392924515193,"keywords":["nocrits","nodmgspread","payload","uncletopia"],"game_id":440,"stv_port":27046,"stv_name":"Uncletopia | Chicago | 4 | All Maps | STV","players":[{"user_id":569,"name":"OH BOY","steam_id":76561199052273428,"connected_time":1056000000000,"state":"active","ping":54},{"user_id":547,"name":"Chin (SFM Comms Open)","steam_id":76561198953123833,"connected_time":3538000000000,"state":"active","ping":108},{"user_id":535,"name":"cheddar baked ruffles","steam_id":76561198799404824,"connected_time":4350000000000,"state":"active","ping":72},{"user_id":510,"name":"Stealthguy724","steam_id":76561198195961430,"connected_time":5525000000000,"state":"active","ping":102},{"user_id":558,"name":"Femboy Medic Main","steam_id":76561198268225109,"connected_time":2661000000000,"state":"active","ping":93},{"user_id":572,"name":"I Am Alpharius","steam_id":76561198033100226,"connected_time":920000000000,"state":"active","ping":70},{"user_id":390,"name":"ItsThatBear","steam_id":76561198169617659,"connected_time":15484000000000,"state":"active","ping":86},{"user_id":539,"name":"[NAME-REDACTED]","steam_id":76561198035682975,"connected_time":4136000000000,"state":"active","ping":68},{"user_id":565,"name":"garfield","steam_id":76561198114119308,"connected_time":1764000000000,"state":"active","ping":60},{"user_id":554,"name":"Sarbanes-Oxley","steam_id":76561197975898479,"connected_time":3255000000000,"state":"active","ping":84},{"user_id":540,"name":"Owls = Government Drones","steam_id":76561198439793697,"connected_time":4120000000000,"state":"active","ping":76},{"user_id":579,"name":"TastyWheat","steam_id":76561198855061918,"connected_time":723000000000,"state":"active","ping":100},{"user_id":557,"name":"The Grim Heaper","steam_id":76561197987759101,"connected_time":3037000000000,"state":"active","ping":109},{"user_id":574,"name":"Daddy","steam_id":76561198093028567,"connected_time":885000000000,"state":"active","ping":71},{"user_id":529,"name":"Scrumpy Main","steam_id":76561198146302597,"connected_time":5021000000000,"state":"active","ping":62},{"user_id":575,"name":"AVY","steam_id":76561197964252106,"connected_time":874000000000,"state":"active","ping":53},{"user_id":534,"name":"Kamin","steam_id":76561198255299559,"connected_time":4376000000000,"state":"active","ping":86},{"user_id":526,"name":"King Of The Chill","steam_id":76561197971394640,"connected_time":5123000000000,"state":"active","ping":98},{"user_id":566,"name":"Ch4rl33","steam_id":76561198037008621,"connected_time":1710000000000,"state":"active","ping":40},{"user_id":561,"name":"wetart","steam_id":76561198043187719,"connected_time":2223000000000,"state":"active","ping":127},{"user_id":491,"name":"Waffle","steam_id":76561199000034608,"connected_time":6896000000000,"state":"active","ping":65},{"user_id":549,"name":"`o2","steam_id":76561197992030936,"connected_time":3381000000000,"state":"active","ping":61},{"user_id":567,"name":"Midnight Flame","steam_id":76561198279692754,"connected_time":1682000000000,"state":"active","ping":81},{"user_id":578,"name":"blue duck the 2nd","steam_id":76561198263142765,"connected_time":829000000000,"state":"active","ping":138}]},{"server_id":36,"name":"Uncletopia | Chicago | 5 | All Maps","name_short":"chi-5","host":"chi-2.us.uncletopia.com","port":27015,"enabled":true,"region":"us-central","cc":"us","latitude":41.881832,"longitude":-87.62318,"reserved":0,"last_update":"0001-01-01T00:00:00Z","name_a2s":"Uncletopia | Chicago | 5 | All Maps","protocol":17,"map":"cp_process_final","folder":"tf","game":"Team Fortress","app_id":440,"player_count":24,"max_players":24,"Bots":0,"server_type":"Dedicated","server_os":"Linux","password":true,"vac":true,"version":"7961495","steam_id":85568392924866362,"keywords":["cp","nocrits","nodmgspread","uncletopia"],"game_id":440,"stv_port":27016,"stv_name":"Uncletopia | Chicago | 5 | All Maps | STV","players":[{"user_id":335,"name":"spider","steam_id":76561198130032444,"connected_time":1917000000000,"state":"active","ping":96},{"user_id":354,"name":"The Horselords and Animal Gods","steam_id":76561197975094050,"connected_time":529000000000,"state":"active","ping":106},{"user_id":361,"name":"raphaim #bb","steam_id":76561198089649422,"connected_time":365000000000,"state":"active","ping":95},{"user_id":339,"name":"46haloboy","steam_id":76561198038080028,"connected_time":1861000000000,"state":"active","ping":90},{"user_id":355,"name":"Ferioth","steam_id":76561197997993090,"connected_time":483000000000,"state":"active","ping":68},{"user_id":356,"name":"Divio","steam_id":76561197995200088,"connected_time":479000000000,"state":"active","ping":46},{"user_id":357,"name":"Larry T.G","steam_id":76561198140157079,"connected_time":468000000000,"state":"active","ping":65},{"user_id":346,"name":"Joebobio","steam_id":76561198024442760,"connected_time":1490000000000,"state":"active","ping":68},{"user_id":352,"name":"small nyaturals","steam_id":76561198090412935,"connected_time":542000000000,"state":"active","ping":75},{"user_id":321,"name":"1200 FEARJAKS","steam_id":76561198175839309,"connected_time":2984000000000,"state":"active","ping":70},{"user_id":350,"name":"Insectoid","steam_id":76561198122677314,"connected_time":1081000000000,"state":"active","ping":63},{"user_id":332,"name":"smetc","steam_id":76561198240696986,"connected_time":2209000000000,"state":"active","ping":59},{"user_id":322,"name":"look killa","steam_id":76561198173047169,"connected_time":2974000000000,"state":"active","ping":65},{"user_id":348,"name":"i've cometh","steam_id":76561198339644583,"connected_time":1298000000000,"state":"active","ping":68},{"user_id":358,"name":"face","steam_id":76561198035629877,"connected_time":449000000000,"state":"active","ping":45},{"user_id":351,"name":"C Papi","steam_id":76561198027779564,"connected_time":993000000000,"state":"active","ping":60},{"user_id":284,"name":"chud smoker","steam_id":76561198120973162,"connected_time":5134000000000,"state":"active","ping":75},{"user_id":285,"name":"chud packer","steam_id":76561198051310816,"connected_time":5126000000000,"state":"active","ping":70},{"user_id":333,"name":"NovaSc6ut","steam_id":76561198277163301,"connected_time":1949000000000,"state":"active","ping":72},{"user_id":303,"name":"Scoops M'Gooch","steam_id":76561198048423812,"connected_time":4027000000000,"state":"active","ping":120},{"user_id":359,"name":"almost lost it","steam_id":76561198027052378,"connected_time":443000000000,"state":"active","ping":75},{"user_id":362,"name":"BLØRG","steam_id":76561198036126673,"connected_time":104000000000,"state":"active","ping":85},{"user_id":342,"name":"Enemy Infant Tree","steam_id":76561198027175418,"connected_time":1775000000000,"state":"active","ping":73},{"user_id":360,"name":"SlawBunny","steam_id":76561198094913841,"connected_time":441000000000,"state":"active","ping":90}]},{"server_id":37,"name":"Uncletopia | Chicago | 6 | All Maps","name_short":"chi-6","host":"chi-2.us.uncletopia.com","port":27025,"enabled":true,"region":"us-central","cc":"us","latitude":41.881832,"longitude":-87.62318,"reserved":0,"last_update":"0001-01-01T00:00:00Z","name_a2s":"Uncletopia | Chicago | 6 | All Maps","protocol":17,"map":"pl_pier","folder":"tf","game":"Team Fortress","app_id":440,"player_count":24,"max_players":24,"Bots":0,"server_type":"Dedicated","server_os":"Linux","password":true,"vac":true,"version":"7961495","steam_id":85568392924866363,"keywords":["nocrits","nodmgspread","payload","uncletopia"],"game_id":440,"stv_port":27026,"stv_name":"Uncletopia | Chicago | 6 | All Maps | STV","players":[{"user_id":153,"name":"Carpet enthusiast","steam_id":76561198024040142,"connected_time":16698000000000,"state":"active","ping":102},{"user_id":352,"name":"START PRAYIN BOY","steam_id":76561198089173996,"connected_time":2380000000000,"state":"active","ping":83},{"user_id":263,"name":"Aster","steam_id":76561198037920420,"connected_time":8657000000000,"state":"active","ping":83},{"user_id":341,"name":"Ethan :3","steam_id":76561199477901258,"connected_time":3718000000000,"state":"active","ping":73},{"user_id":369,"name":"lytewerk","steam_id":76561198002819791,"connected_time":815000000000,"state":"active","ping":77},{"user_id":378,"name":"Snoopist","steam_id":76561198144023761,"connected_time":207000000000,"state":"active","ping":34},{"user_id":333,"name":"No.21 - Feral Scent","steam_id":76561198045844070,"connected_time":3871000000000,"state":"active","ping":79},{"user_id":381,"name":"The Notorious T.A.F.T.","steam_id":76561198073012352,"connected_time":58000000000,"state":"active","ping":81},{"user_id":370,"name":"CloudVic","steam_id":76561198118868716,"connected_time":803000000000,"state":"active","ping":78},{"user_id":371,"name":"Schizoid Despot","steam_id":76561198141902905,"connected_time":802000000000,"state":"active","ping":65},{"user_id":380,"name":"albert581_gaming","steam_id":76561198219209367,"connected_time":165000000000,"state":"active","ping":72},{"user_id":343,"name":"NeoN","steam_id":76561198117608366,"connected_time":3466000000000,"state":"active","ping":57},{"user_id":359,"name":"Keeby","steam_id":76561198279206610,"connected_time":2303000000000,"state":"active","ping":81},{"user_id":360,"name":"JesusDicks","steam_id":76561198066393631,"connected_time":2300000000000,"state":"active","ping":84},{"user_id":361,"name":"Crylec","steam_id":76561198092755279,"connected_time":2266000000000,"state":"active","ping":72},{"user_id":336,"name":"BreakfastTacos","steam_id":76561198847620442,"connected_time":3849000000000,"state":"active","ping":93},{"user_id":367,"name":"Person","steam_id":76561198093244204,"connected_time":1610000000000,"state":"active","ping":75},{"user_id":382,"name":"hotgarbage","steam_id":76561197988541148,"connected_time":56000000000,"state":"active","ping":81},{"user_id":377,"name":"9Bendy9","steam_id":76561198164023601,"connected_time":255000000000,"state":"active","ping":112},{"user_id":374,"name":"The Foolish Samurai","steam_id":76561198094494945,"connected_time":742000000000,"state":"active","ping":114},{"user_id":375,"name":"Meatful Wonder","steam_id":76561198109238749,"connected_time":655000000000,"state":"active","ping":112},{"user_id":362,"name":"CowMilkingMoth","steam_id":76561198047607935,"connected_time":2258000000000,"state":"active","ping":66},{"user_id":376,"name":"sparkyzZ \u003c3","steam_id":76561198120107112,"connected_time":564000000000,"state":"active","ping":160},{"user_id":379,"name":"skar","steam_id":76561198273358760,"connected_time":206000000000,"state":"active","ping":142}]},{"server_id":38,"name":"Uncletopia | Chicago | 7 | Stopwatch","name_short":"chi-7","host":"chi-2.us.uncletopia.com","port":27035,"enabled":true,"region":"us-central","cc":"us","latitude":41.881832,"longitude":-87.62318,"reserved":0,"last_update":"0001-01-01T00:00:00Z","name_a2s":"Uncletopia | Chicago | 7 | Stopwatch","protocol":17,"map":"koth_lakeside_final","folder":"tf","game":"Team Fortress","app_id":440,"player_count":0,"max_players":24,"Bots":0,"server_type":"Dedicated","server_os":"Linux","password":true,"vac":true,"version":"7961495","steam_id":85568392924866364,"keywords":["cp","nocrits","nodmgspread","uncletopia"],"game_id":440,"stv_port":27036,"stv_name":"Uncletopia | Chicago | 7 | Stopwatch | STV","players":null},{"server_id":39,"name":"Uncletopia | Chicago | 8 | Community","name_short":"chi-8","host":"chi-2.us.uncletopia.com","port":27045,"enabled":true,"region":"us-central","cc":"us","latitude":41.881832,"longitude":-87.62318,"reserved":0,"last_update":"0001-01-01T00:00:00Z","name_a2s":"Uncletopia | Chicago | 8 | Community","protocol":17,"map":"workshop/koth_product_final.ugc454272353","folder":"tf","game":"Team Fortress","app_id":440,"player_count":17,"max_players":24,"Bots":0,"server_type":"Dedicated","server_os":"Linux","password":true,"vac":true,"version":"7961495","steam_id":85568392924866365,"keywords":["cp","nocrits","nodmgspread","uncletopia"],"game_id":440,"stv_port":27046,"stv_name":"Uncletopia | Chicago | 8 | Community | STV","players":[{"user_id":67,"name":"cajun thotsauce","steam_id":76561198101636066,"connected_time":275000000000,"state":"active","ping":100},{"user_id":68,"name":"Asanez3","steam_id":76561198037381436,"connected_time":265000000000,"state":"active","ping":74},{"user_id":69,"name":"wepry","steam_id":76561198114091417,"connected_time":262000000000,"state":"active","ping":46},{"user_id":70,"name":"Taskrabbits","steam_id":76561198366682546,"connected_time":246000000000,"state":"active","ping":93},{"user_id":71,"name":"Pizza","steam_id":76561198118748364,"connected_time":239000000000,"state":"active","ping":75},{"user_id":72,"name":"al.vasiglev","steam_id":76561198307359545,"connected_time":167000000000,"state":"active","ping":118},{"user_id":38,"name":"ZariaGalaxy","steam_id":76561198089441300,"connected_time":4140000000000,"state":"active","ping":71},{"user_id":48,"name":"Franticraven177","steam_id":76561198334105579,"connected_time":2076000000000,"state":"active","ping":79},{"user_id":73,"name":"Resistance","steam_id":76561197998318861,"connected_time":160000000000,"state":"active","ping":75},{"user_id":74,"name":"DarthPorgus69420","steam_id":76561198014429676,"connected_time":159000000000,"state":"active","ping":85},{"user_id":75,"name":"Mixed Up","steam_id":76561198042570322,"connected_time":151000000000,"state":"active","ping":51},{"user_id":76,"name":"Meathouse","steam_id":76561198169966346,"connected_time":150000000000,"state":"active","ping":84},{"user_id":53,"name":"EndNightmare","steam_id":76561198272032727,"connected_time":1920000000000,"state":"active","ping":60},{"user_id":56,"name":"the keebler","steam_id":76561199486326945,"connected_time":1696000000000,"state":"active","ping":74},{"user_id":60,"name":"iceetee","steam_id":76561198156275931,"connected_time":1574000000000,"state":"active","ping":60},{"user_id":62,"name":"Steve.pp","steam_id":76561198297778412,"connected_time":1555000000000,"state":"active","ping":94},{"user_id":64,"name":"moosein","steam_id":76561198354272434,"connected_time":1422000000000,"state":"active","ping":88}]},{"server_id":8,"name":"Uncletopia | Dallas | 1 | All Maps","name_short":"dal-1","host":"dal-1.us.uncletopia.com","port":27015,"enabled":true,"region":"us-central","cc":"us","latitude":32.779167,"longitude":-96.80889,"reserved":0,"last_update":"0001-01-01T00:00:00Z","name_a2s":"Uncletopia | Dallas | 1 | All Maps","protocol":17,"map":"pl_upward","folder":"tf","game":"Team Fortress","app_id":440,"player_count":24,"max_players":24,"Bots":0,"server_type":"Dedicated","server_os":"Linux","password":true,"vac":true,"version":"7961495","steam_id":85568392924469986,"keywords":["nocrits","nodmgspread","payload","uncletopia"],"game_id":440,"stv_port":27016,"stv_name":"Uncletopia | Dallas | 1 | All Maps | STV","players":[{"user_id":533,"name":"warren","steam_id":76561198136331136,"connected_time":311000000000,"state":"active","ping":75},{"user_id":523,"name":"spunch bub","steam_id":76561198326658210,"connected_time":759000000000,"state":"active","ping":71},{"user_id":358,"name":"Mellou","steam_id":76561198212048740,"connected_time":12208000000000,"state":"active","ping":50},{"user_id":525,"name":"cyborgjo2147","steam_id":76561199184761439,"connected_time":674000000000,"state":"active","ping":74},{"user_id":484,"name":"Lord_Dabbatron","steam_id":76561199058480985,"connected_time":3205000000000,"state":"active","ping":56},{"user_id":489,"name":"Xexat","steam_id":76561198041668498,"connected_time":2484000000000,"state":"active","ping":89},{"user_id":526,"name":"J76_","steam_id":76561199224457967,"connected_time":671000000000,"state":"active","ping":102},{"user_id":527,"name":"moe","steam_id":76561198929586245,"connected_time":668000000000,"state":"active","ping":79},{"user_id":507,"name":"darkelaine227","steam_id":76561198097330521,"connected_time":1810000000000,"state":"active","ping":163},{"user_id":487,"name":"cringeass nae-nae girl","steam_id":76561198108753857,"connected_time":2543000000000,"state":"active","ping":63},{"user_id":528,"name":"8o8","steam_id":76561198996923332,"connected_time":631000000000,"state":"active","ping":82},{"user_id":529,"name":"KillerGodzilla","steam_id":76561198049361161,"connected_time":625000000000,"state":"active","ping":63},{"user_id":506,"name":"Fish in Suit","steam_id":76561198316685581,"connected_time":1890000000000,"state":"active","ping":76},{"user_id":512,"name":"damiankiller1243","steam_id":76561198868885090,"connected_time":1459000000000,"state":"active","ping":70},{"user_id":530,"name":"whosaysnototoes","steam_id":76561199372572556,"connected_time":592000000000,"state":"active","ping":96},{"user_id":531,"name":"OHGODBEES!","steam_id":76561198000653374,"connected_time":587000000000,"state":"active","ping":105},{"user_id":511,"name":"TEAM FORTRESS 2","steam_id":76561198819943354,"connected_time":1512000000000,"state":"active","ping":61},{"user_id":513,"name":"Momiji Pop!","steam_id":76561198039869773,"connected_time":1442000000000,"state":"active","ping":76},{"user_id":504,"name":"John Dungus (the real one)","steam_id":76561198049191027,"connected_time":2242000000000,"state":"active","ping":55},{"user_id":485,"name":"veldt","steam_id":76561198056135308,"connected_time":3163000000000,"state":"active","ping":58},{"user_id":500,"name":"AffirmedDrip13","steam_id":76561198241951532,"connected_time":2276000000000,"state":"active","ping":55},{"user_id":532,"name":"J78_","steam_id":76561198849424606,"connected_time":581000000000,"state":"active","ping":108},{"user_id":433,"name":"EvilPi99let","steam_id":76561197987243470,"connected_time":7476000000000,"state":"active","ping":78},{"user_id":521,"name":"Monte","steam_id":76561198097499917,"connected_time":936000000000,"state":"active","ping":69}]},{"server_id":108,"name":"Uncletopia | Dallas | 2 | All Maps","name_short":"dal-2","host":"dal-1.us.uncletopia.com","port":27025,"enabled":true,"region":"us-central","cc":"us","latitude":32.779167,"longitude":-96.80889,"reserved":0,"last_update":"0001-01-01T00:00:00Z","name_a2s":"Uncletopia | Dallas | 2 | All Maps","protocol":17,"map":"pl_badwater","folder":"tf","game":"Team Fortress","app_id":440,"player_count":22,"max_players":24,"Bots":0,"server_type":"Dedicated","server_os":"Linux","password":true,"vac":true,"version":"7961495","steam_id":85568392924469988,"keywords":["cp","nocrits","nodmgspread","uncletopia"],"game_id":440,"stv_port":27026,"stv_name":"Uncletopia | Dallas | 2 | All Maps | STV","players":[{"user_id":555,"name":"menonamed","steam_id":76561198199564382,"connected_time":1956000000000,"state":"connecting","ping":79},{"user_id":475,"name":"Moonflower ✦","steam_id":76561198191782483,"connected_time":7790000000000,"state":"connecting","ping":52},{"user_id":559,"name":"L-","steam_id":76561198046074220,"connected_time":1570000000000,"state":"connecting","ping":90},{"user_id":529,"name":"yoingle spoingle","steam_id":76561198336684715,"connected_time":2915000000000,"state":"connecting","ping":91},{"user_id":564,"name":"loser","steam_id":76561198259380127,"connected_time":1424000000000,"state":"connecting","ping":91},{"user_id":557,"name":"Siats","steam_id":76561198063539885,"connected_time":1669000000000,"state":"connecting","ping":69},{"user_id":558,"name":"5d100","steam_id":76561198067008258,"connected_time":1605000000000,"state":"connecting","ping":44},{"user_id":574,"name":"marisa kirasame's cringemobile","steam_id":76561198129191580,"connected_time":17000000000,"state":"connecting","ping":87},{"user_id":468,"name":"corviraptor (bison sweep)","steam_id":76561198058284392,"connected_time":8265000000000,"state":"connecting","ping":59},{"user_id":570,"name":"Shrew","steam_id":76561198085421224,"connected_time":1035000000000,"state":"connecting","ping":108},{"user_id":541,"name":"Snoopy","steam_id":76561198273735974,"connected_time":2395000000000,"state":"connecting","ping":94},{"user_id":567,"name":"vitriol","steam_id":76561199159038358,"connected_time":1273000000000,"state":"connecting","ping":88},{"user_id":571,"name":"Engineer2650","steam_id":76561198121410799,"connected_time":815000000000,"state":"connecting","ping":57},{"user_id":562,"name":"Cleetus","steam_id":76561198192510401,"connected_time":1538000000000,"state":"connecting","ping":64},{"user_id":568,"name":"SuperNovaFox","steam_id":76561198052172564,"connected_time":1271000000000,"state":"connecting","ping":92},{"user_id":573,"name":"Ojen","steam_id":76561197998414482,"connected_time":207000000000,"state":"connecting","ping":90},{"user_id":544,"name":"Bradz","steam_id":76561198175090085,"connected_time":2337000000000,"state":"connecting","ping":100},{"user_id":545,"name":"shnowshner","steam_id":76561198066450438,"connected_time":2334000000000,"state":"connecting","ping":114},{"user_id":546,"name":"ᛞNiTr0z","steam_id":76561198080641022,"connected_time":2320000000000,"state":"connecting","ping":89},{"user_id":547,"name":"ShamroknRoll","steam_id":76561198984165109,"connected_time":2319000000000,"state":"connecting","ping":89},{"user_id":477,"name":"Burpingtaco","steam_id":76561198081207098,"connected_time":7422000000000,"state":"connecting","ping":212},{"user_id":549,"name":"Maxsentia","steam_id":76561198113374406,"connected_time":2262000000000,"state":"connecting","ping":96}]},{"server_id":404,"name":"Uncletopia | Dallas | 3 | All Maps","name_short":"dal-3","host":"dal-1.us.uncletopia.com","port":27035,"enabled":true,"region":"us-central","cc":"us","latitude":32.779167,"longitude":-96.80889,"reserved":0,"last_update":"0001-01-01T00:00:00Z","name_a2s":"Uncletopia | Dallas | 3 | All Maps","protocol":17,"map":"cp_dustbowl","folder":"tf","game":"Team Fortress","app_id":440,"player_count":23,"max_players":24,"Bots":0,"server_type":"Dedicated","server_os":"Linux","password":true,"vac":true,"version":"7961495","steam_id":85568392924515219,"keywords":["cp","nocrits","nodmgspread","uncletopia"],"game_id":440,"stv_port":27036,"stv_name":"Uncletopia | Dallas | 3 | All Maps | STV","players":[{"user_id":601,"name":"penzfan","steam_id":76561198230422640,"connected_time":4616000000000,"state":"active","ping":77},{"user_id":634,"name":"Blade Racer","steam_id":76561198155896703,"connected_time":1983000000000,"state":"active","ping":80},{"user_id":657,"name":"Bomb Squirtle™","steam_id":76561197998931145,"connected_time":559000000000,"state":"active","ping":112},{"user_id":648,"name":"uheye whuant moy ehmdeevee","steam_id":76561198028981154,"connected_time":1318000000000,"state":"active","ping":90},{"user_id":612,"name":"poggerchamp","steam_id":76561199145124973,"connected_time":3348000000000,"state":"active","ping":58},{"user_id":665,"name":"Catdog32","steam_id":76561198113364714,"connected_time":19000000000,"state":"spawning","ping":82},{"user_id":654,"name":"doughboy","steam_id":76561198219012928,"connected_time":653000000000,"state":"active","ping":81},{"user_id":652,"name":"goooot","steam_id":76561198155591052,"connected_time":1111000000000,"state":"active","ping":47},{"user_id":598,"name":"NyanHorses","steam_id":76561198161584966,"connected_time":4688000000000,"state":"active","ping":40},{"user_id":593,"name":"Lee?","steam_id":76561199060892634,"connected_time":5335000000000,"state":"active","ping":66},{"user_id":650,"name":"JayDuh","steam_id":76561198396293109,"connected_time":1207000000000,"state":"active","ping":79},{"user_id":664,"name":"Raynesko.Yung.Vitamix.Baklava.G","steam_id":76561198044113229,"connected_time":206000000000,"state":"active","ping":98},{"user_id":653,"name":"Just Luck","steam_id":76561198294350105,"connected_time":913000000000,"state":"active","ping":65},{"user_id":643,"name":"troubless","steam_id":76561198335431391,"connected_time":1529000000000,"state":"active","ping":68},{"user_id":658,"name":"Tingyun","steam_id":76561198295713840,"connected_time":547000000000,"state":"active","ping":64},{"user_id":599,"name":"SGT Disoriented","steam_id":76561198058177958,"connected_time":4674000000000,"state":"active","ping":58},{"user_id":644,"name":"U ω U","steam_id":76561198118802562,"connected_time":1521000000000,"state":"active","ping":91},{"user_id":645,"name":"Galactamarx","steam_id":76561198028065755,"connected_time":1516000000000,"state":"active","ping":77},{"user_id":626,"name":"HoldInYourPoop","steam_id":76561199013104010,"connected_time":2863000000000,"state":"active","ping":67},{"user_id":659,"name":"elephant thumb","steam_id":76561198118859752,"connected_time":470000000000,"state":"active","ping":77},{"user_id":656,"name":"CWCLONE","steam_id":76561198132459460,"connected_time":636000000000,"state":"active","ping":84},{"user_id":662,"name":"Catsontrains","steam_id":76561198066686704,"connected_time":357000000000,"state":"active","ping":84},{"user_id":663,"name":"A sad cat","steam_id":76561198290738927,"connected_time":352000000000,"state":"active","ping":65}]},{"server_id":405,"name":"Uncletopia | Dallas | 4 | Community","name_short":"dal-4","host":"dal-1.us.uncletopia.com","port":27045,"enabled":true,"region":"us-central","cc":"us","latitude":32.779167,"longitude":-96.80889,"reserved":0,"last_update":"0001-01-01T00:00:00Z","name_a2s":"Uncletopia | Dallas | 4 | Community","protocol":17,"map":"workshop/pl_corrode_rc2.ugc546577989","folder":"tf","game":"Team Fortress","app_id":440,"player_count":0,"max_players":24,"Bots":0,"server_type":"Dedicated","server_os":"Linux","password":true,"vac":true,"version":"7961495","steam_id":85568392924515220,"keywords":["nocrits","nodmgspread","payload","uncletopia"],"game_id":440,"stv_port":27046,"stv_name":"Uncletopia | Dallas | 4 | Community | STV","players":null},{"server_id":5,"name":"Uncletopia | Frankfurt | 1 | All Maps","name_short":"frk-1","host":"frk-1.de.uncletopia.com","port":27015,"enabled":true,"region":"eu","cc":"de","latitude":50.110924,"longitude":8.682127,"reserved":0,"last_update":"0001-01-01T00:00:00Z","name_a2s":"Uncletopia | Frankfurt | 1 | All Maps","protocol":17,"map":"koth_highpass","folder":"tf","game":"Team Fortress","app_id":440,"player_count":0,"max_players":24,"Bots":0,"server_type":"Dedicated","server_os":"Linux","password":true,"vac":true,"version":"7961495","steam_id":85568392924469989,"keywords":["cp","nocrits","nodmgspread","uncletopia"],"game_id":440,"stv_port":27016,"stv_name":"Uncletopia | Frankfurt | 1 | All Maps | STV","players":null},{"server_id":110,"name":"Uncletopia | Frankfurt | 2 | All Maps","name_short":"frk-2","host":"frk-1.de.uncletopia.com","port":27025,"enabled":true,"region":"eu","cc":"de","latitude":50.110924,"longitude":8.682127,"reserved":0,"last_update":"0001-01-01T00:00:00Z","name_a2s":"Uncletopia | Frankfurt | 2 | All Maps","protocol":17,"map":"cp_dustbowl","folder":"tf","game":"Team Fortress","app_id":440,"player_count":0,"max_players":24,"Bots":0,"server_type":"Dedicated","server_os":"Linux","password":true,"vac":true,"version":"7961495","steam_id":85568392924469990,"keywords":["cp","nocrits","nodmgspread","uncletopia"],"game_id":440,"stv_port":27026,"stv_name":"Uncletopia | Frankfurt | 2 | All Maps | STV","players":null},{"server_id":308,"name":"Uncletopia | Frankfurt | 3 | All Maps","name_short":"frk-3","host":"frk-1.de.uncletopia.com","port":27035,"enabled":true,"region":"eu","cc":"de","latitude":50.110924,"longitude":8.682127,"reserved":0,"last_update":"0001-01-01T00:00:00Z","name_a2s":"Uncletopia | Frankfurt | 3 | All Maps","protocol":17,"map":"pl_barnblitz","folder":"tf","game":"Team Fortress","app_id":440,"player_count":0,"max_players":24,"Bots":0,"server_type":"Dedicated","server_os":"Linux","password":true,"vac":true,"version":"7961495","steam_id":85568392924504274,"keywords":["nocrits","nodmgspread","payload","uncletopia"],"game_id":440,"stv_port":27036,"stv_name":"Uncletopia | Frankfurt | 3 | All Maps | STV","players":null},{"server_id":309,"name":"Uncletopia | Frankfurt | 4 | All Maps","name_short":"frk-4","host":"frk-1.de.uncletopia.com","port":27045,"enabled":true,"region":"eu","cc":"de","latitude":50.110924,"longitude":8.682127,"reserved":0,"last_update":"0001-01-01T00:00:00Z","name_a2s":"Uncletopia | Frankfurt | 4 | All Maps","protocol":17,"map":"koth_highpass","folder":"tf","game":"Team Fortress","app_id":440,"player_count":0,"max_players":24,"Bots":0,"server_type":"Dedicated","server_os":"Linux","password":true,"vac":true,"version":"7961495","steam_id":85568392924504275,"keywords":["cp","nocrits","nodmgspread","uncletopia"],"game_id":440,"stv_port":27046,"stv_name":"Uncletopia | Frankfurt | 4 | All Maps | STV","players":null},{"server_id":310,"name":"Uncletopia | Frankfurt | 5 | All Maps","name_short":"frk-5","host":"frk-1.de.uncletopia.com","port":27055,"enabled":true,"region":"eu","cc":"de","latitude":50.110924,"longitude":8.682127,"reserved":0,"last_update":"0001-01-01T00:00:00Z","name_a2s":"Uncletopia | Frankfurt | 5 | All Maps","protocol":17,"map":"pl_badwater","folder":"tf","game":"Team Fortress","app_id":440,"player_count":0,"max_players":24,"Bots":0,"server_type":"Dedicated","server_os":"Linux","password":true,"vac":true,"version":"7961495","steam_id":85568392924504277,"keywords":["nocrits","nodmgspread","payload","uncletopia"],"game_id":440,"stv_port":27056,"stv_name":"Uncletopia | Frankfurt | 5 | All Maps | STV","players":null},{"server_id":311,"name":"Uncletopia | Frankfurt | 6 | All Maps","name_short":"frk-6","host":"frk-1.de.uncletopia.com","port":27065,"enabled":true,"region":"eu","cc":"de","latitude":50.110924,"longitude":8.682127,"reserved":0,"last_update":"0001-01-01T00:00:00Z","name_a2s":"Uncletopia | Frankfurt | 6 | All Maps","protocol":17,"map":"cp_altitude","folder":"tf","game":"Team Fortress","app_id":440,"player_count":0,"max_players":24,"Bots":0,"server_type":"Dedicated","server_os":"Linux","password":true,"vac":true,"version":"7961495","steam_id":85568392924504278,"keywords":["cp","nocrits","nodmgspread","uncletopia"],"game_id":440,"stv_port":27066,"stv_name":"Uncletopia | Frankfurt | 6 | All Maps | STV","players":null},{"server_id":23,"name":"Uncletopia | Frankfurt | 7 | Stopwatch","name_short":"frk-7","host":"frk-1.de.uncletopia.com","port":27075,"enabled":true,"region":"eu","cc":"de","latitude":50.110924,"longitude":8.682127,"reserved":0,"last_update":"0001-01-01T00:00:00Z","name_a2s":"Uncletopia | Frankfurt | 7 | Stopwatch","protocol":17,"map":"pl_frontier_final","folder":"tf","game":"Team Fortress","app_id":440,"player_count":1,"max_players":24,"Bots":0,"server_type":"Dedicated","server_os":"Linux","password":true,"vac":true,"version":"7961495","steam_id":85568392924742827,"keywords":["nocrits","nodmgspread","payload","uncletopia"],"game_id":440,"stv_port":27076,"stv_name":"Uncletopia | Frankfurt | 7 | Stopwatch | STV","players":[{"user_id":3,"name":"Cute gay furry","steam_id":76561199198322588,"connected_time":123000000000,"state":"active","ping":73}]},{"server_id":24,"name":"Uncletopia | Frankfurt | 8 | Community","name_short":"frk-8","host":"frk-1.de.uncletopia.com","port":27085,"enabled":true,"region":"eu","cc":"de","latitude":50.110924,"longitude":8.682127,"reserved":0,"last_update":"0001-01-01T00:00:00Z","name_a2s":"Uncletopia | Frankfurt | 8 | Community","protocol":17,"map":"workshop/rd_asteroid_redux_b1.ugc2154902912","folder":"tf","game":"Team Fortress","app_id":440,"player_count":0,"max_players":24,"Bots":0,"server_type":"Dedicated","server_os":"Linux","password":true,"vac":true,"version":"7961495","steam_id":85568392924742828,"keywords":["beta","nocrits","nodmgspread","rd","uncletopia"],"game_id":440,"stv_port":27086,"stv_name":"Uncletopia | Frankfurt | 8 | Community | STV","players":null},{"server_id":202,"name":"Uncletopia | Hong Kong | 1 | All Maps","name_short":"hgk-1","host":"hgk-1.hk.uncletopia.com","port":27015,"enabled":true,"region":"asia","cc":"hk","latitude":22.302711,"longitude":114.177216,"reserved":0,"last_update":"0001-01-01T00:00:00Z","name_a2s":"Uncletopia | Hong Kong | 1 | All Maps","protocol":17,"map":"pl_barnblitz","folder":"tf","game":"Team Fortress","app_id":440,"player_count":4,"max_players":24,"Bots":0,"server_type":"Dedicated","server_os":"Linux","password":true,"vac":true,"version":"7961495","steam_id":85568392924494504,"keywords":["nocrits","nodmgspread","payload","uncletopia"],"game_id":440,"stv_port":27016,"stv_name":"Uncletopia | Hong Kong | 1 | All Maps | STV","players":[{"user_id":47,"name":"LEGS","steam_id":76561199111623890,"connected_time":1229000000000,"state":"active","ping":66},{"user_id":51,"name":"Compressed","steam_id":76561199230196794,"connected_time":209000000000,"state":"active","ping":167},{"user_id":52,"name":"NOPE","steam_id":76561199244543572,"connected_time":141000000000,"state":"active","ping":57},{"user_id":50,"name":"skip","steam_id":76561198885117766,"connected_time":341000000000,"state":"active","ping":62}]},{"server_id":1,"name":"Uncletopia | Los Angeles | 1 | All Maps","name_short":"lax-1","host":"lax-1.us.uncletopia.com","port":27015,"enabled":true,"region":"us-west","cc":"us","latitude":33.94279,"longitude":-118.41004,"reserved":0,"last_update":"0001-01-01T00:00:00Z","name_a2s":"Uncletopia | Los Angeles | 1 | All Maps","protocol":17,"map":"cp_dustbowl","folder":"tf","game":"Team Fortress","app_id":440,"player_count":24,"max_players":24,"Bots":0,"server_type":"Dedicated","server_os":"Linux","password":true,"vac":true,"version":"7961495","steam_id":85568392924469991,"keywords":["cp","nocrits","nodmgspread","uncletopia"],"game_id":440,"stv_port":27016,"stv_name":"Uncletopia | Los Angeles | 1 | All Maps | STV","players":[{"user_id":262,"name":"Frank","steam_id":76561198126681511,"connected_time":1571000000000,"state":"active","ping":69},{"user_id":290,"name":"Lucky","steam_id":76561198828715832,"connected_time":456000000000,"state":"active","ping":52},{"user_id":218,"name":"HumbDoe","steam_id":76561198065556553,"connected_time":5058000000000,"state":"active","ping":54},{"user_id":250,"name":"Flavortown Thanos","steam_id":76561198004853966,"connected_time":2584000000000,"state":"active","ping":70},{"user_id":263,"name":"allahsdroptop","steam_id":76561198133195238,"connected_time":1531000000000,"state":"active","ping":71},{"user_id":264,"name":"LargeBigboy","steam_id":76561198089293265,"connected_time":1530000000000,"state":"active","ping":94},{"user_id":291,"name":"A Parliament of Owls","steam_id":76561197996200417,"connected_time":445000000000,"state":"active","ping":54},{"user_id":265,"name":"smart fella","steam_id":76561198064059721,"connected_time":1529000000000,"state":"active","ping":73},{"user_id":267,"name":"MDEEEEE","steam_id":76561198058460585,"connected_time":1377000000000,"state":"active","ping":45},{"user_id":268,"name":"Seshreb","steam_id":76561198846614634,"connected_time":1363000000000,"state":"active","ping":58},{"user_id":274,"name":"☢(XJ)","steam_id":76561198102189618,"connected_time":1271000000000,"state":"active","ping":32},{"user_id":293,"name":"Hatchitis","steam_id":76561198320346037,"connected_time":223000000000,"state":"active","ping":64},{"user_id":232,"name":"(° ͜   °)","steam_id":76561198064273568,"connected_time":4267000000000,"state":"active","ping":45},{"user_id":259,"name":"EduardoLopez2005","steam_id":76561198188481309,"connected_time":2076000000000,"state":"active","ping":61},{"user_id":292,"name":"doobie the hutt","steam_id":76561198088873640,"connected_time":358000000000,"state":"active","ping":86},{"user_id":272,"name":"Ralph Kramden (Slim Charles)","steam_id":76561197981687895,"connected_time":1302000000000,"state":"active","ping":59},{"user_id":273,"name":"JackoWacko","steam_id":76561198443202279,"connected_time":1295000000000,"state":"active","ping":68},{"user_id":285,"name":"fart smella","steam_id":76561198129564488,"connected_time":795000000000,"state":"active","ping":78},{"user_id":275,"name":"Maid 'n' China","steam_id":76561198423392976,"connected_time":1271000000000,"state":"active","ping":57},{"user_id":286,"name":"Apex","steam_id":76561199058954656,"connected_time":567000000000,"state":"active","ping":70},{"user_id":276,"name":"JamJam :3","steam_id":76561198107453043,"connected_time":1244000000000,"state":"active","ping":79},{"user_id":278,"name":"Shook","steam_id":76561198054064995,"connected_time":1197000000000,"state":"active","ping":91},{"user_id":280,"name":"Skagerecked","steam_id":76561198006578524,"connected_time":1117000000000,"state":"active","ping":85},{"user_id":288,"name":"CoolWool","steam_id":76561198128558303,"connected_time":567000000000,"state":"active","ping":58}]},{"server_id":112,"name":"Uncletopia | Los Angeles | 2 | All Maps","name_short":"lax-2","host":"lax-1.us.uncletopia.com","port":27025,"enabled":true,"region":"us-west","cc":"us","latitude":33.94279,"longitude":-118.41004,"reserved":0,"last_update":"0001-01-01T00:00:00Z","name_a2s":"Uncletopia | Los Angeles | 2 | All Maps","protocol":17,"map":"pl_swiftwater_final1","folder":"tf","game":"Team Fortress","app_id":440,"player_count":24,"max_players":24,"Bots":0,"server_type":"Dedicated","server_os":"Linux","password":true,"vac":true,"version":"7961495","steam_id":85568392924469992,"keywords":["nocrits","nodmgspread","payload","uncletopia"],"game_id":440,"stv_port":27026,"stv_name":"Uncletopia | Los Angeles | 2 | All Maps | STV","players":[{"user_id":309,"name":"TacoMan4Life","steam_id":76561198832562728,"connected_time":441000000000,"state":"active","ping":63},{"user_id":298,"name":"Torikaesu","steam_id":76561198277813823,"connected_time":1370000000000,"state":"active","ping":60},{"user_id":313,"name":"Olitude","steam_id":76561199238964574,"connected_time":148000000000,"state":"active","ping":59},{"user_id":310,"name":"Metalogic","steam_id":76561198049469629,"connected_time":414000000000,"state":"active","ping":89},{"user_id":287,"name":"college wifi","steam_id":76561198007148564,"connected_time":2653000000000,"state":"active","ping":55},{"user_id":295,"name":"RoastyToast408","steam_id":76561198273018783,"connected_time":1760000000000,"state":"active","ping":58},{"user_id":272,"name":"Elson, Tour to 100","steam_id":76561198070842336,"connected_time":3476000000000,"state":"active","ping":78},{"user_id":288,"name":"Count","steam_id":76561198039402397,"connected_time":2648000000000,"state":"active","ping":63},{"user_id":245,"name":"ena - d","steam_id":76561198072329335,"connected_time":5900000000000,"state":"active","ping":94},{"user_id":273,"name":"panda","steam_id":76561198025214612,"connected_time":3476000000000,"state":"active","ping":81},{"user_id":299,"name":"The Senate","steam_id":76561198143882626,"connected_time":1309000000000,"state":"active","ping":93},{"user_id":242,"name":"4 life","steam_id":76561198175961598,"connected_time":6247000000000,"state":"active","ping":62},{"user_id":278,"name":"RC","steam_id":76561198048127881,"connected_time":3356000000000,"state":"active","ping":46},{"user_id":289,"name":"ChuckSter","steam_id":76561198124378352,"connected_time":2642000000000,"state":"active","ping":58},{"user_id":311,"name":"Leroy","steam_id":76561199013064727,"connected_time":411000000000,"state":"active","ping":83},{"user_id":300,"name":"Wizard02","steam_id":76561198178293623,"connected_time":1191000000000,"state":"active","ping":97},{"user_id":306,"name":"Arenovas","steam_id":76561198042341811,"connected_time":626000000000,"state":"active","ping":48},{"user_id":302,"name":"TheMiddler","steam_id":76561199254971843,"connected_time":1174000000000,"state":"active","ping":119},{"user_id":247,"name":"Little Shuriken","steam_id":76561199020477560,"connected_time":5834000000000,"state":"active","ping":39},{"user_id":312,"name":"Ahocchi","steam_id":76561198274742715,"connected_time":239000000000,"state":"active","ping":102},{"user_id":279,"name":"mant","steam_id":76561198169219561,"connected_time":3353000000000,"state":"active","ping":55},{"user_id":283,"name":"Bolbi","steam_id":76561198051811597,"connected_time":3255000000000,"state":"active","ping":59},{"user_id":256,"name":"Grungus","steam_id":76561198047700230,"connected_time":5059000000000,"state":"active","ping":60},{"user_id":304,"name":"Pretentious Gunspy","steam_id":76561199241325005,"connected_time":963000000000,"state":"active","ping":122}]},{"server_id":324,"name":"Uncletopia | Los Angeles | 3 | All Maps","name_short":"lax-3","host":"lax-1.us.uncletopia.com","port":27035,"enabled":true,"region":"us-west","cc":"us","latitude":33.94279,"longitude":-118.41004,"reserved":0,"last_update":"0001-01-01T00:00:00Z","name_a2s":"Uncletopia | Los Angeles | 3 | All Maps","protocol":17,"map":"pl_thundermountain","folder":"tf","game":"Team Fortress","app_id":440,"player_count":24,"max_players":24,"Bots":0,"server_type":"Dedicated","server_os":"Linux","password":true,"vac":true,"version":"7961495","steam_id":85568392924510198,"keywords":["nocrits","nodmgspread","payload","uncletopia"],"game_id":440,"stv_port":27036,"stv_name":"Uncletopia | Los Angeles | 3 | All Maps | STV","players":[{"user_id":229,"name":"milk then cereal","steam_id":76561198047168548,"connected_time":1221000000000,"state":"active","ping":51},{"user_id":245,"name":"look at me hector","steam_id":76561198168492250,"connected_time":707000000000,"state":"active","ping":53},{"user_id":227,"name":"KahMei","steam_id":76561198012542769,"connected_time":1341000000000,"state":"active","ping":56},{"user_id":192,"name":"Future Tusk","steam_id":76561198199635217,"connected_time":3516000000000,"state":"active","ping":59},{"user_id":230,"name":"too old to order","steam_id":76561198874629405,"connected_time":1209000000000,"state":"active","ping":58},{"user_id":247,"name":"Indigolake","steam_id":76561198202215807,"connected_time":131000000000,"state":"active","ping":138},{"user_id":205,"name":"Dr. Bob","steam_id":76561198020215410,"connected_time":2482000000000,"state":"active","ping":47},{"user_id":231,"name":"Mozes","steam_id":76561198282673707,"connected_time":1191000000000,"state":"active","ping":77},{"user_id":228,"name":"[☯] randomshagz*","steam_id":76561197968666646,"connected_time":1340000000000,"state":"active","ping":60},{"user_id":208,"name":"cameltoe joe","steam_id":76561198100779419,"connected_time":2402000000000,"state":"active","ping":63},{"user_id":232,"name":"RobotPrototype","steam_id":76561198117511091,"connected_time":1149000000000,"state":"active","ping":98},{"user_id":239,"name":"Pandalier","steam_id":76561198138739696,"connected_time":959000000000,"state":"active","ping":93},{"user_id":211,"name":"Kng","steam_id":76561198993248203,"connected_time":2323000000000,"state":"active","ping":112},{"user_id":234,"name":"Rooster Cookie","steam_id":76561198137850413,"connected_time":1134000000000,"state":"active","ping":120},{"user_id":235,"name":"broge","steam_id":76561198110002068,"connected_time":1118000000000,"state":"active","ping":50},{"user_id":220,"name":"hampter29","steam_id":76561198271191316,"connected_time":1975000000000,"state":"active","ping":97},{"user_id":236,"name":"Ơ̷͘n̶̨̡ ̵́͘G͢҉ơ̛","steam_id":76561198072089706,"connected_time":1089000000000,"state":"active","ping":97},{"user_id":248,"name":"wunga","steam_id":76561198062074001,"connected_time":120000000000,"state":"active","ping":116},{"user_id":238,"name":"Muro_Mayo","steam_id":76561198329023209,"connected_time":1078000000000,"state":"active","ping":108},{"user_id":241,"name":"14 dollar Slurpee","steam_id":76561198322936035,"connected_time":867000000000,"state":"active","ping":61},{"user_id":214,"name":"Igrium","steam_id":76561198119549811,"connected_time":2283000000000,"state":"active","ping":67},{"user_id":242,"name":"Average Linkin Park fan","steam_id":76561198880671191,"connected_time":792000000000,"state":"active","ping":60},{"user_id":246,"name":"FROYO b4nny","steam_id":76561197970669109,"connected_time":368000000000,"state":"active","ping":56},{"user_id":244,"name":"chimplicity","steam_id":76561198012097062,"connected_time":772000000000,"state":"active","ping":81}]},{"server_id":25,"name":"Uncletopia | Los Angeles | 4 | Stopwatch","name_short":"lax-4","host":"lax-1.us.uncletopia.com","port":27045,"enabled":true,"region":"us-west","cc":"us","latitude":33.94279,"longitude":-118.41004,"reserved":0,"last_update":"0001-01-01T00:00:00Z","name_a2s":"Uncletopia | Los Angeles | 4 | Stopwatch","protocol":17,"map":"cp_gullywash_final1","folder":"tf","game":"Team Fortress","app_id":440,"player_count":0,"max_players":24,"Bots":0,"server_type":"Dedicated","server_os":"Linux","password":true,"vac":true,"version":"7961495","steam_id":85568392924510199,"keywords":["cp","nocrits","nodmgspread","uncletopia"],"game_id":440,"stv_port":27046,"stv_name":"Uncletopia | Los Angeles | 4 | Stopwatch | STV","players":null},{"server_id":11,"name":"Uncletopia | London | 1 | All Maps","name_short":"lon-1","host":"lon-1.uk.uncletopia.com","port":27015,"enabled":true,"region":"eu","cc":"gb","latitude":51.509865,"longitude":-0.118092,"reserved":0,"last_update":"0001-01-01T00:00:00Z","name_a2s":"Uncletopia | London | 1 | All Maps","protocol":17,"map":"cp_process_final","folder":"tf","game":"Team Fortress","app_id":440,"player_count":0,"max_players":24,"Bots":0,"server_type":"Dedicated","server_os":"Linux","password":true,"vac":true,"version":"7961495","steam_id":85568392924367362,"keywords":["cp","nocrits","nodmgspread","uncletopia"],"game_id":440,"stv_port":27016,"stv_name":"Uncletopia | London | 1 | All Maps | STV","players":null},{"server_id":114,"name":"Uncletopia | London | 2 | All Maps","name_short":"lon-2","host":"lon-1.uk.uncletopia.com","port":27025,"enabled":true,"region":"eu","cc":"gb","latitude":51.509865,"longitude":-0.118092,"reserved":0,"last_update":"0001-01-01T00:00:00Z","name_a2s":"Uncletopia | London | 2 | All Maps","protocol":17,"map":"koth_cascade","folder":"tf","game":"Team Fortress","app_id":440,"player_count":24,"max_players":24,"Bots":0,"server_type":"Dedicated","server_os":"Linux","password":true,"vac":true,"version":"7961495","steam_id":85568392924470941,"keywords":["cp","nocrits","nodmgspread","uncletopia"],"game_id":440,"stv_port":27026,"stv_name":"Uncletopia | London | 2 | All Maps | STV","players":[{"user_id":1196,"name":"Ender_DragonYT... GGDROP.COM","steam_id":76561198946735113,"connected_time":1103000000000,"state":"active","ping":86},{"user_id":1197,"name":"hedren","steam_id":76561198146075691,"connected_time":1093000000000,"state":"active","ping":57},{"user_id":1204,"name":"say gex TF2EASY.COM","steam_id":76561198862535506,"connected_time":518000000000,"state":"active","ping":86},{"user_id":1200,"name":"a pan furry","steam_id":76561199445662628,"connected_time":725000000000,"state":"active","ping":71},{"user_id":1183,"name":"Cold Heart","steam_id":76561198109838745,"connected_time":2767000000000,"state":"active","ping":62},{"user_id":1104,"name":"Endzee","steam_id":76561199151945817,"connected_time":9055000000000,"state":"active","ping":82},{"user_id":1211,"name":"superx","steam_id":76561198044976613,"connected_time":192000000000,"state":"active","ping":125},{"user_id":1173,"name":"Dangerous Andrew","steam_id":76561198067218981,"connected_time":3440000000000,"state":"active","ping":54},{"user_id":1201,"name":"Pulga Pelada","steam_id":76561198147163134,"connected_time":560000000000,"state":"active","ping":81},{"user_id":1202,"name":"puck","steam_id":76561198121260981,"connected_time":560000000000,"state":"active","ping":44},{"user_id":1166,"name":"a chimp with a keyboard","steam_id":76561198060270322,"connected_time":3871000000000,"state":"active","ping":80},{"user_id":1193,"name":"Marcus99389","steam_id":76561198049884937,"connected_time":1705000000000,"state":"active","ping":66},{"user_id":1133,"name":"Kirbay","steam_id":76561198050535201,"connected_time":5835000000000,"state":"active","ping":160},{"user_id":1203,"name":"odran","steam_id":76561199122931272,"connected_time":552000000000,"state":"active","ping":51},{"user_id":1205,"name":"Inžinerijos vadybininkas","steam_id":76561199036432051,"connected_time":478000000000,"state":"active","ping":76},{"user_id":1191,"name":"MNKY","steam_id":76561198057125058,"connected_time":1783000000000,"state":"active","ping":70},{"user_id":1138,"name":"Chocolate kiwi popsicles","steam_id":76561198062674388,"connected_time":5546000000000,"state":"active","ping":78},{"user_id":1154,"name":"El Duderino","steam_id":76561198084404539,"connected_time":4110000000000,"state":"active","ping":146},{"user_id":1155,"name":"Dinosaur","steam_id":76561199079626189,"connected_time":4103000000000,"state":"active","ping":155},{"user_id":1156,"name":"sirefluffy","steam_id":76561198119605775,"connected_time":4102000000000,"state":"active","ping":156},{"user_id":1188,"name":"Lupine Primogen","steam_id":76561198028921204,"connected_time":2308000000000,"state":"active","ping":98},{"user_id":1206,"name":"Vv","steam_id":76561199052196750,"connected_time":427000000000,"state":"active","ping":155},{"user_id":1207,"name":"󠀡󠀡","steam_id":76561198399390201,"connected_time":400000000000,"state":"active","ping":98},{"user_id":1210,"name":"dav","steam_id":76561198116986693,"connected_time":308000000000,"state":"active","ping":91}]},{"server_id":320,"name":"Uncletopia | London | 3 | All Maps","name_short":"lon-3","host":"lon-1.uk.uncletopia.com","port":27035,"enabled":true,"region":"eu","cc":"gb","latitude":51.509865,"longitude":-0.118092,"reserved":0,"last_update":"0001-01-01T00:00:00Z","name_a2s":"Uncletopia | London | 3 | All Maps","protocol":17,"map":"koth_viaduct","folder":"tf","game":"Team Fortress","app_id":440,"player_count":0,"max_players":24,"Bots":0,"server_type":"Dedicated","server_os":"Linux","password":true,"vac":true,"version":"7961495","steam_id":85568392924510192,"keywords":["cp","nocrits","nodmgspread","uncletopia"],"game_id":440,"stv_port":27036,"stv_name":"Uncletopia | London | 3 | All Maps | STV","players":null},{"server_id":321,"name":"Uncletopia | London | 4 | All Maps","name_short":"lon-4","host":"lon-1.uk.uncletopia.com","port":27045,"enabled":true,"region":"eu","cc":"gb","latitude":51.509865,"longitude":-0.118092,"reserved":0,"last_update":"0001-01-01T00:00:00Z","name_a2s":"Uncletopia | London | 4 | All Maps","protocol":17,"map":"pl_snowycoast","folder":"tf","game":"Team Fortress","app_id":440,"player_count":0,"max_players":24,"Bots":0,"server_type":"Dedicated","server_os":"Linux","password":true,"vac":true,"version":"7961495","steam_id":85568392924510193,"keywords":["nocrits","nodmgspread","payload","uncletopia"],"game_id":440,"stv_port":27046,"stv_name":"Uncletopia | London | 4 | All Maps | STV","players":null},{"server_id":21,"name":"Uncletopia | London | 5 | All Maps","name_short":"lon-5","host":"lon-1.uk.uncletopia.com","port":27055,"enabled":true,"region":"eu","cc":"gb","latitude":51.509865,"longitude":-0.118092,"reserved":0,"last_update":"0001-01-01T00:00:00Z","name_a2s":"Uncletopia | London | 5 | All Maps","protocol":17,"map":"koth_cascade","folder":"tf","game":"Team Fortress","app_id":440,"player_count":0,"max_players":24,"Bots":0,"server_type":"Dedicated","server_os":"Linux","password":true,"vac":true,"version":"7961495","steam_id":85568392924742829,"keywords":["cp","nocrits","nodmgspread","uncletopia"],"game_id":440,"stv_port":27056,"stv_name":"Uncletopia | London | 5 | All Maps | STV","players":null},{"server_id":22,"name":"Uncletopia | London | 6 | All Maps","name_short":"lon-6","host":"lon-1.uk.uncletopia.com","port":27065,"enabled":true,"region":"eu","cc":"gb","latitude":51.509865,"longitude":-0.118092,"reserved":0,"last_update":"0001-01-01T00:00:00Z","name_a2s":"Uncletopia | London | 6 | All Maps","protocol":17,"map":"plr_nightfall_final","folder":"tf","game":"Team Fortress","app_id":440,"player_count":0,"max_players":24,"Bots":0,"server_type":"Dedicated","server_os":"Linux","password":true,"vac":true,"version":"7961495","steam_id":85568392924742830,"keywords":["nocrits","nodmgspread","payload","uncletopia"],"game_id":440,"stv_port":27066,"stv_name":"Uncletopia | London | 6 | All Maps | STV","players":null},{"server_id":40,"name":"Uncletopia | London | 7 | Stopwatch","name_short":"lon-7","host":"lon-1.uk.uncletopia.com","port":27075,"enabled":true,"region":"eu","cc":"gb","latitude":51.509865,"longitude":-0.118092,"reserved":0,"last_update":"0001-01-01T00:00:00Z","name_a2s":"Uncletopia | London | 7 | Stopwatch","protocol":17,"map":"workshop/koth_clearcut_b15.ugc2107050255","folder":"tf","game":"Team Fortress","app_id":440,"player_count":0,"max_players":24,"Bots":0,"server_type":"Dedicated","server_os":"Linux","password":true,"vac":true,"version":"7961495","steam_id":85568392924964314,"keywords":["cp","nocrits","nodmgspread","uncletopia"],"game_id":440,"stv_port":27076,"stv_name":"Uncletopia | London | 7 | Stopwatch | STV","players":null},{"server_id":41,"name":"Uncletopia | London | 8 | Community","name_short":"lon-8","host":"lon-1.uk.uncletopia.com","port":27085,"enabled":true,"region":"eu","cc":"gb","latitude":51.509865,"longitude":-0.118092,"reserved":0,"last_update":"0001-01-01T00:00:00Z","name_a2s":"Uncletopia | London | 8 | Community","protocol":17,"map":"workshop/pl_highwood_b13.ugc1769496557","folder":"tf","game":"Team Fortress","app_id":440,"player_count":0,"max_players":24,"Bots":0,"server_type":"Dedicated","server_os":"Linux","password":true,"vac":true,"version":"7961495","steam_id":85568392924964315,"keywords":["nocrits","nodmgspread","payload","uncletopia"],"game_id":440,"stv_port":27086,"stv_name":"Uncletopia | London | 8 | Community | STV","players":null},{"server_id":300,"name":"Uncletopia | Montréal | 1 | One Thousand Uncles","name_short":"mtl-1","host":"mtl-1.ca.uncletopia.com","port":27015,"enabled":true,"region":"us-east","cc":"ca","latitude":45.50889,"longitude":-73.56167,"reserved":0,"last_update":"0001-01-01T00:00:00Z","name_a2s":"","protocol":0,"map":"","folder":"","game":"","app_id":0,"player_count":0,"max_players":0,"Bots":0,"server_type":"","server_os":"","password":false,"vac":false,"version":"","steam_id":0,"keywords":null,"game_id":0,"stv_port":0,"stv_name":"","players":null},{"server_id":301,"name":"Uncletopia | Montréal | 2 | One Thousand Uncles","name_short":"mtl-2","host":"mtl-1.ca.uncletopia.com","port":27025,"enabled":true,"region":"us-east","cc":"ca","latitude":45.50889,"longitude":-73.56167,"reserved":0,"last_update":"0001-01-01T00:00:00Z","name_a2s":"","protocol":0,"map":"","folder":"","game":"","app_id":0,"player_count":1,"max_players":0,"Bots":0,"server_type":"","server_os":"","password":false,"vac":false,"version":"","steam_id":0,"keywords":null,"game_id":0,"stv_port":0,"stv_name":"","players":[{"user_id":230,"name":"BlixyDragon","steam_id":76561198295422834,"connected_time":5491000000000,"state":"active","ping":140}]},{"server_id":302,"name":"Uncletopia | Montréal | 3 | One Thousand Uncles","name_short":"mtl-3","host":"mtl-1.ca.uncletopia.com","port":27035,"enabled":true,"region":"us-east","cc":"ca","latitude":45.50889,"longitude":-73.56167,"reserved":0,"last_update":"0001-01-01T00:00:00Z","name_a2s":"","protocol":0,"map":"","folder":"","game":"","app_id":0,"player_count":0,"max_players":0,"Bots":0,"server_type":"","server_os":"","password":false,"vac":false,"version":"","steam_id":0,"keywords":null,"game_id":0,"stv_port":0,"stv_name":"","players":null},{"server_id":13,"name":"Uncletopia | New York City | 1 | All Maps","name_short":"nyc-1","host":"nyc-1.us.uncletopia.com","port":27015,"enabled":true,"region":"us-east","cc":"us","latitude":40.73061,"longitude":-73.93524,"reserved":0,"last_update":"0001-01-01T00:00:00Z","name_a2s":"Uncletopia | New York City | 1 | All Maps","protocol":17,"map":"pl_upward","folder":"tf","game":"Team Fortress","app_id":440,"player_count":24,"max_players":24,"Bots":0,"server_type":"Dedicated","server_os":"Linux","password":true,"vac":true,"version":"7961495","steam_id":85568392924469993,"keywords":["nocrits","nodmgspread","payload","uncletopia"],"game_id":440,"stv_port":27016,"stv_name":"Uncletopia | New York City | 1 | All Maps | STV","players":[{"user_id":482,"name":"Umme","steam_id":76561198053809566,"connected_time":3707000000000,"state":"active","ping":147},{"user_id":528,"name":"playguy carter","steam_id":76561198080679337,"connected_time":114000000000,"state":"active","ping":67},{"user_id":515,"name":"Gkost","steam_id":76561198045553992,"connected_time":1203000000000,"state":"active","ping":147},{"user_id":495,"name":"there is no username","steam_id":76561198119512476,"connected_time":2801000000000,"state":"active","ping":129},{"user_id":512,"name":"Wiggs is the Shiggs","steam_id":76561198078379719,"connected_time":1800000000000,"state":"active","ping":128},{"user_id":506,"name":"MitcheyHD","steam_id":76561198066489645,"connected_time":2158000000000,"state":"active","ping":59},{"user_id":523,"name":"kikikikoboy","steam_id":76561198073380271,"connected_time":535000000000,"state":"active","ping":69},{"user_id":493,"name":"Samrizo el Chorizo","steam_id":76561198009838162,"connected_time":2950000000000,"state":"active","ping":53},{"user_id":518,"name":"Yoyo","steam_id":76561199000583700,"connected_time":828000000000,"state":"active","ping":55},{"user_id":507,"name":"ndvr","steam_id":76561199379200102,"connected_time":2137000000000,"state":"active","ping":50},{"user_id":519,"name":"substance","steam_id":76561198050103868,"connected_time":777000000000,"state":"active","ping":108},{"user_id":504,"name":"Raisincineroar","steam_id":76561198116295334,"connected_time":2341000000000,"state":"active","ping":52},{"user_id":520,"name":"super vegina","steam_id":76561198084640201,"connected_time":761000000000,"state":"active","ping":53},{"user_id":468,"name":"Alejandro","steam_id":76561197970051493,"connected_time":4067000000000,"state":"active","ping":114},{"user_id":462,"name":"Saac Mann","steam_id":76561198991649853,"connected_time":4971000000000,"state":"active","ping":40},{"user_id":465,"name":"87987974","steam_id":76561198046948758,"connected_time":4251000000000,"state":"active","ping":58},{"user_id":516,"name":"guy","steam_id":76561198079925551,"connected_time":958000000000,"state":"active","ping":46},{"user_id":521,"name":"yesoko","steam_id":76561198072917024,"connected_time":756000000000,"state":"active","ping":71},{"user_id":522,"name":"Ludcmorais","steam_id":76561198359217809,"connected_time":712000000000,"state":"active","ping":175},{"user_id":508,"name":"RedBaron","steam_id":76561198972426107,"connected_time":2119000000000,"state":"active","ping":47},{"user_id":509,"name":"CuteMute","steam_id":76561198129350184,"connected_time":2086000000000,"state":"active","ping":61},{"user_id":524,"name":"speck","steam_id":76561198147107736,"connected_time":509000000000,"state":"active","ping":60},{"user_id":527,"name":"cajun","steam_id":76561198069380992,"connected_time":352000000000,"state":"active","ping":82},{"user_id":503,"name":"WitheringLeo","steam_id":76561198046722918,"connected_time":2413000000000,"state":"active","ping":73}]},{"server_id":14,"name":"Uncletopia | New York City | 2 | All Maps","name_short":"nyc-2","host":"nyc-1.us.uncletopia.com","port":27025,"enabled":true,"region":"us-east","cc":"us","latitude":40.73061,"longitude":-73.93524,"reserved":0,"last_update":"0001-01-01T00:00:00Z","name_a2s":"Uncletopia | New York City | 2 | All Maps","protocol":17,"map":"pl_swiftwater_final1","folder":"tf","game":"Team Fortress","app_id":440,"player_count":3,"max_players":24,"Bots":0,"server_type":"Dedicated","server_os":"Linux","password":true,"vac":true,"version":"7961495","steam_id":85568392924469994,"keywords":["nocrits","nodmgspread","payload","uncletopia"],"game_id":440,"stv_port":27026,"stv_name":"Uncletopia | New York City | 2 | All Maps | STV","players":[{"user_id":519,"name":"Abunchoftrash","steam_id":76561198984368148,"connected_time":17000000000,"state":"spawning","ping":104},{"user_id":515,"name":"Manny Heffley","steam_id":76561198135137213,"connected_time":296000000000,"state":"active","ping":72},{"user_id":516,"name":"kim wexler","steam_id":76561199199795741,"connected_time":279000000000,"state":"active","ping":89}]},{"server_id":15,"name":"Uncletopia | New York City | 3 | Stopwatch","name_short":"nyc-3","host":"nyc-1.us.uncletopia.com","port":27035,"enabled":true,"region":"us-east","cc":"us","latitude":40.73061,"longitude":-73.93524,"reserved":0,"last_update":"0001-01-01T00:00:00Z","name_a2s":"Uncletopia | New York City | 3 | Stopwatch","protocol":17,"map":"pl_borneo","folder":"tf","game":"Team Fortress","app_id":440,"player_count":0,"max_players":24,"Bots":0,"server_type":"Dedicated","server_os":"Linux","password":true,"vac":true,"version":"7961495","steam_id":85568392924742820,"keywords":["nocrits","nodmgspread","payload","uncletopia"],"game_id":440,"stv_port":27036,"stv_name":"Uncletopia | New York City | 3 | Stopwatch | STV","players":null},{"server_id":16,"name":"Uncletopia | New York City | 4 | Community","name_short":"nyc-4","host":"nyc-1.us.uncletopia.com","port":27045,"enabled":true,"region":"us-east","cc":"us","latitude":40.73061,"longitude":-73.93524,"reserved":0,"last_update":"0001-01-01T00:00:00Z","name_a2s":"Uncletopia | New York City | 4 | Community","protocol":17,"map":"workshop/koth_ramjam_rc1.ugc459778887","folder":"tf","game":"Team Fortress","app_id":440,"player_count":0,"max_players":24,"Bots":0,"server_type":"Dedicated","server_os":"Linux","password":true,"vac":true,"version":"7961495","steam_id":85568392924742821,"keywords":["cp","nocrits","nodmgspread","uncletopia"],"game_id":440,"stv_port":27046,"stv_name":"Uncletopia | New York City | 4 | Community | STV","players":null},{"server_id":142,"name":"Uncletopia | São Paulo | 1 | All Maps","name_short":"sao-1","host":"sao-1.br.uncletopia.com","port":27015,"enabled":true,"region":"sa","cc":"br","latitude":-23.533773,"longitude":-46.62529,"reserved":0,"last_update":"0001-01-01T00:00:00Z","name_a2s":"Uncletopia | São Paulo | 1 | All Maps","protocol":17,"map":"pl_swiftwater_final1","folder":"tf","game":"Team Fortress","app_id":440,"player_count":0,"max_players":24,"Bots":0,"server_type":"Dedicated","server_os":"Linux","password":true,"vac":true,"version":"7961495","steam_id":85568392924469996,"keywords":["nocrits","nodmgspread","payload","uncletopia"],"game_id":440,"stv_port":27016,"stv_name":"Uncletopia | São Paulo | 1 | All Maps | STV","players":null},{"server_id":143,"name":"Uncletopia | São Paulo | 2 | Community","name_short":"sao-2","host":"sao-2.br.uncletopia.com","port":27015,"enabled":true,"region":"sa","cc":"br","latitude":-23.533773,"longitude":-46.62529,"reserved":0,"last_update":"0001-01-01T00:00:00Z","name_a2s":"Uncletopia | São Paulo | 2 | Community","protocol":17,"map":"workshop/koth_product_final.ugc454272353","folder":"tf","game":"Team Fortress","app_id":440,"player_count":0,"max_players":24,"Bots":0,"server_type":"Dedicated","server_os":"Linux","password":true,"vac":true,"version":"7961495","steam_id":85568392924485349,"keywords":["cp","nocrits","nodmgspread","uncletopia"],"game_id":440,"stv_port":27016,"stv_name":"Uncletopia | São Paulo | 2 | Community | STV","players":null},{"server_id":7,"name":"Uncletopia | Seattle | 1 | All Maps","name_short":"sea-1","host":"sea-1.us.uncletopia.com","port":27015,"enabled":true,"region":"us-west","cc":"us","latitude":47.608013,"longitude":-122.33517,"reserved":0,"last_update":"0001-01-01T00:00:00Z","name_a2s":"Uncletopia | Seattle | 1 | All Maps","protocol":17,"map":"pl_badwater","folder":"tf","game":"Team Fortress","app_id":440,"player_count":24,"max_players":24,"Bots":0,"server_type":"Dedicated","server_os":"Linux","password":true,"vac":true,"version":"7961495","steam_id":85568392924469997,"keywords":["nocrits","nodmgspread","payload","uncletopia"],"game_id":440,"stv_port":27016,"stv_name":"Uncletopia | Seattle | 1 | All Maps | STV","players":[{"user_id":474,"name":"snetry gun","steam_id":76561198045758072,"connected_time":4476000000000,"state":"active","ping":62},{"user_id":438,"name":"Ayayayayayahuasca","steam_id":76561199002906056,"connected_time":7845000000000,"state":"active","ping":48},{"user_id":482,"name":"ShiningForce","steam_id":76561198026039048,"connected_time":3321000000000,"state":"active","ping":58},{"user_id":492,"name":"Darkgigglemonster","steam_id":76561198870649125,"connected_time":2083000000000,"state":"active","ping":82},{"user_id":510,"name":"Sweets","steam_id":76561198998446307,"connected_time":335000000000,"state":"active","ping":70},{"user_id":503,"name":"jayeskae","steam_id":76561198144220801,"connected_time":1236000000000,"state":"active","ping":45},{"user_id":390,"name":"Sentry Gun (they/them)","steam_id":76561198060846419,"connected_time":12676000000000,"state":"active","ping":45},{"user_id":506,"name":"Shrimps","steam_id":76561198983016709,"connected_time":837000000000,"state":"active","ping":119},{"user_id":486,"name":"soup","steam_id":76561198043209046,"connected_time":2856000000000,"state":"active","ping":69},{"user_id":468,"name":"Whiskey","steam_id":76561198858154667,"connected_time":4777000000000,"state":"active","ping":76},{"user_id":499,"name":"Henchie!","steam_id":76561198047567464,"connected_time":1307000000000,"state":"active","ping":86},{"user_id":488,"name":"TROY","steam_id":76561197983852176,"connected_time":2847000000000,"state":"active","ping":75},{"user_id":500,"name":"Dog","steam_id":76561198041841128,"connected_time":1293000000000,"state":"active","ping":86},{"user_id":348,"name":"a familiar cat","steam_id":76561198080046542,"connected_time":16068000000000,"state":"active","ping":46},{"user_id":484,"name":"Haven","steam_id":76561198087584756,"connected_time":3123000000000,"state":"active","ping":60},{"user_id":473,"name":"the sneeze of 87","steam_id":76561198062451648,"connected_time":4507000000000,"state":"active","ping":91},{"user_id":456,"name":"Daz","steam_id":76561198041431938,"connected_time":6105000000000,"state":"active","ping":53},{"user_id":509,"name":"Username","steam_id":76561199033122306,"connected_time":612000000000,"state":"active","ping":155},{"user_id":489,"name":"Nom Skirrett","steam_id":76561198014600788,"connected_time":2841000000000,"state":"active","ping":66},{"user_id":368,"name":"ilun","steam_id":76561198042913843,"connected_time":14796000000000,"state":"active","ping":62},{"user_id":495,"name":"Luca","steam_id":76561198125087140,"connected_time":1602000000000,"state":"active","ping":46},{"user_id":511,"name":"rushy :))","steam_id":76561198065825165,"connected_time":179000000000,"state":"active","ping":101},{"user_id":467,"name":"Grassman (Cc)","steam_id":76561198026488532,"connected_time":4833000000000,"state":"active","ping":66},{"user_id":501,"name":"smeasly","steam_id":76561198028718812,"connected_time":1292000000000,"state":"active","ping":45}]},{"server_id":119,"name":"Uncletopia | Seattle | 2 | All Maps","name_short":"sea-2","host":"sea-1.us.uncletopia.com","port":27025,"enabled":true,"region":"us-west","cc":"us","latitude":47.608013,"longitude":-122.33517,"reserved":0,"last_update":"0001-01-01T00:00:00Z","name_a2s":"Uncletopia | Seattle | 2 | All Maps","protocol":17,"map":"koth_viaduct","folder":"tf","game":"Team Fortress","app_id":440,"player_count":24,"max_players":24,"Bots":0,"server_type":"Dedicated","server_os":"Linux","password":true,"vac":true,"version":"7961495","steam_id":85568392924469998,"keywords":["cp","nocrits","nodmgspread","uncletopia"],"game_id":440,"stv_port":27026,"stv_name":"Uncletopia | Seattle | 2 | All Maps | STV","players":[{"user_id":236,"name":"gender fluid IV","steam_id":76561198065662025,"connected_time":6594000000000,"state":"active","ping":61},{"user_id":314,"name":"Smuggley","steam_id":76561198078130271,"connected_time":397000000000,"state":"active","ping":85},{"user_id":315,"name":"TheBudderMan","steam_id":76561198282348324,"connected_time":268000000000,"state":"active","ping":40},{"user_id":303,"name":"Lily Thorn","steam_id":76561198305488625,"connected_time":1504000000000,"state":"active","ping":59},{"user_id":294,"name":"fun guy","steam_id":76561198326208931,"connected_time":2331000000000,"state":"active","ping":50},{"user_id":312,"name":"Jest","steam_id":76561198170173062,"connected_time":664000000000,"state":"active","ping":78},{"user_id":307,"name":"Villchip","steam_id":76561198198599982,"connected_time":989000000000,"state":"active","ping":50},{"user_id":313,"name":"mmmBoyo","steam_id":76561198821360261,"connected_time":448000000000,"state":"active","ping":42},{"user_id":255,"name":"duddlee","steam_id":76561198030052564,"connected_time":4833000000000,"state":"active","ping":58},{"user_id":283,"name":"GalaxyDoug32","steam_id":76561197997126305,"connected_time":3629000000000,"state":"active","ping":62},{"user_id":308,"name":"AllThisDesignerGotMeDripDrip","steam_id":76561198113427343,"connected_time":978000000000,"state":"active","ping":88},{"user_id":185,"name":"Supersonic","steam_id":76561198042167127,"connected_time":10661000000000,"state":"active","ping":58},{"user_id":309,"name":"for eel? on cod? no carp?","steam_id":76561198095121758,"connected_time":977000000000,"state":"active","ping":79},{"user_id":301,"name":"Jeffery","steam_id":76561198352805460,"connected_time":2063000000000,"state":"active","ping":55},{"user_id":291,"name":"MyMonkeyBaby","steam_id":76561198046896670,"connected_time":2566000000000,"state":"active","ping":45},{"user_id":278,"name":"tf2bot","steam_id":76561199016742478,"connected_time":3821000000000,"state":"active","ping":76},{"user_id":316,"name":"Tsunami","steam_id":76561198097188001,"connected_time":264000000000,"state":"active","ping":46},{"user_id":271,"name":"goofy goober","steam_id":76561199024079388,"connected_time":4474000000000,"state":"active","ping":48},{"user_id":317,"name":"XxSquidwardxX","steam_id":76561198294455367,"connected_time":97000000000,"state":"active","ping":114},{"user_id":302,"name":"Keamy","steam_id":76561199471434875,"connected_time":1572000000000,"state":"active","ping":45},{"user_id":284,"name":"mo wangs","steam_id":76561198045992418,"connected_time":3609000000000,"state":"active","ping":61},{"user_id":299,"name":"bogdagod","steam_id":76561198286968297,"connected_time":2228000000000,"state":"active","ping":50},{"user_id":310,"name":"cracky","steam_id":76561197971365444,"connected_time":969000000000,"state":"active","ping":37},{"user_id":306,"name":"collector's pest","steam_id":76561198170402666,"connected_time":1053000000000,"state":"active","ping":73}]},{"server_id":406,"name":"Uncletopia | Seattle | 3 | Stopwatch","name_short":"sea-3","host":"sea-1.us.uncletopia.com","port":27035,"enabled":true,"region":"us-west","cc":"us","latitude":47.608013,"longitude":-122.33517,"reserved":0,"last_update":"0001-01-01T00:00:00Z","name_a2s":"Uncletopia | Seattle | 3 | Stopwatch","protocol":17,"map":"workshop/koth_ashville_final.ugc2130459942","folder":"tf","game":"Team Fortress","app_id":440,"player_count":0,"max_players":24,"Bots":0,"server_type":"Dedicated","server_os":"Linux","password":true,"vac":true,"version":"7961495","steam_id":85568392924515217,"keywords":["cp","nocrits","nodmgspread","uncletopia"],"game_id":440,"stv_port":27036,"stv_name":"Uncletopia | Seattle | 3 | Stopwatch | STV","players":null},{"server_id":17,"name":"Uncletopia | San Francisco | 1 | All Maps","name_short":"sfo-1","host":"sfo-1.us.uncletopia.com","port":27015,"enabled":true,"region":"us-west","cc":"us","latitude":37.77397,"longitude":-122.4313,"reserved":0,"last_update":"0001-01-01T00:00:00Z","name_a2s":"Uncletopia | San Francisco | 1 | All Maps","protocol":17,"map":"pl_barnblitz","folder":"tf","game":"Team Fortress","app_id":440,"player_count":0,"max_players":24,"Bots":0,"server_type":"Dedicated","server_os":"Linux","password":true,"vac":true,"version":"7961495","steam_id":85568392924469999,"keywords":["nocrits","nodmgspread","payload","uncletopia"],"game_id":440,"stv_port":27016,"stv_name":"Uncletopia | San Francisco | 1 | All Maps | STV","players":null},{"server_id":18,"name":"Uncletopia | San Francisco | 2 | All Maps","name_short":"sfo-2","host":"sfo-1.us.uncletopia.com","port":27025,"enabled":true,"region":"us-west","cc":"us","latitude":37.77397,"longitude":-122.4313,"reserved":0,"last_update":"0001-01-01T00:00:00Z","name_a2s":"Uncletopia | San Francisco | 2 | All Maps","protocol":17,"map":"koth_lakeside_final","folder":"tf","game":"Team Fortress","app_id":440,"player_count":24,"max_players":24,"Bots":0,"server_type":"Dedicated","server_os":"Linux","password":true,"vac":true,"version":"7961495","steam_id":85568392924470000,"keywords":["cp","nocrits","nodmgspread","uncletopia"],"game_id":440,"stv_port":27026,"stv_name":"Uncletopia | San Francisco | 2 | All Maps | STV","players":[{"user_id":198,"name":"Be Gay, Do Crimes, Smoke Weed!","steam_id":76561198092419868,"connected_time":2416000000000,"state":"active","ping":83},{"user_id":199,"name":"creepy crawling critter","steam_id":76561198348656531,"connected_time":2298000000000,"state":"active","ping":59},{"user_id":231,"name":"Jaidezt","steam_id":76561197972613110,"connected_time":1503000000000,"state":"active","ping":70},{"user_id":233,"name":"Gramseal","steam_id":76561198181906333,"connected_time":1452000000000,"state":"active","ping":55},{"user_id":192,"name":"Drone #0432 (they/it)","steam_id":76561198027321950,"connected_time":2781000000000,"state":"active","ping":83},{"user_id":203,"name":"thedeadlyamoeba","steam_id":76561198040810178,"connected_time":2199000000000,"state":"active","ping":74},{"user_id":204,"name":"Lambchop","steam_id":76561198043900363,"connected_time":2199000000000,"state":"active","ping":58},{"user_id":205,"name":"Paranoid_Manatee","steam_id":76561198068623572,"connected_time":2193000000000,"state":"active","ping":79},{"user_id":234,"name":"Tomoscones","steam_id":76561198813586588,"connected_time":1444000000000,"state":"active","ping":56},{"user_id":245,"name":"KitKat (1.2k Hours, Still Trash","steam_id":76561198191536489,"connected_time":519000000000,"state":"active","ping":69},{"user_id":211,"name":"Lummock","steam_id":76561199099083114,"connected_time":2047000000000,"state":"active","ping":78},{"user_id":242,"name":"Sadodere Grimace","steam_id":76561198008332028,"connected_time":945000000000,"state":"active","ping":62},{"user_id":220,"name":"vertice","steam_id":76561199117182718,"connected_time":1927000000000,"state":"active","ping":61},{"user_id":246,"name":"Ya_Boi_Clapitao","steam_id":76561198274969584,"connected_time":454000000000,"state":"active","ping":104},{"user_id":215,"name":"otakugamer","steam_id":76561198278801899,"connected_time":2030000000000,"state":"active","ping":122},{"user_id":216,"name":"Captain Buggy","steam_id":76561198024444448,"connected_time":1994000000000,"state":"active","ping":69},{"user_id":236,"name":"Livin' Like Larry","steam_id":76561198313360974,"connected_time":1415000000000,"state":"active","ping":37},{"user_id":225,"name":"Jcc989","steam_id":76561198443682389,"connected_time":1661000000000,"state":"active","ping":60},{"user_id":226,"name":"Revolverheld","steam_id":76561199186726297,"connected_time":1620000000000,"state":"active","ping":76},{"user_id":244,"name":"Hongy","steam_id":76561198012448846,"connected_time":590000000000,"state":"active","ping":77},{"user_id":243,"name":"Schmupp","steam_id":76561198150928115,"connected_time":921000000000,"state":"active","ping":50},{"user_id":230,"name":"omugai_","steam_id":76561198086481768,"connected_time":1571000000000,"state":"active","ping":45},{"user_id":238,"name":"Acuzik","steam_id":76561198045453400,"connected_time":1377000000000,"state":"active","ping":106},{"user_id":239,"name":"Braingoo Hex","steam_id":76561198083094783,"connected_time":1368000000000,"state":"active","ping":116}]},{"server_id":19,"name":"Uncletopia | San Francisco | 3 | Stopwatch","name_short":"sfo-3","host":"sfo-1.us.uncletopia.com","port":27035,"enabled":true,"region":"us-west","cc":"us","latitude":37.77397,"longitude":-122.4313,"reserved":0,"last_update":"0001-01-01T00:00:00Z","name_a2s":"Uncletopia | San Francisco | 3 | Stopwatch","protocol":17,"map":"workshop/pl_barnblitz_pro7.ugc582280235","folder":"tf","game":"Team Fortress","app_id":440,"player_count":0,"max_players":24,"Bots":0,"server_type":"Dedicated","server_os":"Linux","password":true,"vac":true,"version":"7961495","steam_id":85568392924742824,"keywords":["nocrits","nodmgspread","payload","uncletopia"],"game_id":440,"stv_port":27036,"stv_name":"Uncletopia | San Francisco | 3 | Stopwatch | STV","players":null},{"server_id":20,"name":"Uncletopia | San Francisco | 4 | Community","name_short":"sfo-4","host":"sfo-1.us.uncletopia.com","port":27045,"enabled":true,"region":"us-west","cc":"us","latitude":37.77397,"longitude":-122.4313,"reserved":0,"last_update":"0001-01-01T00:00:00Z","name_a2s":"Uncletopia | San Francisco | 4 | Community","protocol":17,"map":"workshop/koth_bagel_rc6.ugc2514036946","folder":"tf","game":"Team Fortress","app_id":440,"player_count":0,"max_players":24,"Bots":0,"server_type":"Dedicated","server_os":"Linux","password":true,"vac":true,"version":"7961495","steam_id":85568392924742826,"keywords":["cp","nocrits","nodmgspread","uncletopia"],"game_id":440,"stv_port":27046,"stv_name":"Uncletopia | San Francisco | 4 | Community | STV","players":null},{"server_id":141,"name":"Uncletopia | Sydney | 1 | All Maps","name_short":"syd-1","host":"syd-1.au.uncletopia.com","port":27015,"enabled":true,"region":"au","cc":"au","latitude":-33.865143,"longitude":151.2099,"reserved":0,"last_update":"0001-01-01T00:00:00Z","name_a2s":"Uncletopia | Sydney | 1 | All Maps","protocol":17,"map":"koth_suijin","folder":"tf","game":"Team Fortress","app_id":440,"player_count":0,"max_players":24,"Bots":0,"server_type":"Dedicated","server_os":"Linux","password":true,"vac":true,"version":"7961495","steam_id":85568392924470001,"keywords":["cp","nocrits","nodmgspread","uncletopia"],"game_id":440,"stv_port":27016,"stv_name":"Uncletopia | Sydney | 1 | All Maps | STV","players":null},{"server_id":123,"name":"Uncletopia | Sydney | 2 | All Maps","name_short":"syd-2","host":"syd-1.au.uncletopia.com","port":27025,"enabled":true,"region":"au","cc":"au","latitude":-33.865143,"longitude":151.2099,"reserved":0,"last_update":"0001-01-01T00:00:00Z","name_a2s":"Uncletopia | Sydney | 2 | All Maps","protocol":17,"map":"koth_lakeside_final","folder":"tf","game":"Team Fortress","app_id":440,"player_count":0,"max_players":24,"Bots":0,"server_type":"Dedicated","server_os":"Linux","password":true,"vac":true,"version":"7961495","steam_id":85568392924470002,"keywords":["cp","nocrits","nodmgspread","uncletopia"],"game_id":440,"stv_port":27026,"stv_name":"Uncletopia | Sydney | 2 | All Maps | STV","players":null},{"server_id":395,"name":"Uncletopia | Sydney | 3 | All Maps","name_short":"syd-3","host":"syd-1.au.uncletopia.com","port":27035,"enabled":true,"region":"au","cc":"au","latitude":-33.865143,"longitude":151.2099,"reserved":0,"last_update":"0001-01-01T00:00:00Z","name_a2s":"Uncletopia | Sydney | 3 | All Maps","protocol":17,"map":"pl_upward","folder":"tf","game":"Team Fortress","app_id":440,"player_count":0,"max_players":24,"Bots":0,"server_type":"Dedicated","server_os":"Linux","password":true,"vac":true,"version":"7961495","steam_id":85568392925194467,"keywords":["nocrits","nodmgspread","payload","uncletopia"],"game_id":440,"stv_port":27036,"stv_name":"Uncletopia | Sydney | 3 | All Maps | STV","players":null},{"server_id":396,"name":"Uncletopia | Sydney | 4 | All Maps","name_short":"syd-4","host":"syd-1.au.uncletopia.com","port":27045,"enabled":true,"region":"au","cc":"au","latitude":-33.865143,"longitude":151.2099,"reserved":0,"last_update":"0001-01-01T00:00:00Z","name_a2s":"Uncletopia | Sydney | 4 | All Maps","protocol":17,"map":"koth_highpass","folder":"tf","game":"Team Fortress","app_id":440,"player_count":0,"max_players":24,"Bots":0,"server_type":"Dedicated","server_os":"Linux","password":true,"vac":true,"version":"7961495","steam_id":85568392925397958,"keywords":["cp","nocrits","nodmgspread","uncletopia"],"game_id":440,"stv_port":27046,"stv_name":"Uncletopia | Sydney | 4 | All Maps | STV","players":null},{"server_id":58,"name":"Uncletopia | Sydney | 5 | Stopwatch","name_short":"syd-5","host":"syd-1.au.uncletopia.com","port":27055,"enabled":true,"region":"au","cc":"au","latitude":-33.865143,"longitude":151.2099,"reserved":0,"last_update":"0001-01-01T00:00:00Z","name_a2s":"Uncletopia | Sydney | 5 | Stopwatch","protocol":17,"map":"pl_frontier_final","folder":"tf","game":"Team Fortress","app_id":440,"player_count":0,"max_players":24,"Bots":0,"server_type":"Dedicated","server_os":"Linux","password":true,"vac":true,"version":"7961495","steam_id":85568392925397959,"keywords":["nocrits","nodmgspread","payload","uncletopia"],"game_id":440,"stv_port":27056,"stv_name":"Uncletopia | Sydney | 5 | Stopwatch | STV","players":null},{"server_id":59,"name":"Uncletopia | Sydney | 6 | Community","name_short":"syd-6","host":"syd-1.au.uncletopia.com","port":27065,"enabled":true,"region":"au","cc":"au","latitude":-33.865143,"longitude":151.2099,"reserved":0,"last_update":"0001-01-01T00:00:00Z","name_a2s":"Uncletopia | Sydney | 6 | Community","protocol":17,"map":"cp_sunshine","folder":"tf","game":"Team Fortress","app_id":440,"player_count":0,"max_players":24,"Bots":0,"server_type":"Dedicated","server_os":"Linux","password":true,"vac":true,"version":"7961495","steam_id":85568392925397960,"keywords":["cp","nocrits","nodmgspread","uncletopia"],"game_id":440,"stv_port":27066,"stv_name":"Uncletopia | Sydney | 6 | Community | STV","players":null},{"server_id":49,"name":"Uncletopia | Warsaw | 1 | One Thousand Uncles","name_short":"waw-1","host":"waw-1.pl.uncletopia.com","port":27015,"enabled":true,"region":"eu","cc":"pl","latitude":52.2297,"longitude":21.017532,"reserved":0,"last_update":"0001-01-01T00:00:00Z","name_a2s":"Uncletopia | Warsaw | 1 | One Thousand Uncles","protocol":17,"map":"koth_highpass","folder":"tf","game":"Team Fortress","app_id":440,"player_count":0,"max_players":32,"Bots":0,"server_type":"Dedicated","server_os":"Linux","password":true,"vac":true,"version":"7961495","steam_id":85568392925397850,"keywords":["alltalk","cp","danepve","increased_maxplayers","nocrits","norespawntime","uncletopia"],"game_id":440,"stv_port":0,"stv_name":"","players":null},{"server_id":50,"name":"Uncletopia | Warsaw | 2 | One Thousand Uncles","name_short":"waw-2","host":"waw-1.pl.uncletopia.com","port":27025,"enabled":true,"region":"eu","cc":"pl","latitude":52.2297,"longitude":21.017532,"reserved":0,"last_update":"0001-01-01T00:00:00Z","name_a2s":"Uncletopia | Warsaw | 2 | One Thousand Uncles","protocol":17,"map":"pl_goldrush","folder":"tf","game":"Team Fortress","app_id":440,"player_count":0,"max_players":32,"Bots":0,"server_type":"Dedicated","server_os":"Linux","password":true,"vac":true,"version":"7961495","steam_id":85568392925397851,"keywords":["alltalk","danepve","increased_maxplayers","nocrits","norespawntime","payload","uncletopia"],"game_id":440,"stv_port":0,"stv_name":"","players":null},{"server_id":51,"name":"Uncletopia | Warsaw | 3 | All Maps","name_short":"waw-3","host":"waw-1.pl.uncletopia.com","port":27035,"enabled":true,"region":"eu","cc":"pl","latitude":52.2297,"longitude":21.017532,"reserved":0,"last_update":"0001-01-01T00:00:00Z","name_a2s":"Uncletopia | Warsaw | 3 | All Maps","protocol":17,"map":"plr_pipeline","folder":"tf","game":"Team Fortress","app_id":440,"player_count":0,"max_players":24,"Bots":0,"server_type":"Dedicated","server_os":"Linux","password":true,"vac":true,"version":"7961495","steam_id":85568392925397852,"keywords":["nocrits","nodmgspread","payload","uncletopia"],"game_id":440,"stv_port":27036,"stv_name":"Uncletopia | Warsaw | 3 | All Maps | STV","players":null},{"server_id":52,"name":"Uncletopia | Warsaw | 4 | All Maps","name_short":"waw-4","host":"waw-1.pl.uncletopia.com","port":27045,"enabled":true,"region":"eu","cc":"pl","latitude":52.2297,"longitude":21.017532,"reserved":0,"last_update":"0001-01-01T00:00:00Z","name_a2s":"Uncletopia | Warsaw | 4 | All Maps","protocol":17,"map":"cp_coldfront","folder":"tf","game":"Team Fortress","app_id":440,"player_count":0,"max_players":24,"Bots":0,"server_type":"Dedicated","server_os":"Linux","password":true,"vac":true,"version":"7961495","steam_id":85568392925397853,"keywords":["cp","nocrits","nodmgspread","uncletopia"],"game_id":440,"stv_port":27046,"stv_name":"Uncletopia | Warsaw | 4 | All Maps | STV","players":null},{"server_id":53,"name":"Uncletopia | Warsaw | 5 | Stopwatch","name_short":"waw-5","host":"waw-1.pl.uncletopia.com","port":27055,"enabled":true,"region":"eu","cc":"pl","latitude":52.2297,"longitude":21.017532,"reserved":0,"last_update":"0001-01-01T00:00:00Z","name_a2s":"Uncletopia | Warsaw | 5 | Stopwatch","protocol":17,"map":"workshop/koth_bagel_rc6.ugc2514036946","folder":"tf","game":"Team Fortress","app_id":440,"player_count":0,"max_players":24,"Bots":0,"server_type":"Dedicated","server_os":"Linux","password":true,"vac":true,"version":"7961495","steam_id":85568392925397854,"keywords":["cp","nocrits","nodmgspread","uncletopia"],"game_id":440,"stv_port":27056,"stv_name":"Uncletopia | Warsaw | 5 | Stopwatch | STV","players":null},{"server_id":54,"name":"Uncletopia | Warsaw | 6 | Community","name_short":"waw-6","host":"waw-1.pl.uncletopia.com","port":27065,"enabled":true,"region":"eu","cc":"pl","latitude":52.2297,"longitude":21.017532,"reserved":0,"last_update":"0001-01-01T00:00:00Z","name_a2s":"Uncletopia | Warsaw | 6 | Community","protocol":17,"map":"workshop/pl_badwater_pro_v12.ugc2142942074","folder":"tf","game":"Team Fortress","app_id":440,"player_count":0,"max_players":24,"Bots":0,"server_type":"Dedicated","server_os":"Linux","password":true,"vac":true,"version":"7961495","steam_id":85568392925397856,"keywords":["nocrits","nodmgspread","payload","uncletopia"],"game_id":440,"stv_port":27066,"stv_name":"Uncletopia | Warsaw | 6 | Community | STV","players":null}]}