{"status":true,"message":"","result":[{"server_id":9,"name":"Uncletopia | Atlanta | 1 | All Maps","name_short":"atl-1","host":"atl-1.us.uncletopia.com","port":27015,"enabled":true,"region":"us-east","cc":"us","latitude":33.753746,"longitude":-84.38633,"reserved":0,"last_update":"0001-01-01T00:00:00Z","name_a2s":"Uncletopia | Atlanta | 1 | All Maps","protocol":17,"map":"cp_snakewater_final1","folder":"tf","game":"Team Fortress","app_id":440,"player_count":24,"max_players":24,"Bots":0,"server_type":"Dedicated","server_os":"Linux","password":true,"vac":true,"version":"7757534","steam_id":85568392924469982,"keywords":["cp","nocrits","nodmgspread","uncletopia"],"game_id":440,"stv_port":27016,"stv_name":"Uncletopia | Atlanta | 1 | All Maps | STV","players":[{"user_id":145,"name":"Assitins","steam_id":76561198041572892,"connected_time":973000000000,"state":"active","ping":71},{"user_id":143,"name":"RED1 | vid_","steam_id":76561198065159053,"connected_time":1025000000000,"state":"active","ping":51},{"user_id":134,"name":"mos","steam_id":76561198146126212,"connected_time":1754000000000,"state":"active","ping":59},{"user_id":135,"name":"IPlayGamez","steam_id":76561198041387508,"connected_time":1743000000000,"state":"active","ping":53},{"user_id":153,"name":"tavi","steam_id":76561198050192689,"connected_time":867000000000,"state":"active","ping":108},{"user_id":86,"name":"catboy phroliax","steam_id":76561198207075529,"connected_time":5373000000000,"state":"active","ping":83},{"user_id":121,"name":"Plo","steam_id":76561198080689959,"connected_time":2846000000000,"state":"active","ping":79},{"user_id":136,"name":"noah","steam_id":76561198140305002,"connected_time":1735000000000,"state":"active","ping":88},{"user_id":146,"name":"Tychini","steam_id":76561198116915706,"connected_time":970000000000,"state":"active","ping":82},{"user_id":113,"name":"Tennis Ball","steam_id":76561198156746320,"connected_time":3102000000000,"state":"active","ping":85},{"user_id":142,"name":"Ape","steam_id":76561199105321535,"connected_time":1530000000000,"state":"active","ping":64},{"user_id":152,"name":"Cooki","steam_id":76561198051705314,"connected_time":913000000000,"state":"active","ping":92},{"user_id":137,"name":"TheMightyWoz","steam_id":76561198428397322,"connected_time":1676000000000,"state":"active","ping":129},{"user_id":128,"name":"i wish i were a bird","steam_id":76561199224976982,"connected_time":2606000000000,"state":"active","ping":55},{"user_id":130,"name":"Mage","steam_id":76561198285026879,"connected_time":1945000000000,"state":"active","ping":87},{"user_id":148,"name":"Towns","steam_id":76561198984662863,"connected_time":944000000000,"state":"active","ping":77},{"user_id":144,"name":"Spy_Is_Pye","steam_id":76561199439622967,"connected_time":1003000000000,"state":"active","ping":82},{"user_id":123,"name":"SuperFresh","steam_id":76561198200723198,"connected_time":2773000000000,"state":"active","ping":52},{"user_id":154,"name":"Botl","steam_id":76561198359799727,"connected_time":254000000000,"state":"active","ping":87},{"user_id":138,"name":"Venny","steam_id":76561198422066161,"connected_time":1622000000000,"state":"active","ping":60},{"user_id":139,"name":"ELO oak","steam_id":76561198092135570,"connected_time":1600000000000,"state":"active","ping":60},{"user_id":151,"name":"FreonAddict9x19","steam_id":76561198060010824,"connected_time":918000000000,"state":"active","ping":72},{"user_id":156,"name":"bob gnarly","steam_id":76561198300270056,"connected_time":72000000000,"state":"active","ping":75},{"user_id":141,"name":"ATL1 | Kramer","steam_id":76561198083595936,"connected_time":1589000000000,"state":"active","ping":74}]},{"server_id":400,"name":"Uncletopia | Atlanta | 3 | Stopwatch Beta","name_short":"atl-3","host":"atl-1.us.uncletopia.com","port":27035,"enabled":true,"region":"us-east","cc":"us","latitude":33.753746,"longitude":-84.38633,"reserved":0,"last_update":"0001-01-01T00:00:00Z","name_a2s":"Uncletopia | Atlanta | 3 | Stopwatch Beta","protocol":17,"map":"pl_upward","folder":"tf","game":"Team Fortress","app_id":440,"player_count":0,"max_players":24,"Bots":0,"server_type":"Dedicated","server_os":"Linux","password":true,"vac":true,"version":"7757534","steam_id":85568392924515187,"keywords":["nocrits","nodmgspread","payload","uncletopia"],"game_id":440,"stv_port":27036,"stv_name":"Uncletopia | Atlanta | 3 | Stopwatch Beta | STV","players":null},{"server_id":401,"name":"Uncletopia | Atlanta | 4 | No Payload","name_short":"atl-4","host":"atl-1.us.uncletopia.com","port":27045,"enabled":true,"region":"us-east","cc":"us","latitude":33.753746,"longitude":-84.38633,"reserved":0,"last_update":"0001-01-01T00:00:00Z","name_a2s":"Uncletopia | Atlanta | 4 | No Payload","protocol":17,"map":"pl_pier","folder":"tf","game":"Team Fortress","app_id":440,"player_count":0,"max_players":24,"Bots":0,"server_type":"Dedicated","server_os":"Linux","password":true,"vac":true,"version":"7723704","steam_id":85568392924515188,"keywords":["nocrits","nodmgspread","payload","uncletopia"],"game_id":440,"stv_port":27046,"stv_name":"Uncletopia | Atlanta | 4 | No Payload | STV","players":null},{"server_id":2,"name":"Uncletopia | Chicago | 1 | All Maps","name_short":"chi-1","host":"chi-1.us.uncletopia.com","port":27015,"enabled":true,"region":"us-central","cc":"us","latitude":41.881832,"longitude":-87.62318,"reserved":0,"last_update":"0001-01-01T00:00:00Z","name_a2s":"Uncletopia | Chicago | 1 | All Maps","protocol":17,"map":"pl_upward","folder":"tf","game":"Team Fortress","app_id":440,"player_count":24,"max_players":24,"Bots":0,"server_type":"Dedicated","server_os":"Linux","password":true,"vac":true,"version":"7757534","steam_id":85568392924469984,"keywords":["nocrits","nodmgspread","payload","uncletopia"],"game_id":440,"stv_port":27016,"stv_name":"Uncletopia | Chicago | 1 | All Maps | STV","players":[{"user_id":341,"name":"leumas","steam_id":76561198240408540,"connected_time":2161000000000,"state":"active","ping":74},{"user_id":317,"name":"hyuck","steam_id":76561198319990195,"connected_time":3948000000000,"state":"active","ping":92},{"user_id":335,"name":"yomommasabitch","steam_id":76561198323217150,"connected_time":2402000000000,"state":"active","ping":61},{"user_id":191,"name":"177013","steam_id":76561198072303290,"connected_time":17903000000000,"state":"active","ping":64},{"user_id":290,"name":"Choco","steam_id":76561198051146422,"connected_time":7535000000000,"state":"active","ping":69},{"user_id":318,"name":"Ex War Criminal","steam_id":76561198147006723,"connected_time":3840000000000,"state":"active","ping":105},{"user_id":358,"name":"Don't Fuckle with Shuckle","steam_id":76561199020102367,"connected_time":251000000000,"state":"active","ping":79},{"user_id":324,"name":"Sloppy Joe (Extra Sauce)","steam_id":76561198359703432,"connected_time":3362000000000,"state":"active","ping":91},{"user_id":278,"name":"Johns","steam_id":76561197998760371,"connected_time":9819000000000,"state":"active","ping":58},{"user_id":336,"name":"Dokkibai","steam_id":76561198355935693,"connected_time":2401000000000,"state":"active","ping":52},{"user_id":338,"name":"Quark","steam_id":76561198328155605,"connected_time":2320000000000,"state":"active","ping":56},{"user_id":327,"name":"Sam","steam_id":76561198146472900,"connected_time":3114000000000,"state":"active","ping":81},{"user_id":346,"name":"Furry Saul Goodman","steam_id":76561198069580305,"connected_time":1215000000000,"state":"active","ping":55},{"user_id":333,"name":"charm quark","steam_id":76561198098770777,"connected_time":2409000000000,"state":"active","ping":104},{"user_id":359,"name":"ShitsandGiggles‚Ñ¢","steam_id":76561198058708019,"connected_time":35000000000,"state":"active","ping":62},{"user_id":342,"name":"Ejaculation Zach","steam_id":76561198203765200,"connected_time":2044000000000,"state":"active","ping":65},{"user_id":174,"name":"[√òWQJ√ò]chubacaalatake","steam_id":76561198136201697,"connected_time":19663000000000,"state":"active","ping":149},{"user_id":354,"name":"Violet42","steam_id":76561198072927887,"connected_time":299000000000,"state":"active","ping":63},{"user_id":351,"name":"Jw. www.vaticancatholic.com","steam_id":76561198190170075,"connected_time":1114000000000,"state":"active","ping":65},{"user_id":352,"name":"lil bro","steam_id":76561198031675881,"connected_time":986000000000,"state":"active","ping":60},{"user_id":356,"name":"Ruusty","steam_id":76561198327249755,"connected_time":284000000000,"state":"active","ping":69},{"user_id":331,"name":"œ™.averted","steam_id":76561198067784310,"connected_time":3077000000000,"state":"active","ping":63},{"user_id":357,"name":"Laetrix","steam_id":76561198270000738,"connected_time":284000000000,"state":"active","ping":70},{"user_id":323,"name":"1920","steam_id":76561198111669774,"connected_time":3754000000000,"state":"active","ping":48}]},{"server_id":106,"name":"Uncletopia | Chicago | 2 | All Maps","name_short":"chi-2","host":"chi-1.us.uncletopia.com","port":27025,"enabled":true,"region":"us-central","cc":"us","latitude":41.881832,"longitude":-87.62318,"reserved":0,"last_update":"0001-01-01T00:00:00Z","name_a2s":"Uncletopia | Chicago | 2 | All Maps","protocol":17,"map":"koth_lakeside_final","folder":"tf","game":"Team Fortress","app_id":440,"player_count":0,"max_players":24,"Bots":0,"server_type":"Dedicated","server_os":"Linux","password":true,"vac":true,"version":"7757534","steam_id":85568392924469985,"keywords":["cp","nocrits","nodmgspread","uncletopia"],"game_id":440,"stv_port":27026,"stv_name":"Uncletopia | Chicago | 2 | All Maps | STV","players":null},{"server_id":402,"name":"Uncletopia | Chicago | 3 | All Maps","name_short":"chi-3","host":"chi-1.us.uncletopia.com","port":27035,"enabled":true,"region":"us-central","cc":"us","latitude":41.881832,"longitude":-87.62318,"reserved":0,"last_update":"0001-01-01T00:00:00Z","name_a2s":"Uncletopia | Chicago | 3 | All Maps","protocol":17,"map":"koth_cascade","folder":"tf","game":"Team Fortress","app_id":440,"player_count":0,"max_players":24,"Bots":0,"server_type":"Dedicated","server_os":"Linux","password":true,"vac":true,"version":"7757534","steam_id":85568392924515191,"keywords":["cp","nocrits","nodmgspread","uncletopia"],"game_id":440,"stv_port":27036,"stv_name":"Uncletopia | Chicago | 3 | All Maps | STV","players":null},{"server_id":403,"name":"Uncletopia | Chicago | 4 | All Maps","name_short":"chi-4","host":"chi-1.us.uncletopia.com","port":27045,"enabled":true,"region":"us-central","cc":"us","latitude":41.881832,"longitude":-87.62318,"reserved":0,"last_update":"0001-01-01T00:00:00Z","name_a2s":"Uncletopia | Chicago | 4 | All Maps","protocol":17,"map":"pl_upward","folder":"tf","game":"Team Fortress","app_id":440,"player_count":24,"max_players":24,"Bots":0,"server_type":"Dedicated","server_os":"Linux","password":true,"vac":true,"version":"7757534","steam_id":85568392924515193,"keywords":["nocrits","nodmgspread","payload","uncletopia"],"game_id":440,"stv_port":27046,"stv_name":"Uncletopia | Chicago | 4 | All Maps | STV","players":[{"user_id":352,"name":"SomeScuffedKid","steam_id":76561198086113234,"connected_time":1777000000000,"state":"active","ping":66},{"user_id":365,"name":"Warzard","steam_id":76561199154051413,"connected_time":594000000000,"state":"active","ping":114},{"user_id":340,"name":"cologne","steam_id":76561198069600113,"connected_time":2406000000000,"state":"active","ping":59},{"user_id":372,"name":"Viokik","steam_id":76561198408846602,"connected_time":385000000000,"state":"active","ping":70},{"user_id":363,"name":"NateDawg","steam_id":76561198085336835,"connected_time":762000000000,"state":"active","ping":84},{"user_id":367,"name":"Candy Sparkles","steam_id":76561198126871264,"connected_time":451000000000,"state":"active","ping":84},{"user_id":373,"name":"sevanial","steam_id":76561198071532126,"connected_time":234000000000,"state":"active","ping":60},{"user_id":368,"name":"gonk","steam_id":76561198061206732,"connected_time":444000000000,"state":"active","ping":82},{"user_id":337,"name":"ECCO","steam_id":76561198002821513,"connected_time":3001000000000,"state":"active","ping":79},{"user_id":369,"name":"Captain Red","steam_id":76561198191587983,"connected_time":435000000000,"state":"active","ping":77},{"user_id":358,"name":"My Pet Polar Bear","steam_id":76561198052902058,"connected_time":972000000000,"state":"active","ping":97},{"user_id":360,"name":"Dornz","steam_id":76561198055762034,"connected_time":941000000000,"state":"active","ping":62},{"user_id":330,"name":"AAAAAAAAAAAAAAAAAAAAAAAAAAAAAAA","steam_id":76561198817866879,"connected_time":3093000000000,"state":"active","ping":79},{"user_id":374,"name":"Freezing0K","steam_id":76561198142170847,"connected_time":198000000000,"state":"active","ping":100},{"user_id":332,"name":"hummus in my tummus","steam_id":76561199438698036,"connected_time":3084000000000,"state":"active","ping":65},{"user_id":221,"name":"Pennis the Menace","steam_id":76561198254878037,"connected_time":12341000000000,"state":"active","ping":70},{"user_id":298,"name":"„Ä£dust„Ä£ -she/her-","steam_id":76561198045218909,"connected_time":5541000000000,"state":"active","ping":89},{"user_id":354,"name":"Coupon","steam_id":76561198111947598,"connected_time":1611000000000,"state":"active","ping":79},{"user_id":370,"name":"Stock Medic","steam_id":76561198065479730,"connected_time":428000000000,"state":"active","ping":46},{"user_id":359,"name":"yopyop","steam_id":76561198034305343,"connected_time":949000000000,"state":"active","ping":76},{"user_id":371,"name":"McDamage","steam_id":76561198140571306,"connected_time":417000000000,"state":"active","ping":77},{"user_id":351,"name":"Cornflakes","steam_id":76561199151899684,"connected_time":1849000000000,"state":"active","ping":78},{"user_id":357,"name":"Albino Jellyfish","steam_id":76561198208561097,"connected_time":1573000000000,"state":"active","ping":71},{"user_id":246,"name":"Nnyllazxz","steam_id":76561198247797436,"connected_time":10020000000000,"state":"active","ping":84}]},{"server_id":36,"name":"Uncletopia | Chicago | 5 | All Maps","name_short":"chi-5","host":"chi-2.us.uncletopia.com","port":27015,"enabled":true,"region":"us-central","cc":"us","latitude":41.881832,"longitude":-87.62318,"reserved":0,"last_update":"0001-01-01T00:00:00Z","name_a2s":"Uncletopia | Chicago | 5 | All Maps","protocol":17,"map":"koth_cascade","folder":"tf","game":"Team Fortress","app_id":440,"player_count":0,"max_players":24,"Bots":0,"server_type":"Dedicated","server_os":"Linux","password":true,"vac":true,"version":"7757534","steam_id":85568392924866362,"keywords":["cp","nocrits","nodmgspread","uncletopia"],"game_id":440,"stv_port":27016,"stv_name":"Uncletopia | Chicago | 5 | All Maps | STV","players":null},{"server_id":37,"name":"Uncletopia | Chicago | 6 | All Maps","name_short":"chi-6","host":"chi-2.us.uncletopia.com","port":27025,"enabled":true,"region":"us-central","cc":"us","latitude":41.881832,"longitude":-87.62318,"reserved":0,"last_update":"0001-01-01T00:00:00Z","name_a2s":"Uncletopia | Chicago | 6 | All Maps","protocol":17,"map":"cp_mountainlab","folder":"tf","game":"Team Fortress","app_id":440,"player_count":0,"max_players":24,"Bots":0,"server_type":"Dedicated","server_os":"Linux","password":true,"vac":true,"version":"7757534","steam_id":85568392924866363,"keywords":["cp","nocrits","nodmgspread","uncletopia"],"game_id":440,"stv_port":27026,"stv_name":"Uncletopia | Chicago | 6 | All Maps | STV","players":null},{"server_id":38,"name":"Uncletopia | Chicago | 7 | Stopwatch Beta","name_short":"chi-7","host":"chi-2.us.uncletopia.com","port":27035,"enabled":true,"region":"us-central","cc":"us","latitude":41.881832,"longitude":-87.62318,"reserved":0,"last_update":"0001-01-01T00:00:00Z","name_a2s":"Uncletopia | Chicago | 7 | Stopwatch Beta","protocol":17,"map":"cp_granary","folder":"tf","game":"Team Fortress","app_id":440,"player_count":0,"max_players":24,"Bots":0,"server_type":"Dedicated","server_os":"Linux","password":true,"vac":true,"version":"7757534","steam_id":85568392924866364,"keywords":["cp","nocrits","nodmgspread","uncletopia"],"game_id":440,"stv_port":27036,"stv_name":"Uncletopia | Chicago | 7 | Stopwatch Beta | STV","players":null},{"server_id":39,"name":"Uncletopia | Chicago | 8 | Community","name_short":"chi-8","host":"chi-2.us.uncletopia.com","port":27045,"enabled":true,"region":"us-central","cc":"us","latitude":41.881832,"longitude":-87.62318,"reserved":0,"last_update":"0001-01-01T00:00:00Z","name_a2s":"Uncletopia | Chicago | 8 | Community","protocol":17,"map":"pl_pier","folder":"tf","game":"Team Fortress","app_id":440,"player_count":0,"max_players":24,"Bots":0,"server_type":"Dedicated","server_os":"Linux","password":true,"vac":true,"version":"7757534","steam_id":85568392924866365,"keywords":["nocrits","nodmgspread","payload","uncletopia"],"game_id":440,"stv_port":27046,"stv_name":"Uncletopia | Chicago | 8 | Community | STV","players":null},{"server_id":8,"name":"Uncletopia | Dallas | 1 | All Maps","name_short":"dal-1","host":"dal-1.us.uncletopia.com","port":27015,"enabled":true,"region":"us-central","cc":"us","latitude":32.779167,"longitude":-96.80889,"reserved":0,"last_update":"0001-01-01T00:00:00Z","name_a2s":"Uncletopia | Dallas | 1 | All Maps","protocol":17,"map":"pl_borneo","folder":"tf","game":"Team Fortress","app_id":440,"player_count":24,"max_players":24,"Bots":0,"server_type":"Dedicated","server_os":"Linux","password":true,"vac":true,"version":"7757534","steam_id":85568392924469986,"keywords":["nocrits","nodmgspread","payload","uncletopia"],"game_id":440,"stv_port":27016,"stv_name":"Uncletopia | Dallas | 1 | All Maps | STV","players":[{"user_id":248,"name":"Wizowd","steam_id":76561198167702261,"connected_time":2840000000000,"state":"active","ping":100},{"user_id":275,"name":"Moscow Medic","steam_id":76561198071040516,"connected_time":1106000000000,"state":"active","ping":83},{"user_id":263,"name":"footoftheday","steam_id":76561198052712449,"connected_time":2291000000000,"state":"active","ping":87},{"user_id":251,"name":"Frazzer","steam_id":76561198088679707,"connected_time":2778000000000,"state":"active","ping":75},{"user_id":244,"name":"Blitzy","steam_id":76561198149472890,"connected_time":2957000000000,"state":"active","ping":101},{"user_id":279,"name":"King of the birds","steam_id":76561198891152046,"connected_time":414000000000,"state":"active","ping":101},{"user_id":245,"name":"The Box","steam_id":76561198096390904,"connected_time":2864000000000,"state":"active","ping":91},{"user_id":278,"name":"Gangster As Fuck","steam_id":76561198377499187,"connected_time":430000000000,"state":"active","ping":77},{"user_id":250,"name":"Chaspen","steam_id":76561198098269939,"connected_time":2820000000000,"state":"active","ping":81},{"user_id":242,"name":"terrorist from cs 1.6","steam_id":76561199097909603,"connected_time":2988000000000,"state":"active","ping":140},{"user_id":261,"name":"future cockroach farmer","steam_id":76561198147665500,"connected_time":2327000000000,"state":"active","ping":178},{"user_id":281,"name":"BodaChola","steam_id":76561198074089567,"connected_time":190000000000,"state":"active","ping":47},{"user_id":271,"name":"viscodolante","steam_id":76561198013650292,"connected_time":1235000000000,"state":"active","ping":107},{"user_id":247,"name":"‚ô• bug eater ‚ô•","steam_id":76561198291044316,"connected_time":2851000000000,"state":"active","ping":52},{"user_id":234,"name":"non menthol newport","steam_id":76561198041907345,"connected_time":3452000000000,"state":"active","ping":87},{"user_id":266,"name":"pukeko","steam_id":76561198300630409,"connected_time":1989000000000,"state":"active","ping":90},{"user_id":280,"name":"Thatoneguybunchanumbers","steam_id":76561198028039160,"connected_time":347000000000,"state":"active","ping":75},{"user_id":249,"name":"Gonotic gnelf","steam_id":76561199135847219,"connected_time":2837000000000,"state":"active","ping":105},{"user_id":254,"name":"gyroFSnoob","steam_id":76561198158404683,"connected_time":2728000000000,"state":"active","ping":117},{"user_id":255,"name":"Delimeat","steam_id":76561198043824595,"connected_time":2719000000000,"state":"active","ping":73},{"user_id":257,"name":"That70sDog","steam_id":76561198119396142,"connected_time":2671000000000,"state":"active","ping":70},{"user_id":277,"name":"flu walrus","steam_id":76561198207940136,"connected_time":443000000000,"state":"active","ping":50},{"user_id":260,"name":"Sergeant Joker #savetf2","steam_id":76561198854616604,"connected_time":2333000000000,"state":"active","ping":90},{"user_id":274,"name":"PBS Kids","steam_id":76561198178049845,"connected_time":1153000000000,"state":"active","ping":91}]},{"server_id":108,"name":"Uncletopia | Dallas | 2 | All Maps","name_short":"dal-2","host":"dal-1.us.uncletopia.com","port":27025,"enabled":true,"region":"us-central","cc":"us","latitude":32.779167,"longitude":-96.80889,"reserved":0,"last_update":"0001-01-01T00:00:00Z","name_a2s":"Uncletopia | Dallas | 2 | All Maps","protocol":17,"map":"pl_upward","folder":"tf","game":"Team Fortress","app_id":440,"player_count":24,"max_players":24,"Bots":0,"server_type":"Dedicated","server_os":"Linux","password":true,"vac":true,"version":"7757534","steam_id":85568392924469988,"keywords":["nocrits","nodmgspread","payload","uncletopia"],"game_id":440,"stv_port":27026,"stv_name":"Uncletopia | Dallas | 2 | All Maps | STV","players":[{"user_id":89,"name":"Dominic","steam_id":76561198286168287,"connected_time":454000000000,"state":"active","ping":88},{"user_id":81,"name":"spacetoven","steam_id":76561198115821131,"connected_time":783000000000,"state":"active","ping":79},{"user_id":82,"name":"Keg","steam_id":76561198242688458,"connected_time":778000000000,"state":"active","ping":103},{"user_id":83,"name":"RoseRadical","steam_id":76561197999984320,"connected_time":771000000000,"state":"active","ping":83},{"user_id":17,"name":"Josh Diddily","steam_id":76561198286957487,"connected_time":4258000000000,"state":"active","ping":88},{"user_id":91,"name":"Sam the Terrorist","steam_id":76561199228471421,"connected_time":187000000000,"state":"active","ping":66},{"user_id":68,"name":"Yukon Cornelius","steam_id":76561198261512781,"connected_time":1744000000000,"state":"active","ping":70},{"user_id":65,"name":"jordanddean2016","steam_id":76561198323772677,"connected_time":1899000000000,"state":"active","ping":117},{"user_id":47,"name":"Riff","steam_id":76561198066921423,"connected_time":3156000000000,"state":"active","ping":63},{"user_id":59,"name":"Watatsuki no Yorihime","steam_id":76561198063315650,"connected_time":2123000000000,"state":"active","ping":73},{"user_id":66,"name":"Romo","steam_id":76561198243101572,"connected_time":1892000000000,"state":"active","ping":65},{"user_id":93,"name":"Super‚Ñ¢ Classic Edition","steam_id":76561198171655735,"connected_time":13000000000,"state":"spawning","ping":88},{"user_id":84,"name":"SpamTheAlien","steam_id":76561199122290968,"connected_time":750000000000,"state":"active","ping":133},{"user_id":78,"name":"Dr. Karl, the AUS Science Guy","steam_id":76561198031278747,"connected_time":937000000000,"state":"active","ping":105},{"user_id":87,"name":"Gundam Guy","steam_id":76561198178453993,"connected_time":536000000000,"state":"active","ping":80},{"user_id":88,"name":"EatSomeBEES","steam_id":76561198047334307,"connected_time":512000000000,"state":"active","ping":112},{"user_id":54,"name":"PixelatedAfro","steam_id":76561198322595276,"connected_time":2212000000000,"state":"active","ping":62},{"user_id":55,"name":"joethefool","steam_id":76561199015436319,"connected_time":2204000000000,"state":"active","ping":94},{"user_id":90,"name":"Perhaps a Slug","steam_id":76561198062956313,"connected_time":420000000000,"state":"active","ping":74},{"user_id":85,"name":"Slime-san","steam_id":76561198886509660,"connected_time":743000000000,"state":"active","ping":93},{"user_id":38,"name":"Doinnoid","steam_id":76561198262276139,"connected_time":3556000000000,"state":"active","ping":58},{"user_id":44,"name":"Fermenting Kiwi","steam_id":76561198253303497,"connected_time":3271000000000,"state":"active","ping":66},{"user_id":92,"name":"Barack Obama Hot Rod","steam_id":76561198034079853,"connected_time":55000000000,"state":"active","ping":62},{"user_id":86,"name":"unc out here trippin","steam_id":76561198055557988,"connected_time":736000000000,"state":"active","ping":38}]},{"server_id":5,"name":"Uncletopia | Frankfurt | 1 | All Maps","name_short":"frk-1","host":"frk-1.de.uncletopia.com","port":27015,"enabled":true,"region":"eu","cc":"de","latitude":50.110924,"longitude":8.682127,"reserved":0,"last_update":"0001-01-01T00:00:00Z","name_a2s":"Uncletopia | Frankfurt | 1 | All Maps","protocol":17,"map":"pl_barnblitz","folder":"tf","game":"Team Fortress","app_id":440,"player_count":24,"max_players":24,"Bots":0,"server_type":"Dedicated","server_os":"Linux","password":true,"vac":true,"version":"7757534","steam_id":85568392924469989,"keywords":["nocrits","nodmgspread","payload","uncletopia"],"game_id":440,"stv_port":27016,"stv_name":"Uncletopia | Frankfurt | 1 | All Maps | STV","players":[{"user_id":459,"name":"robitamoft","steam_id":76561198315903156,"connected_time":5024000000000,"state":"active","ping":83},{"user_id":520,"name":"Gurr","steam_id":76561198802006368,"connected_time":627000000000,"state":"active","ping":69},{"user_id":501,"name":"Vitun Jonne","steam_id":76561198401737380,"connected_time":1755000000000,"state":"active","ping":61},{"user_id":516,"name":"–∏–≤–∞–Ω","steam_id":76561198072730591,"connected_time":832000000000,"state":"active","ping":61},{"user_id":517,"name":"Bliztank | RGL.gg","steam_id":76561198019252798,"connected_time":801000000000,"state":"active","ping":133},{"user_id":522,"name":"{dogs}·Éô·Éù·Éë·Éê77koba77[ASS]","steam_id":76561198154218182,"connected_time":160000000000,"state":"active","ping":56},{"user_id":504,"name":"Xie Xil Ling","steam_id":76561198053394831,"connected_time":1437000000000,"state":"active","ping":68},{"user_id":494,"name":"Williamzas","steam_id":76561198035728623,"connected_time":2101000000000,"state":"active","ping":62},{"user_id":505,"name":"big noob","steam_id":76561198281332748,"connected_time":1394000000000,"state":"active","ping":67},{"user_id":523,"name":"Tlad2","steam_id":76561198854897667,"connected_time":68000000000,"state":"active","ping":75},{"user_id":521,"name":"Noble Six","steam_id":76561198058159271,"connected_time":606000000000,"state":"active","ping":59},{"user_id":508,"name":"Sir Walrus IV","steam_id":76561198229119520,"connected_time":1344000000000,"state":"active","ping":78},{"user_id":518,"name":"PuttePossu","steam_id":76561198350078793,"connected_time":778000000000,"state":"active","ping":95},{"user_id":495,"name":"tosti_tower","steam_id":76561198153445364,"connected_time":2033000000000,"state":"active","ping":92},{"user_id":519,"name":"Motley_","steam_id":76561198116057976,"connected_time":762000000000,"state":"active","ping":49},{"user_id":489,"name":"‚òÖpoyo‚òÖ","steam_id":76561198150078959,"connected_time":2844000000000,"state":"active","ping":78},{"user_id":479,"name":"Mach |=2OBB)\u003e\u003e\u003e","steam_id":76561198952487564,"connected_time":2965000000000,"state":"active","ping":77},{"user_id":502,"name":"Fluffed up Maverick","steam_id":76561198843516708,"connected_time":1749000000000,"state":"active","ping":72},{"user_id":496,"name":"√Ñ√§rik ‚ô£","steam_id":76561198131871737,"connected_time":2012000000000,"state":"active","ping":47},{"user_id":464,"name":"MAJAX","steam_id":76561198254828632,"connected_time":4898000000000,"state":"active","ping":45},{"user_id":509,"name":"a sticky situation","steam_id":76561198011692496,"connected_time":1310000000000,"state":"active","ping":67},{"user_id":510,"name":"Eyeball Sucker","steam_id":76561198195865734,"connected_time":1264000000000,"state":"active","ping":78},{"user_id":476,"name":"ghost","steam_id":76561198189940229,"connected_time":3446000000000,"state":"active","ping":56},{"user_id":458,"name":"LarsInABox","steam_id":76561198028329262,"connected_time":5196000000000,"state":"active","ping":73}]},{"server_id":110,"name":"Uncletopia | Frankfurt | 2 | All Maps","name_short":"frk-2","host":"frk-1.de.uncletopia.com","port":27025,"enabled":true,"region":"eu","cc":"de","latitude":50.110924,"longitude":8.682127,"reserved":0,"last_update":"0001-01-01T00:00:00Z","name_a2s":"Uncletopia | Frankfurt | 2 | All Maps","protocol":17,"map":"pl_borneo","folder":"tf","game":"Team Fortress","app_id":440,"player_count":24,"max_players":24,"Bots":0,"server_type":"Dedicated","server_os":"Linux","password":true,"vac":true,"version":"7757534","steam_id":85568392924469990,"keywords":["nocrits","nodmgspread","payload","uncletopia"],"game_id":440,"stv_port":27026,"stv_name":"Uncletopia | Frankfurt | 2 | All Maps | STV","players":[{"user_id":424,"name":"Mr. Mundy","steam_id":76561198132008918,"connected_time":8588000000000,"state":"active","ping":75},{"user_id":495,"name":"The Fellow Feller","steam_id":76561198188864306,"connected_time":3292000000000,"state":"active","ping":58},{"user_id":503,"name":"üúè Drepp","steam_id":76561197998867164,"connected_time":1818000000000,"state":"active","ping":54},{"user_id":484,"name":"nibsÓÑ∏","steam_id":76561198040099538,"connected_time":4942000000000,"state":"active","ping":75},{"user_id":507,"name":"Abaddon","steam_id":76561199205559813,"connected_time":1397000000000,"state":"active","ping":45},{"user_id":508,"name":"Snokie Boi","steam_id":76561198081126247,"connected_time":1357000000000,"state":"active","ping":75},{"user_id":509,"name":"alvinulv","steam_id":76561198024487177,"connected_time":1321000000000,"state":"active","ping":61},{"user_id":515,"name":"‚Ä¢stepbro‚Ä¢","steam_id":76561198119607160,"connected_time":719000000000,"state":"active","ping":73},{"user_id":520,"name":"Gnag Suaton","steam_id":76561198889292341,"connected_time":255000000000,"state":"active","ping":64},{"user_id":521,"name":"generic alias","steam_id":76561198271607226,"connected_time":169000000000,"state":"active","ping":95},{"user_id":529,"name":"Kaek","steam_id":76561197960283484,"connected_time":1000000000,"state":"spawning","ping":50},{"user_id":523,"name":"Aras","steam_id":76561198160394046,"connected_time":113000000000,"state":"active","ping":119},{"user_id":471,"name":"Hexagon","steam_id":76561198151205758,"connected_time":6501000000000,"state":"active","ping":54},{"user_id":524,"name":"KlevukaS‚Ñ¢","steam_id":76561198312867604,"connected_time":101000000000,"state":"active","ping":82},{"user_id":525,"name":"Charles Darwin","steam_id":76561197973496139,"connected_time":96000000000,"state":"active","ping":61},{"user_id":519,"name":"Guwop","steam_id":76561197970425737,"connected_time":277000000000,"state":"active","ping":168},{"user_id":514,"name":"Thors","steam_id":76561197968739075,"connected_time":773000000000,"state":"active","ping":47},{"user_id":526,"name":"Smuggs","steam_id":76561197999456003,"connected_time":86000000000,"state":"active","ping":53},{"user_id":492,"name":"Torttu","steam_id":76561198013980029,"connected_time":3414000000000,"state":"active","ping":60},{"user_id":527,"name":"kbbq","steam_id":76561198346638308,"connected_time":85000000000,"state":"active","ping":59},{"user_id":517,"name":"PashaVerti","steam_id":76561199013963024,"connected_time":511000000000,"state":"active","ping":92},{"user_id":496,"name":"scarecrowshelper","steam_id":76561198072260553,"connected_time":2741000000000,"state":"active","ping":47},{"user_id":489,"name":"Bottom 1 Johnnii","steam_id":76561198012841225,"connected_time":3700000000000,"state":"active","ping":70},{"user_id":528,"name":"Butt Hurling","steam_id":76561198093229786,"connected_time":75000000000,"state":"active","ping":86}]},{"server_id":308,"name":"Uncletopia | Frankfurt | 3 | All Maps","name_short":"frk-3","host":"frk-1.de.uncletopia.com","port":27035,"enabled":true,"region":"eu","cc":"de","latitude":50.110924,"longitude":8.682127,"reserved":0,"last_update":"0001-01-01T00:00:00Z","name_a2s":"Uncletopia | Frankfurt | 3 | All Maps","protocol":17,"map":"pl_barnblitz","folder":"tf","game":"Team Fortress","app_id":440,"player_count":24,"max_players":24,"Bots":0,"server_type":"Dedicated","server_os":"Linux","password":true,"vac":true,"version":"7757534","steam_id":85568392924504274,"keywords":["nocrits","nodmgspread","payload","uncletopia"],"game_id":440,"stv_port":27036,"stv_name":"Uncletopia | Frankfurt | 3 | All Maps | STV","players":[{"user_id":394,"name":"Oolongcat","steam_id":76561198027033783,"connected_time":513000000000,"state":"active","ping":49},{"user_id":381,"name":"Gary the plumber","steam_id":76561198345249841,"connected_time":918000000000,"state":"active","ping":64},{"user_id":372,"name":"Faraday","steam_id":76561197987182527,"connected_time":2109000000000,"state":"active","ping":60},{"user_id":341,"name":"Derp","steam_id":76561198197901062,"connected_time":4363000000000,"state":"active","ping":45},{"user_id":366,"name":"TidB","steam_id":76561198055342304,"connected_time":2551000000000,"state":"active","ping":48},{"user_id":354,"name":"Fuck My Life","steam_id":76561199136898924,"connected_time":3574000000000,"state":"active","ping":65},{"user_id":383,"name":"Drsoldier","steam_id":76561198165504766,"connected_time":910000000000,"state":"active","ping":76},{"user_id":368,"name":"Burpman","steam_id":76561198022897937,"connected_time":2413000000000,"state":"active","ping":61},{"user_id":356,"name":"Rendeto","steam_id":76561198271955247,"connected_time":3567000000000,"state":"active","ping":73},{"user_id":382,"name":"rummy","steam_id":76561197997573379,"connected_time":917000000000,"state":"active","ping":69},{"user_id":379,"name":"Zeusington","steam_id":76561198006937866,"connected_time":1721000000000,"state":"active","ping":168},{"user_id":378,"name":"„ÉÑ‚Åß‚ÅßAstora","steam_id":76561198081839576,"connected_time":2009000000000,"state":"active","ping":71},{"user_id":384,"name":"Lei Ying Lo","steam_id":76561198254210743,"connected_time":897000000000,"state":"active","ping":62},{"user_id":304,"name":"OTP DynamoDM","steam_id":76561198150755391,"connected_time":6558000000000,"state":"active","ping":48},{"user_id":374,"name":"Kagrid","steam_id":76561198417431519,"connected_time":2058000000000,"state":"active","ping":73},{"user_id":397,"name":"Juiceydough","steam_id":76561197997323419,"connected_time":486000000000,"state":"active","ping":91},{"user_id":399,"name":"fr3fou","steam_id":76561198070932683,"connected_time":235000000000,"state":"active","ping":66},{"user_id":386,"name":"LoboPaciente","steam_id":76561198088870962,"connected_time":883000000000,"state":"active","ping":70},{"user_id":395,"name":"zipp√°k","steam_id":76561198429046379,"connected_time":498000000000,"state":"active","ping":52},{"user_id":388,"name":"r06u3","steam_id":76561198254099253,"connected_time":841000000000,"state":"active","ping":176},{"user_id":390,"name":"Slazaa","steam_id":76561197993252446,"connected_time":804000000000,"state":"active","ping":59},{"user_id":401,"name":"anime drug dealer","steam_id":76561198235739036,"connected_time":94000000000,"state":"active","ping":90},{"user_id":402,"name":"ketamine","steam_id":76561198282845331,"connected_time":62000000000,"state":"active","ping":130},{"user_id":255,"name":"vroom doom","steam_id":76561198192671475,"connected_time":8638000000000,"state":"active","ping":63}]},{"server_id":309,"name":"Uncletopia | Frankfurt | 4 | All Maps","name_short":"frk-4","host":"frk-1.de.uncletopia.com","port":27045,"enabled":true,"region":"eu","cc":"de","latitude":50.110924,"longitude":8.682127,"reserved":0,"last_update":"0001-01-01T00:00:00Z","name_a2s":"Uncletopia | Frankfurt | 4 | All Maps","protocol":17,"map":"pl_frontier_final","folder":"tf","game":"Team Fortress","app_id":440,"player_count":24,"max_players":24,"Bots":0,"server_type":"Dedicated","server_os":"Linux","password":true,"vac":true,"version":"7757534","steam_id":85568392924504275,"keywords":["nocrits","nodmgspread","payload","uncletopia"],"game_id":440,"stv_port":27046,"stv_name":"Uncletopia | Frankfurt | 4 | All Maps | STV","players":[{"user_id":683,"name":"sin","steam_id":76561198193416785,"connected_time":1867000000000,"state":"active","ping":59},{"user_id":698,"name":"blue","steam_id":76561198216200092,"connected_time":227000000000,"state":"active","ping":65},{"user_id":700,"name":"benibachi","steam_id":76561198190816499,"connected_time":202000000000,"state":"active","ping":72},{"user_id":699,"name":"USBug999","steam_id":76561199174677820,"connected_time":223000000000,"state":"active","ping":147},{"user_id":663,"name":"pizzahawaiiEnjoyerwithbigdick","steam_id":76561198079752629,"connected_time":2765000000000,"state":"active","ping":70},{"user_id":672,"name":"Dolcelatte","steam_id":76561198038501770,"connected_time":2452000000000,"state":"active","ping":54},{"user_id":666,"name":"Raldow","steam_id":76561198021389301,"connected_time":2733000000000,"state":"active","ping":72},{"user_id":701,"name":"Phil","steam_id":76561198056877069,"connected_time":198000000000,"state":"active","ping":56},{"user_id":671,"name":"Penis Contortionist","steam_id":76561198073663784,"connected_time":2542000000000,"state":"active","ping":49},{"user_id":693,"name":"Sakurayashiki","steam_id":76561198004388514,"connected_time":1194000000000,"state":"active","ping":73},{"user_id":628,"name":"Windows Vista Cruiser","steam_id":76561198064102233,"connected_time":5530000000000,"state":"active","ping":72},{"user_id":691,"name":"The Bloat Lord","steam_id":76561198146477608,"connected_time":1474000000000,"state":"active","ping":73},{"user_id":664,"name":"Solid","steam_id":76561198357049292,"connected_time":2763000000000,"state":"active","ping":93},{"user_id":704,"name":"bloons tower defense 6","steam_id":76561198281682473,"connected_time":17000000000,"state":"active","ping":140},{"user_id":696,"name":"Saba","steam_id":76561198158253332,"connected_time":549000000000,"state":"active","ping":78},{"user_id":674,"name":"Mr Xbow","steam_id":76561198862864460,"connected_time":2396000000000,"state":"active","ping":71},{"user_id":694,"name":"kreeekz","steam_id":76561198014431602,"connected_time":1139000000000,"state":"active","ping":80},{"user_id":676,"name":"Jedi Knight","steam_id":76561198039030709,"connected_time":2361000000000,"state":"active","ping":136},{"user_id":702,"name":"bj√¶f","steam_id":76561197972008326,"connected_time":139000000000,"state":"active","ping":78},{"user_id":661,"name":"Uncle Owen","steam_id":76561198157999291,"connected_time":2977000000000,"state":"active","ping":83},{"user_id":681,"name":"Fluuh","steam_id":76561198004461143,"connected_time":2135000000000,"state":"active","ping":36},{"user_id":654,"name":".quickfast.","steam_id":76561199438900919,"connected_time":3768000000000,"state":"active","ping":58},{"user_id":703,"name":"contor","steam_id":76561198288536977,"connected_time":139000000000,"state":"active","ping":60},{"user_id":680,"name":"ReVerb","steam_id":76561198024949870,"connected_time":2182000000000,"state":"active","ping":63}]},{"server_id":310,"name":"Uncletopia | Frankfurt | 5 | All Maps","name_short":"frk-5","host":"frk-1.de.uncletopia.com","port":27055,"enabled":true,"region":"eu","cc":"de","latitude":50.110924,"longitude":8.682127,"reserved":0,"last_update":"0001-01-01T00:00:00Z","name_a2s":"Uncletopia | Frankfurt | 5 | All Maps","protocol":17,"map":"cp_process_final","folder":"tf","game":"Team Fortress","app_id":440,"player_count":24,"max_players":24,"Bots":0,"server_type":"Dedicated","server_os":"Linux","password":true,"vac":true,"version":"7757534","steam_id":85568392924504277,"keywords":["cp","nocrits","nodmgspread","uncletopia"],"game_id":440,"stv_port":27056,"stv_name":"Uncletopia | Frankfurt | 5 | All Maps | STV","players":[{"user_id":132,"name":"Dom.","steam_id":76561199065917088,"connected_time":7588000000000,"state":"active","ping":73},{"user_id":219,"name":"Dr. Le Quack","steam_id":76561197995711176,"connected_time":216000000000,"state":"active","ping":96},{"user_id":220,"name":"Cukros Szar","steam_id":76561198236304832,"connected_time":206000000000,"state":"active","ping":60},{"user_id":203,"name":"Jesse Fatcoc","steam_id":76561199004942770,"connected_time":1600000000000,"state":"active","ping":55},{"user_id":195,"name":"kryhu","steam_id":76561198293327713,"connected_time":1940000000000,"state":"active","ping":61},{"user_id":210,"name":"Birger :-)","steam_id":76561198213763199,"connected_time":1030000000000,"state":"active","ping":58},{"user_id":213,"name":"Wyremingo","steam_id":76561198314337596,"connected_time":410000000000,"state":"active","ping":89},{"user_id":141,"name":"X-tis","steam_id":76561198043837480,"connected_time":6474000000000,"state":"active","ping":64},{"user_id":180,"name":"Farmercy","steam_id":76561198000038039,"connected_time":2306000000000,"state":"active","ping":54},{"user_id":208,"name":"Toasted Toby","steam_id":76561198002139581,"connected_time":1292000000000,"state":"active","ping":69},{"user_id":214,"name":"Ashen","steam_id":76561198274631806,"connected_time":379000000000,"state":"active","ping":61},{"user_id":209,"name":"schaffi","steam_id":76561198061369274,"connected_time":1259000000000,"state":"active","ping":101},{"user_id":216,"name":"Carrot","steam_id":76561198119340863,"connected_time":302000000000,"state":"active","ping":56},{"user_id":204,"name":"mordecai.nmc","steam_id":76561197997223851,"connected_time":1572000000000,"state":"active","ping":62},{"user_id":201,"name":"yoursbzt","steam_id":76561198201866574,"connected_time":1858000000000,"state":"active","ping":82},{"user_id":217,"name":"-makina","steam_id":76561198273042780,"connected_time":300000000000,"state":"active","ping":62},{"user_id":164,"name":"( Õ° Õ°¬∞ Õú  ñ Õ° Õ°¬∞) \\ ‚òû","steam_id":76561198084597975,"connected_time":3554000000000,"state":"active","ping":67},{"user_id":199,"name":"Loop_Cat","steam_id":76561199045902145,"connected_time":1880000000000,"state":"active","ping":122},{"user_id":138,"name":"Fat Pigeon","steam_id":76561198817940142,"connected_time":6714000000000,"state":"active","ping":60},{"user_id":168,"name":"Old Man Winter","steam_id":76561198007653168,"connected_time":3082000000000,"state":"active","ping":74},{"user_id":218,"name":"f√©nix","steam_id":76561198083199151,"connected_time":291000000000,"state":"active","ping":60},{"user_id":152,"name":"LasagnaLarry22","steam_id":76561198089478290,"connected_time":6079000000000,"state":"active","ping":57},{"user_id":207,"name":"Silent Person","steam_id":76561198107763537,"connected_time":1483000000000,"state":"active","ping":73},{"user_id":190,"name":"Senator Armstrong","steam_id":76561198984346408,"connected_time":2179000000000,"state":"active","ping":70}]},{"server_id":311,"name":"Uncletopia | Frankfurt | 6 | All Maps","name_short":"frk-6","host":"frk-1.de.uncletopia.com","port":27065,"enabled":true,"region":"eu","cc":"de","latitude":50.110924,"longitude":8.682127,"reserved":0,"last_update":"0001-01-01T00:00:00Z","name_a2s":"Uncletopia | Frankfurt | 6 | All Maps","protocol":17,"map":"pl_pier","folder":"tf","game":"Team Fortress","app_id":440,"player_count":15,"max_players":24,"Bots":0,"server_type":"Dedicated","server_os":"Linux","password":true,"vac":true,"version":"7757534","steam_id":85568392924504278,"keywords":["nocrits","nodmgspread","payload","uncletopia"],"game_id":440,"stv_port":27066,"stv_name":"Uncletopia | Frankfurt | 6 | All Maps | STV","players":[{"user_id":378,"name":"HOI","steam_id":76561198061182117,"connected_time":840000000000,"state":"active","ping":60},{"user_id":372,"name":".Aq","steam_id":76561198043376092,"connected_time":987000000000,"state":"active","ping":114},{"user_id":379,"name":"Sleepyguy","steam_id":76561198008520542,"connected_time":717000000000,"state":"active","ping":61},{"user_id":381,"name":"ampersandbear","steam_id":76561198054336112,"connected_time":622000000000,"state":"active","ping":80},{"user_id":391,"name":"SaltKeeper44","steam_id":76561198336275497,"connected_time":143000000000,"state":"active","ping":73},{"user_id":374,"name":"Lassesjov","steam_id":76561198089792081,"connected_time":929000000000,"state":"active","ping":63},{"user_id":382,"name":"Mata","steam_id":76561198308191713,"connected_time":547000000000,"state":"active","ping":126},{"user_id":383,"name":"Mohutniy_Did","steam_id":76561198361438340,"connected_time":408000000000,"state":"active","ping":70},{"user_id":362,"name":"mohemmedmokhter2005","steam_id":76561199197650506,"connected_time":1769000000000,"state":"active","ping":106},{"user_id":298,"name":"sharkmax12312","steam_id":76561198996008569,"connected_time":6668000000000,"state":"active","ping":88},{"user_id":386,"name":"Lewee","steam_id":76561198058828018,"connected_time":343000000000,"state":"active","ping":62},{"user_id":387,"name":"PaRiToN","steam_id":76561199122531372,"connected_time":337000000000,"state":"active","ping":78},{"user_id":388,"name":"DINKICO CON QUESO","steam_id":76561198162809979,"connected_time":286000000000,"state":"active","ping":56},{"user_id":389,"name":"Garden Freeman","steam_id":76561199073314677,"connected_time":263000000000,"state":"active","ping":71},{"user_id":390,"name":"pierre.de.leone","steam_id":76561199034499666,"connected_time":254000000000,"state":"active","ping":72}]},{"server_id":23,"name":"Uncletopia | Frankfurt | 7 | Stopwatch Beta","name_short":"frk-7","host":"frk-1.de.uncletopia.com","port":27075,"enabled":true,"region":"eu","cc":"de","latitude":50.110924,"longitude":8.682127,"reserved":0,"last_update":"0001-01-01T00:00:00Z","name_a2s":"Uncletopia | Frankfurt | 7 | Stopwatch Beta","protocol":17,"map":"workshop/koth_bagel_rc5.ugc2514036946","folder":"tf","game":"Team Fortress","app_id":440,"player_count":0,"max_players":24,"Bots":0,"server_type":"Dedicated","server_os":"Linux","password":true,"vac":true,"version":"7757534","steam_id":85568392924742827,"keywords":["cp","nocrits","nodmgspread","uncletopia"],"game_id":440,"stv_port":27076,"stv_name":"Uncletopia | Frankfurt | 7 | Stopwatch Beta | STV","players":null},{"server_id":24,"name":"Uncletopia | Frankfurt | 8 | Community","name_short":"frk-8","host":"frk-1.de.uncletopia.com","port":27085,"enabled":true,"region":"eu","cc":"de","latitude":50.110924,"longitude":8.682127,"reserved":0,"last_update":"0001-01-01T00:00:00Z","name_a2s":"Uncletopia | Frankfurt | 8 | Community","protocol":17,"map":"workshop/rd_asteroid_redux_b1.ugc2154902912","folder":"tf","game":"Team Fortress","app_id":440,"player_count":15,"max_players":24,"Bots":0,"server_type":"Dedicated","server_os":"Linux","password":true,"vac":true,"version":"7757534","steam_id":85568392924742828,"keywords":["beta","nocrits","nodmgspread","rd","uncletopia"],"game_id":440,"stv_port":27086,"stv_name":"Uncletopia | Frankfurt | 8 | Community | STV","players":[{"user_id":97,"name":"DEANDEMOCRACY","steam_id":76561198141588857,"connected_time":306000000000,"state":"active","ping":45},{"user_id":88,"name":"Lukas","steam_id":76561198009118452,"connected_time":1117000000000,"state":"active","ping":55},{"user_id":77,"name":"akakez","steam_id":76561198095432821,"connected_time":2012000000000,"state":"active","ping":117},{"user_id":93,"name":"lv.1 crook","steam_id":76561198195857751,"connected_time":693000000000,"state":"active","ping":71},{"user_id":40,"name":"Kenny","steam_id":76561198070731150,"connected_time":4879000000000,"state":"active","ping":101},{"user_id":41,"name":"Vilhelm","steam_id":76561198157521187,"connected_time":4877000000000,"state":"active","ping":96},{"user_id":47,"name":"silicon based life form","steam_id":76561199127121346,"connected_time":4575000000000,"state":"active","ping":71},{"user_id":76,"name":"Nyoelle","steam_id":76561198041717890,"connected_time":2056000000000,"state":"active","ping":77},{"user_id":79,"name":"dotdotdot","steam_id":76561198057628751,"connected_time":1913000000000,"state":"active","ping":60},{"user_id":69,"name":"fizik2703","steam_id":76561198134203031,"connected_time":2684000000000,"state":"active","ping":60},{"user_id":90,"name":"naleksi","steam_id":76561198018391055,"connected_time":1065000000000,"state":"active","ping":99},{"user_id":98,"name":"Bazz","steam_id":76561199041490245,"connected_time":225000000000,"state":"active","ping":163},{"user_id":100,"name":"Simoh The Swoob","steam_id":76561198058078322,"connected_time":138000000000,"state":"connecting","ping":180},{"user_id":62,"name":"Daan77","steam_id":76561198129940468,"connected_time":3703000000000,"state":"active","ping":92},{"user_id":81,"name":"Keir1234","steam_id":76561198386147593,"connected_time":1798000000000,"state":"active","ping":100}]},{"server_id":202,"name":"Uncletopia | Hong Kong | 1 | All Maps","name_short":"hgk-1","host":"hgk-1.hk.uncletopia.com","port":27015,"enabled":true,"region":"asia","cc":"hk","latitude":22.302711,"longitude":114.177216,"reserved":0,"last_update":"0001-01-01T00:00:00Z","name_a2s":"Uncletopia | Hong Kong | 1 | All Maps","protocol":17,"map":"koth_viaduct","folder":"tf","game":"Team Fortress","app_id":440,"player_count":0,"max_players":24,"Bots":0,"server_type":"Dedicated","server_os":"Linux","password":true,"vac":true,"version":"7757534","steam_id":85568392924494504,"keywords":["cp","nocrits","nodmgspread","uncletopia"],"game_id":440,"stv_port":27016,"stv_name":"Uncletopia | Hong Kong | 1 | All Maps | STV","players":null},{"server_id":1,"name":"Uncletopia | Los Angeles | 1 | All Maps","name_short":"lax-1","host":"lax-1.us.uncletopia.com","port":27015,"enabled":true,"region":"us-west","cc":"us","latitude":33.94279,"longitude":-118.41004,"reserved":0,"last_update":"0001-01-01T00:00:00Z","name_a2s":"Uncletopia | Los Angeles | 1 | All Maps","protocol":17,"map":"cp_mountainlab","folder":"tf","game":"Team Fortress","app_id":440,"player_count":0,"max_players":24,"Bots":0,"server_type":"Dedicated","server_os":"Linux","password":true,"vac":true,"version":"7757534","steam_id":85568392924469991,"keywords":["cp","nocrits","nodmgspread","uncletopia"],"game_id":440,"stv_port":27016,"stv_name":"Uncletopia | Los Angeles | 1 | All Maps | STV","players":null},{"server_id":112,"name":"Uncletopia | Los Angeles | 2 | All Maps","name_short":"lax-2","host":"lax-1.us.uncletopia.com","port":27025,"enabled":true,"region":"us-west","cc":"us","latitude":33.94279,"longitude":-118.41004,"reserved":0,"last_update":"0001-01-01T00:00:00Z","name_a2s":"Uncletopia | Los Angeles | 2 | All Maps","protocol":17,"map":"cp_mountainlab","folder":"tf","game":"Team Fortress","app_id":440,"player_count":0,"max_players":24,"Bots":0,"server_type":"Dedicated","server_os":"Linux","password":true,"vac":true,"version":"7757534","steam_id":85568392924469992,"keywords":["cp","nocrits","nodmgspread","uncletopia"],"game_id":440,"stv_port":27026,"stv_name":"Uncletopia | Los Angeles | 2 | All Maps | STV","players":null},{"server_id":324,"name":"Uncletopia | Los Angeles | 3 | All Maps","name_short":"lax-3","host":"lax-1.us.uncletopia.com","port":27035,"enabled":true,"region":"us-west","cc":"us","latitude":33.94279,"longitude":-118.41004,"reserved":0,"last_update":"0001-01-01T00:00:00Z","name_a2s":"Uncletopia | Los Angeles | 3 | All Maps","protocol":17,"map":"cp_altitude","folder":"tf","game":"Team Fortress","app_id":440,"player_count":6,"max_players":24,"Bots":0,"server_type":"Dedicated","server_os":"Linux","password":true,"vac":true,"version":"7757534","steam_id":85568392924510198,"keywords":["cp","nocrits","nodmgspread","uncletopia"],"game_id":440,"stv_port":27036,"stv_name":"Uncletopia | Los Angeles | 3 | All Maps | STV","players":[{"user_id":66,"name":"Doggo","steam_id":76561198313355373,"connected_time":250000000000,"state":"active","ping":61},{"user_id":58,"name":"dndplayer2000","steam_id":76561199187895660,"connected_time":2031000000000,"state":"active","ping":50},{"user_id":67,"name":"Julien","steam_id":76561199389584938,"connected_time":32000000000,"state":"active","ping":60},{"user_id":68,"name":"cassius","steam_id":76561198203851303,"connected_time":22000000000,"state":"active","ping":107},{"user_id":38,"name":"Big Bubba","steam_id":76561198133510341,"connected_time":5039000000000,"state":"active","ping":75},{"user_id":33,"name":"RoastBeefSalad","steam_id":76561198098181497,"connected_time":5068000000000,"state":"active","ping":69}]},{"server_id":25,"name":"Uncletopia | Los Angeles | 4 | Stopwatch Beta","name_short":"lax-4","host":"lax-1.us.uncletopia.com","port":27045,"enabled":true,"region":"us-west","cc":"us","latitude":33.94279,"longitude":-118.41004,"reserved":0,"last_update":"0001-01-01T00:00:00Z","name_a2s":"Uncletopia | Los Angeles | 4 | Stopwatch Beta","protocol":17,"map":"koth_viaduct","folder":"tf","game":"Team Fortress","app_id":440,"player_count":0,"max_players":24,"Bots":0,"server_type":"Dedicated","server_os":"Linux","password":true,"vac":true,"version":"7757534","steam_id":85568392924510199,"keywords":["cp","nocrits","nodmgspread","uncletopia"],"game_id":440,"stv_port":27046,"stv_name":"Uncletopia | Los Angeles | 4 | Stopwatch Beta | STV","players":null},{"server_id":11,"name":"Uncletopia | London | 1 | All Maps","name_short":"lon-1","host":"lon-1.uk.uncletopia.com","port":27015,"enabled":true,"region":"eu","cc":"gb","latitude":51.509865,"longitude":-0.118092,"reserved":0,"last_update":"0001-01-01T00:00:00Z","name_a2s":"Uncletopia | London | 1 | All Maps","protocol":17,"map":"pl_badwater","folder":"tf","game":"Team Fortress","app_id":440,"player_count":24,"max_players":24,"Bots":0,"server_type":"Dedicated","server_os":"Linux","password":true,"vac":true,"version":"7757534","steam_id":85568392924367362,"keywords":["nocrits","nodmgspread","payload","uncletopia"],"game_id":440,"stv_port":27016,"stv_name":"Uncletopia | London | 1 | All Maps | STV","players":[{"user_id":710,"name":"[O\u0026O]YaboiDucki","steam_id":76561198195976589,"connected_time":2599000000000,"state":"active","ping":72},{"user_id":709,"name":"Cosmetic brain","steam_id":76561198055936410,"connected_time":2641000000000,"state":"active","ping":79},{"user_id":736,"name":"K√§pt'n","steam_id":76561198082347638,"connected_time":512000000000,"state":"active","ping":77},{"user_id":681,"name":"owlsie","steam_id":76561198094883280,"connected_time":3796000000000,"state":"active","ping":64},{"user_id":737,"name":"bakutit","steam_id":76561198056380291,"connected_time":454000000000,"state":"active","ping":110},{"user_id":714,"name":"ivanmixo","steam_id":76561198160213989,"connected_time":2510000000000,"state":"active","ping":63},{"user_id":712,"name":"Hilldog","steam_id":76561198082209322,"connected_time":2581000000000,"state":"active","ping":82},{"user_id":738,"name":"Na'vi Misato (by popular demand","steam_id":76561198130860698,"connected_time":451000000000,"state":"active","ping":58},{"user_id":702,"name":"Dirty Joe","steam_id":76561198142418870,"connected_time":3335000000000,"state":"active","ping":52},{"user_id":703,"name":"Trailing","steam_id":76561198220365329,"connected_time":3270000000000,"state":"active","ping":61},{"user_id":677,"name":"Breizbuc","steam_id":76561198118220633,"connected_time":4008000000000,"state":"active","ping":56},{"user_id":638,"name":"i deep fried my penis","steam_id":76561198034507015,"connected_time":6155000000000,"state":"active","ping":68},{"user_id":639,"name":"Bamboleo","steam_id":76561198079029995,"connected_time":6132000000000,"state":"active","ping":86},{"user_id":720,"name":"Boil em mash em","steam_id":76561198026508026,"connected_time":2287000000000,"state":"active","ping":66},{"user_id":734,"name":"Gryoss","steam_id":76561197999837111,"connected_time":1512000000000,"state":"active","ping":108},{"user_id":687,"name":"Cypher","steam_id":76561199023619899,"connected_time":3725000000000,"state":"active","ping":56},{"user_id":600,"name":"The Masterplan","steam_id":76561198158631465,"connected_time":9091000000000,"state":"active","ping":74},{"user_id":704,"name":"Hydro","steam_id":76561199081791855,"connected_time":3270000000000,"state":"active","ping":80},{"user_id":604,"name":"Kris","steam_id":76561198240638652,"connected_time":8598000000000,"state":"active","ping":44},{"user_id":739,"name":"donal rump","steam_id":76561198136239861,"connected_time":447000000000,"state":"active","ping":50},{"user_id":716,"name":"proxima","steam_id":76561198000417248,"connected_time":2462000000000,"state":"active","ping":89},{"user_id":731,"name":"LemonLeCitron","steam_id":76561198215545267,"connected_time":1650000000000,"state":"active","ping":69},{"user_id":727,"name":"chocolate flavoured femboy","steam_id":76561198819353867,"connected_time":1772000000000,"state":"active","ping":48},{"user_id":735,"name":"Aaron","steam_id":76561197990046953,"connected_time":525000000000,"state":"active","ping":67}]},{"server_id":114,"name":"Uncletopia | London | 2 | All Maps","name_short":"lon-2","host":"lon-1.uk.uncletopia.com","port":27025,"enabled":true,"region":"eu","cc":"gb","latitude":51.509865,"longitude":-0.118092,"reserved":0,"last_update":"0001-01-01T00:00:00Z","name_a2s":"Uncletopia | London | 2 | All Maps","protocol":17,"map":"cp_dustbowl","folder":"tf","game":"Team Fortress","app_id":440,"player_count":10,"max_players":24,"Bots":0,"server_type":"Dedicated","server_os":"Linux","password":true,"vac":true,"version":"7757534","steam_id":85568392924470941,"keywords":["cp","nocrits","nodmgspread","uncletopia"],"game_id":440,"stv_port":27026,"stv_name":"Uncletopia | London | 2 | All Maps | STV","players":[{"user_id":154,"name":"Thesis","steam_id":76561199308784371,"connected_time":10842000000000,"state":"active","ping":60},{"user_id":270,"name":"Poeka","steam_id":76561198031180960,"connected_time":1897000000000,"state":"active","ping":69},{"user_id":285,"name":"FELHEEE","steam_id":76561197987151150,"connected_time":219000000000,"state":"active","ping":82},{"user_id":262,"name":"Ghost Rider","steam_id":76561198385332122,"connected_time":2671000000000,"state":"active","ping":111},{"user_id":271,"name":"Peter Chen","steam_id":76561198038039158,"connected_time":1882000000000,"state":"active","ping":69},{"user_id":269,"name":"Walsingham","steam_id":76561198022244457,"connected_time":1929000000000,"state":"active","ping":62},{"user_id":287,"name":"kpn","steam_id":76561198063512694,"connected_time":211000000000,"state":"active","ping":45},{"user_id":280,"name":"Jimortal","steam_id":76561198342426856,"connected_time":864000000000,"state":"active","ping":57},{"user_id":228,"name":"Een schaap zonder slaap","steam_id":76561198084808410,"connected_time":5178000000000,"state":"active","ping":57},{"user_id":220,"name":"Le Bon Toutou","steam_id":76561198300902712,"connected_time":5422000000000,"state":"active","ping":75}]},{"server_id":320,"name":"Uncletopia | London | 3 | All Maps","name_short":"lon-3","host":"lon-1.uk.uncletopia.com","port":27035,"enabled":true,"region":"eu","cc":"gb","latitude":51.509865,"longitude":-0.118092,"reserved":0,"last_update":"0001-01-01T00:00:00Z","name_a2s":"Uncletopia | London | 3 | All Maps","protocol":17,"map":"plr_hightower","folder":"tf","game":"Team Fortress","app_id":440,"player_count":24,"max_players":24,"Bots":0,"server_type":"Dedicated","server_os":"Linux","password":true,"vac":true,"version":"7757534","steam_id":85568392924510192,"keywords":["nocrits","nodmgspread","payload","uncletopia"],"game_id":440,"stv_port":27036,"stv_name":"Uncletopia | London | 3 | All Maps | STV","players":[{"user_id":129,"name":"Din Javel","steam_id":76561198043018352,"connected_time":2944000000000,"state":"active","ping":70},{"user_id":130,"name":"Benny the Ball","steam_id":76561198043104532,"connected_time":2925000000000,"state":"active","ping":43},{"user_id":111,"name":"Grandma","steam_id":76561198042593027,"connected_time":3510000000000,"state":"active","ping":98},{"user_id":178,"name":"Meaty","steam_id":76561198047728158,"connected_time":44000000000,"state":"active","ping":40},{"user_id":155,"name":"Blade the vampire (bisexual)","steam_id":76561198074097655,"connected_time":872000000000,"state":"active","ping":41},{"user_id":162,"name":"fear the old blood","steam_id":76561199026097466,"connected_time":713000000000,"state":"active","ping":76},{"user_id":139,"name":"Internetowy Pies","steam_id":76561198005719732,"connected_time":2721000000000,"state":"active","ping":78},{"user_id":166,"name":"CEO of Pen Island","steam_id":76561198037212191,"connected_time":576000000000,"state":"active","ping":65},{"user_id":164,"name":"AActualIdiot","steam_id":76561199226253482,"connected_time":636000000000,"state":"active","ping":100},{"user_id":125,"name":"THE BORBINATOR","steam_id":76561198099755764,"connected_time":3091000000000,"state":"active","ping":55},{"user_id":167,"name":"Ham Fatty","steam_id":76561198071454198,"connected_time":574000000000,"state":"active","ping":164},{"user_id":148,"name":"Mr Prince","steam_id":76561199006591691,"connected_time":2287000000000,"state":"active","ping":57},{"user_id":173,"name":"the real lancer from deltarune","steam_id":76561199078505144,"connected_time":308000000000,"state":"active","ping":82},{"user_id":128,"name":"Wade Wilson's Spoilt C4","steam_id":76561198013884709,"connected_time":2980000000000,"state":"active","ping":82},{"user_id":116,"name":"justChaoyi","steam_id":76561199227837893,"connected_time":3368000000000,"state":"active","ping":63},{"user_id":168,"name":"G(RIZZ)LY","steam_id":76561197973234203,"connected_time":561000000000,"state":"active","ping":60},{"user_id":174,"name":"Lovelessvaccuum","steam_id":76561198079555422,"connected_time":165000000000,"state":"active","ping":37},{"user_id":169,"name":"Your ace daddy","steam_id":76561198364737348,"connected_time":484000000000,"state":"active","ping":63},{"user_id":141,"name":"Funky Dude","steam_id":76561198271837212,"connected_time":2711000000000,"state":"active","ping":62},{"user_id":170,"name":"Leituga","steam_id":76561198051127598,"connected_time":466000000000,"state":"active","ping":88},{"user_id":137,"name":"Blackout195","steam_id":76561198069410775,"connected_time":2744000000000,"state":"active","ping":45},{"user_id":177,"name":"outin","steam_id":76561198137734730,"connected_time":113000000000,"state":"active","ping":73},{"user_id":142,"name":"Engie gaming","steam_id":76561198003366826,"connected_time":2654000000000,"state":"active","ping":71},{"user_id":172,"name":"sPork","steam_id":76561198056880331,"connected_time":385000000000,"state":"active","ping":64}]},{"server_id":321,"name":"Uncletopia | London | 4 | All Maps","name_short":"lon-4","host":"lon-1.uk.uncletopia.com","port":27045,"enabled":true,"region":"eu","cc":"gb","latitude":51.509865,"longitude":-0.118092,"reserved":0,"last_update":"0001-01-01T00:00:00Z","name_a2s":"Uncletopia | London | 4 | All Maps","protocol":17,"map":"cp_5gorge","folder":"tf","game":"Team Fortress","app_id":440,"player_count":23,"max_players":24,"Bots":0,"server_type":"Dedicated","server_os":"Linux","password":true,"vac":true,"version":"7757534","steam_id":85568392924510193,"keywords":["cp","nocrits","nodmgspread","uncletopia"],"game_id":440,"stv_port":27046,"stv_name":"Uncletopia | London | 4 | All Maps | STV","players":[{"user_id":451,"name":"flora","steam_id":76561197994492154,"connected_time":1131000000000,"state":"active","ping":74},{"user_id":461,"name":"Star in a pond","steam_id":76561198205501279,"connected_time":284000000000,"state":"active","ping":95},{"user_id":385,"name":"Tata Cobraz0r","steam_id":76561198017693962,"connected_time":4699000000000,"state":"active","ping":86},{"user_id":458,"name":"Ablativus","steam_id":76561198025698470,"connected_time":738000000000,"state":"active","ping":74},{"user_id":467,"name":"JumJim","steam_id":76561198038099760,"connected_time":104000000000,"state":"spawning","ping":72},{"user_id":462,"name":"ahhhhhhhhhh","steam_id":76561198271867664,"connected_time":231000000000,"state":"active","ping":60},{"user_id":445,"name":"Lub1z","steam_id":76561198141338376,"connected_time":1247000000000,"state":"active","ping":57},{"user_id":463,"name":"Tombobx","steam_id":76561198862443949,"connected_time":221000000000,"state":"active","ping":72},{"user_id":465,"name":"jaj hardcore","steam_id":76561198274091013,"connected_time":153000000000,"state":"active","ping":44},{"user_id":460,"name":"Sonnakai","steam_id":76561198051688749,"connected_time":387000000000,"state":"active","ping":45},{"user_id":387,"name":"Mihai","steam_id":76561199181038346,"connected_time":4505000000000,"state":"active","ping":86},{"user_id":466,"name":"gerg","steam_id":76561198041663219,"connected_time":123000000000,"state":"active","ping":56},{"user_id":468,"name":"Mortimer Khan","steam_id":76561197968829990,"connected_time":65000000000,"state":"active","ping":133},{"user_id":447,"name":"king251311","steam_id":76561199063310889,"connected_time":1207000000000,"state":"active","ping":93},{"user_id":441,"name":"Murdercake80","steam_id":76561199150860203,"connected_time":1307000000000,"state":"active","ping":160},{"user_id":469,"name":"Extraordinary Absence of Pootis","steam_id":76561198020270981,"connected_time":45000000000,"state":"active","ping":128},{"user_id":470,"name":"Assii","steam_id":76561198113336727,"connected_time":25000000000,"state":"active","ping":45},{"user_id":443,"name":"Luxer123","steam_id":76561198798999152,"connected_time":1296000000000,"state":"active","ping":156},{"user_id":471,"name":"Shawee","steam_id":76561198040730976,"connected_time":14000000000,"state":"spawning","ping":387},{"user_id":453,"name":"Fluffy","steam_id":76561198084447725,"connected_time":1093000000000,"state":"active","ping":45},{"user_id":454,"name":"Average","steam_id":76561198158411479,"connected_time":1088000000000,"state":"active","ping":71},{"user_id":455,"name":"hook owl","steam_id":76561198872013525,"connected_time":1088000000000,"state":"active","ping":103},{"user_id":472,"name":"ToxicBlonde","steam_id":76561198136633815,"connected_time":7000000000,"state":"spawning","ping":42}]},{"server_id":21,"name":"Uncletopia | London | 5 | All Maps","name_short":"lon-5","host":"lon-1.uk.uncletopia.com","port":27055,"enabled":true,"region":"eu","cc":"gb","latitude":51.509865,"longitude":-0.118092,"reserved":0,"last_update":"0001-01-01T00:00:00Z","name_a2s":"Uncletopia | London | 5 | All Maps","protocol":17,"map":"pl_frontier_final","folder":"tf","game":"Team Fortress","app_id":440,"player_count":22,"max_players":24,"Bots":0,"server_type":"Dedicated","server_os":"Linux","password":true,"vac":true,"version":"7757534","steam_id":85568392924742829,"keywords":["nocrits","nodmgspread","payload","uncletopia"],"game_id":440,"stv_port":27056,"stv_name":"Uncletopia | London | 5 | All Maps | STV","players":[{"user_id":382,"name":"Shlongulator","steam_id":76561198149779201,"connected_time":4374000000000,"state":"active","ping":56},{"user_id":454,"name":"lieutenant babylon","steam_id":76561198314919758,"connected_time":11000000000,"state":"spawning","ping":59},{"user_id":415,"name":"manKe","steam_id":76561198008564860,"connected_time":2059000000000,"state":"active","ping":55},{"user_id":399,"name":"Demengies","steam_id":76561198060414484,"connected_time":2734000000000,"state":"active","ping":45},{"user_id":455,"name":"Max Andrew","steam_id":76561198158955194,"connected_time":4000000000,"state":"spawning","ping":47},{"user_id":401,"name":"DooWooD","steam_id":76561198335810106,"connected_time":2701000000000,"state":"active","ping":76},{"user_id":425,"name":"New","steam_id":76561198402195911,"connected_time":1850000000000,"state":"active","ping":121},{"user_id":444,"name":"Bagels","steam_id":76561198389646406,"connected_time":411000000000,"state":"active","ping":56},{"user_id":420,"name":"ikc159","steam_id":76561198020559026,"connected_time":1978000000000,"state":"active","ping":58},{"user_id":447,"name":"Ran33","steam_id":76561197991474499,"connected_time":321000000000,"state":"active","ping":89},{"user_id":448,"name":"logo in the foam","steam_id":76561198188642265,"connected_time":305000000000,"state":"active","ping":52},{"user_id":449,"name":"Videogamer","steam_id":76561198106012909,"connected_time":254000000000,"state":"active","ping":80},{"user_id":383,"name":"joecalmatt","steam_id":76561198172552015,"connected_time":4367000000000,"state":"active","ping":46},{"user_id":418,"name":"nyanezt","steam_id":76561198253734265,"connected_time":2035000000000,"state":"active","ping":89},{"user_id":450,"name":"Umby","steam_id":76561198166584580,"connected_time":239000000000,"state":"active","ping":36},{"user_id":451,"name":"TheColorDown","steam_id":76561198290356364,"connected_time":221000000000,"state":"active","ping":135},{"user_id":452,"name":"Reast","steam_id":76561198022796927,"connected_time":205000000000,"state":"active","ping":90},{"user_id":441,"name":"Wolvithe","steam_id":76561198142555612,"connected_time":966000000000,"state":"active","ping":46},{"user_id":430,"name":"Wc Biere","steam_id":76561198200886539,"connected_time":1741000000000,"state":"active","ping":118},{"user_id":439,"name":"Sky","steam_id":76561198087415698,"connected_time":1061000000000,"state":"active","ping":46},{"user_id":453,"name":"yasser","steam_id":76561198103973320,"connected_time":145000000000,"state":"active","ping":91},{"user_id":434,"name":"Franku","steam_id":76561199192707266,"connected_time":1622000000000,"state":"active","ping":59}]},{"server_id":22,"name":"Uncletopia | London | 6 | All Maps","name_short":"lon-6","host":"lon-1.uk.uncletopia.com","port":27065,"enabled":true,"region":"eu","cc":"gb","latitude":51.509865,"longitude":-0.118092,"reserved":0,"last_update":"0001-01-01T00:00:00Z","name_a2s":"Uncletopia | London | 6 | All Maps","protocol":17,"map":"pl_pier","folder":"tf","game":"Team Fortress","app_id":440,"player_count":23,"max_players":24,"Bots":0,"server_type":"Dedicated","server_os":"Linux","password":true,"vac":true,"version":"7757534","steam_id":85568392924742830,"keywords":["nocrits","nodmgspread","payload","uncletopia"],"game_id":440,"stv_port":27066,"stv_name":"Uncletopia | London | 6 | All Maps | STV","players":[{"user_id":58,"name":"Enforcer02","steam_id":76561197966045944,"connected_time":549000000000,"state":"active","ping":60},{"user_id":61,"name":"Lunar","steam_id":76561199077495290,"connected_time":489000000000,"state":"active","ping":66},{"user_id":71,"name":"Jack\u003c3","steam_id":76561197968851846,"connected_time":129000000000,"state":"active","ping":55},{"user_id":63,"name":"Room","steam_id":76561199174579733,"connected_time":450000000000,"state":"active","ping":121},{"user_id":57,"name":"Pedrick Dinwiddie","steam_id":76561198423902979,"connected_time":578000000000,"state":"active","ping":45},{"user_id":64,"name":"Hann√º","steam_id":76561197969886128,"connected_time":447000000000,"state":"active","ping":53},{"user_id":30,"name":"Summer ‚ô•","steam_id":76561198047723907,"connected_time":2088000000000,"state":"active","ping":44},{"user_id":33,"name":"Garfailed The Dumbass","steam_id":76561198979140645,"connected_time":1542000000000,"state":"active","ping":59},{"user_id":32,"name":"BirdTickler","steam_id":76561197991429718,"connected_time":2033000000000,"state":"active","ping":89},{"user_id":38,"name":"im red","steam_id":76561199087284519,"connected_time":1227000000000,"state":"active","ping":84},{"user_id":65,"name":"SHADOW WIZARD MONEY GANG","steam_id":76561198914610283,"connected_time":432000000000,"state":"active","ping":80},{"user_id":43,"name":"Tanza -","steam_id":76561197961335217,"connected_time":927000000000,"state":"active","ping":55},{"user_id":44,"name":"KingVoker","steam_id":76561198039602539,"connected_time":874000000000,"state":"active","ping":74},{"user_id":46,"name":"„ÄéDorarhim„Äè","steam_id":76561198220232352,"connected_time":789000000000,"state":"active","ping":45},{"user_id":48,"name":"wag wag lids","steam_id":76561198259668029,"connected_time":673000000000,"state":"active","ping":53},{"user_id":49,"name":"not drunk","steam_id":76561199184873889,"connected_time":659000000000,"state":"active","ping":63},{"user_id":50,"name":"MrrPickle","steam_id":76561198122046514,"connected_time":641000000000,"state":"active","ping":139},{"user_id":52,"name":"ciaraaxox","steam_id":76561198273912610,"connected_time":628000000000,"state":"active","ping":77},{"user_id":53,"name":"cquilter98xoxo","steam_id":76561199100424482,"connected_time":626000000000,"state":"active","ping":71},{"user_id":54,"name":"McGov","steam_id":76561198211361463,"connected_time":626000000000,"state":"active","ping":64},{"user_id":70,"name":"Mrakan","steam_id":76561199239780769,"connected_time":203000000000,"state":"active","ping":72},{"user_id":56,"name":"Tort","steam_id":76561198329646769,"connected_time":603000000000,"state":"active","ping":55},{"user_id":68,"name":"NoFoxGiven","steam_id":76561197997458434,"connected_time":373000000000,"state":"active","ping":56}]},{"server_id":40,"name":"Uncletopia | London | 7 | No Payload","name_short":"lon-7","host":"lon-1.uk.uncletopia.com","port":27075,"enabled":true,"region":"eu","cc":"gb","latitude":51.509865,"longitude":-0.118092,"reserved":0,"last_update":"0001-01-01T00:00:00Z","name_a2s":"Uncletopia | London | 7 | No Payload","protocol":17,"map":"cp_5gorge","folder":"tf","game":"Team Fortress","app_id":440,"player_count":24,"max_players":24,"Bots":0,"server_type":"Dedicated","server_os":"Linux","password":true,"vac":true,"version":"7757534","steam_id":85568392924964314,"keywords":["cp","nocrits","nodmgspread","uncletopia"],"game_id":440,"stv_port":27076,"stv_name":"Uncletopia | London | 7 | No Payload | STV","players":[{"user_id":167,"name":"zaleek69","steam_id":76561198058877595,"connected_time":2150000000000,"state":"active","ping":68},{"user_id":182,"name":"_BackBone_","steam_id":76561198816315720,"connected_time":1415000000000,"state":"active","ping":52},{"user_id":193,"name":"KFC Enjoyer","steam_id":76561198840259819,"connected_time":311000000000,"state":"active","ping":60},{"user_id":175,"name":"nugget the hoovy","steam_id":76561199293101434,"connected_time":1884000000000,"state":"active","ping":147},{"user_id":194,"name":"duq","steam_id":76561198073016365,"connected_time":56000000000,"state":"active","ping":84},{"user_id":176,"name":"greg","steam_id":76561198047388059,"connected_time":1879000000000,"state":"active","ping":88},{"user_id":177,"name":"fume.","steam_id":76561197960476801,"connected_time":1727000000000,"state":"active","ping":56},{"user_id":192,"name":"WHUSSKEY","steam_id":76561198137827441,"connected_time":801000000000,"state":"active","ping":81},{"user_id":149,"name":"DutsLikesDolphins","steam_id":76561198293882418,"connected_time":4099000000000,"state":"active","ping":63},{"user_id":78,"name":"Lady Havoc","steam_id":76561198403933649,"connected_time":6965000000000,"state":"active","ping":68},{"user_id":144,"name":"Doc","steam_id":76561198433991203,"connected_time":4173000000000,"state":"active","ping":41},{"user_id":185,"name":"R A S M U S","steam_id":76561198279799226,"connected_time":1231000000000,"state":"active","ping":81},{"user_id":160,"name":"drippin jimmy","steam_id":76561198219243969,"connected_time":3046000000000,"state":"active","ping":64},{"user_id":134,"name":"Minimi","steam_id":76561198873850443,"connected_time":4898000000000,"state":"active","ping":41},{"user_id":163,"name":"Hihiguy","steam_id":76561198326730137,"connected_time":2807000000000,"state":"active","ping":54},{"user_id":181,"name":"Cigatious Tome","steam_id":76561199001965029,"connected_time":1545000000000,"state":"active","ping":58},{"user_id":191,"name":"SuntanPikachu","steam_id":76561198121242476,"connected_time":825000000000,"state":"active","ping":58},{"user_id":187,"name":"Sabour","steam_id":76561197963965445,"connected_time":1205000000000,"state":"active","ping":71},{"user_id":188,"name":"noobdog","steam_id":76561198036486671,"connected_time":1117000000000,"state":"active","ping":74},{"user_id":138,"name":"It's Salt","steam_id":76561198003994592,"connected_time":4733000000000,"state":"active","ping":49},{"user_id":189,"name":"OutOfDucks","steam_id":76561198166376227,"connected_time":990000000000,"state":"active","ping":57},{"user_id":129,"name":"Pinkchup","steam_id":76561198106802803,"connected_time":4927000000000,"state":"active","ping":76},{"user_id":161,"name":"bombo112","steam_id":76561198059743551,"connected_time":3027000000000,"state":"active","ping":77},{"user_id":147,"name":"gojoel","steam_id":76561198251181946,"connected_time":4143000000000,"state":"active","ping":45}]},{"server_id":41,"name":"Uncletopia | London | 8 | Community","name_short":"lon-8","host":"lon-1.uk.uncletopia.com","port":27085,"enabled":true,"region":"eu","cc":"gb","latitude":51.509865,"longitude":-0.118092,"reserved":0,"last_update":"0001-01-01T00:00:00Z","name_a2s":"Uncletopia | London | 8 | Community","protocol":17,"map":"workshop/koth_product_final.ugc454272353","folder":"tf","game":"Team Fortress","app_id":440,"player_count":0,"max_players":24,"Bots":0,"server_type":"Dedicated","server_os":"Linux","password":true,"vac":true,"version":"7757534","steam_id":85568392924964315,"keywords":["cp","nocrits","nodmgspread","uncletopia"],"game_id":440,"stv_port":27086,"stv_name":"Uncletopia | London | 8 | Community | STV","players":null},{"server_id":300,"name":"Uncletopia | Montr√©al | 1 | All Maps","name_short":"mtl-1","host":"mtl-1.ca.uncletopia.com","port":27015,"enabled":true,"region":"us-east","cc":"ca","latitude":45.50889,"longitude":-73.56167,"reserved":0,"last_update":"0001-01-01T00:00:00Z","name_a2s":"Uncletopia | Montr√©al | 1 | All Maps","protocol":17,"map":"koth_cascade","folder":"tf","game":"Team Fortress","app_id":440,"player_count":0,"max_players":24,"Bots":0,"server_type":"Dedicated","server_os":"Linux","password":true,"vac":true,"version":"7757534","steam_id":85568392924500087,"keywords":["cp","nocrits","nodmgspread","uncletopia"],"game_id":440,"stv_port":27016,"stv_name":"Uncletopia | Montr√©al | 1 | All Maps | STV","players":null},{"server_id":301,"name":"Uncletopia | Montr√©al | 2 | All Maps","name_short":"mtl-2","host":"mtl-1.ca.uncletopia.com","port":27025,"enabled":true,"region":"us-east","cc":"ca","latitude":45.50889,"longitude":-73.56167,"reserved":0,"last_update":"0001-01-01T00:00:00Z","name_a2s":"Uncletopia | Montr√©al | 2 | All Maps","protocol":17,"map":"pl_borneo","folder":"tf","game":"Team Fortress","app_id":440,"player_count":0,"max_players":24,"Bots":0,"server_type":"Dedicated","server_os":"Linux","password":true,"vac":true,"version":"7757534","steam_id":85568392924500088,"keywords":["nocrits","nodmgspread","payload","uncletopia"],"game_id":440,"stv_port":27026,"stv_name":"Uncletopia | Montr√©al | 2 | All Maps | STV","players":null},{"server_id":302,"name":"Uncletopia | Montr√©al | 3 | All Maps","name_short":"mtl-3","host":"mtl-1.ca.uncletopia.com","port":27035,"enabled":true,"region":"us-east","cc":"ca","latitude":45.50889,"longitude":-73.56167,"reserved":0,"last_update":"0001-01-01T00:00:00Z","name_a2s":"Uncletopia | Montr√©al | 3 | All Maps","protocol":17,"map":"cp_sunshine","folder":"tf","game":"Team Fortress","app_id":440,"player_count":0,"max_players":24,"Bots":0,"server_type":"Dedicated","server_os":"Linux","password":true,"vac":true,"version":"7757534","steam_id":85568392924500089,"keywords":["cp","nocrits","nodmgspread","uncletopia"],"game_id":440,"stv_port":27036,"stv_name":"Uncletopia | Montr√©al | 3 | All Maps | STV","players":null},{"server_id":303,"name":"Uncletopia | Montr√©al | 4 | No Payload","name_short":"mtl-4","host":"mtl-1.ca.uncletopia.com","port":27045,"enabled":true,"region":"us-east","cc":"ca","latitude":45.50889,"longitude":-73.56167,"reserved":0,"last_update":"0001-01-01T00:00:00Z","name_a2s":"Uncletopia | Montr√©al | 4 | No Payload","protocol":17,"map":"koth_lakeside_final","folder":"tf","game":"Team Fortress","app_id":440,"player_count":0,"max_players":24,"Bots":0,"server_type":"Dedicated","server_os":"Linux","password":true,"vac":true,"version":"7757534","steam_id":85568392924500090,"keywords":["cp","nocrits","nodmgspread","uncletopia"],"game_id":440,"stv_port":27046,"stv_name":"Uncletopia | Montr√©al | 4 | No Payload | STV","players":null},{"server_id":13,"name":"Uncletopia | New York City | 1 | All Maps","name_short":"nyc-1","host":"nyc-1.us.uncletopia.com","port":27015,"enabled":true,"region":"us-east","cc":"us","latitude":40.73061,"longitude":-73.93524,"reserved":0,"last_update":"0001-01-01T00:00:00Z","name_a2s":"Uncletopia | New York City | 1 | All Maps","protocol":17,"map":"cp_altitude","folder":"tf","game":"Team Fortress","app_id":440,"player_count":24,"max_players":24,"Bots":0,"server_type":"Dedicated","server_os":"Linux","password":true,"vac":true,"version":"7757534","steam_id":85568392924469993,"keywords":["cp","nocrits","nodmgspread","uncletopia"],"game_id":440,"stv_port":27016,"stv_name":"Uncletopia | New York City | 1 | All Maps | STV","players":[{"user_id":316,"name":"Sqwelsh","steam_id":76561198067805159,"connected_time":660000000000,"state":"active","ping":68},{"user_id":311,"name":"Inevitable","steam_id":76561198210050169,"connected_time":1363000000000,"state":"active","ping":50},{"user_id":315,"name":"p. sugar gaming","steam_id":76561198799740059,"connected_time":699000000000,"state":"active","ping":59},{"user_id":288,"name":"Paolo","steam_id":76561198048134549,"connected_time":3350000000000,"state":"active","ping":80},{"user_id":324,"name":"Garry","steam_id":76561199012973315,"connected_time":12000000000,"state":"spawning","ping":65},{"user_id":302,"name":"Kasane","steam_id":76561198209006780,"connected_time":2020000000000,"state":"active","ping":86},{"user_id":303,"name":"Mad Chemist 17","steam_id":76561199160898833,"connected_time":1963000000000,"state":"active","ping":70},{"user_id":313,"name":"Vem","steam_id":76561198117273112,"connected_time":1193000000000,"state":"active","ping":67},{"user_id":310,"name":"ah! pee surprise!","steam_id":76561198133051016,"connected_time":1593000000000,"state":"active","ping":45},{"user_id":275,"name":"denny razor","steam_id":76561198143044044,"connected_time":4419000000000,"state":"active","ping":60},{"user_id":270,"name":"Dilbert","steam_id":76561198195613682,"connected_time":4600000000000,"state":"active","ping":76},{"user_id":297,"name":"logan paul fleshlight (realisti","steam_id":76561198011363677,"connected_time":2496000000000,"state":"active","ping":62},{"user_id":282,"name":"Oomitch","steam_id":76561198071702759,"connected_time":3898000000000,"state":"active","ping":127},{"user_id":314,"name":"RedNeckMatt","steam_id":76561198025831435,"connected_time":1056000000000,"state":"active","ping":73},{"user_id":323,"name":"Cake Baking Pagan Woman","steam_id":76561198055627017,"connected_time":198000000000,"state":"active","ping":75},{"user_id":266,"name":"parm spagert with bassil","steam_id":76561198047476380,"connected_time":5158000000000,"state":"active","ping":71},{"user_id":306,"name":"TheGhostThatWas","steam_id":76561198055836483,"connected_time":1912000000000,"state":"active","ping":45},{"user_id":312,"name":"TheFlyingTortis","steam_id":76561198071576016,"connected_time":1302000000000,"state":"active","ping":75},{"user_id":267,"name":"po","steam_id":76561198050552558,"connected_time":5108000000000,"state":"active","ping":92},{"user_id":320,"name":"OrangeShoes","steam_id":76561197971249940,"connected_time":380000000000,"state":"active","ping":100},{"user_id":308,"name":"miles","steam_id":76561198006838401,"connected_time":1793000000000,"state":"active","ping":60},{"user_id":317,"name":"abed","steam_id":76561198072856511,"connected_time":425000000000,"state":"active","ping":79},{"user_id":318,"name":"that fat croc from donkey kong","steam_id":76561198159172495,"connected_time":417000000000,"state":"active","ping":130},{"user_id":220,"name":"Baron von Whoopsie","steam_id":76561197996691013,"connected_time":7430000000000,"state":"active","ping":56}]},{"server_id":14,"name":"Uncletopia | New York City | 2 | All Maps","name_short":"nyc-2","host":"nyc-1.us.uncletopia.com","port":27025,"enabled":true,"region":"us-east","cc":"us","latitude":40.73061,"longitude":-73.93524,"reserved":0,"last_update":"0001-01-01T00:00:00Z","name_a2s":"Uncletopia | New York City | 2 | All Maps","protocol":17,"map":"pl_swiftwater_final1","folder":"tf","game":"Team Fortress","app_id":440,"player_count":0,"max_players":24,"Bots":0,"server_type":"Dedicated","server_os":"Linux","password":true,"vac":true,"version":"7757534","steam_id":85568392924469994,"keywords":["nocrits","nodmgspread","payload","uncletopia"],"game_id":440,"stv_port":27026,"stv_name":"Uncletopia | New York City | 2 | All Maps | STV","players":null},{"server_id":15,"name":"Uncletopia | New York City | 3 | Stopwatch Beta","name_short":"nyc-3","host":"nyc-1.us.uncletopia.com","port":27035,"enabled":true,"region":"us-east","cc":"us","latitude":40.73061,"longitude":-73.93524,"reserved":0,"last_update":"0001-01-01T00:00:00Z","name_a2s":"Uncletopia | New York City | 3 | Stopwatch Beta","protocol":17,"map":"workshop/koth_clearcut_b15.ugc2107050255","folder":"tf","game":"Team Fortress","app_id":440,"player_count":0,"max_players":24,"Bots":0,"server_type":"Dedicated","server_os":"Linux","password":true,"vac":true,"version":"7757534","steam_id":85568392924742820,"keywords":["cp","nocrits","nodmgspread","uncletopia"],"game_id":440,"stv_port":27036,"stv_name":"Uncletopia | New York City | 3 | Stopwatch Beta | STV","players":null},{"server_id":16,"name":"Uncletopia | New York City | 4 | Community","name_short":"nyc-4","host":"nyc-1.us.uncletopia.com","port":27045,"enabled":true,"region":"us-east","cc":"us","latitude":40.73061,"longitude":-73.93524,"reserved":0,"last_update":"0001-01-01T00:00:00Z","name_a2s":"Uncletopia | New York City | 4 | Community","protocol":17,"map":"pl_borneo","folder":"tf","game":"Team Fortress","app_id":440,"player_count":0,"max_players":24,"Bots":0,"server_type":"Dedicated","server_os":"Linux","password":true,"vac":true,"version":"7757534","steam_id":85568392924742821,"keywords":["nocrits","nodmgspread","payload","uncletopia"],"game_id":440,"stv_port":27046,"stv_name":"Uncletopia | New York City | 4 | Community | STV","players":null},{"server_id":142,"name":"Uncletopia | S√£o Paulo | 1 | All Maps","name_short":"sao-1","host":"sao-1.br.uncletopia.com","port":27015,"enabled":true,"region":"sa","cc":"br","latitude":-23.533773,"longitude":-46.62529,"reserved":0,"last_update":"0001-01-01T00:00:00Z","name_a2s":"Uncletopia | S√£o Paulo | 1 | All Maps","protocol":17,"map":"koth_lakeside_final","folder":"tf","game":"Team Fortress","app_id":440,"player_count":0,"max_players":24,"Bots":0,"server_type":"Dedicated","server_os":"Linux","password":true,"vac":true,"version":"7757534","steam_id":85568392924469996,"keywords":["cp","nocrits","nodmgspread","uncletopia"],"game_id":440,"stv_port":27016,"stv_name":"Uncletopia | S√£o Paulo | 1 | All Maps | STV","players":null},{"server_id":143,"name":"Uncletopia | S√£o Paulo | 2 | All Maps","name_short":"sao-2","host":"sao-2.br.uncletopia.com","port":27015,"enabled":true,"region":"sa","cc":"br","latitude":-23.533773,"longitude":-46.62529,"reserved":0,"last_update":"0001-01-01T00:00:00Z","name_a2s":"Uncletopia | S√£o Paulo | 2 | All Maps","protocol":17,"map":"pl_snowycoast","folder":"tf","game":"Team Fortress","app_id":440,"player_count":0,"max_players":24,"Bots":0,"server_type":"Dedicated","server_os":"Linux","password":true,"vac":true,"version":"7757534","steam_id":85568392924485349,"keywords":["nocrits","nodmgspread","payload","uncletopia"],"game_id":440,"stv_port":27016,"stv_name":"Uncletopia | S√£o Paulo | 2 | All Maps | STV","players":null},{"server_id":7,"name":"Uncletopia | Seattle | 1 | All Maps","name_short":"sea-1","host":"sea-1.us.uncletopia.com","port":27015,"enabled":true,"region":"us-west","cc":"us","latitude":47.608013,"longitude":-122.33517,"reserved":0,"last_update":"0001-01-01T00:00:00Z","name_a2s":"Uncletopia | Seattle | 1 | All Maps","protocol":17,"map":"koth_lakeside_final","folder":"tf","game":"Team Fortress","app_id":440,"player_count":0,"max_players":24,"Bots":0,"server_type":"Dedicated","server_os":"Linux","password":true,"vac":true,"version":"7757534","steam_id":85568392924469997,"keywords":["cp","nocrits","nodmgspread","uncletopia"],"game_id":440,"stv_port":27016,"stv_name":"Uncletopia | Seattle | 1 | All Maps | STV","players":null},{"server_id":119,"name":"Uncletopia | Seattle | 2 | All Maps","name_short":"sea-2","host":"sea-1.us.uncletopia.com","port":27025,"enabled":true,"region":"us-west","cc":"us","latitude":47.608013,"longitude":-122.33517,"reserved":0,"last_update":"0001-01-01T00:00:00Z","name_a2s":"Uncletopia | Seattle | 2 | All Maps","protocol":17,"map":"koth_viaduct","folder":"tf","game":"Team Fortress","app_id":440,"player_count":0,"max_players":24,"Bots":0,"server_type":"Dedicated","server_os":"Linux","password":true,"vac":true,"version":"7757534","steam_id":85568392924469998,"keywords":["cp","nocrits","nodmgspread","uncletopia"],"game_id":440,"stv_port":27026,"stv_name":"Uncletopia | Seattle | 2 | All Maps | STV","players":null},{"server_id":406,"name":"Uncletopia | Seattle | 3 | Stopwatch Beta","name_short":"sea-3","host":"sea-1.us.uncletopia.com","port":27035,"enabled":true,"region":"us-west","cc":"us","latitude":47.608013,"longitude":-122.33517,"reserved":0,"last_update":"0001-01-01T00:00:00Z","name_a2s":"Uncletopia | Seattle | 3 | Stopwatch Beta","protocol":17,"map":"cp_sunshine","folder":"tf","game":"Team Fortress","app_id":440,"player_count":0,"max_players":24,"Bots":0,"server_type":"Dedicated","server_os":"Linux","password":true,"vac":true,"version":"7757534","steam_id":85568392924515217,"keywords":["cp","nocrits","nodmgspread","uncletopia"],"game_id":440,"stv_port":27036,"stv_name":"Uncletopia | Seattle | 3 | Stopwatch Beta | STV","players":null},{"server_id":17,"name":"Uncletopia | San Francisco | 1 | All Maps","name_short":"sfo-1","host":"sfo-1.us.uncletopia.com","port":27015,"enabled":true,"region":"us-west","cc":"us","latitude":37.77397,"longitude":-122.4313,"reserved":0,"last_update":"0001-01-01T00:00:00Z","name_a2s":"Uncletopia | San Francisco | 1 | All Maps","protocol":17,"map":"cp_dustbowl","folder":"tf","game":"Team Fortress","app_id":440,"player_count":0,"max_players":24,"Bots":0,"server_type":"Dedicated","server_os":"Linux","password":true,"vac":true,"version":"7757534","steam_id":85568392924469999,"keywords":["cp","nocrits","nodmgspread","uncletopia"],"game_id":440,"stv_port":27016,"stv_name":"Uncletopia | San Francisco | 1 | All Maps | STV","players":null},{"server_id":18,"name":"Uncletopia | San Francisco | 2 | All Maps","name_short":"sfo-2","host":"sfo-1.us.uncletopia.com","port":27025,"enabled":true,"region":"us-west","cc":"us","latitude":37.77397,"longitude":-122.4313,"reserved":0,"last_update":"0001-01-01T00:00:00Z","name_a2s":"Uncletopia | San Francisco | 2 | All Maps","protocol":17,"map":"cp_mountainlab","folder":"tf","game":"Team Fortress","app_id":440,"player_count":0,"max_players":24,"Bots":0,"server_type":"Dedicated","server_os":"Linux","password":true,"vac":true,"version":"7757534","steam_id":85568392924470000,"keywords":["cp","nocrits","nodmgspread","uncletopia"],"game_id":440,"stv_port":27026,"stv_name":"Uncletopia | San Francisco | 2 | All Maps | STV","players":null},{"server_id":19,"name":"Uncletopia | San Francisco | 3 | Stopwatch Beta","name_short":"sfo-3","host":"sfo-1.us.uncletopia.com","port":27035,"enabled":true,"region":"us-west","cc":"us","latitude":37.77397,"longitude":-122.4313,"reserved":0,"last_update":"0001-01-01T00:00:00Z","name_a2s":"Uncletopia | San Francisco | 3 | Stopwatch Beta","protocol":17,"map":"koth_viaduct","folder":"tf","game":"Team Fortress","app_id":440,"player_count":0,"max_players":24,"Bots":0,"server_type":"Dedicated","server_os":"Linux","password":true,"vac":true,"version":"7757534","steam_id":85568392924742824,"keywords":["cp","nocrits","nodmgspread","uncletopia"],"game_id":440,"stv_port":27036,"stv_name":"Uncletopia | San Francisco | 3 | Stopwatch Beta | STV","players":null},{"server_id":20,"name":"Uncletopia | San Francisco | 4 | Community","name_short":"sfo-4","host":"sfo-1.us.uncletopia.com","port":27045,"enabled":true,"region":"us-west","cc":"us","latitude":37.77397,"longitude":-122.4313,"reserved":0,"last_update":"0001-01-01T00:00:00Z","name_a2s":"Uncletopia | San Francisco | 4 | Community","protocol":17,"map":"pl_borneo","folder":"tf","game":"Team Fortress","app_id":440,"player_count":0,"max_players":24,"Bots":0,"server_type":"Dedicated","server_os":"Linux","password":true,"vac":true,"version":"7757534","steam_id":85568392924742826,"keywords":["nocrits","nodmgspread","payload","uncletopia"],"game_id":440,"stv_port":27046,"stv_name":"Uncletopia | San Francisco | 4 | Community | STV","players":null},{"server_id":141,"name":"Uncletopia | Sydney | 1 | All Maps","name_short":"syd-1","host":"syd-1.au.uncletopia.com","port":27015,"enabled":true,"region":"au","cc":"au","latitude":-33.865143,"longitude":151.2099,"reserved":0,"last_update":"0001-01-01T00:00:00Z","name_a2s":"Uncletopia | Sydney | 1 | All Maps","protocol":17,"map":"koth_lakeside_final","folder":"tf","game":"Team Fortress","app_id":440,"player_count":0,"max_players":24,"Bots":0,"server_type":"Dedicated","server_os":"Linux","password":true,"vac":true,"version":"7757534","steam_id":85568392924470001,"keywords":["cp","nocrits","nodmgspread","uncletopia"],"game_id":440,"stv_port":27016,"stv_name":"Uncletopia | Sydney | 1 | All Maps | STV","players":null},{"server_id":123,"name":"Uncletopia | Sydney | 2 | All Maps","name_short":"syd-2","host":"syd-1.au.uncletopia.com","port":27025,"enabled":true,"region":"au","cc":"au","latitude":-33.865143,"longitude":151.2099,"reserved":0,"last_update":"0001-01-01T00:00:00Z","name_a2s":"Uncletopia | Sydney | 2 | All Maps","protocol":17,"map":"koth_viaduct","folder":"tf","game":"Team Fortress","app_id":440,"player_count":0,"max_players":24,"Bots":0,"server_type":"Dedicated","server_os":"Linux","password":true,"vac":true,"version":"7757534","steam_id":85568392924470002,"keywords":["cp","nocrits","nodmgspread","uncletopia"],"game_id":440,"stv_port":27026,"stv_name":"Uncletopia | Sydney | 2 | All Maps | STV","players":null},{"server_id":395,"name":"Uncletopia | Sydney | 3 | All Maps","name_short":"syd-3","host":"syd-1.au.uncletopia.com","port":27035,"enabled":true,"region":"au","cc":"au","latitude":-33.865143,"longitude":151.2099,"reserved":0,"last_update":"0001-01-01T00:00:00Z","name_a2s":"Uncletopia | Sydney | 3 | All Maps","protocol":17,"map":"koth_viaduct","folder":"tf","game":"Team Fortress","app_id":440,"player_count":0,"max_players":24,"Bots":0,"server_type":"Dedicated","server_os":"Linux","password":true,"vac":true,"version":"7757534","steam_id":85568392925194467,"keywords":["cp","nocrits","nodmgspread","uncletopia"],"game_id":440,"stv_port":27036,"stv_name":"Uncletopia | Sydney | 3 | All Maps | STV","players":null},{"server_id":396,"name":"Uncletopia | Sydney | 4 | All Maps","name_short":"syd-4","host":"syd-1.au.uncletopia.com","port":27045,"enabled":true,"region":"au","cc":"au","latitude":-33.865143,"longitude":151.2099,"reserved":0,"last_update":"0001-01-01T00:00:00Z","name_a2s":"Uncletopia | Sydney | 4 | All Maps","protocol":17,"map":"cp_snakewater_final1","folder":"tf","game":"Team Fortress","app_id":440,"player_count":0,"max_players":24,"Bots":0,"server_type":"Dedicated","server_os":"Linux","password":true,"vac":true,"version":"7757534","steam_id":85568392925397958,"keywords":["cp","nocrits","nodmgspread","uncletopia"],"game_id":440,"stv_port":27046,"stv_name":"Uncletopia | Sydney | 4 | All Maps | STV","players":null},{"server_id":58,"name":"Uncletopia | Sydney | 5 | Stopwatch Beta","name_short":"syd-5","host":"syd-1.au.uncletopia.com","port":27055,"enabled":true,"region":"au","cc":"au","latitude":-33.865143,"longitude":151.2099,"reserved":0,"last_update":"0001-01-01T00:00:00Z","name_a2s":"Uncletopia | Sydney | 5 | Stopwatch Beta","protocol":17,"map":"pl_barnblitz","folder":"tf","game":"Team Fortress","app_id":440,"player_count":0,"max_players":24,"Bots":0,"server_type":"Dedicated","server_os":"Linux","password":true,"vac":true,"version":"7757534","steam_id":85568392925397959,"keywords":["nocrits","nodmgspread","payload","uncletopia"],"game_id":440,"stv_port":27056,"stv_name":"Uncletopia | Sydney | 5 | Stopwatch Beta | STV","players":null},{"server_id":59,"name":"Uncletopia | Sydney | 6 | Community","name_short":"syd-6","host":"syd-1.au.uncletopia.com","port":27065,"enabled":true,"region":"au","cc":"au","latitude":-33.865143,"longitude":151.2099,"reserved":0,"last_update":"0001-01-01T00:00:00Z","name_a2s":"Uncletopia | Sydney | 6 | Community","protocol":17,"map":"workshop/pl_vigil_rc9.ugc1266210012","folder":"tf","game":"Team Fortress","app_id":440,"player_count":0,"max_players":24,"Bots":0,"server_type":"Dedicated","server_os":"Linux","password":true,"vac":true,"version":"7757534","steam_id":85568392925397960,"keywords":["nocrits","nodmgspread","payload","uncletopia"],"game_id":440,"stv_port":27066,"stv_name":"Uncletopia | Sydney | 6 | Community | STV","players":null},{"server_id":49,"name":"Uncletopia | Warsaw | 1 | All Maps","name_short":"waw-1","host":"waw-1.pl.uncletopia.com","port":27015,"enabled":true,"region":"eu","cc":"pl","latitude":52.2297,"longitude":21.017532,"reserved":0,"last_update":"0001-01-01T00:00:00Z","name_a2s":"","protocol":0,"map":"","folder":"","game":"","app_id":0,"player_count":0,"max_players":0,"Bots":0,"server_type":"","server_os":"","password":false,"vac":false,"version":"","steam_id":0,"keywords":null,"game_id":0,"stv_port":0,"stv_name":"","players":null},{"server_id":50,"name":"Uncletopia | Warsaw | 2 | All Maps","name_short":"waw-2","host":"waw-1.pl.uncletopia.com","port":27025,"enabled":true,"region":"eu","cc":"pl","latitude":52.2297,"longitude":21.017532,"reserved":0,"last_update":"0001-01-01T00:00:00Z","name_a2s":"Uncletopia | Warsaw | 2 | All Maps","protocol":17,"map":"pl_badwater","folder":"tf","game":"Team Fortress","app_id":440,"player_count":21,"max_players":24,"Bots":0,"server_type":"Dedicated","server_os":"Linux","password":true,"vac":true,"version":"7757534","steam_id":85568392925397851,"keywords":["nocrits","nodmgspread","payload","uncletopia"],"game_id":440,"stv_port":27026,"stv_name":"Uncletopia | Warsaw | 2 | All Maps | STV","players":[{"user_id":90,"name":"ChickyCoop","steam_id":76561199072983488,"connected_time":2347000000000,"state":"active","ping":60},{"user_id":109,"name":"Kysterable | trade.tf","steam_id":76561198152878137,"connected_time":697000000000,"state":"active","ping":184},{"user_id":116,"name":"osiem","steam_id":76561198307681366,"connected_time":420000000000,"state":"active","ping":76},{"user_id":112,"name":"TitanTrio","steam_id":76561198144708967,"connected_time":634000000000,"state":"active","ping":163},{"user_id":119,"name":"LegitACarWithAGun","steam_id":76561198081742337,"connected_time":129000000000,"state":"active","ping":111},{"user_id":93,"name":"Grinphase","steam_id":76561198048661742,"connected_time":2137000000000,"state":"active","ping":81},{"user_id":107,"name":"The Command Prompt","steam_id":76561198154677956,"connected_time":785000000000,"state":"active","ping":84},{"user_id":104,"name":"zinzyk","steam_id":76561198128011822,"connected_time":983000000000,"state":"active","ping":74},{"user_id":67,"name":"Speeda","steam_id":76561198149893637,"connected_time":4413000000000,"state":"active","ping":110},{"user_id":120,"name":"DramiQ","steam_id":76561198826926808,"connected_time":107000000000,"state":"active","ping":46},{"user_id":110,"name":"Soldy","steam_id":76561199162950572,"connected_time":693000000000,"state":"active","ping":83},{"user_id":114,"name":"Doom Slayer","steam_id":76561199147545452,"connected_time":588000000000,"state":"active","ping":51},{"user_id":108,"name":"Barnaby","steam_id":76561198130191090,"connected_time":778000000000,"state":"active","ping":75},{"user_id":117,"name":"gat-.","steam_id":76561199085432051,"connected_time":358000000000,"state":"active","ping":88},{"user_id":121,"name":"Surprise","steam_id":76561198003707395,"connected_time":29000000000,"state":"active","ping":85},{"user_id":97,"name":"Crash„ÉÑ","steam_id":76561198956827030,"connected_time":1839000000000,"state":"active","ping":83},{"user_id":122,"name":"spiderdemon","steam_id":76561199057229602,"connected_time":17000000000,"state":"spawning","ping":90},{"user_id":94,"name":"B-merk Canon Inktcartridge","steam_id":76561198041512678,"connected_time":2135000000000,"state":"active","ping":77},{"user_id":88,"name":"Ken$hi","steam_id":76561199433994281,"connected_time":2615000000000,"state":"active","ping":79},{"user_id":89,"name":"mrms","steam_id":76561198289331719,"connected_time":2583000000000,"state":"active","ping":69},{"user_id":87,"name":"john fortress 2","steam_id":76561198202668788,"connected_time":2659000000000,"state":"active","ping":39}]},{"server_id":51,"name":"Uncletopia | Warsaw | 3 | All Maps","name_short":"waw-3","host":"waw-1.pl.uncletopia.com","port":27035,"enabled":true,"region":"eu","cc":"pl","latitude":52.2297,"longitude":21.017532,"reserved":0,"last_update":"0001-01-01T00:00:00Z","name_a2s":"Uncletopia | Warsaw | 3 | All Maps","protocol":17,"map":"koth_viaduct","folder":"tf","game":"Team Fortress","app_id":440,"player_count":2,"max_players":24,"Bots":0,"server_type":"Dedicated","server_os":"Linux","password":true,"vac":true,"version":"7757534","steam_id":85568392925397852,"keywords":["cp","nocrits","nodmgspread","uncletopia"],"game_id":440,"stv_port":27036,"stv_name":"Uncletopia | Warsaw | 3 | All Maps | STV","players":[{"user_id":11,"name":"KatTheCookiCat","steam_id":76561199054643392,"connected_time":2651000000000,"state":"active","ping":45},{"user_id":12,"name":"Explodingrayman","steam_id":76561198185783005,"connected_time":2603000000000,"state":"active","ping":220}]},{"server_id":52,"name":"Uncletopia | Warsaw | 4 | All Maps","name_short":"waw-4","host":"waw-1.pl.uncletopia.com","port":27045,"enabled":true,"region":"eu","cc":"pl","latitude":52.2297,"longitude":21.017532,"reserved":0,"last_update":"0001-01-01T00:00:00Z","name_a2s":"Uncletopia | Warsaw | 4 | All Maps","protocol":17,"map":"koth_highpass","folder":"tf","game":"Team Fortress","app_id":440,"player_count":0,"max_players":24,"Bots":0,"server_type":"Dedicated","server_os":"Linux","password":true,"vac":true,"version":"7757534","steam_id":85568392925397853,"keywords":["cp","nocrits","nodmgspread","uncletopia"],"game_id":440,"stv_port":27046,"stv_name":"Uncletopia | Warsaw | 4 | All Maps | STV","players":null},{"server_id":53,"name":"Uncletopia | Warsaw | 5 | Stopwatch Beta","name_short":"waw-5","host":"waw-1.pl.uncletopia.com","port":27055,"enabled":true,"region":"eu","cc":"pl","latitude":52.2297,"longitude":21.017532,"reserved":0,"last_update":"0001-01-01T00:00:00Z","name_a2s":"Uncletopia | Warsaw | 5 | Stopwatch Beta","protocol":17,"map":"pl_upward","folder":"tf","game":"Team Fortress","app_id":440,"player_count":0,"max_players":24,"Bots":0,"server_type":"Dedicated","server_os":"Linux","password":true,"vac":true,"version":"7757534","steam_id":85568392925397854,"keywords":["nocrits","nodmgspread","payload","uncletopia"],"game_id":440,"stv_port":27056,"stv_name":"Uncletopia | Warsaw | 5 | Stopwatch Beta | STV","players":null},{"server_id":54,"name":"Uncletopia | Warsaw | 6 | Community","name_short":"waw-6","host":"waw-1.pl.uncletopia.com","port":27065,"enabled":true,"region":"eu","cc":"pl","latitude":52.2297,"longitude":21.017532,"reserved":0,"last_update":"0001-01-01T00:00:00Z","name_a2s":"Uncletopia | Warsaw | 6 | Community","protocol":17,"map":"workshop/koth_synthetic_rc6a.ugc1549817316","folder":"tf","game":"Team Fortress","app_id":440,"player_count":0,"max_players":24,"Bots":0,"server_type":"Dedicated","server_os":"Linux","password":true,"vac":true,"version":"7757534","steam_id":85568392925397856,"keywords":["cp","nocrits","nodmgspread","uncletopia"],"game_id":440,"stv_port":27066,"stv_name":"Uncletopia | Warsaw | 6 | Community | STV","players":null}]}