{"status":true,"message":"","result":[{"server_id":9,"name":"Uncletopia | Atlanta | 1 | All Maps","name_short":"atl-1","host":"atl-1.us.uncletopia.com","port":27015,"enabled":true,"region":"us-east","cc":"us","latitude":33.753746,"longitude":-84.38633,"reserved":0,"last_update":"0001-01-01T00:00:00Z","name_a2s":"Uncletopia | Atlanta | 1 | All Maps","protocol":17,"map":"ctf_2fort","folder":"tf","game":"Team Fortress","app_id":440,"player_count":24,"max_players":24,"Bots":0,"server_type":"Dedicated","server_os":"Linux","password":true,"vac":true,"version":"7961495","steam_id":85568392924469982,"keywords":["ctf","nocrits","nodmgspread","uncletopia"],"game_id":440,"stv_port":27016,"stv_name":"Uncletopia | Atlanta | 1 | All Maps | STV","players":null},{"server_id":104,"name":"Uncletopia | Atlanta | 2 | All Maps","name_short":"atl-2","host":"atl-1.us.uncletopia.com","port":27025,"enabled":true,"region":"us-east","cc":"us","latitude":33.753746,"longitude":-84.38633,"reserved":0,"last_update":"0001-01-01T00:00:00Z","name_a2s":"Uncletopia | Atlanta | 2 | All Maps","protocol":17,"map":"pl_upward","folder":"tf","game":"Team Fortress","app_id":440,"player_count":0,"max_players":24,"Bots":0,"server_type":"Dedicated","server_os":"Linux","password":true,"vac":true,"version":"7961495","steam_id":85568392924469983,"keywords":["nocrits","nodmgspread","payload","uncletopia"],"game_id":440,"stv_port":27026,"stv_name":"Uncletopia | Atlanta | 2 | All Maps | STV","players":null},{"server_id":400,"name":"Uncletopia | Atlanta | 3 | All Maps","name_short":"atl-3","host":"atl-1.us.uncletopia.com","port":27035,"enabled":true,"region":"us-east","cc":"us","latitude":33.753746,"longitude":-84.38633,"reserved":0,"last_update":"0001-01-01T00:00:00Z","name_a2s":"Uncletopia | Atlanta | 3 | All Maps","protocol":17,"map":"koth_viaduct","folder":"tf","game":"Team Fortress","app_id":440,"player_count":0,"max_players":24,"Bots":0,"server_type":"Dedicated","server_os":"Linux","password":true,"vac":true,"version":"7961495","steam_id":85568392924515187,"keywords":["cp","nocrits","nodmgspread","uncletopia"],"game_id":440,"stv_port":27036,"stv_name":"Uncletopia | Atlanta | 3 | All Maps | STV","players":null},{"server_id":401,"name":"Uncletopia | Atlanta | 4 | Community","name_short":"atl-4","host":"atl-1.us.uncletopia.com","port":27045,"enabled":true,"region":"us-east","cc":"us","latitude":33.753746,"longitude":-84.38633,"reserved":0,"last_update":"0001-01-01T00:00:00Z","name_a2s":"Uncletopia | Atlanta | 4 | Community","protocol":17,"map":"pl_frontier_final","folder":"tf","game":"Team Fortress","app_id":440,"player_count":0,"max_players":24,"Bots":0,"server_type":"Dedicated","server_os":"Linux","password":true,"vac":true,"version":"7961495","steam_id":85568392924515188,"keywords":["nocrits","nodmgspread","payload","uncletopia"],"game_id":440,"stv_port":27046,"stv_name":"Uncletopia | Atlanta | 4 | Community | STV","players":null},{"server_id":2,"name":"Uncletopia | Chicago | 1 | All Maps","name_short":"chi-1","host":"chi-1.us.uncletopia.com","port":27015,"enabled":true,"region":"us-central","cc":"us","latitude":41.881832,"longitude":-87.62318,"reserved":0,"last_update":"0001-01-01T00:00:00Z","name_a2s":"Uncletopia | Chicago | 1 | All Maps","protocol":17,"map":"koth_lakeside_final","folder":"tf","game":"Team Fortress","app_id":440,"player_count":24,"max_players":24,"Bots":0,"server_type":"Dedicated","server_os":"Linux","password":true,"vac":true,"version":"7961495","steam_id":85568392924469984,"keywords":["cp","nocrits","nodmgspread","uncletopia"],"game_id":440,"stv_port":27016,"stv_name":"Uncletopia | Chicago | 1 | All Maps | STV","players":[{"user_id":129,"name":"CyberZayne","steam_id":76561198002351356,"connected_time":1155000000000,"state":"active","ping":86},{"user_id":104,"name":"JI-MAN CHOI","steam_id":76561198107899101,"connected_time":3058000000000,"state":"active","ping":73},{"user_id":142,"name":"Petrivus","steam_id":76561198202152453,"connected_time":313000000000,"state":"active","ping":103},{"user_id":116,"name":"[extremely tiny guy] bog","steam_id":76561198070975491,"connected_time":1950000000000,"state":"active","ping":69},{"user_id":81,"name":"Ojen","steam_id":76561197998414482,"connected_time":4840000000000,"state":"active","ping":60},{"user_id":106,"name":"RuinLucky","steam_id":76561199481172481,"connected_time":3043000000000,"state":"active","ping":80},{"user_id":141,"name":"TheFryGuy","steam_id":76561198091683182,"connected_time":816000000000,"state":"active","ping":81},{"user_id":126,"name":"comet sooicidy","steam_id":76561198025173479,"connected_time":1378000000000,"state":"active","ping":87},{"user_id":149,"name":"Quiet","steam_id":76561198119175817,"connected_time":78000000000,"state":"active","ping":86},{"user_id":118,"name":"dog","steam_id":76561198263873491,"connected_time":1619000000000,"state":"active","ping":46},{"user_id":136,"name":"Ⓑ⓪⓪ⓣⓨⓒⓐⓚⓔⓢ","steam_id":76561198088776421,"connected_time":1040000000000,"state":"active","ping":64},{"user_id":131,"name":"DistantJragon","steam_id":76561198117563641,"connected_time":1095000000000,"state":"active","ping":56},{"user_id":87,"name":"Rornir","steam_id":76561198081829615,"connected_time":4278000000000,"state":"active","ping":38},{"user_id":123,"name":"Terminal Brain Rot","steam_id":76561198112594672,"connected_time":1392000000000,"state":"active","ping":65},{"user_id":139,"name":"Beast_727","steam_id":76561198390289197,"connected_time":981000000000,"state":"active","ping":52},{"user_id":143,"name":"ATL1 | cola","steam_id":76561198374390458,"connected_time":309000000000,"state":"active","ping":61},{"user_id":148,"name":"eat Pant","steam_id":76561197974965536,"connected_time":105000000000,"state":"active","ping":56},{"user_id":96,"name":"Doctor Emerald(real)","steam_id":76561199123003872,"connected_time":3490000000000,"state":"active","ping":96},{"user_id":121,"name":"David De Bergerac","steam_id":76561198010306294,"connected_time":1405000000000,"state":"active","ping":87},{"user_id":103,"name":"FROYO Yu Darvish","steam_id":76561198379421700,"connected_time":3087000000000,"state":"active","ping":60},{"user_id":110,"name":"Kyle H. McCloud","steam_id":76561198025050432,"connected_time":2968000000000,"state":"active","ping":86},{"user_id":140,"name":"christopher moltisanti","steam_id":76561198375866407,"connected_time":974000000000,"state":"active","ping":70},{"user_id":145,"name":"Slice","steam_id":76561198046508636,"connected_time":148000000000,"state":"active","ping":52},{"user_id":124,"name":"turnip","steam_id":76561197999375941,"connected_time":1391000000000,"state":"active","ping":81}]},{"server_id":106,"name":"Uncletopia | Chicago | 2 | All Maps","name_short":"chi-2","host":"chi-1.us.uncletopia.com","port":27025,"enabled":true,"region":"us-central","cc":"us","latitude":41.881832,"longitude":-87.62318,"reserved":0,"last_update":"0001-01-01T00:00:00Z","name_a2s":"Uncletopia | Chicago | 2 | All Maps","protocol":17,"map":"pl_borneo","folder":"tf","game":"Team Fortress","app_id":440,"player_count":24,"max_players":24,"Bots":0,"server_type":"Dedicated","server_os":"Linux","password":true,"vac":true,"version":"7961495","steam_id":85568392924469985,"keywords":["nocrits","nodmgspread","payload","uncletopia"],"game_id":440,"stv_port":27026,"stv_name":"Uncletopia | Chicago | 2 | All Maps | STV","players":[{"user_id":62,"name":"Mr. Fluffy Penguins","steam_id":76561198172538149,"connected_time":2283000000000,"state":"active","ping":93},{"user_id":5,"name":"Thelolson","steam_id":76561198239198250,"connected_time":7224000000000,"state":"active","ping":89},{"user_id":86,"name":"󠀡󠀡","steam_id":76561198348035053,"connected_time":261000000000,"state":"active","ping":125},{"user_id":7,"name":"Thunder","steam_id":76561199434110716,"connected_time":6127000000000,"state":"active","ping":60},{"user_id":69,"name":"[TSG] Turner's Chocolate Milk","steam_id":76561198058963288,"connected_time":2214000000000,"state":"active","ping":69},{"user_id":64,"name":"allimadness","steam_id":76561199061698187,"connected_time":2281000000000,"state":"active","ping":117},{"user_id":70,"name":"lynt","steam_id":76561198988333976,"connected_time":2193000000000,"state":"active","ping":57},{"user_id":81,"name":"Crimson","steam_id":76561198129326627,"connected_time":898000000000,"state":"active","ping":82},{"user_id":83,"name":"The third, just the third","steam_id":76561199089290128,"connected_time":823000000000,"state":"active","ping":144},{"user_id":85,"name":"dieling","steam_id":76561198831902966,"connected_time":622000000000,"state":"active","ping":82},{"user_id":80,"name":"McSpazatron","steam_id":76561198955942148,"connected_time":910000000000,"state":"active","ping":90},{"user_id":77,"name":"TÖZI","steam_id":76561198045268695,"connected_time":1428000000000,"state":"active","ping":85},{"user_id":90,"name":"Nathan","steam_id":76561199132214008,"connected_time":19000000000,"state":"active","ping":83},{"user_id":73,"name":"HOTA","steam_id":76561199002778841,"connected_time":1953000000000,"state":"active","ping":73},{"user_id":84,"name":"Node⋄","steam_id":76561198219359475,"connected_time":817000000000,"state":"active","ping":68},{"user_id":79,"name":"Fat lazy useless Engineer","steam_id":76561199020244051,"connected_time":980000000000,"state":"active","ping":102},{"user_id":87,"name":"Trout Mask Replica","steam_id":76561198069814977,"connected_time":201000000000,"state":"active","ping":74},{"user_id":74,"name":"Kuddly Kay (She/Her)","steam_id":76561198353432576,"connected_time":1626000000000,"state":"active","ping":64},{"user_id":89,"name":"kaboos365","steam_id":76561198037803655,"connected_time":128000000000,"state":"active","ping":72},{"user_id":58,"name":"aflyingmouse","steam_id":76561198058134934,"connected_time":2978000000000,"state":"active","ping":121},{"user_id":44,"name":"Toblerone","steam_id":76561198057374871,"connected_time":3725000000000,"state":"active","ping":62},{"user_id":59,"name":"ungr8t","steam_id":76561198063521721,"connected_time":2823000000000,"state":"active","ping":75},{"user_id":54,"name":"Scoungo cat","steam_id":76561199036636148,"connected_time":3135000000000,"state":"active","ping":93},{"user_id":91,"name":"just jazz","steam_id":76561198010637797,"connected_time":18000000000,"state":"active","ping":75}]},{"server_id":402,"name":"Uncletopia | Chicago | 3 | All Maps","name_short":"chi-3","host":"chi-1.us.uncletopia.com","port":27035,"enabled":true,"region":"us-central","cc":"us","latitude":41.881832,"longitude":-87.62318,"reserved":0,"last_update":"0001-01-01T00:00:00Z","name_a2s":"Uncletopia | Chicago | 3 | All Maps","protocol":17,"map":"cp_mossrock","folder":"tf","game":"Team Fortress","app_id":440,"player_count":24,"max_players":24,"Bots":0,"server_type":"Dedicated","server_os":"Linux","password":true,"vac":true,"version":"7961495","steam_id":85568392924515191,"keywords":["cp","nocrits","nodmgspread","uncletopia"],"game_id":440,"stv_port":27036,"stv_name":"Uncletopia | Chicago | 3 | All Maps | STV","players":[{"user_id":246,"name":"Tots","steam_id":76561198027485007,"connected_time":1149000000000,"state":"active","ping":60},{"user_id":216,"name":"HeavyMettleDick","steam_id":76561198001925087,"connected_time":3711000000000,"state":"active","ping":72},{"user_id":227,"name":"Silver Cable","steam_id":76561198041366833,"connected_time":2973000000000,"state":"active","ping":52},{"user_id":253,"name":"BlueTubeBlue","steam_id":76561198394326200,"connected_time":878000000000,"state":"active","ping":84},{"user_id":240,"name":"guy who loves eating cigarettes","steam_id":76561198094495920,"connected_time":2096000000000,"state":"active","ping":37},{"user_id":196,"name":"._.","steam_id":76561198300316801,"connected_time":5676000000000,"state":"active","ping":60},{"user_id":244,"name":"Walkiing","steam_id":76561198074473413,"connected_time":1266000000000,"state":"active","ping":44},{"user_id":255,"name":"Gibs Degrossi","steam_id":76561198066152609,"connected_time":66000000000,"state":"active","ping":45},{"user_id":225,"name":"Fozzy","steam_id":76561198258458765,"connected_time":3280000000000,"state":"active","ping":91},{"user_id":250,"name":"krueger","steam_id":76561198268654031,"connected_time":951000000000,"state":"active","ping":45},{"user_id":217,"name":"D. Kickem","steam_id":76561198978221033,"connected_time":3708000000000,"state":"active","ping":56},{"user_id":207,"name":"Bin","steam_id":76561198042557767,"connected_time":4918000000000,"state":"active","ping":66},{"user_id":154,"name":"Ashes!","steam_id":76561197998475441,"connected_time":9225000000000,"state":"active","ping":91},{"user_id":247,"name":"BurgerPizza","steam_id":76561198151256410,"connected_time":1142000000000,"state":"active","ping":145},{"user_id":251,"name":"Stranger in a Strange Land","steam_id":76561198049843671,"connected_time":937000000000,"state":"active","ping":70},{"user_id":221,"name":"BetoelAff es","steam_id":76561198377842585,"connected_time":3599000000000,"state":"active","ping":118},{"user_id":223,"name":"marlee","steam_id":76561198828640523,"connected_time":3570000000000,"state":"active","ping":46},{"user_id":162,"name":"Skipluff","steam_id":76561198084734554,"connected_time":8672000000000,"state":"active","ping":74},{"user_id":254,"name":"ThePriceIsRice","steam_id":76561198079069543,"connected_time":839000000000,"state":"active","ping":105},{"user_id":248,"name":"Denzel McFlurry","steam_id":76561199231296521,"connected_time":1128000000000,"state":"active","ping":68},{"user_id":220,"name":"tasty","steam_id":76561198083839061,"connected_time":3660000000000,"state":"active","ping":50},{"user_id":241,"name":"bee","steam_id":76561198025553902,"connected_time":2067000000000,"state":"active","ping":45},{"user_id":239,"name":"D(b) Hell","steam_id":76561198067869016,"connected_time":2270000000000,"state":"active","ping":44},{"user_id":243,"name":"Fredfredfood","steam_id":76561198072824802,"connected_time":1561000000000,"state":"active","ping":54}]},{"server_id":403,"name":"Uncletopia | Chicago | 4 | All Maps","name_short":"chi-4","host":"chi-1.us.uncletopia.com","port":27045,"enabled":true,"region":"us-central","cc":"us","latitude":41.881832,"longitude":-87.62318,"reserved":0,"last_update":"0001-01-01T00:00:00Z","name_a2s":"Uncletopia | Chicago | 4 | All Maps","protocol":17,"map":"koth_viaduct","folder":"tf","game":"Team Fortress","app_id":440,"player_count":0,"max_players":24,"Bots":0,"server_type":"Dedicated","server_os":"Linux","password":true,"vac":true,"version":"7961495","steam_id":85568392924515193,"keywords":["cp","nocrits","nodmgspread","uncletopia"],"game_id":440,"stv_port":27046,"stv_name":"Uncletopia | Chicago | 4 | All Maps | STV","players":null},{"server_id":36,"name":"Uncletopia | Chicago | 5 | All Maps","name_short":"chi-5","host":"chi-2.us.uncletopia.com","port":27015,"enabled":true,"region":"us-central","cc":"us","latitude":41.881832,"longitude":-87.62318,"reserved":0,"last_update":"0001-01-01T00:00:00Z","name_a2s":"Uncletopia | Chicago | 5 | All Maps","protocol":17,"map":"cp_process_final","folder":"tf","game":"Team Fortress","app_id":440,"player_count":0,"max_players":24,"Bots":0,"server_type":"Dedicated","server_os":"Linux","password":true,"vac":true,"version":"7961495","steam_id":85568392924866362,"keywords":["cp","nocrits","nodmgspread","uncletopia"],"game_id":440,"stv_port":27016,"stv_name":"Uncletopia | Chicago | 5 | All Maps | STV","players":null},{"server_id":37,"name":"Uncletopia | Chicago | 6 | All Maps","name_short":"chi-6","host":"chi-2.us.uncletopia.com","port":27025,"enabled":true,"region":"us-central","cc":"us","latitude":41.881832,"longitude":-87.62318,"reserved":0,"last_update":"0001-01-01T00:00:00Z","name_a2s":"Uncletopia | Chicago | 6 | All Maps","protocol":17,"map":"pl_borneo","folder":"tf","game":"Team Fortress","app_id":440,"player_count":0,"max_players":24,"Bots":0,"server_type":"Dedicated","server_os":"Linux","password":true,"vac":true,"version":"7961495","steam_id":85568392924866363,"keywords":["nocrits","nodmgspread","payload","uncletopia"],"game_id":440,"stv_port":27026,"stv_name":"Uncletopia | Chicago | 6 | All Maps | STV","players":null},{"server_id":38,"name":"Uncletopia | Chicago | 7 | Stopwatch Beta","name_short":"chi-7","host":"chi-2.us.uncletopia.com","port":27035,"enabled":true,"region":"us-central","cc":"us","latitude":41.881832,"longitude":-87.62318,"reserved":0,"last_update":"0001-01-01T00:00:00Z","name_a2s":"Uncletopia | Chicago | 7 | Stopwatch Beta","protocol":17,"map":"pl_badwater","folder":"tf","game":"Team Fortress","app_id":440,"player_count":0,"max_players":24,"Bots":0,"server_type":"Dedicated","server_os":"Linux","password":true,"vac":true,"version":"7961495","steam_id":85568392924866364,"keywords":["nocrits","nodmgspread","payload","uncletopia"],"game_id":440,"stv_port":27036,"stv_name":"Uncletopia | Chicago | 7 | Stopwatch Beta | STV","players":null},{"server_id":39,"name":"Uncletopia | Chicago | 8 | Community","name_short":"chi-8","host":"chi-2.us.uncletopia.com","port":27045,"enabled":true,"region":"us-central","cc":"us","latitude":41.881832,"longitude":-87.62318,"reserved":0,"last_update":"0001-01-01T00:00:00Z","name_a2s":"Uncletopia | Chicago | 8 | Community","protocol":17,"map":"koth_cascade","folder":"tf","game":"Team Fortress","app_id":440,"player_count":0,"max_players":24,"Bots":0,"server_type":"Dedicated","server_os":"Linux","password":true,"vac":true,"version":"7961495","steam_id":85568392924866365,"keywords":["cp","nocrits","nodmgspread","uncletopia"],"game_id":440,"stv_port":27046,"stv_name":"Uncletopia | Chicago | 8 | Community | STV","players":null},{"server_id":8,"name":"Uncletopia | Dallas | 1 | All Maps","name_short":"dal-1","host":"dal-1.us.uncletopia.com","port":27015,"enabled":true,"region":"us-central","cc":"us","latitude":32.779167,"longitude":-96.80889,"reserved":0,"last_update":"0001-01-01T00:00:00Z","name_a2s":"Uncletopia | Dallas | 1 | All Maps","protocol":17,"map":"koth_lakeside_final","folder":"tf","game":"Team Fortress","app_id":440,"player_count":0,"max_players":24,"Bots":0,"server_type":"Dedicated","server_os":"Linux","password":true,"vac":true,"version":"7961495","steam_id":85568392924469986,"keywords":["cp","nocrits","nodmgspread","uncletopia"],"game_id":440,"stv_port":27016,"stv_name":"Uncletopia | Dallas | 1 | All Maps | STV","players":null},{"server_id":108,"name":"Uncletopia | Dallas | 2 | All Maps","name_short":"dal-2","host":"dal-1.us.uncletopia.com","port":27025,"enabled":true,"region":"us-central","cc":"us","latitude":32.779167,"longitude":-96.80889,"reserved":0,"last_update":"0001-01-01T00:00:00Z","name_a2s":"Uncletopia | Dallas | 2 | All Maps","protocol":17,"map":"koth_highpass","folder":"tf","game":"Team Fortress","app_id":440,"player_count":0,"max_players":24,"Bots":0,"server_type":"Dedicated","server_os":"Linux","password":true,"vac":true,"version":"7961495","steam_id":85568392924469988,"keywords":["cp","nocrits","nodmgspread","uncletopia"],"game_id":440,"stv_port":27026,"stv_name":"Uncletopia | Dallas | 2 | All Maps | STV","players":null},{"server_id":404,"name":"Uncletopia | Dallas | 3 | All Maps","name_short":"dal-3","host":"dal-1.us.uncletopia.com","port":27035,"enabled":true,"region":"us-central","cc":"us","latitude":32.779167,"longitude":-96.80889,"reserved":0,"last_update":"0001-01-01T00:00:00Z","name_a2s":"Uncletopia | Dallas | 3 | All Maps","protocol":17,"map":"koth_viaduct","folder":"tf","game":"Team Fortress","app_id":440,"player_count":16,"max_players":24,"Bots":0,"server_type":"Dedicated","server_os":"Linux","password":true,"vac":true,"version":"7961495","steam_id":85568392924515219,"keywords":["cp","nocrits","nodmgspread","uncletopia"],"game_id":440,"stv_port":27036,"stv_name":"Uncletopia | Dallas | 3 | All Maps | STV","players":[{"user_id":3,"name":"GX thedittoguy","steam_id":76561199013129784,"connected_time":1627000000000,"state":"active","ping":51},{"user_id":21,"name":"Parking","steam_id":76561198056842805,"connected_time":95000000000,"state":"active","ping":179},{"user_id":6,"name":"Grey Clay","steam_id":76561198025646032,"connected_time":1320000000000,"state":"active","ping":99},{"user_id":8,"name":"Bomb Squirtle™","steam_id":76561197998931145,"connected_time":1073000000000,"state":"active","ping":106},{"user_id":17,"name":"ColdChillyWilly","steam_id":76561199238046186,"connected_time":328000000000,"state":"active","ping":73},{"user_id":11,"name":"sophacles","steam_id":76561198953893481,"connected_time":727000000000,"state":"active","ping":87},{"user_id":18,"name":"farus","steam_id":76561198066521617,"connected_time":272000000000,"state":"active","ping":90},{"user_id":14,"name":"crittr","steam_id":76561198014302068,"connected_time":528000000000,"state":"active","ping":69},{"user_id":15,"name":"Don't Fuckle with Shuckle","steam_id":76561199020102367,"connected_time":521000000000,"state":"active","ping":103},{"user_id":16,"name":"Kaluka","steam_id":76561198036861445,"connected_time":456000000000,"state":"active","ping":76},{"user_id":19,"name":"JoeFalco","steam_id":76561198064005012,"connected_time":264000000000,"state":"active","ping":85},{"user_id":22,"name":"Willem Dafoe","steam_id":76561198037453253,"connected_time":92000000000,"state":"active","ping":82},{"user_id":23,"name":"zinc_fiddler","steam_id":76561198371772156,"connected_time":89000000000,"state":"active","ping":285},{"user_id":24,"name":"match1stick","steam_id":76561199103743083,"connected_time":83000000000,"state":"active","ping":64},{"user_id":25,"name":"Drilly22","steam_id":76561198068838338,"connected_time":76000000000,"state":"active","ping":59},{"user_id":26,"name":"Joe Biden","steam_id":76561198238699798,"connected_time":17000000000,"state":"active","ping":85}]},{"server_id":405,"name":"Uncletopia | Dallas | 4 | Community","name_short":"dal-4","host":"dal-1.us.uncletopia.com","port":27045,"enabled":true,"region":"us-central","cc":"us","latitude":32.779167,"longitude":-96.80889,"reserved":0,"last_update":"0001-01-01T00:00:00Z","name_a2s":"Uncletopia | Dallas | 4 | Community","protocol":17,"map":"pl_badwater","folder":"tf","game":"Team Fortress","app_id":440,"player_count":0,"max_players":24,"Bots":0,"server_type":"Dedicated","server_os":"Linux","password":true,"vac":true,"version":"7961495","steam_id":85568392924515220,"keywords":["nocrits","nodmgspread","payload","uncletopia"],"game_id":440,"stv_port":27046,"stv_name":"Uncletopia | Dallas | 4 | Community | STV","players":null},{"server_id":5,"name":"Uncletopia | Frankfurt | 1 | All Maps","name_short":"frk-1","host":"frk-1.de.uncletopia.com","port":27015,"enabled":true,"region":"eu","cc":"de","latitude":50.110924,"longitude":8.682127,"reserved":0,"last_update":"0001-01-01T00:00:00Z","name_a2s":"Uncletopia | Frankfurt | 1 | All Maps","protocol":17,"map":"cp_snakewater_final1","folder":"tf","game":"Team Fortress","app_id":440,"player_count":24,"max_players":24,"Bots":0,"server_type":"Dedicated","server_os":"Linux","password":true,"vac":true,"version":"7961495","steam_id":85568392924469989,"keywords":["cp","nocrits","nodmgspread","uncletopia"],"game_id":440,"stv_port":27016,"stv_name":"Uncletopia | Frankfurt | 1 | All Maps | STV","players":[{"user_id":458,"name":"\u003cJACK\u003e","steam_id":76561198090405664,"connected_time":362000000000,"state":"active","ping":60},{"user_id":432,"name":"papi im hungary(((","steam_id":76561198183949987,"connected_time":1136000000000,"state":"active","ping":69},{"user_id":421,"name":"Strix","steam_id":76561198015322735,"connected_time":1480000000000,"state":"active","ping":101},{"user_id":439,"name":"Operable2694","steam_id":76561199486377532,"connected_time":949000000000,"state":"active","ping":64},{"user_id":457,"name":"Samaruun","steam_id":76561198048841418,"connected_time":371000000000,"state":"active","ping":60},{"user_id":465,"name":"Runyohell","steam_id":76561198309876860,"connected_time":46000000000,"state":"active","ping":81},{"user_id":429,"name":"Dahlia Boat","steam_id":76561198204171871,"connected_time":1252000000000,"state":"active","ping":89},{"user_id":462,"name":"Lyell","steam_id":76561198350329389,"connected_time":167000000000,"state":"active","ping":84},{"user_id":464,"name":"Noob_with_source","steam_id":76561198870362103,"connected_time":121000000000,"state":"active","ping":59},{"user_id":449,"name":"pepper","steam_id":76561198852650589,"connected_time":626000000000,"state":"active","ping":80},{"user_id":461,"name":"Carl","steam_id":76561198045638738,"connected_time":264000000000,"state":"active","ping":72},{"user_id":452,"name":"Jallon","steam_id":76561198169277096,"connected_time":454000000000,"state":"active","ping":90},{"user_id":426,"name":"Ratep","steam_id":76561198439387653,"connected_time":1326000000000,"state":"active","ping":89},{"user_id":427,"name":"cister0","steam_id":76561198130195469,"connected_time":1312000000000,"state":"active","ping":71},{"user_id":455,"name":"FleX","steam_id":76561198115666700,"connected_time":394000000000,"state":"active","ping":80},{"user_id":441,"name":"James","steam_id":76561198168882012,"connected_time":853000000000,"state":"active","ping":61},{"user_id":451,"name":"flr","steam_id":76561198249327786,"connected_time":545000000000,"state":"active","ping":75},{"user_id":428,"name":"Slazaa","steam_id":76561197993252446,"connected_time":1309000000000,"state":"active","ping":58},{"user_id":454,"name":"Phil","steam_id":76561198056877069,"connected_time":443000000000,"state":"active","ping":52},{"user_id":403,"name":"lyudmilakh","steam_id":76561198362779878,"connected_time":2401000000000,"state":"active","ping":90},{"user_id":443,"name":"drugs are bad","steam_id":76561199074385102,"connected_time":815000000000,"state":"active","ping":108},{"user_id":460,"name":"Pandaa","steam_id":76561198399207154,"connected_time":325000000000,"state":"active","ping":47},{"user_id":456,"name":"Louva","steam_id":76561198876417011,"connected_time":389000000000,"state":"active","ping":75},{"user_id":388,"name":"LiterallyRyanGosling","steam_id":76561199017856691,"connected_time":3899000000000,"state":"active","ping":71}]},{"server_id":110,"name":"Uncletopia | Frankfurt | 2 | All Maps","name_short":"frk-2","host":"frk-1.de.uncletopia.com","port":27025,"enabled":true,"region":"eu","cc":"de","latitude":50.110924,"longitude":8.682127,"reserved":0,"last_update":"0001-01-01T00:00:00Z","name_a2s":"Uncletopia | Frankfurt | 2 | All Maps","protocol":17,"map":"pl_swiftwater_final1","folder":"tf","game":"Team Fortress","app_id":440,"player_count":24,"max_players":24,"Bots":0,"server_type":"Dedicated","server_os":"Linux","password":true,"vac":true,"version":"7961495","steam_id":85568392924469990,"keywords":["nocrits","nodmgspread","payload","uncletopia"],"game_id":440,"stv_port":27026,"stv_name":"Uncletopia | Frankfurt | 2 | All Maps | STV","players":[{"user_id":329,"name":"Fizik","steam_id":76561198065548086,"connected_time":5710000000000,"state":"active","ping":55},{"user_id":400,"name":"mateusz","steam_id":76561198111599735,"connected_time":1707000000000,"state":"active","ping":56},{"user_id":393,"name":"Healix","steam_id":76561198130270161,"connected_time":2537000000000,"state":"active","ping":53},{"user_id":356,"name":"Peskyplumber64","steam_id":76561198044458330,"connected_time":4766000000000,"state":"active","ping":69},{"user_id":331,"name":"Nabalazs","steam_id":76561198086970184,"connected_time":5600000000000,"state":"active","ping":84},{"user_id":426,"name":"Koidres","steam_id":76561198087978463,"connected_time":546000000000,"state":"active","ping":106},{"user_id":406,"name":"LODIRA","steam_id":76561198380918983,"connected_time":1230000000000,"state":"active","ping":99},{"user_id":409,"name":"Professional facestab","steam_id":76561198258721056,"connected_time":995000000000,"state":"active","ping":58},{"user_id":407,"name":"Cuthbert","steam_id":76561198204649481,"connected_time":1212000000000,"state":"active","ping":94},{"user_id":374,"name":"「SSR」 Monsieur Sagesse","steam_id":76561198144631384,"connected_time":3533000000000,"state":"active","ping":61},{"user_id":422,"name":"Varsity Athlete","steam_id":76561198012296395,"connected_time":617000000000,"state":"active","ping":73},{"user_id":394,"name":"❤G a n K","steam_id":76561199125995565,"connected_time":2449000000000,"state":"active","ping":68},{"user_id":425,"name":"nejurnia","steam_id":76561198010360372,"connected_time":568000000000,"state":"active","ping":66},{"user_id":405,"name":"Skarpy","steam_id":76561198034398376,"connected_time":1512000000000,"state":"active","ping":47},{"user_id":308,"name":"jjkun786","steam_id":76561199438517484,"connected_time":7317000000000,"state":"active","ping":55},{"user_id":398,"name":"grrokr","steam_id":76561199003462804,"connected_time":1950000000000,"state":"active","ping":87},{"user_id":402,"name":"Charles Darwin","steam_id":76561197973496139,"connected_time":1648000000000,"state":"active","ping":81},{"user_id":377,"name":"burgz","steam_id":76561198109955787,"connected_time":3468000000000,"state":"active","ping":55},{"user_id":442,"name":"Combat Wombat","steam_id":76561197994720068,"connected_time":47000000000,"state":"active","ping":78},{"user_id":411,"name":"rwota","steam_id":76561198385769722,"connected_time":933000000000,"state":"active","ping":104},{"user_id":346,"name":"Redmond Nagisa","steam_id":76561198339056295,"connected_time":5369000000000,"state":"active","ping":69},{"user_id":432,"name":"Labracababrador","steam_id":76561198255280285,"connected_time":361000000000,"state":"active","ping":86},{"user_id":382,"name":"noor107","steam_id":76561198279701998,"connected_time":3260000000000,"state":"active","ping":65},{"user_id":390,"name":"kee.wun","steam_id":76561198025293098,"connected_time":2904000000000,"state":"active","ping":73}]},{"server_id":308,"name":"Uncletopia | Frankfurt | 3 | All Maps","name_short":"frk-3","host":"frk-1.de.uncletopia.com","port":27035,"enabled":true,"region":"eu","cc":"de","latitude":50.110924,"longitude":8.682127,"reserved":0,"last_update":"0001-01-01T00:00:00Z","name_a2s":"Uncletopia | Frankfurt | 3 | All Maps","protocol":17,"map":"pl_upward","folder":"tf","game":"Team Fortress","app_id":440,"player_count":24,"max_players":24,"Bots":0,"server_type":"Dedicated","server_os":"Linux","password":true,"vac":true,"version":"7961495","steam_id":85568392924504274,"keywords":["nocrits","nodmgspread","payload","uncletopia"],"game_id":440,"stv_port":27036,"stv_name":"Uncletopia | Frankfurt | 3 | All Maps | STV","players":[{"user_id":252,"name":"ChaHot_nik","steam_id":76561198978859788,"connected_time":1896000000000,"state":"active","ping":73},{"user_id":276,"name":"Mébh Óg MacTíre","steam_id":76561198346399624,"connected_time":667000000000,"state":"active","ping":71},{"user_id":260,"name":"Lassie","steam_id":76561198131924713,"connected_time":1704000000000,"state":"active","ping":61},{"user_id":262,"name":"Major Economic Crisis","steam_id":76561198339197295,"connected_time":1585000000000,"state":"active","ping":61},{"user_id":216,"name":"red texan","steam_id":76561199193957264,"connected_time":4434000000000,"state":"active","ping":36},{"user_id":277,"name":"Toogler","steam_id":76561198172334113,"connected_time":643000000000,"state":"active","ping":61},{"user_id":253,"name":"fronin","steam_id":76561198189553021,"connected_time":1892000000000,"state":"active","ping":60},{"user_id":290,"name":"Argon","steam_id":76561198076340211,"connected_time":199000000000,"state":"active","ping":110},{"user_id":255,"name":"Pineappleman","steam_id":76561199074651648,"connected_time":1809000000000,"state":"active","ping":59},{"user_id":263,"name":"Michal jordan","steam_id":76561199106262610,"connected_time":1523000000000,"state":"active","ping":62},{"user_id":266,"name":"Salamon","steam_id":76561198280756561,"connected_time":1297000000000,"state":"active","ping":108},{"user_id":275,"name":"CallMePlatypus","steam_id":76561198071140845,"connected_time":695000000000,"state":"active","ping":111},{"user_id":269,"name":"sponsored by nord vpn","steam_id":76561198044704458,"connected_time":1039000000000,"state":"active","ping":48},{"user_id":293,"name":"Doriian","steam_id":76561198071438810,"connected_time":16000000000,"state":"active","ping":81},{"user_id":236,"name":"Silvestro","steam_id":76561198021660066,"connected_time":3045000000000,"state":"active","ping":76},{"user_id":281,"name":"Chucko Kokos","steam_id":76561198112553005,"connected_time":550000000000,"state":"active","ping":69},{"user_id":282,"name":"свинтус прийдет","steam_id":76561198172046813,"connected_time":549000000000,"state":"active","ping":73},{"user_id":283,"name":"Vectillion","steam_id":76561198074292454,"connected_time":540000000000,"state":"active","ping":74},{"user_id":261,"name":"[K.sTyLe] fabinhO;","steam_id":76561197982416891,"connected_time":1651000000000,"state":"active","ping":55},{"user_id":265,"name":"Mitt","steam_id":76561199011013919,"connected_time":1428000000000,"state":"active","ping":71},{"user_id":270,"name":"TaiFaitter","steam_id":76561198844647170,"connected_time":957000000000,"state":"active","ping":82},{"user_id":291,"name":"Thors","steam_id":76561197968739075,"connected_time":181000000000,"state":"active","ping":42},{"user_id":292,"name":"draingangfan0465069500","steam_id":76561198219945364,"connected_time":177000000000,"state":"active","ping":79},{"user_id":289,"name":"your_local_penguin","steam_id":76561199224954346,"connected_time":267000000000,"state":"active","ping":91}]},{"server_id":309,"name":"Uncletopia | Frankfurt | 4 | All Maps","name_short":"frk-4","host":"frk-1.de.uncletopia.com","port":27045,"enabled":true,"region":"eu","cc":"de","latitude":50.110924,"longitude":8.682127,"reserved":0,"last_update":"0001-01-01T00:00:00Z","name_a2s":"Uncletopia | Frankfurt | 4 | All Maps","protocol":17,"map":"pl_upward","folder":"tf","game":"Team Fortress","app_id":440,"player_count":24,"max_players":24,"Bots":0,"server_type":"Dedicated","server_os":"Linux","password":true,"vac":true,"version":"7961495","steam_id":85568392924504275,"keywords":["nocrits","nodmgspread","payload","uncletopia"],"game_id":440,"stv_port":27046,"stv_name":"Uncletopia | Frankfurt | 4 | All Maps | STV","players":[{"user_id":419,"name":"monikka","steam_id":76561198297003397,"connected_time":426000000000,"state":"active","ping":75},{"user_id":415,"name":"TheSciencePerson","steam_id":76561198352592448,"connected_time":858000000000,"state":"active","ping":70},{"user_id":403,"name":"BuzzBees ❤","steam_id":76561198101502273,"connected_time":1983000000000,"state":"active","ping":67},{"user_id":267,"name":"Boki","steam_id":76561198044553351,"connected_time":6659000000000,"state":"active","ping":75},{"user_id":238,"name":"Luuk","steam_id":76561198088266026,"connected_time":8809000000000,"state":"active","ping":57},{"user_id":402,"name":"KittyKate ❤","steam_id":76561198116340817,"connected_time":2013000000000,"state":"active","ping":61},{"user_id":420,"name":"Fish","steam_id":76561198811811405,"connected_time":392000000000,"state":"active","ping":76},{"user_id":421,"name":"Strangerdanger","steam_id":76561198206728500,"connected_time":374000000000,"state":"active","ping":70},{"user_id":422,"name":"salihersej","steam_id":76561199003484875,"connected_time":369000000000,"state":"active","ping":54},{"user_id":392,"name":"SODA!!!!!!!","steam_id":76561198107362485,"connected_time":2644000000000,"state":"active","ping":62},{"user_id":423,"name":"Craked_Wolf#savetf2","steam_id":76561199067678953,"connected_time":321000000000,"state":"active","ping":77},{"user_id":417,"name":"The Daniella","steam_id":76561198023075547,"connected_time":504000000000,"state":"active","ping":64},{"user_id":424,"name":"Brinier","steam_id":76561199012604288,"connected_time":321000000000,"state":"active","ping":67},{"user_id":278,"name":"hyvakii705","steam_id":76561198086630552,"connected_time":6005000000000,"state":"active","ping":100},{"user_id":258,"name":"Zerfesh","steam_id":76561198117534358,"connected_time":7476000000000,"state":"active","ping":88},{"user_id":399,"name":"Lord","steam_id":76561198241305816,"connected_time":2155000000000,"state":"active","ping":106},{"user_id":425,"name":"Epoli","steam_id":76561198161005853,"connected_time":316000000000,"state":"active","ping":52},{"user_id":426,"name":"lord-carlos","steam_id":76561198025150761,"connected_time":316000000000,"state":"active","ping":50},{"user_id":413,"name":"ivanhus_","steam_id":76561199048134719,"connected_time":1212000000000,"state":"active","ping":99},{"user_id":406,"name":"Big They/Them is watching YOU","steam_id":76561198307598168,"connected_time":1928000000000,"state":"active","ping":52},{"user_id":400,"name":"WHUSSKEY","steam_id":76561198137827441,"connected_time":2087000000000,"state":"active","ping":70},{"user_id":407,"name":"你喜欢它?","steam_id":76561198201424726,"connected_time":1909000000000,"state":"active","ping":169},{"user_id":414,"name":"Happy Cat","steam_id":76561198405359788,"connected_time":1211000000000,"state":"active","ping":104},{"user_id":427,"name":"Dolcelatte","steam_id":76561198038501770,"connected_time":312000000000,"state":"active","ping":49}]},{"server_id":310,"name":"Uncletopia | Frankfurt | 5 | All Maps","name_short":"frk-5","host":"frk-1.de.uncletopia.com","port":27055,"enabled":true,"region":"eu","cc":"de","latitude":50.110924,"longitude":8.682127,"reserved":0,"last_update":"0001-01-01T00:00:00Z","name_a2s":"Uncletopia | Frankfurt | 5 | All Maps","protocol":17,"map":"cp_dustbowl","folder":"tf","game":"Team Fortress","app_id":440,"player_count":24,"max_players":24,"Bots":0,"server_type":"Dedicated","server_os":"Linux","password":true,"vac":true,"version":"7961495","steam_id":85568392924504277,"keywords":["cp","nocrits","nodmgspread","uncletopia"],"game_id":440,"stv_port":27056,"stv_name":"Uncletopia | Frankfurt | 5 | All Maps | STV","players":[{"user_id":91,"name":"Peppino Spaghetti","steam_id":76561198087717456,"connected_time":187000000000,"state":"active","ping":75},{"user_id":92,"name":"just_adhenz1284 #SaveTF2","steam_id":76561198293654671,"connected_time":4000000000,"state":"spawning","ping":206},{"user_id":82,"name":"Penis Contortionist","steam_id":76561198073663784,"connected_time":714000000000,"state":"active","ping":48},{"user_id":62,"name":"Dapper","steam_id":76561198081694974,"connected_time":1783000000000,"state":"active","ping":56},{"user_id":30,"name":"N","steam_id":76561199094237497,"connected_time":4006000000000,"state":"active","ping":56},{"user_id":31,"name":"The Knight","steam_id":76561198055320626,"connected_time":3497000000000,"state":"active","ping":92},{"user_id":89,"name":"aki","steam_id":76561198997320513,"connected_time":393000000000,"state":"active","ping":68},{"user_id":81,"name":"Alpha","steam_id":76561198133229149,"connected_time":871000000000,"state":"active","ping":91},{"user_id":75,"name":"Vitamin Weee","steam_id":76561199183937747,"connected_time":1150000000000,"state":"active","ping":81},{"user_id":36,"name":"Боевой комар","steam_id":76561198796564094,"connected_time":2935000000000,"state":"active","ping":83},{"user_id":90,"name":"WolfmanCZ","steam_id":76561199157141414,"connected_time":277000000000,"state":"active","ping":66},{"user_id":85,"name":"chill","steam_id":76561198139714370,"connected_time":651000000000,"state":"active","ping":73},{"user_id":78,"name":"c4ctus","steam_id":76561198925655488,"connected_time":997000000000,"state":"active","ping":86},{"user_id":69,"name":"Daddy-O","steam_id":76561198120101147,"connected_time":1393000000000,"state":"active","ping":101},{"user_id":86,"name":"Dzigi2014","steam_id":76561198146147595,"connected_time":637000000000,"state":"active","ping":65},{"user_id":76,"name":"LJ","steam_id":76561198026723805,"connected_time":1115000000000,"state":"active","ping":61},{"user_id":84,"name":"[T]aKer","steam_id":76561198001778013,"connected_time":691000000000,"state":"active","ping":44},{"user_id":70,"name":"I Don't Know","steam_id":76561198841011430,"connected_time":1383000000000,"state":"active","ping":73},{"user_id":88,"name":"Altama","steam_id":76561198277752778,"connected_time":603000000000,"state":"active","ping":57},{"user_id":71,"name":"Deckard","steam_id":76561198004704647,"connected_time":1273000000000,"state":"active","ping":78},{"user_id":68,"name":"Mr. Master","steam_id":76561199198569317,"connected_time":1543000000000,"state":"active","ping":58},{"user_id":79,"name":"janga","steam_id":76561197977643629,"connected_time":919000000000,"state":"active","ping":49},{"user_id":53,"name":"Difficult_Bit2901","steam_id":76561199004250744,"connected_time":2445000000000,"state":"active","ping":71},{"user_id":77,"name":"Akisян","steam_id":76561198078706435,"connected_time":1075000000000,"state":"active","ping":74}]},{"server_id":311,"name":"Uncletopia | Frankfurt | 6 | All Maps","name_short":"frk-6","host":"frk-1.de.uncletopia.com","port":27065,"enabled":true,"region":"eu","cc":"de","latitude":50.110924,"longitude":8.682127,"reserved":0,"last_update":"0001-01-01T00:00:00Z","name_a2s":"Uncletopia | Frankfurt | 6 | All Maps","protocol":17,"map":"koth_highpass","folder":"tf","game":"Team Fortress","app_id":440,"player_count":0,"max_players":24,"Bots":0,"server_type":"Dedicated","server_os":"Linux","password":true,"vac":true,"version":"7961495","steam_id":85568392924504278,"keywords":["cp","nocrits","nodmgspread","uncletopia"],"game_id":440,"stv_port":27066,"stv_name":"Uncletopia | Frankfurt | 6 | All Maps | STV","players":null},{"server_id":23,"name":"Uncletopia | Frankfurt | 7 | Stopwatch Beta","name_short":"frk-7","host":"frk-1.de.uncletopia.com","port":27075,"enabled":true,"region":"eu","cc":"de","latitude":50.110924,"longitude":8.682127,"reserved":0,"last_update":"0001-01-01T00:00:00Z","name_a2s":"Uncletopia | Frankfurt | 7 | Stopwatch Beta","protocol":17,"map":"workshop/pl_summercoast_rc8e.ugc1761528829","folder":"tf","game":"Team Fortress","app_id":440,"player_count":0,"max_players":24,"Bots":0,"server_type":"Dedicated","server_os":"Linux","password":true,"vac":true,"version":"7961495","steam_id":85568392924742827,"keywords":["nocrits","nodmgspread","payload","uncletopia"],"game_id":440,"stv_port":27076,"stv_name":"Uncletopia | Frankfurt | 7 | Stopwatch Beta | STV","players":null},{"server_id":24,"name":"Uncletopia | Frankfurt | 8 | Community","name_short":"frk-8","host":"frk-1.de.uncletopia.com","port":27085,"enabled":true,"region":"eu","cc":"de","latitude":50.110924,"longitude":8.682127,"reserved":0,"last_update":"0001-01-01T00:00:00Z","name_a2s":"Uncletopia | Frankfurt | 8 | Community","protocol":17,"map":"workshop/pl_emerge_rc2.ugc888027758","folder":"tf","game":"Team Fortress","app_id":440,"player_count":24,"max_players":24,"Bots":0,"server_type":"Dedicated","server_os":"Linux","password":true,"vac":true,"version":"7961495","steam_id":85568392924742828,"keywords":["nocrits","nodmgspread","payload","uncletopia"],"game_id":440,"stv_port":27086,"stv_name":"Uncletopia | Frankfurt | 8 | Community | STV","players":[{"user_id":170,"name":"$teomy :3","steam_id":76561199129423422,"connected_time":272000000000,"state":"active","ping":89},{"user_id":106,"name":"MrBanana","steam_id":76561198116021623,"connected_time":4043000000000,"state":"active","ping":45},{"user_id":121,"name":"BELLVM ARHIMAGVS DACVS ARIANVS","steam_id":76561198090695039,"connected_time":3091000000000,"state":"active","ping":56},{"user_id":111,"name":"Silverwlf","steam_id":76561199053421061,"connected_time":3795000000000,"state":"active","ping":54},{"user_id":152,"name":"Slimeby","steam_id":76561198353438688,"connected_time":1105000000000,"state":"active","ping":77},{"user_id":155,"name":"General Lee","steam_id":76561198306295023,"connected_time":897000000000,"state":"active","ping":84},{"user_id":174,"name":"mge brother","steam_id":76561198996092998,"connected_time":147000000000,"state":"active","ping":89},{"user_id":162,"name":"Femboy","steam_id":76561198268369013,"connected_time":498000000000,"state":"active","ping":78},{"user_id":176,"name":"Barbiehunter #SaveTF2","steam_id":76561198071630928,"connected_time":53000000000,"state":"active","ping":59},{"user_id":158,"name":"Guwop","steam_id":76561197970425737,"connected_time":781000000000,"state":"active","ping":163},{"user_id":167,"name":"THE Grosser","steam_id":76561197995530666,"connected_time":329000000000,"state":"active","ping":47},{"user_id":161,"name":"TylowStar","steam_id":76561198357107806,"connected_time":627000000000,"state":"active","ping":61},{"user_id":163,"name":"Beetle God","steam_id":76561198119353053,"connected_time":465000000000,"state":"active","ping":73},{"user_id":164,"name":"CINO","steam_id":76561198363841749,"connected_time":458000000000,"state":"active","ping":84},{"user_id":142,"name":"Sy","steam_id":76561198395421637,"connected_time":2097000000000,"state":"active","ping":54},{"user_id":165,"name":"twscsvl","steam_id":76561198045304929,"connected_time":423000000000,"state":"active","ping":90},{"user_id":166,"name":"eva.","steam_id":76561198054474684,"connected_time":368000000000,"state":"active","ping":75},{"user_id":136,"name":"someguyinatree_","steam_id":76561198115945265,"connected_time":2574000000000,"state":"active","ping":74},{"user_id":168,"name":"Ted Kaczynski","steam_id":76561198064795519,"connected_time":314000000000,"state":"active","ping":78},{"user_id":112,"name":"High School Nudical","steam_id":76561198172120615,"connected_time":3786000000000,"state":"active","ping":132},{"user_id":149,"name":"Belemonguin","steam_id":76561198084706411,"connected_time":1575000000000,"state":"active","ping":76},{"user_id":172,"name":"Javier dorsaless","steam_id":76561198179324075,"connected_time":263000000000,"state":"active","ping":76},{"user_id":140,"name":"Vosteria","steam_id":76561198290253884,"connected_time":2212000000000,"state":"active","ping":90},{"user_id":175,"name":"freddy2035","steam_id":76561199093105731,"connected_time":77000000000,"state":"active","ping":80}]},{"server_id":202,"name":"Uncletopia | Hong Kong | 1 | All Maps","name_short":"hgk-1","host":"hgk-1.hk.uncletopia.com","port":27015,"enabled":true,"region":"asia","cc":"hk","latitude":22.302711,"longitude":114.177216,"reserved":0,"last_update":"0001-01-01T00:00:00Z","name_a2s":"Uncletopia | Hong Kong | 1 | All Maps","protocol":17,"map":"cp_process_final","folder":"tf","game":"Team Fortress","app_id":440,"player_count":0,"max_players":24,"Bots":0,"server_type":"Dedicated","server_os":"Linux","password":true,"vac":true,"version":"7961495","steam_id":85568392924494504,"keywords":["cp","nocrits","nodmgspread","uncletopia"],"game_id":440,"stv_port":27016,"stv_name":"Uncletopia | Hong Kong | 1 | All Maps | STV","players":null},{"server_id":1,"name":"Uncletopia | Los Angeles | 1 | All Maps","name_short":"lax-1","host":"lax-1.us.uncletopia.com","port":27015,"enabled":true,"region":"us-west","cc":"us","latitude":33.94279,"longitude":-118.41004,"reserved":0,"last_update":"0001-01-01T00:00:00Z","name_a2s":"Uncletopia | Los Angeles | 1 | All Maps","protocol":17,"map":"cp_altitude","folder":"tf","game":"Team Fortress","app_id":440,"player_count":0,"max_players":24,"Bots":0,"server_type":"Dedicated","server_os":"Linux","password":true,"vac":true,"version":"7961495","steam_id":85568392924469991,"keywords":["cp","nocrits","nodmgspread","uncletopia"],"game_id":440,"stv_port":27016,"stv_name":"Uncletopia | Los Angeles | 1 | All Maps | STV","players":null},{"server_id":112,"name":"Uncletopia | Los Angeles | 2 | All Maps","name_short":"lax-2","host":"lax-1.us.uncletopia.com","port":27025,"enabled":true,"region":"us-west","cc":"us","latitude":33.94279,"longitude":-118.41004,"reserved":0,"last_update":"0001-01-01T00:00:00Z","name_a2s":"Uncletopia | Los Angeles | 2 | All Maps","protocol":17,"map":"pl_borneo","folder":"tf","game":"Team Fortress","app_id":440,"player_count":0,"max_players":24,"Bots":0,"server_type":"Dedicated","server_os":"Linux","password":true,"vac":true,"version":"7961495","steam_id":85568392924469992,"keywords":["nocrits","nodmgspread","payload","uncletopia"],"game_id":440,"stv_port":27026,"stv_name":"Uncletopia | Los Angeles | 2 | All Maps | STV","players":null},{"server_id":324,"name":"Uncletopia | Los Angeles | 3 | All Maps","name_short":"lax-3","host":"lax-1.us.uncletopia.com","port":27035,"enabled":true,"region":"us-west","cc":"us","latitude":33.94279,"longitude":-118.41004,"reserved":0,"last_update":"0001-01-01T00:00:00Z","name_a2s":"Uncletopia | Los Angeles | 3 | All Maps","protocol":17,"map":"pl_frontier_final","folder":"tf","game":"Team Fortress","app_id":440,"player_count":0,"max_players":24,"Bots":0,"server_type":"Dedicated","server_os":"Linux","password":true,"vac":true,"version":"7961495","steam_id":85568392924510198,"keywords":["nocrits","nodmgspread","payload","uncletopia"],"game_id":440,"stv_port":27036,"stv_name":"Uncletopia | Los Angeles | 3 | All Maps | STV","players":null},{"server_id":25,"name":"Uncletopia | Los Angeles | 4 | Stopwatch Beta","name_short":"lax-4","host":"lax-1.us.uncletopia.com","port":27045,"enabled":true,"region":"us-west","cc":"us","latitude":33.94279,"longitude":-118.41004,"reserved":0,"last_update":"0001-01-01T00:00:00Z","name_a2s":"Uncletopia | Los Angeles | 4 | Stopwatch Beta","protocol":17,"map":"pl_upward","folder":"tf","game":"Team Fortress","app_id":440,"player_count":0,"max_players":24,"Bots":0,"server_type":"Dedicated","server_os":"Linux","password":true,"vac":true,"version":"7961495","steam_id":85568392924510199,"keywords":["nocrits","nodmgspread","payload","uncletopia"],"game_id":440,"stv_port":27046,"stv_name":"Uncletopia | Los Angeles | 4 | Stopwatch Beta | STV","players":null},{"server_id":11,"name":"Uncletopia | London | 1 | All Maps","name_short":"lon-1","host":"lon-1.uk.uncletopia.com","port":27015,"enabled":true,"region":"eu","cc":"gb","latitude":51.509865,"longitude":-0.118092,"reserved":0,"last_update":"0001-01-01T00:00:00Z","name_a2s":"Uncletopia | London | 1 | All Maps","protocol":17,"map":"pl_pier","folder":"tf","game":"Team Fortress","app_id":440,"player_count":24,"max_players":24,"Bots":0,"server_type":"Dedicated","server_os":"Linux","password":true,"vac":true,"version":"7961495","steam_id":85568392924367362,"keywords":["nocrits","nodmgspread","payload","uncletopia"],"game_id":440,"stv_port":27016,"stv_name":"Uncletopia | London | 1 | All Maps | STV","players":[{"user_id":372,"name":"jermany","steam_id":76561198126599355,"connected_time":3843000000000,"state":"active","ping":60},{"user_id":408,"name":"sylphid","steam_id":76561198043601838,"connected_time":562000000000,"state":"active","ping":60},{"user_id":410,"name":"Grønkjær","steam_id":76561198041075280,"connected_time":204000000000,"state":"active","ping":81},{"user_id":376,"name":"Laylakikio","steam_id":76561198090146457,"connected_time":3609000000000,"state":"active","ping":42},{"user_id":291,"name":"OTP °Roticher","steam_id":76561198194559879,"connected_time":10466000000000,"state":"active","ping":60},{"user_id":356,"name":"beda","steam_id":76561198277943630,"connected_time":4995000000000,"state":"active","ping":74},{"user_id":369,"name":"orson2008","steam_id":76561199491967829,"connected_time":4192000000000,"state":"active","ping":178},{"user_id":377,"name":"saltimbanque","steam_id":76561198088624259,"connected_time":3604000000000,"state":"active","ping":63},{"user_id":404,"name":"That Brown Nerd","steam_id":76561198196685086,"connected_time":1050000000000,"state":"active","ping":60},{"user_id":294,"name":"TÉNÈBRES ROUGE SANG","steam_id":76561198798803845,"connected_time":10344000000000,"state":"active","ping":54},{"user_id":396,"name":"Hugee  くコ:彡","steam_id":76561198245495152,"connected_time":1652000000000,"state":"active","ping":60},{"user_id":373,"name":"Mr.Schnittlauch","steam_id":76561198295868113,"connected_time":3842000000000,"state":"active","ping":60},{"user_id":397,"name":"AWildTamim","steam_id":76561198048060652,"connected_time":1647000000000,"state":"active","ping":38},{"user_id":393,"name":"ein'd","steam_id":76561198152162834,"connected_time":2135000000000,"state":"active","ping":107},{"user_id":382,"name":"n//bu!","steam_id":76561198307037169,"connected_time":3261000000000,"state":"active","ping":56},{"user_id":279,"name":"halow","steam_id":76561198061505163,"connected_time":11573000000000,"state":"active","ping":101},{"user_id":358,"name":"hbivnm","steam_id":76561197996468677,"connected_time":4943000000000,"state":"active","ping":70},{"user_id":409,"name":"alien","steam_id":76561197968892194,"connected_time":310000000000,"state":"active","ping":48},{"user_id":374,"name":"soar","steam_id":76561198010662796,"connected_time":3830000000000,"state":"active","ping":53},{"user_id":335,"name":"ghost boy","steam_id":76561198214848887,"connected_time":7620000000000,"state":"active","ping":75},{"user_id":400,"name":"Parmenides","steam_id":76561198079849761,"connected_time":1596000000000,"state":"active","ping":53},{"user_id":401,"name":"Badrock 1","steam_id":76561198368513115,"connected_time":1389000000000,"state":"active","ping":118},{"user_id":361,"name":"Peanut","steam_id":76561198018865486,"connected_time":4780000000000,"state":"active","ping":76},{"user_id":392,"name":"Stunner (John Gaming)","steam_id":76561199085822219,"connected_time":2539000000000,"state":"active","ping":83}]},{"server_id":114,"name":"Uncletopia | London | 2 | All Maps","name_short":"lon-2","host":"lon-1.uk.uncletopia.com","port":27025,"enabled":true,"region":"eu","cc":"gb","latitude":51.509865,"longitude":-0.118092,"reserved":0,"last_update":"0001-01-01T00:00:00Z","name_a2s":"Uncletopia | London | 2 | All Maps","protocol":17,"map":"koth_highpass","folder":"tf","game":"Team Fortress","app_id":440,"player_count":0,"max_players":24,"Bots":0,"server_type":"Dedicated","server_os":"Linux","password":true,"vac":true,"version":"7961495","steam_id":85568392924470941,"keywords":["cp","nocrits","nodmgspread","uncletopia"],"game_id":440,"stv_port":27026,"stv_name":"Uncletopia | London | 2 | All Maps | STV","players":null},{"server_id":320,"name":"Uncletopia | London | 3 | All Maps","name_short":"lon-3","host":"lon-1.uk.uncletopia.com","port":27035,"enabled":true,"region":"eu","cc":"gb","latitude":51.509865,"longitude":-0.118092,"reserved":0,"last_update":"0001-01-01T00:00:00Z","name_a2s":"Uncletopia | London | 3 | All Maps","protocol":17,"map":"cp_altitude","folder":"tf","game":"Team Fortress","app_id":440,"player_count":24,"max_players":24,"Bots":0,"server_type":"Dedicated","server_os":"Linux","password":true,"vac":true,"version":"7961495","steam_id":85568392924510192,"keywords":["cp","nocrits","nodmgspread","uncletopia"],"game_id":440,"stv_port":27036,"stv_name":"Uncletopia | London | 3 | All Maps | STV","players":[{"user_id":210,"name":"K.V. #RemoveRandomCrits","steam_id":76561197994832993,"connected_time":1651000000000,"state":"active","ping":84},{"user_id":220,"name":"Joe","steam_id":76561198061717026,"connected_time":1045000000000,"state":"active","ping":45},{"user_id":222,"name":"MargoulGetron","steam_id":76561198020551698,"connected_time":711000000000,"state":"active","ping":53},{"user_id":179,"name":"44.1 Hz ☨","steam_id":76561198066920562,"connected_time":3085000000000,"state":"active","ping":47},{"user_id":208,"name":"Captain Brexit","steam_id":76561199025230103,"connected_time":1874000000000,"state":"active","ping":63},{"user_id":224,"name":"DoctorTopLeL","steam_id":76561198088533595,"connected_time":553000000000,"state":"active","ping":105},{"user_id":217,"name":"Cactus","steam_id":76561198048639239,"connected_time":1189000000000,"state":"active","ping":75},{"user_id":218,"name":"tall boy","steam_id":76561199124552772,"connected_time":1184000000000,"state":"active","ping":57},{"user_id":233,"name":"Mish","steam_id":76561198302973642,"connected_time":59000000000,"state":"active","ping":136},{"user_id":191,"name":"Bung","steam_id":76561199107304541,"connected_time":2242000000000,"state":"active","ping":72},{"user_id":153,"name":"Bruschetta","steam_id":76561198251927162,"connected_time":4987000000000,"state":"active","ping":70},{"user_id":204,"name":"Noam","steam_id":76561198057789807,"connected_time":1973000000000,"state":"active","ping":94},{"user_id":225,"name":"Epic Meal Time","steam_id":76561198178032977,"connected_time":547000000000,"state":"active","ping":54},{"user_id":226,"name":"Jørn","steam_id":76561199073257952,"connected_time":539000000000,"state":"active","ping":66},{"user_id":174,"name":"V1","steam_id":76561198845397091,"connected_time":3220000000000,"state":"active","ping":104},{"user_id":91,"name":"After8","steam_id":76561198090750865,"connected_time":9830000000000,"state":"active","ping":75},{"user_id":231,"name":"dex","steam_id":76561197972438196,"connected_time":317000000000,"state":"active","ping":45},{"user_id":161,"name":"V2","steam_id":76561198311044984,"connected_time":4143000000000,"state":"active","ping":73},{"user_id":234,"name":"FishNachoz","steam_id":76561198026519426,"connected_time":44000000000,"state":"active","ping":53},{"user_id":219,"name":"machine","steam_id":76561198072320671,"connected_time":1182000000000,"state":"active","ping":33},{"user_id":230,"name":"Fucking Nep Nep","steam_id":76561198340419043,"connected_time":422000000000,"state":"active","ping":155},{"user_id":214,"name":"flub_","steam_id":76561198337519315,"connected_time":1534000000000,"state":"active","ping":44},{"user_id":213,"name":"Remyie","steam_id":76561198131031404,"connected_time":1603000000000,"state":"active","ping":94},{"user_id":223,"name":"Raymus","steam_id":76561198021330407,"connected_time":708000000000,"state":"active","ping":58}]},{"server_id":321,"name":"Uncletopia | London | 4 | All Maps","name_short":"lon-4","host":"lon-1.uk.uncletopia.com","port":27045,"enabled":true,"region":"eu","cc":"gb","latitude":51.509865,"longitude":-0.118092,"reserved":0,"last_update":"0001-01-01T00:00:00Z","name_a2s":"Uncletopia | London | 4 | All Maps","protocol":17,"map":"pl_snowycoast","folder":"tf","game":"Team Fortress","app_id":440,"player_count":22,"max_players":24,"Bots":0,"server_type":"Dedicated","server_os":"Linux","password":true,"vac":true,"version":"7961495","steam_id":85568392924510193,"keywords":["nocrits","nodmgspread","payload","uncletopia"],"game_id":440,"stv_port":27046,"stv_name":"Uncletopia | London | 4 | All Maps | STV","players":[{"user_id":219,"name":"Soerlssoelssöen","steam_id":76561197993060585,"connected_time":821000000000,"state":"active","ping":83},{"user_id":216,"name":"sangth","steam_id":76561198032787233,"connected_time":921000000000,"state":"active","ping":75},{"user_id":217,"name":"Henry Fonda","steam_id":76561199378865926,"connected_time":897000000000,"state":"active","ping":85},{"user_id":209,"name":"monitor kernel access (REAL)","steam_id":76561198883869325,"connected_time":1363000000000,"state":"active","ping":55},{"user_id":199,"name":"Sir William Gaming","steam_id":76561198037676472,"connected_time":1984000000000,"state":"active","ping":71},{"user_id":236,"name":"Tywhip","steam_id":76561199207545191,"connected_time":22000000000,"state":"active","ping":55},{"user_id":233,"name":"avenje","steam_id":76561198155824845,"connected_time":180000000000,"state":"active","ping":69},{"user_id":222,"name":"Kamanie","steam_id":76561198135448255,"connected_time":493000000000,"state":"active","ping":61},{"user_id":223,"name":"Emo","steam_id":76561199240786439,"connected_time":461000000000,"state":"active","ping":96},{"user_id":237,"name":"swagmaster9000","steam_id":76561198232259356,"connected_time":19000000000,"state":"active","ping":61},{"user_id":224,"name":"Bobo","steam_id":76561198052308399,"connected_time":458000000000,"state":"active","ping":68},{"user_id":225,"name":"Sabi","steam_id":76561198202111522,"connected_time":440000000000,"state":"active","ping":59},{"user_id":203,"name":"Curls","steam_id":76561198079039937,"connected_time":1460000000000,"state":"active","ping":60},{"user_id":210,"name":"[taurine]","steam_id":76561199181821779,"connected_time":1226000000000,"state":"active","ping":60},{"user_id":226,"name":"ShewKehtt","steam_id":76561198189104628,"connected_time":398000000000,"state":"active","ping":51},{"user_id":175,"name":"mossfan1","steam_id":76561198087525446,"connected_time":2619000000000,"state":"active","ping":79},{"user_id":227,"name":"UglyTwinYgor","steam_id":76561198132718039,"connected_time":372000000000,"state":"active","ping":83},{"user_id":114,"name":"AddamsFamilyReject","steam_id":76561198035046824,"connected_time":6247000000000,"state":"active","ping":60},{"user_id":196,"name":"Trollstoy","steam_id":76561198072017175,"connected_time":2025000000000,"state":"active","ping":66},{"user_id":234,"name":"TJ1212","steam_id":76561199013575313,"connected_time":169000000000,"state":"active","ping":75},{"user_id":235,"name":"Shynii","steam_id":76561198194682105,"connected_time":103000000000,"state":"active","ping":57},{"user_id":231,"name":"Daxhound","steam_id":76561198048939870,"connected_time":326000000000,"state":"active","ping":61}]},{"server_id":21,"name":"Uncletopia | London | 5 | All Maps","name_short":"lon-5","host":"lon-1.uk.uncletopia.com","port":27055,"enabled":true,"region":"eu","cc":"gb","latitude":51.509865,"longitude":-0.118092,"reserved":0,"last_update":"0001-01-01T00:00:00Z","name_a2s":"Uncletopia | London | 5 | All Maps","protocol":17,"map":"pl_swiftwater_final1","folder":"tf","game":"Team Fortress","app_id":440,"player_count":24,"max_players":24,"Bots":0,"server_type":"Dedicated","server_os":"Linux","password":true,"vac":true,"version":"7961495","steam_id":85568392924742829,"keywords":["nocrits","nodmgspread","payload","uncletopia"],"game_id":440,"stv_port":27056,"stv_name":"Uncletopia | London | 5 | All Maps | STV","players":[{"user_id":115,"name":"ben ⁧⁧762","steam_id":76561199302631041,"connected_time":219000000000,"state":"active","ping":89},{"user_id":12,"name":"Ixsus\u003c3","steam_id":76561198094756869,"connected_time":5495000000000,"state":"active","ping":60},{"user_id":73,"name":"TMC","steam_id":76561198077956157,"connected_time":2502000000000,"state":"active","ping":45},{"user_id":98,"name":"Galareta Gamess","steam_id":76561198161016806,"connected_time":763000000000,"state":"active","ping":74},{"user_id":65,"name":"gion","steam_id":76561199065121816,"connected_time":2851000000000,"state":"active","ping":92},{"user_id":99,"name":"Raining Time","steam_id":76561198404557509,"connected_time":762000000000,"state":"active","ping":60},{"user_id":100,"name":"Fridge","steam_id":76561198071665589,"connected_time":753000000000,"state":"active","ping":94},{"user_id":89,"name":"UltimateSlayer","steam_id":76561198384109309,"connected_time":1186000000000,"state":"active","ping":57},{"user_id":90,"name":"john fortress","steam_id":76561198013237629,"connected_time":1173000000000,"state":"active","ping":98},{"user_id":101,"name":"ඞbominasus 2137  #SaveTF2","steam_id":76561198030062981,"connected_time":686000000000,"state":"active","ping":80},{"user_id":103,"name":"Larry Penus","steam_id":76561198207546233,"connected_time":650000000000,"state":"active","ping":44},{"user_id":116,"name":"Asa Mitaka","steam_id":76561198361723475,"connected_time":127000000000,"state":"active","ping":59},{"user_id":93,"name":"Romultra","steam_id":76561198354105082,"connected_time":1032000000000,"state":"active","ping":51},{"user_id":29,"name":"Archer's Heatmaker","steam_id":76561198928406571,"connected_time":4212000000000,"state":"active","ping":169},{"user_id":45,"name":"Chris Chan did WHAT!?","steam_id":76561199005562645,"connected_time":3773000000000,"state":"active","ping":113},{"user_id":114,"name":"SkP","steam_id":76561198144302929,"connected_time":276000000000,"state":"active","ping":54},{"user_id":70,"name":"Zedifo","steam_id":76561198044032070,"connected_time":2733000000000,"state":"active","ping":43},{"user_id":86,"name":"femboy sniper gaming","steam_id":76561198119210003,"connected_time":1451000000000,"state":"active","ping":99},{"user_id":113,"name":"Ch4bby","steam_id":76561198058792875,"connected_time":386000000000,"state":"active","ping":58},{"user_id":107,"name":"Bob D","steam_id":76561198026375630,"connected_time":580000000000,"state":"active","ping":58},{"user_id":108,"name":"Woman (Real)","steam_id":76561199151823932,"connected_time":570000000000,"state":"active","ping":88},{"user_id":109,"name":"walking plane","steam_id":76561198146779559,"connected_time":570000000000,"state":"active","ping":89},{"user_id":53,"name":"It's over","steam_id":76561198806419035,"connected_time":3513000000000,"state":"active","ping":135},{"user_id":112,"name":"killerdiam","steam_id":76561198806422317,"connected_time":411000000000,"state":"active","ping":52}]},{"server_id":22,"name":"Uncletopia | London | 6 | All Maps","name_short":"lon-6","host":"lon-1.uk.uncletopia.com","port":27065,"enabled":true,"region":"eu","cc":"gb","latitude":51.509865,"longitude":-0.118092,"reserved":0,"last_update":"0001-01-01T00:00:00Z","name_a2s":"Uncletopia | London | 6 | All Maps","protocol":17,"map":"koth_lakeside_final","folder":"tf","game":"Team Fortress","app_id":440,"player_count":18,"max_players":24,"Bots":0,"server_type":"Dedicated","server_os":"Linux","password":true,"vac":true,"version":"7961495","steam_id":85568392924742830,"keywords":["cp","nocrits","nodmgspread","uncletopia"],"game_id":440,"stv_port":27066,"stv_name":"Uncletopia | London | 6 | All Maps | STV","players":[{"user_id":105,"name":"Mr.Duck","steam_id":76561197983710667,"connected_time":956000000000,"state":"active","ping":82},{"user_id":131,"name":"The Manager of Sex","steam_id":76561198385989487,"connected_time":55000000000,"state":"active","ping":139},{"user_id":107,"name":"gunnarweisberg1","steam_id":76561199492394305,"connected_time":817000000000,"state":"active","ping":153},{"user_id":108,"name":"Glass Joe","steam_id":76561198221704772,"connected_time":738000000000,"state":"active","ping":154},{"user_id":118,"name":"skille","steam_id":76561198005794325,"connected_time":244000000000,"state":"active","ping":63},{"user_id":110,"name":"Literal Bread","steam_id":76561199188332023,"connected_time":453000000000,"state":"active","ping":136},{"user_id":128,"name":"Yoshi","steam_id":76561198863914777,"connected_time":76000000000,"state":"active","ping":164},{"user_id":112,"name":"Hiro_tbh","steam_id":76561199442653238,"connected_time":405000000000,"state":"active","ping":58},{"user_id":132,"name":"i am bread","steam_id":76561199180277321,"connected_time":21000000000,"state":"spawning","ping":51},{"user_id":115,"name":"krayy (she/her)","steam_id":76561198035037830,"connected_time":330000000000,"state":"active","ping":46},{"user_id":126,"name":"goga 3","steam_id":76561198375486320,"connected_time":120000000000,"state":"active","ping":58},{"user_id":127,"name":"Ёж Шэдоу","steam_id":76561198323622980,"connected_time":91000000000,"state":"active","ping":89},{"user_id":120,"name":"Madnessboy25","steam_id":76561198985432395,"connected_time":234000000000,"state":"active","ping":187},{"user_id":121,"name":"ice","steam_id":76561198011015750,"connected_time":225000000000,"state":"active","ping":62},{"user_id":122,"name":"Savarianus","steam_id":76561198249452090,"connected_time":219000000000,"state":"active","ping":66},{"user_id":129,"name":"Magikaska256","steam_id":76561199210284313,"connected_time":75000000000,"state":"active","ping":120},{"user_id":130,"name":"brtaba","steam_id":76561198796334790,"connected_time":74000000000,"state":"active","ping":67},{"user_id":133,"name":"spanish bitch on me","steam_id":76561199491834736,"connected_time":18000000000,"state":"active","ping":91}]},{"server_id":40,"name":"Uncletopia | London | 7 | No Payload","name_short":"lon-7","host":"lon-1.uk.uncletopia.com","port":27075,"enabled":true,"region":"eu","cc":"gb","latitude":51.509865,"longitude":-0.118092,"reserved":0,"last_update":"0001-01-01T00:00:00Z","name_a2s":"Uncletopia | London | 7 | No Payload","protocol":17,"map":"koth_sawmill","folder":"tf","game":"Team Fortress","app_id":440,"player_count":0,"max_players":24,"Bots":0,"server_type":"Dedicated","server_os":"Linux","password":true,"vac":true,"version":"7961495","steam_id":85568392924964314,"keywords":["cp","nocrits","nodmgspread","uncletopia"],"game_id":440,"stv_port":27076,"stv_name":"Uncletopia | London | 7 | No Payload | STV","players":null},{"server_id":41,"name":"Uncletopia | London | 8 | Community","name_short":"lon-8","host":"lon-1.uk.uncletopia.com","port":27085,"enabled":true,"region":"eu","cc":"gb","latitude":51.509865,"longitude":-0.118092,"reserved":0,"last_update":"0001-01-01T00:00:00Z","name_a2s":"Uncletopia | London | 8 | Community","protocol":17,"map":"workshop/cp_kalinka_rc6a.ugc1272700588","folder":"tf","game":"Team Fortress","app_id":440,"player_count":8,"max_players":24,"Bots":0,"server_type":"Dedicated","server_os":"Linux","password":true,"vac":true,"version":"7961495","steam_id":85568392924964315,"keywords":["cp","nocrits","nodmgspread","uncletopia"],"game_id":440,"stv_port":27086,"stv_name":"Uncletopia | London | 8 | Community | STV","players":[{"user_id":486,"name":"i have no ass but i must shit","steam_id":76561198326382938,"connected_time":1103000000000,"state":"active","ping":69},{"user_id":472,"name":"akakez","steam_id":76561198095432821,"connected_time":1610000000000,"state":"active","ping":133},{"user_id":488,"name":"lunispang","steam_id":76561198885297051,"connected_time":380000000000,"state":"active","ping":98},{"user_id":444,"name":"Cthulhu F'tagn","steam_id":76561198825499578,"connected_time":2857000000000,"state":"active","ping":51},{"user_id":485,"name":"screaming","steam_id":76561198050523315,"connected_time":1337000000000,"state":"active","ping":67},{"user_id":458,"name":"SANS UNDEREXXIE","steam_id":76561198087993931,"connected_time":2335000000000,"state":"active","ping":50},{"user_id":483,"name":"wall termite","steam_id":76561198337783795,"connected_time":1387000000000,"state":"active","ping":119},{"user_id":467,"name":"Steak","steam_id":76561198115019238,"connected_time":1794000000000,"state":"active","ping":63}]},{"server_id":300,"name":"Uncletopia | Montréal | 1 | All Maps","name_short":"mtl-1","host":"mtl-1.ca.uncletopia.com","port":27015,"enabled":true,"region":"us-east","cc":"ca","latitude":45.50889,"longitude":-73.56167,"reserved":0,"last_update":"0001-01-01T00:00:00Z","name_a2s":"Uncletopia | Montréal | 1 | All Maps","protocol":17,"map":"pl_swiftwater_final1","folder":"tf","game":"Team Fortress","app_id":440,"player_count":0,"max_players":24,"Bots":0,"server_type":"Dedicated","server_os":"Linux","password":true,"vac":true,"version":"7961495","steam_id":85568392924500087,"keywords":["nocrits","nodmgspread","payload","uncletopia"],"game_id":440,"stv_port":27016,"stv_name":"Uncletopia | Montréal | 1 | All Maps | STV","players":null},{"server_id":301,"name":"Uncletopia | Montréal | 2 | All Maps","name_short":"mtl-2","host":"mtl-1.ca.uncletopia.com","port":27025,"enabled":true,"region":"us-east","cc":"ca","latitude":45.50889,"longitude":-73.56167,"reserved":0,"last_update":"0001-01-01T00:00:00Z","name_a2s":"Uncletopia | Montréal | 2 | All Maps","protocol":17,"map":"cp_dustbowl","folder":"tf","game":"Team Fortress","app_id":440,"player_count":0,"max_players":24,"Bots":0,"server_type":"Dedicated","server_os":"Linux","password":true,"vac":true,"version":"7961495","steam_id":85568392924500088,"keywords":["cp","nocrits","nodmgspread","uncletopia"],"game_id":440,"stv_port":27026,"stv_name":"Uncletopia | Montréal | 2 | All Maps | STV","players":null},{"server_id":302,"name":"Uncletopia | Montréal | 3 | All Maps","name_short":"mtl-3","host":"mtl-1.ca.uncletopia.com","port":27035,"enabled":true,"region":"us-east","cc":"ca","latitude":45.50889,"longitude":-73.56167,"reserved":0,"last_update":"0001-01-01T00:00:00Z","name_a2s":"Uncletopia | Montréal | 3 | All Maps","protocol":17,"map":"koth_cascade","folder":"tf","game":"Team Fortress","app_id":440,"player_count":0,"max_players":24,"Bots":0,"server_type":"Dedicated","server_os":"Linux","password":true,"vac":true,"version":"7961495","steam_id":85568392924500089,"keywords":["cp","nocrits","nodmgspread","uncletopia"],"game_id":440,"stv_port":27036,"stv_name":"Uncletopia | Montréal | 3 | All Maps | STV","players":null},{"server_id":303,"name":"Uncletopia | Montréal | 4 | No Payload","name_short":"mtl-4","host":"mtl-1.ca.uncletopia.com","port":27045,"enabled":true,"region":"us-east","cc":"ca","latitude":45.50889,"longitude":-73.56167,"reserved":0,"last_update":"0001-01-01T00:00:00Z","name_a2s":"Uncletopia | Montréal | 4 | No Payload","protocol":17,"map":"koth_lakeside_final","folder":"tf","game":"Team Fortress","app_id":440,"player_count":0,"max_players":24,"Bots":0,"server_type":"Dedicated","server_os":"Linux","password":true,"vac":true,"version":"7961495","steam_id":85568392924500090,"keywords":["cp","nocrits","nodmgspread","uncletopia"],"game_id":440,"stv_port":27046,"stv_name":"Uncletopia | Montréal | 4 | No Payload | STV","players":null},{"server_id":13,"name":"Uncletopia | New York City | 1 | All Maps","name_short":"nyc-1","host":"nyc-1.us.uncletopia.com","port":27015,"enabled":true,"region":"us-east","cc":"us","latitude":40.73061,"longitude":-73.93524,"reserved":0,"last_update":"0001-01-01T00:00:00Z","name_a2s":"Uncletopia | New York City | 1 | All Maps","protocol":17,"map":"koth_cascade","folder":"tf","game":"Team Fortress","app_id":440,"player_count":0,"max_players":24,"Bots":0,"server_type":"Dedicated","server_os":"Linux","password":true,"vac":true,"version":"7961495","steam_id":85568392924469993,"keywords":["cp","nocrits","nodmgspread","uncletopia"],"game_id":440,"stv_port":27016,"stv_name":"Uncletopia | New York City | 1 | All Maps | STV","players":null},{"server_id":14,"name":"Uncletopia | New York City | 2 | All Maps","name_short":"nyc-2","host":"nyc-1.us.uncletopia.com","port":27025,"enabled":true,"region":"us-east","cc":"us","latitude":40.73061,"longitude":-73.93524,"reserved":0,"last_update":"0001-01-01T00:00:00Z","name_a2s":"Uncletopia | New York City | 2 | All Maps","protocol":17,"map":"pl_swiftwater_final1","folder":"tf","game":"Team Fortress","app_id":440,"player_count":24,"max_players":24,"Bots":0,"server_type":"Dedicated","server_os":"Linux","password":true,"vac":true,"version":"7961495","steam_id":85568392924469994,"keywords":["nocrits","nodmgspread","payload","uncletopia"],"game_id":440,"stv_port":27026,"stv_name":"Uncletopia | New York City | 2 | All Maps | STV","players":[{"user_id":170,"name":"josh","steam_id":76561198077902438,"connected_time":1616000000000,"state":"active","ping":73},{"user_id":166,"name":"Lumi","steam_id":76561198089978036,"connected_time":1766000000000,"state":"active","ping":55},{"user_id":11,"name":"Bee_Pirate","steam_id":76561199000599111,"connected_time":12300000000000,"state":"active","ping":71},{"user_id":176,"name":"t0ast","steam_id":76561198141722573,"connected_time":721000000000,"state":"active","ping":105},{"user_id":171,"name":"America's Craziest Golf Fan","steam_id":76561198054966395,"connected_time":1163000000000,"state":"active","ping":50},{"user_id":173,"name":"PeachFlavoredBleach","steam_id":76561198116226449,"connected_time":763000000000,"state":"active","ping":40},{"user_id":156,"name":"Redja","steam_id":76561198075009586,"connected_time":2178000000000,"state":"active","ping":80},{"user_id":172,"name":"wigger","steam_id":76561198072135595,"connected_time":806000000000,"state":"active","ping":104},{"user_id":119,"name":"Loser","steam_id":76561198139384735,"connected_time":4945000000000,"state":"active","ping":59},{"user_id":136,"name":"Your Local Jester","steam_id":76561199120223717,"connected_time":3342000000000,"state":"active","ping":57},{"user_id":74,"name":"Cold shoulder","steam_id":76561198453824178,"connected_time":8251000000000,"state":"active","ping":121},{"user_id":139,"name":"Bob \"Hell Rider\" White","steam_id":76561198979277948,"connected_time":3311000000000,"state":"active","ping":103},{"user_id":142,"name":"the pest","steam_id":76561198826298849,"connected_time":3178000000000,"state":"active","ping":92},{"user_id":177,"name":"harkz!","steam_id":76561198084847056,"connected_time":628000000000,"state":"active","ping":49},{"user_id":180,"name":"Spy from defense fort","steam_id":76561198832910095,"connected_time":572000000000,"state":"active","ping":83},{"user_id":181,"name":"MINIFIE MAN19","steam_id":76561198259509461,"connected_time":537000000000,"state":"active","ping":78},{"user_id":126,"name":"IanFishooks","steam_id":76561199403427527,"connected_time":3869000000000,"state":"active","ping":67},{"user_id":160,"name":"Roxie (she/her)","steam_id":76561198283084060,"connected_time":1931000000000,"state":"active","ping":80},{"user_id":112,"name":"Korrin, Femboy Fur Hire","steam_id":76561198095452955,"connected_time":5846000000000,"state":"active","ping":61},{"user_id":164,"name":"Pan Piotr","steam_id":76561198140016126,"connected_time":1830000000000,"state":"active","ping":150},{"user_id":151,"name":"Raine","steam_id":76561199081937889,"connected_time":2565000000000,"state":"active","ping":73},{"user_id":143,"name":"a","steam_id":76561198058079708,"connected_time":3073000000000,"state":"active","ping":68},{"user_id":182,"name":"crayonnipple","steam_id":76561198070253331,"connected_time":199000000000,"state":"active","ping":76},{"user_id":46,"name":"Kritzburgh","steam_id":76561198149466938,"connected_time":10415000000000,"state":"active","ping":56}]},{"server_id":15,"name":"Uncletopia | New York City | 3 | Stopwatch Beta","name_short":"nyc-3","host":"nyc-1.us.uncletopia.com","port":27035,"enabled":true,"region":"us-east","cc":"us","latitude":40.73061,"longitude":-73.93524,"reserved":0,"last_update":"0001-01-01T00:00:00Z","name_a2s":"Uncletopia | New York City | 3 | Stopwatch Beta","protocol":17,"map":"workshop/koth_bagel_rc6.ugc2514036946","folder":"tf","game":"Team Fortress","app_id":440,"player_count":0,"max_players":24,"Bots":0,"server_type":"Dedicated","server_os":"Linux","password":true,"vac":true,"version":"7961495","steam_id":85568392924742820,"keywords":["cp","nocrits","nodmgspread","uncletopia"],"game_id":440,"stv_port":27036,"stv_name":"Uncletopia | New York City | 3 | Stopwatch Beta | STV","players":null},{"server_id":16,"name":"Uncletopia | New York City | 4 | Community","name_short":"nyc-4","host":"nyc-1.us.uncletopia.com","port":27045,"enabled":true,"region":"us-east","cc":"us","latitude":40.73061,"longitude":-73.93524,"reserved":0,"last_update":"0001-01-01T00:00:00Z","name_a2s":"Uncletopia | New York City | 4 | Community","protocol":17,"map":"koth_lakeside_final","folder":"tf","game":"Team Fortress","app_id":440,"player_count":0,"max_players":24,"Bots":0,"server_type":"Dedicated","server_os":"Linux","password":true,"vac":true,"version":"7961495","steam_id":85568392924742821,"keywords":["cp","nocrits","nodmgspread","uncletopia"],"game_id":440,"stv_port":27046,"stv_name":"Uncletopia | New York City | 4 | Community | STV","players":null},{"server_id":142,"name":"Uncletopia | São Paulo | 1 | All Maps","name_short":"sao-1","host":"sao-1.br.uncletopia.com","port":27015,"enabled":true,"region":"sa","cc":"br","latitude":-23.533773,"longitude":-46.62529,"reserved":0,"last_update":"0001-01-01T00:00:00Z","name_a2s":"Uncletopia | São Paulo | 1 | All Maps","protocol":17,"map":"koth_highpass","folder":"tf","game":"Team Fortress","app_id":440,"player_count":0,"max_players":24,"Bots":0,"server_type":"Dedicated","server_os":"Linux","password":true,"vac":true,"version":"7961495","steam_id":85568392924469996,"keywords":["cp","nocrits","nodmgspread","uncletopia"],"game_id":440,"stv_port":27016,"stv_name":"Uncletopia | São Paulo | 1 | All Maps | STV","players":null},{"server_id":143,"name":"Uncletopia | São Paulo | 2 | Community","name_short":"sao-2","host":"sao-2.br.uncletopia.com","port":27015,"enabled":true,"region":"sa","cc":"br","latitude":-23.533773,"longitude":-46.62529,"reserved":0,"last_update":"0001-01-01T00:00:00Z","name_a2s":"Uncletopia | São Paulo | 2 | Community","protocol":17,"map":"workshop/koth_ramjam_rc1.ugc459778887","folder":"tf","game":"Team Fortress","app_id":440,"player_count":0,"max_players":24,"Bots":0,"server_type":"Dedicated","server_os":"Linux","password":true,"vac":true,"version":"7961495","steam_id":85568392924485349,"keywords":["cp","nocrits","nodmgspread","uncletopia"],"game_id":440,"stv_port":27016,"stv_name":"Uncletopia | São Paulo | 2 | Community | STV","players":null},{"server_id":7,"name":"Uncletopia | Seattle | 1 | All Maps","name_short":"sea-1","host":"sea-1.us.uncletopia.com","port":27015,"enabled":true,"region":"us-west","cc":"us","latitude":47.608013,"longitude":-122.33517,"reserved":0,"last_update":"0001-01-01T00:00:00Z","name_a2s":"Uncletopia | Seattle | 1 | All Maps","protocol":17,"map":"cp_mountainlab","folder":"tf","game":"Team Fortress","app_id":440,"player_count":23,"max_players":24,"Bots":0,"server_type":"Dedicated","server_os":"Linux","password":true,"vac":true,"version":"7961495","steam_id":85568392924469997,"keywords":["cp","nocrits","nodmgspread","uncletopia"],"game_id":440,"stv_port":27016,"stv_name":"Uncletopia | Seattle | 1 | All Maps | STV","players":[{"user_id":211,"name":"Winblu","steam_id":76561199039856584,"connected_time":1419000000000,"state":"active","ping":58},{"user_id":234,"name":"Wolverine Fingerblaster","steam_id":76561198095394582,"connected_time":476000000000,"state":"active","ping":123},{"user_id":216,"name":"Engideer","steam_id":76561198145733164,"connected_time":1102000000000,"state":"active","ping":86},{"user_id":228,"name":"Retrace","steam_id":76561198080620966,"connected_time":636000000000,"state":"active","ping":80},{"user_id":151,"name":"LeRoy42","steam_id":76561198035591428,"connected_time":6337000000000,"state":"active","ping":129},{"user_id":203,"name":"192.168.1.14","steam_id":76561198280085840,"connected_time":1642000000000,"state":"active","ping":68},{"user_id":213,"name":"Slothy","steam_id":76561198967069349,"connected_time":1240000000000,"state":"active","ping":55},{"user_id":209,"name":"Radio","steam_id":76561198194821053,"connected_time":1458000000000,"state":"active","ping":52},{"user_id":147,"name":"TheGhostThatWas","steam_id":76561198055836483,"connected_time":6510000000000,"state":"active","ping":106},{"user_id":195,"name":"BlazedBunny","steam_id":76561198243610560,"connected_time":2518000000000,"state":"active","ping":111},{"user_id":236,"name":"Ranch","steam_id":76561198035557013,"connected_time":452000000000,"state":"active","ping":96},{"user_id":237,"name":"Red Orbama","steam_id":76561198047002366,"connected_time":414000000000,"state":"active","ping":46},{"user_id":222,"name":"engiqueer69","steam_id":76561199153261850,"connected_time":832000000000,"state":"active","ping":105},{"user_id":174,"name":"Prime","steam_id":76561198218218705,"connected_time":3947000000000,"state":"active","ping":85},{"user_id":207,"name":"Lily Thorn","steam_id":76561198305488625,"connected_time":1618000000000,"state":"active","ping":69},{"user_id":224,"name":"Lucid","steam_id":76561199077448626,"connected_time":713000000000,"state":"active","ping":130},{"user_id":225,"name":"keffers","steam_id":76561198202338796,"connected_time":688000000000,"state":"active","ping":100},{"user_id":235,"name":"secio5","steam_id":76561198189746963,"connected_time":469000000000,"state":"active","ping":45},{"user_id":138,"name":"Urist McDwarf","steam_id":76561198164004939,"connected_time":6980000000000,"state":"active","ping":88},{"user_id":230,"name":"Oktayey","steam_id":76561198143213426,"connected_time":508000000000,"state":"active","ping":65},{"user_id":199,"name":"Polybius","steam_id":76561198072173048,"connected_time":2095000000000,"state":"active","ping":58},{"user_id":233,"name":"juan.png","steam_id":76561199276894516,"connected_time":483000000000,"state":"active","ping":59},{"user_id":208,"name":"Little Linguine","steam_id":76561198816986370,"connected_time":1618000000000,"state":"active","ping":63}]},{"server_id":119,"name":"Uncletopia | Seattle | 2 | All Maps","name_short":"sea-2","host":"sea-1.us.uncletopia.com","port":27025,"enabled":true,"region":"us-west","cc":"us","latitude":47.608013,"longitude":-122.33517,"reserved":0,"last_update":"0001-01-01T00:00:00Z","name_a2s":"Uncletopia | Seattle | 2 | All Maps","protocol":17,"map":"cp_process_final","folder":"tf","game":"Team Fortress","app_id":440,"player_count":0,"max_players":24,"Bots":0,"server_type":"Dedicated","server_os":"Linux","password":true,"vac":true,"version":"7961495","steam_id":85568392924469998,"keywords":["cp","nocrits","nodmgspread","uncletopia"],"game_id":440,"stv_port":27026,"stv_name":"Uncletopia | Seattle | 2 | All Maps | STV","players":null},{"server_id":406,"name":"Uncletopia | Seattle | 3 | Stopwatch Beta","name_short":"sea-3","host":"sea-1.us.uncletopia.com","port":27035,"enabled":true,"region":"us-west","cc":"us","latitude":47.608013,"longitude":-122.33517,"reserved":0,"last_update":"0001-01-01T00:00:00Z","name_a2s":"Uncletopia | Seattle | 3 | Stopwatch Beta","protocol":17,"map":"workshop/koth_ramjam_rc1.ugc459778887","folder":"tf","game":"Team Fortress","app_id":440,"player_count":0,"max_players":24,"Bots":0,"server_type":"Dedicated","server_os":"Linux","password":true,"vac":true,"version":"7961495","steam_id":85568392924515217,"keywords":["cp","nocrits","nodmgspread","uncletopia"],"game_id":440,"stv_port":27036,"stv_name":"Uncletopia | Seattle | 3 | Stopwatch Beta | STV","players":null},{"server_id":17,"name":"Uncletopia | San Francisco | 1 | All Maps","name_short":"sfo-1","host":"sfo-1.us.uncletopia.com","port":27015,"enabled":true,"region":"us-west","cc":"us","latitude":37.77397,"longitude":-122.4313,"reserved":0,"last_update":"0001-01-01T00:00:00Z","name_a2s":"Uncletopia | San Francisco | 1 | All Maps","protocol":17,"map":"pl_upward","folder":"tf","game":"Team Fortress","app_id":440,"player_count":0,"max_players":24,"Bots":0,"server_type":"Dedicated","server_os":"Linux","password":true,"vac":true,"version":"7961495","steam_id":85568392924469999,"keywords":["nocrits","nodmgspread","payload","uncletopia"],"game_id":440,"stv_port":27016,"stv_name":"Uncletopia | San Francisco | 1 | All Maps | STV","players":null},{"server_id":18,"name":"Uncletopia | San Francisco | 2 | All Maps","name_short":"sfo-2","host":"sfo-1.us.uncletopia.com","port":27025,"enabled":true,"region":"us-west","cc":"us","latitude":37.77397,"longitude":-122.4313,"reserved":0,"last_update":"0001-01-01T00:00:00Z","name_a2s":"Uncletopia | San Francisco | 2 | All Maps","protocol":17,"map":"cp_process_final","folder":"tf","game":"Team Fortress","app_id":440,"player_count":0,"max_players":24,"Bots":0,"server_type":"Dedicated","server_os":"Linux","password":true,"vac":true,"version":"7961495","steam_id":85568392924470000,"keywords":["cp","nocrits","nodmgspread","uncletopia"],"game_id":440,"stv_port":27026,"stv_name":"Uncletopia | San Francisco | 2 | All Maps | STV","players":null},{"server_id":19,"name":"Uncletopia | San Francisco | 3 | Stopwatch Beta","name_short":"sfo-3","host":"sfo-1.us.uncletopia.com","port":27035,"enabled":true,"region":"us-west","cc":"us","latitude":37.77397,"longitude":-122.4313,"reserved":0,"last_update":"0001-01-01T00:00:00Z","name_a2s":"Uncletopia | San Francisco | 3 | Stopwatch Beta","protocol":17,"map":"pl_borneo","folder":"tf","game":"Team Fortress","app_id":440,"player_count":0,"max_players":24,"Bots":0,"server_type":"Dedicated","server_os":"Linux","password":true,"vac":true,"version":"7961495","steam_id":85568392924742824,"keywords":["nocrits","nodmgspread","payload","uncletopia"],"game_id":440,"stv_port":27036,"stv_name":"Uncletopia | San Francisco | 3 | Stopwatch Beta | STV","players":null},{"server_id":20,"name":"Uncletopia | San Francisco | 4 | Community","name_short":"sfo-4","host":"sfo-1.us.uncletopia.com","port":27045,"enabled":true,"region":"us-west","cc":"us","latitude":37.77397,"longitude":-122.4313,"reserved":0,"last_update":"0001-01-01T00:00:00Z","name_a2s":"Uncletopia | San Francisco | 4 | Community","protocol":17,"map":"koth_viaduct","folder":"tf","game":"Team Fortress","app_id":440,"player_count":0,"max_players":24,"Bots":0,"server_type":"Dedicated","server_os":"Linux","password":true,"vac":true,"version":"7961495","steam_id":85568392924742826,"keywords":["cp","nocrits","nodmgspread","uncletopia"],"game_id":440,"stv_port":27046,"stv_name":"Uncletopia | San Francisco | 4 | Community | STV","players":null},{"server_id":141,"name":"Uncletopia | Sydney | 1 | All Maps","name_short":"syd-1","host":"syd-1.au.uncletopia.com","port":27015,"enabled":true,"region":"au","cc":"au","latitude":-33.865143,"longitude":151.2099,"reserved":0,"last_update":"0001-01-01T00:00:00Z","name_a2s":"Uncletopia | Sydney | 1 | All Maps","protocol":17,"map":"koth_highpass","folder":"tf","game":"Team Fortress","app_id":440,"player_count":0,"max_players":24,"Bots":0,"server_type":"Dedicated","server_os":"Linux","password":true,"vac":true,"version":"7961495","steam_id":85568392924470001,"keywords":["cp","nocrits","nodmgspread","uncletopia"],"game_id":440,"stv_port":27016,"stv_name":"Uncletopia | Sydney | 1 | All Maps | STV","players":null},{"server_id":123,"name":"Uncletopia | Sydney | 2 | All Maps","name_short":"syd-2","host":"syd-1.au.uncletopia.com","port":27025,"enabled":true,"region":"au","cc":"au","latitude":-33.865143,"longitude":151.2099,"reserved":0,"last_update":"0001-01-01T00:00:00Z","name_a2s":"Uncletopia | Sydney | 2 | All Maps","protocol":17,"map":"pl_swiftwater_final1","folder":"tf","game":"Team Fortress","app_id":440,"player_count":0,"max_players":24,"Bots":0,"server_type":"Dedicated","server_os":"Linux","password":true,"vac":true,"version":"7961495","steam_id":85568392924470002,"keywords":["nocrits","nodmgspread","payload","uncletopia"],"game_id":440,"stv_port":27026,"stv_name":"Uncletopia | Sydney | 2 | All Maps | STV","players":null},{"server_id":395,"name":"Uncletopia | Sydney | 3 | All Maps","name_short":"syd-3","host":"syd-1.au.uncletopia.com","port":27035,"enabled":true,"region":"au","cc":"au","latitude":-33.865143,"longitude":151.2099,"reserved":0,"last_update":"0001-01-01T00:00:00Z","name_a2s":"Uncletopia | Sydney | 3 | All Maps","protocol":17,"map":"cp_altitude","folder":"tf","game":"Team Fortress","app_id":440,"player_count":0,"max_players":24,"Bots":0,"server_type":"Dedicated","server_os":"Linux","password":true,"vac":true,"version":"7961495","steam_id":85568392925194467,"keywords":["cp","nocrits","nodmgspread","uncletopia"],"game_id":440,"stv_port":27036,"stv_name":"Uncletopia | Sydney | 3 | All Maps | STV","players":null},{"server_id":396,"name":"Uncletopia | Sydney | 4 | All Maps","name_short":"syd-4","host":"syd-1.au.uncletopia.com","port":27045,"enabled":true,"region":"au","cc":"au","latitude":-33.865143,"longitude":151.2099,"reserved":0,"last_update":"0001-01-01T00:00:00Z","name_a2s":"Uncletopia | Sydney | 4 | All Maps","protocol":17,"map":"pl_swiftwater_final1","folder":"tf","game":"Team Fortress","app_id":440,"player_count":0,"max_players":24,"Bots":0,"server_type":"Dedicated","server_os":"Linux","password":true,"vac":true,"version":"7961495","steam_id":85568392925397958,"keywords":["nocrits","nodmgspread","payload","uncletopia"],"game_id":440,"stv_port":27046,"stv_name":"Uncletopia | Sydney | 4 | All Maps | STV","players":null},{"server_id":58,"name":"Uncletopia | Sydney | 5 | Stopwatch Beta","name_short":"syd-5","host":"syd-1.au.uncletopia.com","port":27055,"enabled":true,"region":"au","cc":"au","latitude":-33.865143,"longitude":151.2099,"reserved":0,"last_update":"0001-01-01T00:00:00Z","name_a2s":"Uncletopia | Sydney | 5 | Stopwatch Beta","protocol":17,"map":"koth_viaduct","folder":"tf","game":"Team Fortress","app_id":440,"player_count":0,"max_players":24,"Bots":0,"server_type":"Dedicated","server_os":"Linux","password":true,"vac":true,"version":"7961495","steam_id":85568392925397959,"keywords":["cp","nocrits","nodmgspread","uncletopia"],"game_id":440,"stv_port":27056,"stv_name":"Uncletopia | Sydney | 5 | Stopwatch Beta | STV","players":null},{"server_id":59,"name":"Uncletopia | Sydney | 6 | Community","name_short":"syd-6","host":"syd-1.au.uncletopia.com","port":27065,"enabled":true,"region":"au","cc":"au","latitude":-33.865143,"longitude":151.2099,"reserved":0,"last_update":"0001-01-01T00:00:00Z","name_a2s":"Uncletopia | Sydney | 6 | Community","protocol":17,"map":"koth_cascade","folder":"tf","game":"Team Fortress","app_id":440,"player_count":0,"max_players":24,"Bots":0,"server_type":"Dedicated","server_os":"Linux","password":true,"vac":true,"version":"7961495","steam_id":85568392925397960,"keywords":["cp","nocrits","nodmgspread","uncletopia"],"game_id":440,"stv_port":27066,"stv_name":"Uncletopia | Sydney | 6 | Community | STV","players":null},{"server_id":49,"name":"Uncletopia | Warsaw | 1 | All Maps","name_short":"waw-1","host":"waw-1.pl.uncletopia.com","port":27015,"enabled":true,"region":"eu","cc":"pl","latitude":52.2297,"longitude":21.017532,"reserved":0,"last_update":"0001-01-01T00:00:00Z","name_a2s":"Uncletopia | Warsaw | 1 | All Maps","protocol":17,"map":"pl_borneo","folder":"tf","game":"Team Fortress","app_id":440,"player_count":0,"max_players":24,"Bots":0,"server_type":"Dedicated","server_os":"Linux","password":true,"vac":true,"version":"7961495","steam_id":85568392925397850,"keywords":["nocrits","nodmgspread","payload","uncletopia"],"game_id":440,"stv_port":27016,"stv_name":"Uncletopia | Warsaw | 1 | All Maps | STV","players":null},{"server_id":50,"name":"Uncletopia | Warsaw | 2 | All Maps","name_short":"waw-2","host":"waw-1.pl.uncletopia.com","port":27025,"enabled":true,"region":"eu","cc":"pl","latitude":52.2297,"longitude":21.017532,"reserved":0,"last_update":"0001-01-01T00:00:00Z","name_a2s":"Uncletopia | Warsaw | 2 | All Maps","protocol":17,"map":"koth_cascade","folder":"tf","game":"Team Fortress","app_id":440,"player_count":0,"max_players":24,"Bots":0,"server_type":"Dedicated","server_os":"Linux","password":true,"vac":true,"version":"7961495","steam_id":85568392925397851,"keywords":["cp","nocrits","nodmgspread","uncletopia"],"game_id":440,"stv_port":27026,"stv_name":"Uncletopia | Warsaw | 2 | All Maps | STV","players":null},{"server_id":51,"name":"Uncletopia | Warsaw | 3 | All Maps","name_short":"waw-3","host":"waw-1.pl.uncletopia.com","port":27035,"enabled":true,"region":"eu","cc":"pl","latitude":52.2297,"longitude":21.017532,"reserved":0,"last_update":"0001-01-01T00:00:00Z","name_a2s":"Uncletopia | Warsaw | 3 | All Maps","protocol":17,"map":"pl_swiftwater_final1","folder":"tf","game":"Team Fortress","app_id":440,"player_count":0,"max_players":24,"Bots":0,"server_type":"Dedicated","server_os":"Linux","password":true,"vac":true,"version":"7961495","steam_id":85568392925397852,"keywords":["nocrits","nodmgspread","payload","uncletopia"],"game_id":440,"stv_port":27036,"stv_name":"Uncletopia | Warsaw | 3 | All Maps | STV","players":null},{"server_id":52,"name":"Uncletopia | Warsaw | 4 | All Maps","name_short":"waw-4","host":"waw-1.pl.uncletopia.com","port":27045,"enabled":true,"region":"eu","cc":"pl","latitude":52.2297,"longitude":21.017532,"reserved":0,"last_update":"0001-01-01T00:00:00Z","name_a2s":"Uncletopia | Warsaw | 4 | All Maps","protocol":17,"map":"pl_upward","folder":"tf","game":"Team Fortress","app_id":440,"player_count":13,"max_players":24,"Bots":0,"server_type":"Dedicated","server_os":"Linux","password":true,"vac":true,"version":"7961495","steam_id":85568392925397853,"keywords":["nocrits","nodmgspread","payload","uncletopia"],"game_id":440,"stv_port":27046,"stv_name":"Uncletopia | Warsaw | 4 | All Maps | STV","players":[{"user_id":7,"name":"inženýr týmová pevnost dvě","steam_id":76561198406483941,"connected_time":4399000000000,"state":"active","ping":73},{"user_id":11,"name":"the baddest boy in btd5","steam_id":76561199487914508,"connected_time":2678000000000,"state":"active","ping":54},{"user_id":21,"name":"nemelex","steam_id":76561198958005865,"connected_time":511000000000,"state":"active","ping":75},{"user_id":12,"name":"Birb","steam_id":76561198183856322,"connected_time":2128000000000,"state":"active","ping":46},{"user_id":13,"name":"verm465","steam_id":76561199471010373,"connected_time":1474000000000,"state":"active","ping":66},{"user_id":20,"name":"ASAP","steam_id":76561198322078500,"connected_time":590000000000,"state":"active","ping":67},{"user_id":15,"name":"average heavy main","steam_id":76561198993742816,"connected_time":1214000000000,"state":"active","ping":105},{"user_id":17,"name":"dabomb gaming","steam_id":76561198350475019,"connected_time":1170000000000,"state":"active","ping":69},{"user_id":22,"name":"39","steam_id":76561199091672937,"connected_time":359000000000,"state":"active","ping":94},{"user_id":24,"name":"ANGELFISH","steam_id":76561198027536466,"connected_time":112000000000,"state":"active","ping":104},{"user_id":25,"name":"Jazzlike","steam_id":76561198839813662,"connected_time":109000000000,"state":"active","ping":91},{"user_id":26,"name":"yep, gamer","steam_id":76561199069996202,"connected_time":72000000000,"state":"active","ping":60},{"user_id":27,"name":"Jack Cable 3.5 mm","steam_id":76561198072998924,"connected_time":16000000000,"state":"spawning","ping":75}]},{"server_id":53,"name":"Uncletopia | Warsaw | 5 | Stopwatch Beta","name_short":"waw-5","host":"waw-1.pl.uncletopia.com","port":27055,"enabled":true,"region":"eu","cc":"pl","latitude":52.2297,"longitude":21.017532,"reserved":0,"last_update":"0001-01-01T00:00:00Z","name_a2s":"Uncletopia | Warsaw | 5 | Stopwatch Beta","protocol":17,"map":"cp_granary","folder":"tf","game":"Team Fortress","app_id":440,"player_count":0,"max_players":24,"Bots":0,"server_type":"Dedicated","server_os":"Linux","password":true,"vac":true,"version":"7961495","steam_id":85568392925397854,"keywords":["cp","nocrits","nodmgspread","uncletopia"],"game_id":440,"stv_port":27056,"stv_name":"Uncletopia | Warsaw | 5 | Stopwatch Beta | STV","players":null},{"server_id":54,"name":"Uncletopia | Warsaw | 6 | Community","name_short":"waw-6","host":"waw-1.pl.uncletopia.com","port":27065,"enabled":true,"region":"eu","cc":"pl","latitude":52.2297,"longitude":21.017532,"reserved":0,"last_update":"0001-01-01T00:00:00Z","name_a2s":"Uncletopia | Warsaw | 6 | Community","protocol":17,"map":"cp_mountainlab","folder":"tf","game":"Team Fortress","app_id":440,"player_count":0,"max_players":24,"Bots":0,"server_type":"Dedicated","server_os":"Linux","password":true,"vac":true,"version":"7961495","steam_id":85568392925397856,"keywords":["cp","nocrits","nodmgspread","uncletopia"],"game_id":440,"stv_port":27066,"stv_name":"Uncletopia | Warsaw | 6 | Community | STV","players":null}]}