{"status":true,"message":"","result":[{"server_id":9,"name":"Uncletopia | Atlanta | 1 | All Maps","name_short":"atl-1","host":"atl-1.us.uncletopia.com","port":27015,"enabled":true,"region":"us-east","cc":"us","latitude":33.753746,"longitude":-84.38633,"reserved":0,"last_update":"0001-01-01T00:00:00Z","name_a2s":"Uncletopia | Atlanta | 1 | All Maps","protocol":17,"map":"pl_badwater","folder":"tf","game":"Team Fortress","app_id":440,"player_count":24,"max_players":24,"Bots":0,"server_type":"Dedicated","server_os":"Linux","password":true,"vac":true,"version":"7757534","steam_id":85568392924469982,"keywords":["nocrits","nodmgspread","payload","uncletopia"],"game_id":440,"stv_port":27016,"stv_name":"Uncletopia | Atlanta | 1 | All Maps | STV","players":[{"user_id":526,"name":"kohlhagen","steam_id":76561198120440587,"connected_time":2208000000000,"state":"active","ping":48},{"user_id":523,"name":"Intestinal Straw","steam_id":76561198082095303,"connected_time":2620000000000,"state":"active","ping":79},{"user_id":529,"name":"mayhem","steam_id":76561199246637881,"connected_time":2030000000000,"state":"active","ping":56},{"user_id":546,"name":"ATL 1 | Save your wifi","steam_id":76561198286147372,"connected_time":104000000000,"state":"active","ping":58},{"user_id":535,"name":"fried eggs","steam_id":76561198319442494,"connected_time":853000000000,"state":"active","ping":108},{"user_id":532,"name":"ATL1 | Pango","steam_id":76561198069811545,"connected_time":1548000000000,"state":"active","ping":45},{"user_id":346,"name":"DFR Le4n!!!","steam_id":76561198045522596,"connected_time":17995000000000,"state":"active","ping":69},{"user_id":516,"name":"i love machine girl","steam_id":76561199187747394,"connected_time":4012000000000,"state":"active","ping":68},{"user_id":539,"name":"+","steam_id":76561198262422184,"connected_time":517000000000,"state":"active","ping":67},{"user_id":347,"name":"ATL1 | cola","steam_id":76561198374390458,"connected_time":17992000000000,"state":"active","ping":59},{"user_id":547,"name":"Buffy","steam_id":76561198083222227,"connected_time":74000000000,"state":"active","ping":107},{"user_id":368,"name":"Dr.Zarann","steam_id":76561198163952958,"connected_time":15118000000000,"state":"active","ping":58},{"user_id":517,"name":"ATL1 | Vee (very cool)","steam_id":76561198330432889,"connected_time":3139000000000,"state":"active","ping":63},{"user_id":545,"name":"Onyx","steam_id":76561198275349640,"connected_time":212000000000,"state":"active","ping":75},{"user_id":494,"name":"ash","steam_id":76561198127890645,"connected_time":5453000000000,"state":"active","ping":63},{"user_id":524,"name":"Im High","steam_id":76561198049954886,"connected_time":2487000000000,"state":"active","ping":77},{"user_id":527,"name":"Ghetto Smosh Fan","steam_id":76561198097272509,"connected_time":2207000000000,"state":"active","ping":37},{"user_id":530,"name":"xX_HimboSwallower_Xx","steam_id":76561198016029965,"connected_time":2027000000000,"state":"active","ping":72},{"user_id":511,"name":"David","steam_id":76561199187421416,"connected_time":4054000000000,"state":"active","ping":127},{"user_id":542,"name":"DolphiN | RGL.gg","steam_id":76561198048614515,"connected_time":495000000000,"state":"active","ping":60},{"user_id":544,"name":"Applesauce","steam_id":76561198049642811,"connected_time":236000000000,"state":"active","ping":52},{"user_id":519,"name":"Mage","steam_id":76561198285026879,"connected_time":2741000000000,"state":"active","ping":84},{"user_id":531,"name":"Albino Jellyfish","steam_id":76561198208561097,"connected_time":1553000000000,"state":"active","ping":67},{"user_id":513,"name":"stink","steam_id":76561198099318923,"connected_time":4052000000000,"state":"active","ping":77}]},{"server_id":104,"name":"Uncletopia | Atlanta | 2 | All Maps","name_short":"atl-2","host":"atl-1.us.uncletopia.com","port":27025,"enabled":true,"region":"us-east","cc":"us","latitude":33.753746,"longitude":-84.38633,"reserved":0,"last_update":"0001-01-01T00:00:00Z","name_a2s":"Uncletopia | Atlanta | 2 | All Maps","protocol":17,"map":"koth_viaduct","folder":"tf","game":"Team Fortress","app_id":440,"player_count":24,"max_players":24,"Bots":0,"server_type":"Dedicated","server_os":"Linux","password":true,"vac":true,"version":"7757534","steam_id":85568392924469983,"keywords":["cp","nocrits","nodmgspread","uncletopia"],"game_id":440,"stv_port":27026,"stv_name":"Uncletopia | Atlanta | 2 | All Maps | STV","players":[{"user_id":594,"name":"Jake The Snake","steam_id":76561198047722285,"connected_time":483000000000,"state":"active","ping":71},{"user_id":586,"name":"Sabakaii","steam_id":76561198149191879,"connected_time":642000000000,"state":"active","ping":75},{"user_id":593,"name":"Faraday","steam_id":76561198089928357,"connected_time":492000000000,"state":"active","ping":72},{"user_id":602,"name":"Epifiny","steam_id":76561198027958086,"connected_time":90000000000,"state":"active","ping":101},{"user_id":601,"name":"Temm32","steam_id":76561198440657154,"connected_time":327000000000,"state":"active","ping":88},{"user_id":595,"name":"Pokon","steam_id":76561198053113088,"connected_time":479000000000,"state":"active","ping":43},{"user_id":587,"name":"Wife Enjoyer","steam_id":76561198044109761,"connected_time":638000000000,"state":"active","ping":61},{"user_id":599,"name":"rxqueen","steam_id":76561198049258493,"connected_time":410000000000,"state":"active","ping":117},{"user_id":568,"name":"ku4g ttv","steam_id":76561198282967617,"connected_time":1726000000000,"state":"active","ping":77},{"user_id":597,"name":"Kiwiboy31","steam_id":76561198302758473,"connected_time":418000000000,"state":"active","ping":44},{"user_id":555,"name":"Vaccine Denier","steam_id":76561198273411260,"connected_time":2393000000000,"state":"active","ping":60},{"user_id":575,"name":"Havok","steam_id":76561198063455003,"connected_time":1208000000000,"state":"active","ping":77},{"user_id":588,"name":"DiscoTraveler","steam_id":76561199240168088,"connected_time":635000000000,"state":"active","ping":68},{"user_id":428,"name":"mio","steam_id":76561198239286750,"connected_time":7320000000000,"state":"active","ping":60},{"user_id":569,"name":"Snug","steam_id":76561199072692381,"connected_time":1693000000000,"state":"active","ping":96},{"user_id":572,"name":"creeeeeee","steam_id":76561198392539722,"connected_time":1590000000000,"state":"active","ping":76},{"user_id":563,"name":"NBA Youngboy","steam_id":76561199118797200,"connected_time":1944000000000,"state":"active","ping":64},{"user_id":589,"name":"m4l","steam_id":76561198360123001,"connected_time":617000000000,"state":"active","ping":85},{"user_id":418,"name":"lolgg.clay","steam_id":76561197994297935,"connected_time":8554000000000,"state":"active","ping":81},{"user_id":590,"name":"garbagebaby","steam_id":76561198004484166,"connected_time":607000000000,"state":"active","ping":68},{"user_id":598,"name":"Zelumie","steam_id":76561198147335801,"connected_time":418000000000,"state":"active","ping":80},{"user_id":437,"name":"the mother in question","steam_id":76561198103496593,"connected_time":6297000000000,"state":"active","ping":45},{"user_id":600,"name":"@_@","steam_id":76561197960304720,"connected_time":363000000000,"state":"active","ping":70},{"user_id":541,"name":"✿狐妻akemi","steam_id":76561198406252824,"connected_time":3355000000000,"state":"active","ping":115}]},{"server_id":400,"name":"Uncletopia | Atlanta | 3 | Community","name_short":"atl-3","host":"atl-1.us.uncletopia.com","port":27035,"enabled":true,"region":"us-east","cc":"us","latitude":33.753746,"longitude":-84.38633,"reserved":0,"last_update":"0001-01-01T00:00:00Z","name_a2s":"Uncletopia | Atlanta | 3 | Community","protocol":17,"map":"workshop/pl_badwater_pro_v12.ugc2142942074","folder":"tf","game":"Team Fortress","app_id":440,"player_count":24,"max_players":24,"Bots":0,"server_type":"Dedicated","server_os":"Linux","password":true,"vac":true,"version":"7757534","steam_id":85568392924515187,"keywords":["nocrits","nodmgspread","payload","uncletopia"],"game_id":440,"stv_port":27036,"stv_name":"Uncletopia | Atlanta | 3 | Community | STV","players":[{"user_id":545,"name":"Tom Crúaich","steam_id":76561197999439911,"connected_time":911000000000,"state":"active","ping":121},{"user_id":461,"name":"Ritzy","steam_id":76561198381955342,"connected_time":7306000000000,"state":"active","ping":140},{"user_id":546,"name":"ATA3","steam_id":76561198099640423,"connected_time":908000000000,"state":"active","ping":95},{"user_id":547,"name":"garit","steam_id":76561198000564263,"connected_time":898000000000,"state":"active","ping":53},{"user_id":513,"name":"Elongated Muskrat","steam_id":76561198314501346,"connected_time":2979000000000,"state":"active","ping":111},{"user_id":556,"name":"\u003c blank \u003e","steam_id":76561198012566503,"connected_time":561000000000,"state":"active","ping":99},{"user_id":564,"name":"Delightful MadCat","steam_id":76561198086178426,"connected_time":48000000000,"state":"spawning","ping":174},{"user_id":548,"name":"java","steam_id":76561198030276792,"connected_time":895000000000,"state":"active","ping":58},{"user_id":508,"name":"lanoc","steam_id":76561198055415367,"connected_time":3584000000000,"state":"active","ping":44},{"user_id":563,"name":"sand","steam_id":76561198086193212,"connected_time":214000000000,"state":"active","ping":60},{"user_id":528,"name":"breadroll","steam_id":76561198039506482,"connected_time":1931000000000,"state":"active","ping":65},{"user_id":510,"name":"woke up in new bogoti","steam_id":76561198042444734,"connected_time":3405000000000,"state":"active","ping":56},{"user_id":549,"name":"XBOX 360","steam_id":76561198066590783,"connected_time":886000000000,"state":"active","ping":76},{"user_id":557,"name":"Shy","steam_id":76561198394890836,"connected_time":558000000000,"state":"active","ping":55},{"user_id":560,"name":"Zero","steam_id":76561198142112204,"connected_time":522000000000,"state":"active","ping":97},{"user_id":520,"name":"Sea raider","steam_id":76561198123982355,"connected_time":2598000000000,"state":"active","ping":84},{"user_id":558,"name":"Tmob","steam_id":76561198799204731,"connected_time":553000000000,"state":"active","ping":76},{"user_id":521,"name":"KikeRuiz","steam_id":76561198196418453,"connected_time":2587000000000,"state":"active","ping":130},{"user_id":529,"name":"Rari","steam_id":76561198128537564,"connected_time":1729000000000,"state":"active","ping":66},{"user_id":553,"name":"Vapeinhand","steam_id":76561198134439943,"connected_time":774000000000,"state":"active","ping":100},{"user_id":554,"name":"Red","steam_id":76561198031865869,"connected_time":770000000000,"state":"active","ping":76},{"user_id":562,"name":"Jäger2316","steam_id":76561197974928362,"connected_time":326000000000,"state":"active","ping":96},{"user_id":505,"name":"tanavast","steam_id":76561198152297274,"connected_time":4070000000000,"state":"active","ping":67},{"user_id":536,"name":"dayman fighter of the nightman","steam_id":76561198010019214,"connected_time":1346000000000,"state":"active","ping":44}]},{"server_id":401,"name":"Uncletopia | Atlanta | 4 | No Payload","name_short":"atl-4","host":"atl-1.us.uncletopia.com","port":27045,"enabled":true,"region":"us-east","cc":"us","latitude":33.753746,"longitude":-84.38633,"reserved":0,"last_update":"0001-01-01T00:00:00Z","name_a2s":"","protocol":0,"map":"","folder":"","game":"","app_id":0,"player_count":0,"max_players":0,"Bots":0,"server_type":"","server_os":"","password":false,"vac":false,"version":"","steam_id":0,"keywords":null,"game_id":0,"stv_port":0,"stv_name":"","players":null},{"server_id":2,"name":"Uncletopia | Chicago | 1 | All Maps","name_short":"chi-1","host":"chi-1.us.uncletopia.com","port":27015,"enabled":true,"region":"us-central","cc":"us","latitude":41.881832,"longitude":-87.62318,"reserved":0,"last_update":"0001-01-01T00:00:00Z","name_a2s":"Uncletopia | Chicago | 1 | All Maps","protocol":17,"map":"pl_barnblitz","folder":"tf","game":"Team Fortress","app_id":440,"player_count":24,"max_players":24,"Bots":0,"server_type":"Dedicated","server_os":"Linux","password":true,"vac":true,"version":"7757534","steam_id":85568392924469984,"keywords":["nocrits","nodmgspread","payload","uncletopia"],"game_id":440,"stv_port":27016,"stv_name":"Uncletopia | Chicago | 1 | All Maps | STV","players":[{"user_id":861,"name":"Yummy Kabobz","steam_id":76561198067661705,"connected_time":4559000000000,"state":"active","ping":75},{"user_id":897,"name":"MantisToboggan","steam_id":76561197969447887,"connected_time":2062000000000,"state":"active","ping":144},{"user_id":911,"name":"Sarbanes-Oxley","steam_id":76561197975898479,"connected_time":1152000000000,"state":"active","ping":75},{"user_id":920,"name":"Doublebagel47","steam_id":76561198832021744,"connected_time":335000000000,"state":"active","ping":78},{"user_id":865,"name":"Santicules","steam_id":76561198209373536,"connected_time":4470000000000,"state":"active","ping":58},{"user_id":898,"name":"Horrizan","steam_id":76561197965028480,"connected_time":2039000000000,"state":"active","ping":102},{"user_id":905,"name":"honk","steam_id":76561198050398028,"connected_time":1298000000000,"state":"active","ping":60},{"user_id":906,"name":"BurnN8or101","steam_id":76561198132668224,"connected_time":1264000000000,"state":"active","ping":63},{"user_id":915,"name":"I am a mooshroom","steam_id":76561198104198295,"connected_time":957000000000,"state":"active","ping":86},{"user_id":919,"name":"jayhong","steam_id":76561198046772832,"connected_time":391000000000,"state":"active","ping":45},{"user_id":922,"name":"polaris","steam_id":76561198212481737,"connected_time":288000000000,"state":"active","ping":45},{"user_id":921,"name":"ntjohn","steam_id":76561198043367011,"connected_time":331000000000,"state":"active","ping":61},{"user_id":923,"name":"ultralisk52","steam_id":76561198051666604,"connected_time":283000000000,"state":"active","ping":68},{"user_id":917,"name":"Tommy Gruvich","steam_id":76561198047709672,"connected_time":753000000000,"state":"active","ping":56},{"user_id":910,"name":"Dragonofponies","steam_id":76561199016800803,"connected_time":1170000000000,"state":"active","ping":75},{"user_id":842,"name":"Bren","steam_id":76561198093573384,"connected_time":6611000000000,"state":"active","ping":61},{"user_id":840,"name":"Queen Ishtar","steam_id":76561198035614233,"connected_time":6696000000000,"state":"active","ping":99},{"user_id":884,"name":"everyrockstar!","steam_id":76561198272094975,"connected_time":3372000000000,"state":"active","ping":126},{"user_id":881,"name":"Menacing Pile of Frogs","steam_id":76561198360134800,"connected_time":3825000000000,"state":"active","ping":75},{"user_id":918,"name":"Childhood Obesity","steam_id":76561198061190813,"connected_time":508000000000,"state":"active","ping":98},{"user_id":875,"name":"Jet","steam_id":76561198183511610,"connected_time":4013000000000,"state":"active","ping":65},{"user_id":913,"name":"blakejack226","steam_id":76561199128917566,"connected_time":1117000000000,"state":"active","ping":84},{"user_id":924,"name":"collacot","steam_id":76561198243248798,"connected_time":278000000000,"state":"active","ping":93},{"user_id":916,"name":"Crit Magnet","steam_id":76561198002158982,"connected_time":803000000000,"state":"active","ping":78}]},{"server_id":106,"name":"Uncletopia | Chicago | 2 | All Maps","name_short":"chi-2","host":"chi-1.us.uncletopia.com","port":27025,"enabled":true,"region":"us-central","cc":"us","latitude":41.881832,"longitude":-87.62318,"reserved":0,"last_update":"0001-01-01T00:00:00Z","name_a2s":"Uncletopia | Chicago | 2 | All Maps","protocol":17,"map":"pl_barnblitz","folder":"tf","game":"Team Fortress","app_id":440,"player_count":24,"max_players":24,"Bots":0,"server_type":"Dedicated","server_os":"Linux","password":true,"vac":true,"version":"7757534","steam_id":85568392924469985,"keywords":["nocrits","nodmgspread","payload","uncletopia"],"game_id":440,"stv_port":27026,"stv_name":"Uncletopia | Chicago | 2 | All Maps | STV","players":[{"user_id":676,"name":"Reaching4Stars","steam_id":76561198834662436,"connected_time":2079000000000,"state":"active","ping":74},{"user_id":594,"name":"Goober","steam_id":76561198988863807,"connected_time":6998000000000,"state":"active","ping":71},{"user_id":697,"name":"El Gato Paranoico","steam_id":76561198116567116,"connected_time":1156000000000,"state":"active","ping":97},{"user_id":658,"name":"Semper Ber","steam_id":76561198274021990,"connected_time":2690000000000,"state":"active","ping":87},{"user_id":680,"name":"Kelkith","steam_id":76561197985450422,"connected_time":1679000000000,"state":"active","ping":148},{"user_id":700,"name":"pete_the_cat_2014","steam_id":76561198199266047,"connected_time":567000000000,"state":"active","ping":57},{"user_id":677,"name":"SciFurLycan","steam_id":76561198809333252,"connected_time":2052000000000,"state":"active","ping":76},{"user_id":694,"name":"Flashtasm","steam_id":76561198026635660,"connected_time":1209000000000,"state":"active","ping":59},{"user_id":698,"name":"Boznyan","steam_id":76561198129164016,"connected_time":649000000000,"state":"active","ping":59},{"user_id":654,"name":"Lost","steam_id":76561198093713427,"connected_time":3195000000000,"state":"active","ping":60},{"user_id":699,"name":"chug jug","steam_id":76561198155631250,"connected_time":587000000000,"state":"active","ping":69},{"user_id":615,"name":"petrichor","steam_id":76561198104655642,"connected_time":5630000000000,"state":"active","ping":60},{"user_id":690,"name":"Top Score","steam_id":76561197998396236,"connected_time":1343000000000,"state":"active","ping":77},{"user_id":688,"name":"pipis","steam_id":76561198140971525,"connected_time":1379000000000,"state":"active","ping":62},{"user_id":695,"name":"Scared Duck","steam_id":76561198081348409,"connected_time":1205000000000,"state":"active","ping":61},{"user_id":689,"name":"Seighart","steam_id":76561198180734606,"connected_time":1373000000000,"state":"active","ping":50},{"user_id":649,"name":"Len","steam_id":76561199141913673,"connected_time":3659000000000,"state":"active","ping":88},{"user_id":672,"name":"rx","steam_id":76561198026393621,"connected_time":2244000000000,"state":"active","ping":85},{"user_id":696,"name":"Thumbs","steam_id":76561199065890132,"connected_time":1199000000000,"state":"active","ping":68},{"user_id":678,"name":"StonedGiant","steam_id":76561197984386932,"connected_time":1964000000000,"state":"active","ping":58},{"user_id":701,"name":"Sibas","steam_id":76561198079770573,"connected_time":177000000000,"state":"active","ping":157},{"user_id":685,"name":"023e20902o0239ee02390o239e","steam_id":76561198175741741,"connected_time":1463000000000,"state":"active","ping":76},{"user_id":693,"name":"Scraps","steam_id":76561198148099710,"connected_time":1232000000000,"state":"active","ping":77},{"user_id":630,"name":"stbb","steam_id":76561198173047169,"connected_time":4726000000000,"state":"active","ping":60}]},{"server_id":402,"name":"Uncletopia | Chicago | 3 | All Maps","name_short":"chi-3","host":"chi-1.us.uncletopia.com","port":27035,"enabled":true,"region":"us-central","cc":"us","latitude":41.881832,"longitude":-87.62318,"reserved":0,"last_update":"0001-01-01T00:00:00Z","name_a2s":"Uncletopia | Chicago | 3 | All Maps","protocol":17,"map":"pl_frontier_final","folder":"tf","game":"Team Fortress","app_id":440,"player_count":24,"max_players":24,"Bots":0,"server_type":"Dedicated","server_os":"Linux","password":true,"vac":true,"version":"7757534","steam_id":85568392924515191,"keywords":["nocrits","nodmgspread","payload","uncletopia"],"game_id":440,"stv_port":27036,"stv_name":"Uncletopia | Chicago | 3 | All Maps | STV","players":[{"user_id":592,"name":"Carmine","steam_id":76561199405378993,"connected_time":1106000000000,"state":"active","ping":72},{"user_id":568,"name":"sammy #freecream","steam_id":76561199001307670,"connected_time":2582000000000,"state":"active","ping":105},{"user_id":564,"name":"zoning out rn brb","steam_id":76561198102681457,"connected_time":3048000000000,"state":"active","ping":74},{"user_id":542,"name":":bocchigrin:","steam_id":76561198453203619,"connected_time":4758000000000,"state":"active","ping":105},{"user_id":594,"name":"dameJuno","steam_id":76561198070799623,"connected_time":957000000000,"state":"active","ping":88},{"user_id":593,"name":"Subterranean Dweller","steam_id":76561198025279327,"connected_time":1092000000000,"state":"active","ping":60},{"user_id":539,"name":"hb","steam_id":76561198185980055,"connected_time":5221000000000,"state":"active","ping":63},{"user_id":552,"name":"Lancer47","steam_id":76561198020481475,"connected_time":3869000000000,"state":"active","ping":84},{"user_id":601,"name":"e","steam_id":76561198131245396,"connected_time":415000000000,"state":"active","ping":77},{"user_id":540,"name":"shg","steam_id":76561198443298608,"connected_time":5217000000000,"state":"active","ping":59},{"user_id":538,"name":"Argo","steam_id":76561198353725622,"connected_time":5403000000000,"state":"active","ping":81},{"user_id":553,"name":"WatchWill","steam_id":76561198157237945,"connected_time":3848000000000,"state":"active","ping":81},{"user_id":597,"name":"Shystie","steam_id":76561198025371440,"connected_time":858000000000,"state":"active","ping":82},{"user_id":598,"name":"=^Samie^=","steam_id":76561198043785957,"connected_time":579000000000,"state":"active","ping":119},{"user_id":554,"name":"bauxoffdagloop","steam_id":76561199196442823,"connected_time":3846000000000,"state":"active","ping":132},{"user_id":566,"name":"jdt631","steam_id":76561198271999934,"connected_time":3020000000000,"state":"active","ping":89},{"user_id":549,"name":"Non","steam_id":76561198196524528,"connected_time":3912000000000,"state":"active","ping":54},{"user_id":599,"name":"John Zedong","steam_id":76561198015404287,"connected_time":538000000000,"state":"active","ping":55},{"user_id":541,"name":"hoodwink00❤","steam_id":76561198133869796,"connected_time":5076000000000,"state":"active","ping":92},{"user_id":582,"name":"Skab","steam_id":76561199126112357,"connected_time":1452000000000,"state":"active","ping":79},{"user_id":576,"name":"LikeASir","steam_id":76561198042209721,"connected_time":1827000000000,"state":"active","ping":46},{"user_id":575,"name":"rudy","steam_id":76561198088712799,"connected_time":1869000000000,"state":"active","ping":101},{"user_id":578,"name":"CHEEKY EUNUCH","steam_id":76561198990825232,"connected_time":1645000000000,"state":"active","ping":63},{"user_id":602,"name":"Kyzer","steam_id":76561198048034600,"connected_time":413000000000,"state":"active","ping":67}]},{"server_id":403,"name":"Uncletopia | Chicago | 4 | All Maps","name_short":"chi-4","host":"chi-1.us.uncletopia.com","port":27045,"enabled":true,"region":"us-central","cc":"us","latitude":41.881832,"longitude":-87.62318,"reserved":0,"last_update":"0001-01-01T00:00:00Z","name_a2s":"Uncletopia | Chicago | 4 | All Maps","protocol":17,"map":"pl_hoodoo_final","folder":"tf","game":"Team Fortress","app_id":440,"player_count":24,"max_players":24,"Bots":0,"server_type":"Dedicated","server_os":"Linux","password":true,"vac":true,"version":"7757534","steam_id":85568392924515193,"keywords":["nocrits","nodmgspread","payload","uncletopia"],"game_id":440,"stv_port":27046,"stv_name":"Uncletopia | Chicago | 4 | All Maps | STV","players":[{"user_id":980,"name":"Lane","steam_id":76561197965828506,"connected_time":2950000000000,"state":"active","ping":44},{"user_id":1022,"name":"Intro","steam_id":76561198028471074,"connected_time":535000000000,"state":"active","ping":80},{"user_id":1018,"name":"Aeris","steam_id":76561198287271028,"connected_time":880000000000,"state":"active","ping":62},{"user_id":1023,"name":"prestige worldwide (wide)","steam_id":76561198045655893,"connected_time":523000000000,"state":"active","ping":59},{"user_id":997,"name":"Tenori","steam_id":76561198046773795,"connected_time":2340000000000,"state":"active","ping":71},{"user_id":954,"name":"Zigadox","steam_id":76561198079813479,"connected_time":5232000000000,"state":"active","ping":84},{"user_id":1024,"name":"JelloMotion","steam_id":76561198045892038,"connected_time":473000000000,"state":"active","ping":60},{"user_id":964,"name":"the real babytron","steam_id":76561197989627918,"connected_time":4396000000000,"state":"active","ping":93},{"user_id":1034,"name":"wulri","steam_id":76561198042957779,"connected_time":196000000000,"state":"active","ping":60},{"user_id":1013,"name":"Jankyo","steam_id":76561198083339492,"connected_time":1422000000000,"state":"active","ping":81},{"user_id":1026,"name":"mepng","steam_id":76561199018758598,"connected_time":358000000000,"state":"active","ping":81},{"user_id":999,"name":"Konnor","steam_id":76561199136300254,"connected_time":2300000000000,"state":"active","ping":94},{"user_id":1027,"name":"Siless","steam_id":76561198040803878,"connected_time":336000000000,"state":"active","ping":52},{"user_id":1029,"name":"just jazz","steam_id":76561198010637797,"connected_time":313000000000,"state":"active","ping":84},{"user_id":1007,"name":"Poyo Boyo","steam_id":76561198010201227,"connected_time":1938000000000,"state":"active","ping":80},{"user_id":944,"name":"Kickbakk","steam_id":76561198042335947,"connected_time":5737000000000,"state":"active","ping":70},{"user_id":1030,"name":"Dozo","steam_id":76561198011546437,"connected_time":301000000000,"state":"active","ping":53},{"user_id":1031,"name":"M@verick","steam_id":76561198006363519,"connected_time":265000000000,"state":"active","ping":76},{"user_id":1036,"name":"illious","steam_id":76561198169925494,"connected_time":121000000000,"state":"active","ping":70},{"user_id":1033,"name":"WalrusNyetheBonkGuy","steam_id":76561197995626774,"connected_time":209000000000,"state":"active","ping":111},{"user_id":947,"name":"AkkiAdachi","steam_id":76561198071164077,"connected_time":5636000000000,"state":"active","ping":78},{"user_id":1005,"name":"quint","steam_id":76561198046797995,"connected_time":2129000000000,"state":"active","ping":52},{"user_id":1016,"name":"What The Hell Fried Chicken","steam_id":76561198117434605,"connected_time":1362000000000,"state":"active","ping":87},{"user_id":1037,"name":"GRUB","steam_id":76561199221602408,"connected_time":76000000000,"state":"active","ping":75}]},{"server_id":36,"name":"Uncletopia | Chicago | 5 | All Maps","name_short":"chi-5","host":"chi-2.us.uncletopia.com","port":27015,"enabled":true,"region":"us-central","cc":"us","latitude":41.881832,"longitude":-87.62318,"reserved":0,"last_update":"0001-01-01T00:00:00Z","name_a2s":"Uncletopia | Chicago | 5 | All Maps","protocol":17,"map":"pl_borneo","folder":"tf","game":"Team Fortress","app_id":440,"player_count":22,"max_players":24,"Bots":0,"server_type":"Dedicated","server_os":"Linux","password":true,"vac":true,"version":"7757534","steam_id":85568392924866362,"keywords":["nocrits","nodmgspread","payload","uncletopia"],"game_id":440,"stv_port":27016,"stv_name":"Uncletopia | Chicago | 5 | All Maps | STV","players":[{"user_id":520,"name":"mage","steam_id":76561198017908063,"connected_time":7000000000,"state":"active","ping":94},{"user_id":453,"name":"Dr Oshawott","steam_id":76561198042021629,"connected_time":4596000000000,"state":"active","ping":66},{"user_id":491,"name":"Castleson","steam_id":76561198054330537,"connected_time":1657000000000,"state":"active","ping":63},{"user_id":497,"name":"FitzyBear","steam_id":76561198409189585,"connected_time":1552000000000,"state":"active","ping":66},{"user_id":500,"name":"Phos","steam_id":76561198122339506,"connected_time":1413000000000,"state":"active","ping":69},{"user_id":454,"name":"hud_saytext_time 0","steam_id":76561198010327228,"connected_time":4595000000000,"state":"active","ping":165},{"user_id":483,"name":"mountain*✩‧₊˚","steam_id":76561198078395002,"connected_time":2290000000000,"state":"active","ping":59},{"user_id":508,"name":"Tetra","steam_id":76561198012329955,"connected_time":906000000000,"state":"active","ping":104},{"user_id":504,"name":"Mayonnaise","steam_id":76561198062419832,"connected_time":1251000000000,"state":"active","ping":156},{"user_id":506,"name":"The local hobo","steam_id":76561198289650060,"connected_time":948000000000,"state":"active","ping":81},{"user_id":507,"name":"Goblin Mode","steam_id":76561198064870076,"connected_time":942000000000,"state":"active","ping":85},{"user_id":509,"name":"n8thegr83008","steam_id":76561198214814260,"connected_time":903000000000,"state":"active","ping":75},{"user_id":516,"name":"SixTurned","steam_id":76561199084707827,"connected_time":756000000000,"state":"active","ping":191},{"user_id":469,"name":"Cats","steam_id":76561197965022076,"connected_time":4222000000000,"state":"active","ping":59},{"user_id":511,"name":"Lore","steam_id":76561198098407538,"connected_time":867000000000,"state":"active","ping":55},{"user_id":473,"name":"Pourpel","steam_id":76561198059125470,"connected_time":3643000000000,"state":"active","ping":77},{"user_id":519,"name":"mashallah","steam_id":76561198075111427,"connected_time":596000000000,"state":"active","ping":65},{"user_id":478,"name":"UnsettlingVoice","steam_id":76561198036614583,"connected_time":2692000000000,"state":"active","ping":71},{"user_id":384,"name":"Spinch","steam_id":76561198296224166,"connected_time":10557000000000,"state":"active","ping":89},{"user_id":514,"name":"Asura","steam_id":76561199026590878,"connected_time":828000000000,"state":"active","ping":54},{"user_id":386,"name":"Publo","steam_id":76561198161777140,"connected_time":10549000000000,"state":"active","ping":82},{"user_id":517,"name":"Allotrope","steam_id":76561197998450103,"connected_time":724000000000,"state":"active","ping":59}]},{"server_id":37,"name":"Uncletopia | Chicago | 6 | All Maps","name_short":"chi-6","host":"chi-2.us.uncletopia.com","port":27025,"enabled":true,"region":"us-central","cc":"us","latitude":41.881832,"longitude":-87.62318,"reserved":0,"last_update":"0001-01-01T00:00:00Z","name_a2s":"Uncletopia | Chicago | 6 | All Maps","protocol":17,"map":"pl_barnblitz","folder":"tf","game":"Team Fortress","app_id":440,"player_count":24,"max_players":24,"Bots":0,"server_type":"Dedicated","server_os":"Linux","password":true,"vac":true,"version":"7757534","steam_id":85568392924866363,"keywords":["nocrits","nodmgspread","payload","uncletopia"],"game_id":440,"stv_port":27026,"stv_name":"Uncletopia | Chicago | 6 | All Maps | STV","players":[{"user_id":590,"name":"hashmap","steam_id":76561198043794014,"connected_time":2994000000000,"state":"active","ping":50},{"user_id":599,"name":"Krome","steam_id":76561198087317232,"connected_time":2740000000000,"state":"active","ping":85},{"user_id":572,"name":"Apricot","steam_id":76561198355699935,"connected_time":4634000000000,"state":"active","ping":67},{"user_id":591,"name":"Xtar","steam_id":76561198301774048,"connected_time":2937000000000,"state":"active","ping":123},{"user_id":624,"name":"golem","steam_id":76561198355040593,"connected_time":39000000000,"state":"active","ping":73},{"user_id":608,"name":"I paid for taunt so I use taunt","steam_id":76561198412786186,"connected_time":1153000000000,"state":"active","ping":85},{"user_id":623,"name":"Ex-Phlogger","steam_id":76561198400058665,"connected_time":256000000000,"state":"active","ping":87},{"user_id":592,"name":"cbagels","steam_id":76561198453866972,"connected_time":2931000000000,"state":"active","ping":122},{"user_id":610,"name":"I Eat Trains","steam_id":76561198054791624,"connected_time":1072000000000,"state":"active","ping":57},{"user_id":611,"name":"Gorgon Freeman","steam_id":76561198000367036,"connected_time":1051000000000,"state":"active","ping":59},{"user_id":468,"name":"Bearegard","steam_id":76561198061926542,"connected_time":10868000000000,"state":"active","ping":57},{"user_id":586,"name":"Burny Sanders","steam_id":76561197961879048,"connected_time":3397000000000,"state":"active","ping":62},{"user_id":622,"name":"glog","steam_id":76561198174346247,"connected_time":329000000000,"state":"active","ping":80},{"user_id":594,"name":"Hot Chip/Lie Enjoyer","steam_id":76561198860607530,"connected_time":2921000000000,"state":"active","ping":115},{"user_id":566,"name":"A Puppy","steam_id":76561198828184456,"connected_time":5498000000000,"state":"active","ping":60},{"user_id":613,"name":"Rick Beato","steam_id":76561199080451611,"connected_time":1007000000000,"state":"active","ping":96},{"user_id":606,"name":"Mush","steam_id":76561198393461065,"connected_time":1363000000000,"state":"active","ping":86},{"user_id":614,"name":"sqwyrm","steam_id":76561198171032997,"connected_time":998000000000,"state":"active","ping":144},{"user_id":615,"name":"xXx420YoloSwaggins69xXx","steam_id":76561198054889312,"connected_time":996000000000,"state":"active","ping":60},{"user_id":616,"name":"Just a little bit blue?","steam_id":76561199113013688,"connected_time":991000000000,"state":"active","ping":82},{"user_id":621,"name":"Cookieofcool","steam_id":76561198315039218,"connected_time":879000000000,"state":"active","ping":80},{"user_id":617,"name":"MrFrost","steam_id":76561198800061541,"connected_time":990000000000,"state":"active","ping":119},{"user_id":618,"name":"Saul Catman","steam_id":76561199228539914,"connected_time":977000000000,"state":"active","ping":116},{"user_id":619,"name":"Jaydyn","steam_id":76561198140326797,"connected_time":974000000000,"state":"active","ping":77}]},{"server_id":38,"name":"Uncletopia | Chicago | 7 | Stopwatch Beta","name_short":"chi-7","host":"chi-2.us.uncletopia.com","port":27035,"enabled":true,"region":"us-central","cc":"us","latitude":41.881832,"longitude":-87.62318,"reserved":0,"last_update":"0001-01-01T00:00:00Z","name_a2s":"Uncletopia | Chicago | 7 | Stopwatch Beta","protocol":17,"map":"workshop/pl_barnblitz_pro7.ugc582280235","folder":"tf","game":"Team Fortress","app_id":440,"player_count":0,"max_players":24,"Bots":0,"server_type":"Dedicated","server_os":"Linux","password":true,"vac":true,"version":"7757534","steam_id":85568392924866364,"keywords":["nocrits","nodmgspread","payload","uncletopia"],"game_id":440,"stv_port":27036,"stv_name":"Uncletopia | Chicago | 7 | Stopwatch Beta | STV","players":null},{"server_id":39,"name":"Uncletopia | Chicago | 8 | Community","name_short":"chi-8","host":"chi-2.us.uncletopia.com","port":27045,"enabled":true,"region":"us-central","cc":"us","latitude":41.881832,"longitude":-87.62318,"reserved":0,"last_update":"0001-01-01T00:00:00Z","name_a2s":"Uncletopia | Chicago | 8 | Community","protocol":17,"map":"workshop/pl_vigil_rc9.ugc1266210012","folder":"tf","game":"Team Fortress","app_id":440,"player_count":24,"max_players":24,"Bots":0,"server_type":"Dedicated","server_os":"Linux","password":true,"vac":true,"version":"7757534","steam_id":85568392924866365,"keywords":["nocrits","nodmgspread","payload","uncletopia"],"game_id":440,"stv_port":27046,"stv_name":"Uncletopia | Chicago | 8 | Community | STV","players":[{"user_id":162,"name":"ZaChelbom","steam_id":76561198089343809,"connected_time":5409000000000,"state":"active","ping":52},{"user_id":230,"name":"goonmonster","steam_id":76561198040741271,"connected_time":719000000000,"state":"active","ping":57},{"user_id":233,"name":"shibaba bababool","steam_id":76561197972601902,"connected_time":656000000000,"state":"active","ping":78},{"user_id":202,"name":"Maxxycat","steam_id":76561198194062681,"connected_time":2965000000000,"state":"active","ping":57},{"user_id":216,"name":"Mefir","steam_id":76561198013650292,"connected_time":1514000000000,"state":"active","ping":114},{"user_id":222,"name":"Cheetose Intolerant","steam_id":76561198013399809,"connected_time":1167000000000,"state":"active","ping":71},{"user_id":236,"name":"Elizabeth truss","steam_id":76561198058250979,"connected_time":550000000000,"state":"active","ping":73},{"user_id":234,"name":"u","steam_id":76561197994492154,"connected_time":637000000000,"state":"active","ping":168},{"user_id":235,"name":"SomeRandomCat","steam_id":76561199107044061,"connected_time":633000000000,"state":"active","ping":61},{"user_id":217,"name":"puppygirl gaming","steam_id":76561198044363630,"connected_time":1479000000000,"state":"active","ping":68},{"user_id":237,"name":"kramer","steam_id":76561198117761965,"connected_time":505000000000,"state":"active","ping":73},{"user_id":197,"name":"autumnal.messenger","steam_id":76561199345816635,"connected_time":3089000000000,"state":"active","ping":105},{"user_id":238,"name":"StarBrigade","steam_id":76561198150224428,"connected_time":415000000000,"state":"active","ping":115},{"user_id":161,"name":"===","steam_id":76561198232617936,"connected_time":5434000000000,"state":"active","ping":49},{"user_id":199,"name":"RetroDsk | TTV","steam_id":76561198020646524,"connected_time":3027000000000,"state":"active","ping":65},{"user_id":200,"name":"Kaluka","steam_id":76561198036861445,"connected_time":3006000000000,"state":"active","ping":76},{"user_id":219,"name":"FROYO donovin","steam_id":76561198045679387,"connected_time":1327000000000,"state":"active","ping":45},{"user_id":240,"name":"Bzamo","steam_id":76561198039883392,"connected_time":250000000000,"state":"active","ping":59},{"user_id":205,"name":"spiderslash","steam_id":76561198043787070,"connected_time":2777000000000,"state":"active","ping":83},{"user_id":220,"name":"Joe Grumbo","steam_id":76561198048485190,"connected_time":1229000000000,"state":"active","ping":75},{"user_id":221,"name":"Reaper","steam_id":76561198435826103,"connected_time":1216000000000,"state":"active","ping":74},{"user_id":145,"name":"54","steam_id":76561198099591549,"connected_time":6169000000000,"state":"active","ping":75},{"user_id":241,"name":"☭ The Cop Fentanyl Debuff ☭","steam_id":76561197991817974,"connected_time":20000000000,"state":"active","ping":103},{"user_id":228,"name":"Rami #SaveTF2","steam_id":76561198371359190,"connected_time":861000000000,"state":"active","ping":105}]},{"server_id":8,"name":"Uncletopia | Dallas | 1 | All Maps","name_short":"dal-1","host":"dal-1.us.uncletopia.com","port":27015,"enabled":true,"region":"us-central","cc":"us","latitude":32.779167,"longitude":-96.80889,"reserved":0,"last_update":"0001-01-01T00:00:00Z","name_a2s":"Uncletopia | Dallas | 1 | All Maps","protocol":17,"map":"cp_altitude","folder":"tf","game":"Team Fortress","app_id":440,"player_count":24,"max_players":24,"Bots":0,"server_type":"Dedicated","server_os":"Linux","password":true,"vac":true,"version":"7757534","steam_id":85568392924469986,"keywords":["cp","nocrits","nodmgspread","uncletopia"],"game_id":440,"stv_port":27016,"stv_name":"Uncletopia | Dallas | 1 | All Maps | STV","players":[{"user_id":736,"name":"crankshaft","steam_id":76561197992798282,"connected_time":788000000000,"state":"active","ping":75},{"user_id":749,"name":"bird doctor","steam_id":76561199144340440,"connected_time":74000000000,"state":"active","ping":54},{"user_id":731,"name":"SnaggzHaki","steam_id":76561198065282605,"connected_time":1581000000000,"state":"active","ping":65},{"user_id":744,"name":"owen","steam_id":76561198121517871,"connected_time":343000000000,"state":"active","ping":54},{"user_id":717,"name":"LuciD","steam_id":76561198242842394,"connected_time":2125000000000,"state":"active","ping":97},{"user_id":685,"name":"Kirbothebrony","steam_id":76561198971911330,"connected_time":4439000000000,"state":"active","ping":65},{"user_id":737,"name":"76561198094801861","steam_id":76561198094801861,"connected_time":732000000000,"state":"active","ping":62},{"user_id":746,"name":"Project_Counter","steam_id":76561198152786076,"connected_time":265000000000,"state":"active","ping":57},{"user_id":686,"name":"LordZahe","steam_id":76561198241749034,"connected_time":4431000000000,"state":"active","ping":85},{"user_id":733,"name":"aidan long","steam_id":76561198073022833,"connected_time":1483000000000,"state":"active","ping":43},{"user_id":738,"name":"HeisenBurger","steam_id":76561198040632080,"connected_time":687000000000,"state":"active","ping":74},{"user_id":730,"name":"fish lover woman fearer","steam_id":76561198241061928,"connected_time":1659000000000,"state":"active","ping":63},{"user_id":739,"name":"rico suave","steam_id":76561198093252989,"connected_time":663000000000,"state":"active","ping":55},{"user_id":735,"name":"roleycoley","steam_id":76561198069574107,"connected_time":887000000000,"state":"active","ping":46},{"user_id":688,"name":"Awesome incarnate","steam_id":76561198049804640,"connected_time":4403000000000,"state":"active","ping":76},{"user_id":750,"name":"Nepithenarwhal","steam_id":76561198306408674,"connected_time":35000000000,"state":"active","ping":101},{"user_id":714,"name":"Not A Rapper","steam_id":76561198077523537,"connected_time":2346000000000,"state":"active","ping":106},{"user_id":657,"name":"Danger McHazard","steam_id":76561198059451274,"connected_time":6981000000000,"state":"active","ping":77},{"user_id":747,"name":"Punished Shitster","steam_id":76561198150452857,"connected_time":261000000000,"state":"active","ping":49},{"user_id":654,"name":"Jack Celliers","steam_id":76561198060983357,"connected_time":7346000000000,"state":"active","ping":57},{"user_id":726,"name":"Minlit","steam_id":76561198205832799,"connected_time":1971000000000,"state":"active","ping":55},{"user_id":697,"name":"CommanderXeno","steam_id":76561198259326276,"connected_time":4070000000000,"state":"active","ping":61},{"user_id":704,"name":"Anor","steam_id":76561198356139775,"connected_time":3416000000000,"state":"active","ping":83},{"user_id":563,"name":"Mr. Metro","steam_id":76561198351521199,"connected_time":16118000000000,"state":"active","ping":101}]},{"server_id":108,"name":"Uncletopia | Dallas | 2 | All Maps","name_short":"dal-2","host":"dal-1.us.uncletopia.com","port":27025,"enabled":true,"region":"us-central","cc":"us","latitude":32.779167,"longitude":-96.80889,"reserved":0,"last_update":"0001-01-01T00:00:00Z","name_a2s":"Uncletopia | Dallas | 2 | All Maps","protocol":17,"map":"pl_upward","folder":"tf","game":"Team Fortress","app_id":440,"player_count":24,"max_players":24,"Bots":0,"server_type":"Dedicated","server_os":"Linux","password":true,"vac":true,"version":"7757534","steam_id":85568392924469988,"keywords":["nocrits","nodmgspread","payload","uncletopia"],"game_id":440,"stv_port":27026,"stv_name":"Uncletopia | Dallas | 2 | All Maps | STV","players":[{"user_id":602,"name":"123","steam_id":76561198040375911,"connected_time":144000000000,"state":"active","ping":80},{"user_id":594,"name":"heimdall","steam_id":76561198069380992,"connected_time":364000000000,"state":"active","ping":67},{"user_id":585,"name":"noellehound","steam_id":76561198108844158,"connected_time":1425000000000,"state":"active","ping":78},{"user_id":595,"name":"Voltaire!","steam_id":76561198047528141,"connected_time":298000000000,"state":"active","ping":92},{"user_id":596,"name":"Beefmaster","steam_id":76561198036510331,"connected_time":280000000000,"state":"active","ping":84},{"user_id":590,"name":"pepsibobby","steam_id":76561198853864511,"connected_time":497000000000,"state":"active","ping":87},{"user_id":583,"name":"TwistedJasper","steam_id":76561198192325429,"connected_time":1656000000000,"state":"active","ping":69},{"user_id":586,"name":"Dale Earnhardt, Jr.","steam_id":76561198096344570,"connected_time":1411000000000,"state":"active","ping":67},{"user_id":592,"name":"pingus","steam_id":76561198268995867,"connected_time":460000000000,"state":"active","ping":74},{"user_id":562,"name":"Hamster Flusher","steam_id":76561198072396659,"connected_time":3459000000000,"state":"active","ping":88},{"user_id":572,"name":"Yune","steam_id":76561198039324447,"connected_time":2343000000000,"state":"active","ping":94},{"user_id":597,"name":"KingSteve42","steam_id":76561198409455888,"connected_time":268000000000,"state":"active","ping":111},{"user_id":548,"name":"(´-ι_-｀)","steam_id":76561198007464245,"connected_time":5196000000000,"state":"active","ping":78},{"user_id":598,"name":"Skyrim killable children mod","steam_id":76561198862836173,"connected_time":236000000000,"state":"active","ping":122},{"user_id":587,"name":"Chubby Monarch","steam_id":76561198027487285,"connected_time":1378000000000,"state":"active","ping":89},{"user_id":533,"name":"Niykin","steam_id":76561198044779043,"connected_time":6642000000000,"state":"active","ping":83},{"user_id":599,"name":"pony girl swag","steam_id":76561198299290069,"connected_time":235000000000,"state":"active","ping":75},{"user_id":564,"name":"Wetwork","steam_id":76561198142023828,"connected_time":3353000000000,"state":"active","ping":98},{"user_id":566,"name":"Squirtinq","steam_id":76561198171139050,"connected_time":2921000000000,"state":"active","ping":55},{"user_id":575,"name":"din afore","steam_id":76561198079892116,"connected_time":2191000000000,"state":"active","ping":73},{"user_id":600,"name":"Huey","steam_id":76561198972816386,"connected_time":229000000000,"state":"active","ping":80},{"user_id":584,"name":"toho","steam_id":76561198117747254,"connected_time":1567000000000,"state":"active","ping":72},{"user_id":601,"name":"Yongle","steam_id":76561198068591156,"connected_time":199000000000,"state":"active","ping":74},{"user_id":554,"name":"Robo Intern","steam_id":76561199067098696,"connected_time":4977000000000,"state":"active","ping":85}]},{"server_id":5,"name":"Uncletopia | Frankfurt | 1 | All Maps","name_short":"frk-1","host":"frk-1.de.uncletopia.com","port":27015,"enabled":true,"region":"eu","cc":"de","latitude":50.110924,"longitude":8.682127,"reserved":0,"last_update":"0001-01-01T00:00:00Z","name_a2s":"Uncletopia | Frankfurt | 1 | All Maps","protocol":17,"map":"koth_viaduct","folder":"tf","game":"Team Fortress","app_id":440,"player_count":0,"max_players":24,"Bots":0,"server_type":"Dedicated","server_os":"Linux","password":true,"vac":true,"version":"7757534","steam_id":85568392924469989,"keywords":["cp","nocrits","nodmgspread","uncletopia"],"game_id":440,"stv_port":27016,"stv_name":"Uncletopia | Frankfurt | 1 | All Maps | STV","players":null},{"server_id":110,"name":"Uncletopia | Frankfurt | 2 | All Maps","name_short":"frk-2","host":"frk-1.de.uncletopia.com","port":27025,"enabled":true,"region":"eu","cc":"de","latitude":50.110924,"longitude":8.682127,"reserved":0,"last_update":"0001-01-01T00:00:00Z","name_a2s":"Uncletopia | Frankfurt | 2 | All Maps","protocol":17,"map":"koth_cascade","folder":"tf","game":"Team Fortress","app_id":440,"player_count":0,"max_players":24,"Bots":0,"server_type":"Dedicated","server_os":"Linux","password":true,"vac":true,"version":"7757534","steam_id":85568392924469990,"keywords":["cp","nocrits","nodmgspread","uncletopia"],"game_id":440,"stv_port":27026,"stv_name":"Uncletopia | Frankfurt | 2 | All Maps | STV","players":null},{"server_id":308,"name":"Uncletopia | Frankfurt | 3 | All Maps","name_short":"frk-3","host":"frk-1.de.uncletopia.com","port":27035,"enabled":true,"region":"eu","cc":"de","latitude":50.110924,"longitude":8.682127,"reserved":0,"last_update":"0001-01-01T00:00:00Z","name_a2s":"Uncletopia | Frankfurt | 3 | All Maps","protocol":17,"map":"cp_mountainlab","folder":"tf","game":"Team Fortress","app_id":440,"player_count":0,"max_players":24,"Bots":0,"server_type":"Dedicated","server_os":"Linux","password":true,"vac":true,"version":"7757534","steam_id":85568392924504274,"keywords":["cp","nocrits","nodmgspread","uncletopia"],"game_id":440,"stv_port":27036,"stv_name":"Uncletopia | Frankfurt | 3 | All Maps | STV","players":null},{"server_id":309,"name":"Uncletopia | Frankfurt | 4 | All Maps","name_short":"frk-4","host":"frk-1.de.uncletopia.com","port":27045,"enabled":true,"region":"eu","cc":"de","latitude":50.110924,"longitude":8.682127,"reserved":0,"last_update":"0001-01-01T00:00:00Z","name_a2s":"Uncletopia | Frankfurt | 4 | All Maps","protocol":17,"map":"cp_sunshine","folder":"tf","game":"Team Fortress","app_id":440,"player_count":0,"max_players":24,"Bots":0,"server_type":"Dedicated","server_os":"Linux","password":true,"vac":true,"version":"7757534","steam_id":85568392924504275,"keywords":["cp","nocrits","nodmgspread","uncletopia"],"game_id":440,"stv_port":27046,"stv_name":"Uncletopia | Frankfurt | 4 | All Maps | STV","players":null},{"server_id":310,"name":"Uncletopia | Frankfurt | 5 | All Maps","name_short":"frk-5","host":"frk-1.de.uncletopia.com","port":27055,"enabled":true,"region":"eu","cc":"de","latitude":50.110924,"longitude":8.682127,"reserved":0,"last_update":"0001-01-01T00:00:00Z","name_a2s":"Uncletopia | Frankfurt | 5 | All Maps","protocol":17,"map":"pl_swiftwater_final1","folder":"tf","game":"Team Fortress","app_id":440,"player_count":0,"max_players":24,"Bots":0,"server_type":"Dedicated","server_os":"Linux","password":true,"vac":true,"version":"7757534","steam_id":85568392924504277,"keywords":["nocrits","nodmgspread","payload","uncletopia"],"game_id":440,"stv_port":27056,"stv_name":"Uncletopia | Frankfurt | 5 | All Maps | STV","players":null},{"server_id":311,"name":"Uncletopia | Frankfurt | 6 | All Maps","name_short":"frk-6","host":"frk-1.de.uncletopia.com","port":27065,"enabled":true,"region":"eu","cc":"de","latitude":50.110924,"longitude":8.682127,"reserved":0,"last_update":"0001-01-01T00:00:00Z","name_a2s":"Uncletopia | Frankfurt | 6 | All Maps","protocol":17,"map":"pl_badwater","folder":"tf","game":"Team Fortress","app_id":440,"player_count":0,"max_players":24,"Bots":0,"server_type":"Dedicated","server_os":"Linux","password":true,"vac":true,"version":"7757534","steam_id":85568392924504278,"keywords":["nocrits","nodmgspread","payload","uncletopia"],"game_id":440,"stv_port":27066,"stv_name":"Uncletopia | Frankfurt | 6 | All Maps | STV","players":null},{"server_id":23,"name":"Uncletopia | Frankfurt | 7 | Stopwatch Beta","name_short":"frk-7","host":"frk-1.de.uncletopia.com","port":27075,"enabled":true,"region":"eu","cc":"de","latitude":50.110924,"longitude":8.682127,"reserved":0,"last_update":"0001-01-01T00:00:00Z","name_a2s":"Uncletopia | Frankfurt | 7 | Stopwatch Beta","protocol":17,"map":"koth_highpass","folder":"tf","game":"Team Fortress","app_id":440,"player_count":0,"max_players":24,"Bots":0,"server_type":"Dedicated","server_os":"Linux","password":true,"vac":true,"version":"7757534","steam_id":85568392924742827,"keywords":["cp","nocrits","nodmgspread","uncletopia"],"game_id":440,"stv_port":27076,"stv_name":"Uncletopia | Frankfurt | 7 | Stopwatch Beta | STV","players":null},{"server_id":24,"name":"Uncletopia | Frankfurt | 8 | Community","name_short":"frk-8","host":"frk-1.de.uncletopia.com","port":27085,"enabled":true,"region":"eu","cc":"de","latitude":50.110924,"longitude":8.682127,"reserved":0,"last_update":"0001-01-01T00:00:00Z","name_a2s":"Uncletopia | Frankfurt | 8 | Community","protocol":17,"map":"workshop/koth_bagel_rc6.ugc2514036946","folder":"tf","game":"Team Fortress","app_id":440,"player_count":0,"max_players":24,"Bots":0,"server_type":"Dedicated","server_os":"Linux","password":true,"vac":true,"version":"7757534","steam_id":85568392924742828,"keywords":["cp","nocrits","nodmgspread","uncletopia"],"game_id":440,"stv_port":27086,"stv_name":"Uncletopia | Frankfurt | 8 | Community | STV","players":null},{"server_id":202,"name":"Uncletopia | Hong Kong | 1 | All Maps","name_short":"hgk-1","host":"hgk-1.hk.uncletopia.com","port":27015,"enabled":true,"region":"asia","cc":"hk","latitude":22.302711,"longitude":114.177216,"reserved":0,"last_update":"0001-01-01T00:00:00Z","name_a2s":"Uncletopia | Hong Kong | 1 | All Maps","protocol":17,"map":"cp_process_final","folder":"tf","game":"Team Fortress","app_id":440,"player_count":12,"max_players":24,"Bots":0,"server_type":"Dedicated","server_os":"Linux","password":true,"vac":true,"version":"7757534","steam_id":85568392924494504,"keywords":["cp","nocrits","nodmgspread","uncletopia"],"game_id":440,"stv_port":27016,"stv_name":"Uncletopia | Hong Kong | 1 | All Maps | STV","players":[{"user_id":5,"name":"Newbie.(cant chat)","steam_id":76561199131526926,"connected_time":4616000000000,"state":"active","ping":76},{"user_id":37,"name":"qb","steam_id":76561198412329672,"connected_time":506000000000,"state":"active","ping":75},{"user_id":7,"name":"redmond","steam_id":76561198056390902,"connected_time":4381000000000,"state":"active","ping":76},{"user_id":36,"name":"subasuba","steam_id":76561199474092971,"connected_time":619000000000,"state":"active","ping":90},{"user_id":34,"name":"derek.patriarca30","steam_id":76561199427230206,"connected_time":706000000000,"state":"active","ping":62},{"user_id":31,"name":"westover.","steam_id":76561198451007900,"connected_time":1152000000000,"state":"active","ping":100},{"user_id":38,"name":"BOK","steam_id":76561198095872644,"connected_time":62000000000,"state":"active","ping":81},{"user_id":24,"name":"Is that a Subaru?","steam_id":76561198420018387,"connected_time":2171000000000,"state":"active","ping":41},{"user_id":19,"name":"greeny","steam_id":76561198024666371,"connected_time":2498000000000,"state":"active","ping":90},{"user_id":22,"name":"Steve","steam_id":76561198429235506,"connected_time":2324000000000,"state":"active","ping":74},{"user_id":39,"name":"Telekhine","steam_id":76561198387120618,"connected_time":56000000000,"state":"active","ping":59},{"user_id":28,"name":"Mei_mei","steam_id":76561198162424362,"connected_time":1528000000000,"state":"active","ping":73}]},{"server_id":1,"name":"Uncletopia | Los Angeles | 1 | All Maps","name_short":"lax-1","host":"lax-1.us.uncletopia.com","port":27015,"enabled":true,"region":"us-west","cc":"us","latitude":33.94279,"longitude":-118.41004,"reserved":0,"last_update":"0001-01-01T00:00:00Z","name_a2s":"Uncletopia | Los Angeles | 1 | All Maps","protocol":17,"map":"koth_viaduct","folder":"tf","game":"Team Fortress","app_id":440,"player_count":25,"max_players":24,"Bots":0,"server_type":"Dedicated","server_os":"Linux","password":true,"vac":true,"version":"7757534","steam_id":85568392924469991,"keywords":["cp","nocrits","nodmgspread","uncletopia"],"game_id":440,"stv_port":27016,"stv_name":"Uncletopia | Los Angeles | 1 | All Maps | STV","players":[{"user_id":229,"name":"Mute.03","steam_id":76561199229281804,"connected_time":706000000000,"state":"active","ping":88},{"user_id":208,"name":"scrumpy'ly","steam_id":76561199122325145,"connected_time":2839000000000,"state":"active","ping":114},{"user_id":222,"name":"Dr. B Busta","steam_id":76561198206387303,"connected_time":1714000000000,"state":"active","ping":32},{"user_id":240,"name":"oog","steam_id":76561198272986152,"connected_time":44000000000,"state":"connecting","ping":0},{"user_id":215,"name":"Dongus","steam_id":76561197979056451,"connected_time":2800000000000,"state":"active","ping":74},{"user_id":203,"name":"★Kaputt","steam_id":76561198118037894,"connected_time":3264000000000,"state":"active","ping":128},{"user_id":237,"name":"Nez","steam_id":76561197963109059,"connected_time":340000000000,"state":"active","ping":64},{"user_id":232,"name":"SparklingSquids","steam_id":76561199245793673,"connected_time":611000000000,"state":"active","ping":68},{"user_id":220,"name":"Hindmost","steam_id":76561199081837220,"connected_time":2119000000000,"state":"active","ping":96},{"user_id":238,"name":"SOLDIER TF2","steam_id":76561198203170652,"connected_time":232000000000,"state":"active","ping":88},{"user_id":233,"name":"self sufficient kitten","steam_id":76561197960592612,"connected_time":603000000000,"state":"active","ping":64},{"user_id":216,"name":"Thomas","steam_id":76561198015386957,"connected_time":2779000000000,"state":"active","ping":91},{"user_id":188,"name":"Lmayo","steam_id":76561198333758846,"connected_time":4951000000000,"state":"active","ping":50},{"user_id":218,"name":"Balengu Deez","steam_id":76561198217680027,"connected_time":2647000000000,"state":"active","ping":85},{"user_id":187,"name":"Ezzu","steam_id":76561198021919905,"connected_time":4962000000000,"state":"active","ping":69},{"user_id":217,"name":"YoungKnight","steam_id":76561198958772904,"connected_time":2766000000000,"state":"active","ping":80},{"user_id":224,"name":"Uprightmoss7528","steam_id":76561199200138486,"connected_time":1364000000000,"state":"active","ping":64},{"user_id":234,"name":"Shamrock Shake Oct.10.2020 @8pm","steam_id":76561198833313201,"connected_time":554000000000,"state":"active","ping":54},{"user_id":228,"name":"Kujo","steam_id":76561198342579745,"connected_time":730000000000,"state":"active","ping":64},{"user_id":214,"name":"WeedleDeedle","steam_id":76561198197088079,"connected_time":2806000000000,"state":"active","ping":75},{"user_id":197,"name":"HeroOfTime","steam_id":76561199096218001,"connected_time":3668000000000,"state":"active","ping":51},{"user_id":239,"name":"LO","steam_id":76561198068672882,"connected_time":204000000000,"state":"active","ping":58},{"user_id":235,"name":"taishang","steam_id":76561198065328284,"connected_time":550000000000,"state":"active","ping":43},{"user_id":236,"name":"Kasm","steam_id":76561198151165548,"connected_time":528000000000,"state":"active","ping":30},{"user_id":241,"name":"kab789","steam_id":76561198069842202,"connected_time":29000000000,"state":"active","ping":110}]},{"server_id":112,"name":"Uncletopia | Los Angeles | 2 | All Maps","name_short":"lax-2","host":"lax-1.us.uncletopia.com","port":27025,"enabled":true,"region":"us-west","cc":"us","latitude":33.94279,"longitude":-118.41004,"reserved":0,"last_update":"0001-01-01T00:00:00Z","name_a2s":"Uncletopia | Los Angeles | 2 | All Maps","protocol":17,"map":"cp_mercenarypark","folder":"tf","game":"Team Fortress","app_id":440,"player_count":24,"max_players":24,"Bots":0,"server_type":"Dedicated","server_os":"Linux","password":true,"vac":true,"version":"7757534","steam_id":85568392924469992,"keywords":["cp","nocrits","nodmgspread","uncletopia"],"game_id":440,"stv_port":27026,"stv_name":"Uncletopia | Los Angeles | 2 | All Maps | STV","players":[{"user_id":544,"name":"NOOT","steam_id":76561199060432770,"connected_time":1601000000000,"state":"active","ping":53},{"user_id":546,"name":"aerolar connective tissue","steam_id":76561198057138795,"connected_time":1577000000000,"state":"active","ping":100},{"user_id":557,"name":"Batso","steam_id":76561198106589452,"connected_time":1132000000000,"state":"active","ping":47},{"user_id":537,"name":"markie","steam_id":76561198170206590,"connected_time":1797000000000,"state":"active","ping":160},{"user_id":417,"name":"wrist game dumbin","steam_id":76561198247984828,"connected_time":3772000000000,"state":"active","ping":46},{"user_id":418,"name":"goon refinery","steam_id":76561198166781089,"connected_time":3770000000000,"state":"active","ping":81},{"user_id":551,"name":"Over5core","steam_id":76561198029668732,"connected_time":1412000000000,"state":"active","ping":93},{"user_id":565,"name":"Cetus","steam_id":76561198070315471,"connected_time":275000000000,"state":"active","ping":134},{"user_id":558,"name":"666420666","steam_id":76561197977974644,"connected_time":1107000000000,"state":"active","ping":81},{"user_id":569,"name":"Bocchi the Cock","steam_id":76561198152455316,"connected_time":29000000000,"state":"spawning","ping":150},{"user_id":463,"name":"Good 'ol Eggs Benedict","steam_id":76561198981570921,"connected_time":2994000000000,"state":"active","ping":86},{"user_id":560,"name":"mentos14","steam_id":76561198097993629,"connected_time":1099000000000,"state":"active","ping":57},{"user_id":567,"name":"walrooos","steam_id":76561198024521839,"connected_time":258000000000,"state":"active","ping":36},{"user_id":533,"name":"Sus Face","steam_id":76561198303160527,"connected_time":1890000000000,"state":"active","ping":68},{"user_id":564,"name":"Pasta Enjoyer","steam_id":76561198189910235,"connected_time":779000000000,"state":"active","ping":61},{"user_id":545,"name":"Brother Seamus","steam_id":76561197970450546,"connected_time":1598000000000,"state":"active","ping":88},{"user_id":543,"name":"PunishedCrab","steam_id":76561198079650017,"connected_time":1646000000000,"state":"active","ping":65},{"user_id":570,"name":"O_x","steam_id":76561198289696924,"connected_time":26000000000,"state":"active","ping":47},{"user_id":562,"name":"Burton","steam_id":76561198120798402,"connected_time":1089000000000,"state":"active","ping":47},{"user_id":517,"name":"Just a Tree","steam_id":76561198231561020,"connected_time":2105000000000,"state":"active","ping":55},{"user_id":496,"name":"Moonshine Man","steam_id":76561198088010073,"connected_time":2649000000000,"state":"active","ping":163},{"user_id":568,"name":"Big G","steam_id":76561198067496197,"connected_time":204000000000,"state":"active","ping":105},{"user_id":440,"name":"Chicken Joe","steam_id":76561198095143020,"connected_time":3324000000000,"state":"active","ping":72},{"user_id":563,"name":"will","steam_id":76561198134923092,"connected_time":1085000000000,"state":"active","ping":50}]},{"server_id":324,"name":"Uncletopia | Los Angeles | 3 | All Maps","name_short":"lax-3","host":"lax-1.us.uncletopia.com","port":27035,"enabled":true,"region":"us-west","cc":"us","latitude":33.94279,"longitude":-118.41004,"reserved":0,"last_update":"0001-01-01T00:00:00Z","name_a2s":"Uncletopia | Los Angeles | 3 | All Maps","protocol":17,"map":"pl_badwater","folder":"tf","game":"Team Fortress","app_id":440,"player_count":24,"max_players":24,"Bots":0,"server_type":"Dedicated","server_os":"Linux","password":true,"vac":true,"version":"7757534","steam_id":85568392924510198,"keywords":["nocrits","nodmgspread","payload","uncletopia"],"game_id":440,"stv_port":27036,"stv_name":"Uncletopia | Los Angeles | 3 | All Maps | STV","players":[{"user_id":169,"name":"momus","steam_id":76561198966979196,"connected_time":1647000000000,"state":"active","ping":59},{"user_id":160,"name":"bigman1","steam_id":76561198050225055,"connected_time":2077000000000,"state":"active","ping":52},{"user_id":117,"name":"Kattyee_katcat","steam_id":76561198843913227,"connected_time":6784000000000,"state":"active","ping":69},{"user_id":173,"name":"mu","steam_id":76561197997530228,"connected_time":1328000000000,"state":"active","ping":90},{"user_id":176,"name":"Toasty","steam_id":76561198019270104,"connected_time":784000000000,"state":"active","ping":83},{"user_id":157,"name":"Andreshatesmondays","steam_id":76561198889349797,"connected_time":2645000000000,"state":"active","ping":57},{"user_id":143,"name":"Rodentmancer","steam_id":76561198011675372,"connected_time":3410000000000,"state":"active","ping":86},{"user_id":171,"name":"HideOnTate","steam_id":76561198209880837,"connected_time":1638000000000,"state":"active","ping":75},{"user_id":167,"name":"MayaBon","steam_id":76561198797968261,"connected_time":1702000000000,"state":"active","ping":81},{"user_id":151,"name":"[Zero] Lag","steam_id":76561198983494186,"connected_time":2973000000000,"state":"active","ping":113},{"user_id":175,"name":"kevin shields #1 fan","steam_id":76561197995200743,"connected_time":798000000000,"state":"active","ping":30},{"user_id":158,"name":"BasedGod","steam_id":76561198061177973,"connected_time":2452000000000,"state":"active","ping":59},{"user_id":159,"name":"MinusSoup918","steam_id":76561198060902773,"connected_time":2116000000000,"state":"active","ping":65},{"user_id":172,"name":"craxyt","steam_id":76561198050192689,"connected_time":1450000000000,"state":"active","ping":53},{"user_id":168,"name":"Jovi Boy","steam_id":76561198046605691,"connected_time":1673000000000,"state":"active","ping":65},{"user_id":115,"name":"Mighty Morphin Flower Arrangers","steam_id":76561198133158032,"connected_time":6993000000000,"state":"active","ping":47},{"user_id":178,"name":"Misterwipeout","steam_id":76561198068900320,"connected_time":455000000000,"state":"active","ping":92},{"user_id":164,"name":"nothowon","steam_id":76561198937601452,"connected_time":1982000000000,"state":"active","ping":109},{"user_id":177,"name":"Interrobang","steam_id":76561198385044529,"connected_time":490000000000,"state":"active","ping":96},{"user_id":153,"name":"Crustacean Daddy","steam_id":76561198993807061,"connected_time":2937000000000,"state":"active","ping":50},{"user_id":146,"name":"Maid 'n' China","steam_id":76561198423392976,"connected_time":3227000000000,"state":"active","ping":64},{"user_id":180,"name":"Npenplz","steam_id":76561197999605423,"connected_time":389000000000,"state":"active","ping":51},{"user_id":100,"name":"ohton","steam_id":76561199033233448,"connected_time":7929000000000,"state":"active","ping":45},{"user_id":179,"name":"peter griffindor","steam_id":76561198007867721,"connected_time":453000000000,"state":"active","ping":53}]},{"server_id":25,"name":"Uncletopia | Los Angeles | 4 | Stopwatch Beta","name_short":"lax-4","host":"lax-1.us.uncletopia.com","port":27045,"enabled":true,"region":"us-west","cc":"us","latitude":33.94279,"longitude":-118.41004,"reserved":0,"last_update":"0001-01-01T00:00:00Z","name_a2s":"Uncletopia | Los Angeles | 4 | Stopwatch Beta","protocol":17,"map":"pl_swiftwater_final1","folder":"tf","game":"Team Fortress","app_id":440,"player_count":0,"max_players":24,"Bots":0,"server_type":"Dedicated","server_os":"Linux","password":true,"vac":true,"version":"7757534","steam_id":85568392924510199,"keywords":["nocrits","nodmgspread","payload","uncletopia"],"game_id":440,"stv_port":27046,"stv_name":"Uncletopia | Los Angeles | 4 | Stopwatch Beta | STV","players":null},{"server_id":11,"name":"Uncletopia | London | 1 | All Maps","name_short":"lon-1","host":"lon-1.uk.uncletopia.com","port":27015,"enabled":true,"region":"eu","cc":"gb","latitude":51.509865,"longitude":-0.118092,"reserved":0,"last_update":"0001-01-01T00:00:00Z","name_a2s":"Uncletopia | London | 1 | All Maps","protocol":17,"map":"pl_swiftwater_final1","folder":"tf","game":"Team Fortress","app_id":440,"player_count":0,"max_players":24,"Bots":0,"server_type":"Dedicated","server_os":"Linux","password":true,"vac":true,"version":"7757534","steam_id":85568392924367362,"keywords":["nocrits","nodmgspread","payload","uncletopia"],"game_id":440,"stv_port":27016,"stv_name":"Uncletopia | London | 1 | All Maps | STV","players":null},{"server_id":114,"name":"Uncletopia | London | 2 | All Maps","name_short":"lon-2","host":"lon-1.uk.uncletopia.com","port":27025,"enabled":true,"region":"eu","cc":"gb","latitude":51.509865,"longitude":-0.118092,"reserved":0,"last_update":"0001-01-01T00:00:00Z","name_a2s":"Uncletopia | London | 2 | All Maps","protocol":17,"map":"koth_highpass","folder":"tf","game":"Team Fortress","app_id":440,"player_count":0,"max_players":24,"Bots":0,"server_type":"Dedicated","server_os":"Linux","password":true,"vac":true,"version":"7757534","steam_id":85568392924470941,"keywords":["cp","nocrits","nodmgspread","uncletopia"],"game_id":440,"stv_port":27026,"stv_name":"Uncletopia | London | 2 | All Maps | STV","players":null},{"server_id":320,"name":"Uncletopia | London | 3 | All Maps","name_short":"lon-3","host":"lon-1.uk.uncletopia.com","port":27035,"enabled":true,"region":"eu","cc":"gb","latitude":51.509865,"longitude":-0.118092,"reserved":0,"last_update":"0001-01-01T00:00:00Z","name_a2s":"Uncletopia | London | 3 | All Maps","protocol":17,"map":"cp_dustbowl","folder":"tf","game":"Team Fortress","app_id":440,"player_count":0,"max_players":24,"Bots":0,"server_type":"Dedicated","server_os":"Linux","password":true,"vac":true,"version":"7757534","steam_id":85568392924510192,"keywords":["cp","nocrits","nodmgspread","uncletopia"],"game_id":440,"stv_port":27036,"stv_name":"Uncletopia | London | 3 | All Maps | STV","players":null},{"server_id":321,"name":"Uncletopia | London | 4 | All Maps","name_short":"lon-4","host":"lon-1.uk.uncletopia.com","port":27045,"enabled":true,"region":"eu","cc":"gb","latitude":51.509865,"longitude":-0.118092,"reserved":0,"last_update":"0001-01-01T00:00:00Z","name_a2s":"Uncletopia | London | 4 | All Maps","protocol":17,"map":"koth_lakeside_final","folder":"tf","game":"Team Fortress","app_id":440,"player_count":0,"max_players":24,"Bots":0,"server_type":"Dedicated","server_os":"Linux","password":true,"vac":true,"version":"7757534","steam_id":85568392924510193,"keywords":["cp","nocrits","nodmgspread","uncletopia"],"game_id":440,"stv_port":27046,"stv_name":"Uncletopia | London | 4 | All Maps | STV","players":null},{"server_id":21,"name":"Uncletopia | London | 5 | All Maps","name_short":"lon-5","host":"lon-1.uk.uncletopia.com","port":27055,"enabled":true,"region":"eu","cc":"gb","latitude":51.509865,"longitude":-0.118092,"reserved":0,"last_update":"0001-01-01T00:00:00Z","name_a2s":"Uncletopia | London | 5 | All Maps","protocol":17,"map":"koth_viaduct","folder":"tf","game":"Team Fortress","app_id":440,"player_count":0,"max_players":24,"Bots":0,"server_type":"Dedicated","server_os":"Linux","password":true,"vac":true,"version":"7757534","steam_id":85568392924742829,"keywords":["cp","nocrits","nodmgspread","uncletopia"],"game_id":440,"stv_port":27056,"stv_name":"Uncletopia | London | 5 | All Maps | STV","players":null},{"server_id":22,"name":"Uncletopia | London | 6 | All Maps","name_short":"lon-6","host":"lon-1.uk.uncletopia.com","port":27065,"enabled":true,"region":"eu","cc":"gb","latitude":51.509865,"longitude":-0.118092,"reserved":0,"last_update":"0001-01-01T00:00:00Z","name_a2s":"Uncletopia | London | 6 | All Maps","protocol":17,"map":"koth_highpass","folder":"tf","game":"Team Fortress","app_id":440,"player_count":0,"max_players":24,"Bots":0,"server_type":"Dedicated","server_os":"Linux","password":true,"vac":true,"version":"7757534","steam_id":85568392924742830,"keywords":["cp","nocrits","nodmgspread","uncletopia"],"game_id":440,"stv_port":27066,"stv_name":"Uncletopia | London | 6 | All Maps | STV","players":null},{"server_id":40,"name":"Uncletopia | London | 7 | No Payload","name_short":"lon-7","host":"lon-1.uk.uncletopia.com","port":27075,"enabled":true,"region":"eu","cc":"gb","latitude":51.509865,"longitude":-0.118092,"reserved":0,"last_update":"0001-01-01T00:00:00Z","name_a2s":"Uncletopia | London | 7 | No Payload","protocol":17,"map":"plr_nightfall_final","folder":"tf","game":"Team Fortress","app_id":440,"player_count":0,"max_players":24,"Bots":0,"server_type":"Dedicated","server_os":"Linux","password":true,"vac":true,"version":"7757534","steam_id":85568392924964314,"keywords":["nocrits","nodmgspread","payload","uncletopia"],"game_id":440,"stv_port":27076,"stv_name":"Uncletopia | London | 7 | No Payload | STV","players":null},{"server_id":41,"name":"Uncletopia | London | 8 | Community","name_short":"lon-8","host":"lon-1.uk.uncletopia.com","port":27085,"enabled":true,"region":"eu","cc":"gb","latitude":51.509865,"longitude":-0.118092,"reserved":0,"last_update":"0001-01-01T00:00:00Z","name_a2s":"Uncletopia | London | 8 | Community","protocol":17,"map":"workshop/koth_ramjam_rc1.ugc459778887","folder":"tf","game":"Team Fortress","app_id":440,"player_count":0,"max_players":24,"Bots":0,"server_type":"Dedicated","server_os":"Linux","password":true,"vac":true,"version":"7757534","steam_id":85568392924964315,"keywords":["cp","nocrits","nodmgspread","uncletopia"],"game_id":440,"stv_port":27086,"stv_name":"Uncletopia | London | 8 | Community | STV","players":null},{"server_id":300,"name":"Uncletopia | Montréal | 1 | All Maps","name_short":"mtl-1","host":"mtl-1.ca.uncletopia.com","port":27015,"enabled":true,"region":"us-east","cc":"ca","latitude":45.50889,"longitude":-73.56167,"reserved":0,"last_update":"0001-01-01T00:00:00Z","name_a2s":"Uncletopia | Montréal | 1 | All Maps","protocol":17,"map":"cp_altitude","folder":"tf","game":"Team Fortress","app_id":440,"player_count":0,"max_players":24,"Bots":0,"server_type":"Dedicated","server_os":"Linux","password":true,"vac":true,"version":"7757534","steam_id":85568392924500087,"keywords":["cp","nocrits","nodmgspread","uncletopia"],"game_id":440,"stv_port":27016,"stv_name":"Uncletopia | Montréal | 1 | All Maps | STV","players":null},{"server_id":301,"name":"Uncletopia | Montréal | 2 | All Maps","name_short":"mtl-2","host":"mtl-1.ca.uncletopia.com","port":27025,"enabled":true,"region":"us-east","cc":"ca","latitude":45.50889,"longitude":-73.56167,"reserved":0,"last_update":"0001-01-01T00:00:00Z","name_a2s":"Uncletopia | Montréal | 2 | All Maps","protocol":17,"map":"pl_snowycoast","folder":"tf","game":"Team Fortress","app_id":440,"player_count":0,"max_players":24,"Bots":0,"server_type":"Dedicated","server_os":"Linux","password":true,"vac":true,"version":"7757534","steam_id":85568392924500088,"keywords":["nocrits","nodmgspread","payload","uncletopia"],"game_id":440,"stv_port":27026,"stv_name":"Uncletopia | Montréal | 2 | All Maps | STV","players":null},{"server_id":302,"name":"Uncletopia | Montréal | 3 | All Maps","name_short":"mtl-3","host":"mtl-1.ca.uncletopia.com","port":27035,"enabled":true,"region":"us-east","cc":"ca","latitude":45.50889,"longitude":-73.56167,"reserved":0,"last_update":"0001-01-01T00:00:00Z","name_a2s":"Uncletopia | Montréal | 3 | All Maps","protocol":17,"map":"pl_swiftwater_final1","folder":"tf","game":"Team Fortress","app_id":440,"player_count":0,"max_players":24,"Bots":0,"server_type":"Dedicated","server_os":"Linux","password":true,"vac":true,"version":"7757534","steam_id":85568392924500089,"keywords":["nocrits","nodmgspread","payload","uncletopia"],"game_id":440,"stv_port":27036,"stv_name":"Uncletopia | Montréal | 3 | All Maps | STV","players":null},{"server_id":303,"name":"Uncletopia | Montréal | 4 | No Payload","name_short":"mtl-4","host":"mtl-1.ca.uncletopia.com","port":27045,"enabled":true,"region":"us-east","cc":"ca","latitude":45.50889,"longitude":-73.56167,"reserved":0,"last_update":"0001-01-01T00:00:00Z","name_a2s":"Uncletopia | Montréal | 4 | No Payload","protocol":17,"map":"plr_hightower","folder":"tf","game":"Team Fortress","app_id":440,"player_count":0,"max_players":24,"Bots":0,"server_type":"Dedicated","server_os":"Linux","password":true,"vac":true,"version":"7757534","steam_id":85568392924500090,"keywords":["nocrits","nodmgspread","payload","uncletopia"],"game_id":440,"stv_port":27046,"stv_name":"Uncletopia | Montréal | 4 | No Payload | STV","players":null},{"server_id":13,"name":"Uncletopia | New York City | 1 | All Maps","name_short":"nyc-1","host":"nyc-1.us.uncletopia.com","port":27015,"enabled":true,"region":"us-east","cc":"us","latitude":40.73061,"longitude":-73.93524,"reserved":0,"last_update":"0001-01-01T00:00:00Z","name_a2s":"Uncletopia | New York City | 1 | All Maps","protocol":17,"map":"pl_badwater","folder":"tf","game":"Team Fortress","app_id":440,"player_count":24,"max_players":24,"Bots":0,"server_type":"Dedicated","server_os":"Linux","password":true,"vac":true,"version":"7757534","steam_id":85568392924469993,"keywords":["nocrits","nodmgspread","payload","uncletopia"],"game_id":440,"stv_port":27016,"stv_name":"Uncletopia | New York City | 1 | All Maps | STV","players":[{"user_id":711,"name":"L_J","steam_id":76561198331514963,"connected_time":701000000000,"state":"active","ping":57},{"user_id":688,"name":"SG21","steam_id":76561199381171306,"connected_time":2184000000000,"state":"active","ping":124},{"user_id":705,"name":"Pouya","steam_id":76561198060287489,"connected_time":987000000000,"state":"active","ping":84},{"user_id":677,"name":"BigOrca54","steam_id":76561198181360271,"connected_time":2934000000000,"state":"active","ping":80},{"user_id":708,"name":"Pot Head Pixie","steam_id":76561198083024504,"connected_time":799000000000,"state":"active","ping":80},{"user_id":593,"name":"Dom","steam_id":76561198043992490,"connected_time":8015000000000,"state":"active","ping":105},{"user_id":693,"name":"Mogori","steam_id":76561198074060650,"connected_time":1823000000000,"state":"active","ping":65},{"user_id":725,"name":"M.L.JEW","steam_id":76561198997375055,"connected_time":30000000000,"state":"active","ping":66},{"user_id":694,"name":"Elegant Metal","steam_id":76561198047118561,"connected_time":1815000000000,"state":"active","ping":121},{"user_id":687,"name":"Ivy","steam_id":76561198047758442,"connected_time":2303000000000,"state":"active","ping":120},{"user_id":685,"name":"great1photo","steam_id":76561198085481933,"connected_time":2378000000000,"state":"active","ping":80},{"user_id":715,"name":"Aesthetic Shrine","steam_id":76561198116072862,"connected_time":360000000000,"state":"active","ping":145},{"user_id":717,"name":"test","steam_id":76561198197388678,"connected_time":283000000000,"state":"active","ping":75},{"user_id":656,"name":"Goldensliv","steam_id":76561198161673891,"connected_time":4365000000000,"state":"active","ping":117},{"user_id":695,"name":"jinjo2200","steam_id":76561198097989147,"connected_time":1813000000000,"state":"active","ping":60},{"user_id":718,"name":"Levont (You Tired?)","steam_id":76561198255454993,"connected_time":276000000000,"state":"active","ping":94},{"user_id":690,"name":"monke","steam_id":76561198308289194,"connected_time":2140000000000,"state":"active","ping":74},{"user_id":719,"name":"snoogy woogy buggy","steam_id":76561198894676484,"connected_time":271000000000,"state":"active","ping":111},{"user_id":699,"name":"GiraffeMan","steam_id":76561198042104084,"connected_time":1622000000000,"state":"active","ping":49},{"user_id":704,"name":"Olhado","steam_id":76561198390880200,"connected_time":1093000000000,"state":"active","ping":120},{"user_id":722,"name":"Based","steam_id":76561199089316436,"connected_time":102000000000,"state":"active","ping":107},{"user_id":655,"name":"Sprit ♥","steam_id":76561198268780781,"connected_time":4408000000000,"state":"active","ping":58},{"user_id":724,"name":"GHOST RIDER/HEAT PUSHER","steam_id":76561198049405872,"connected_time":62000000000,"state":"active","ping":121},{"user_id":615,"name":"bash -lc ./asshat.sh","steam_id":76561198004584315,"connected_time":6882000000000,"state":"active","ping":93}]},{"server_id":14,"name":"Uncletopia | New York City | 2 | All Maps","name_short":"nyc-2","host":"nyc-1.us.uncletopia.com","port":27025,"enabled":true,"region":"us-east","cc":"us","latitude":40.73061,"longitude":-73.93524,"reserved":0,"last_update":"0001-01-01T00:00:00Z","name_a2s":"Uncletopia | New York City | 2 | All Maps","protocol":17,"map":"koth_highpass","folder":"tf","game":"Team Fortress","app_id":440,"player_count":22,"max_players":24,"Bots":0,"server_type":"Dedicated","server_os":"Linux","password":true,"vac":true,"version":"7757534","steam_id":85568392924469994,"keywords":["cp","nocrits","nodmgspread","uncletopia"],"game_id":440,"stv_port":27026,"stv_name":"Uncletopia | New York City | 2 | All Maps | STV","players":[{"user_id":765,"name":"--_Cook_--","steam_id":76561198080855748,"connected_time":856000000000,"state":"active","ping":59},{"user_id":750,"name":"shadow wizard money gang","steam_id":76561198089421742,"connected_time":2109000000000,"state":"active","ping":128},{"user_id":779,"name":"Cletus_Gaming88","steam_id":76561198297791570,"connected_time":541000000000,"state":"active","ping":80},{"user_id":766,"name":"trappy (soggy)","steam_id":76561198402801140,"connected_time":841000000000,"state":"active","ping":80},{"user_id":752,"name":"daemon","steam_id":76561198001541433,"connected_time":2071000000000,"state":"active","ping":74},{"user_id":744,"name":"SIGMA [BS]","steam_id":76561197962604879,"connected_time":2716000000000,"state":"active","ping":51},{"user_id":767,"name":"Vladikr1","steam_id":76561198401495362,"connected_time":822000000000,"state":"active","ping":75},{"user_id":762,"name":"apathy","steam_id":76561198277163301,"connected_time":1437000000000,"state":"active","ping":85},{"user_id":770,"name":"Shadow master michael","steam_id":76561198070770369,"connected_time":599000000000,"state":"active","ping":57},{"user_id":771,"name":"4evr","steam_id":76561198064565304,"connected_time":590000000000,"state":"active","ping":71},{"user_id":772,"name":"bauhaus blast","steam_id":76561198057561955,"connected_time":575000000000,"state":"active","ping":51},{"user_id":760,"name":"Mr. Sauce","steam_id":76561198055512324,"connected_time":1786000000000,"state":"active","ping":56},{"user_id":781,"name":"iceman","steam_id":76561198135397441,"connected_time":19000000000,"state":"active","ping":67},{"user_id":755,"name":"Gustavo Fring","steam_id":76561198132807405,"connected_time":2010000000000,"state":"active","ping":80},{"user_id":782,"name":"NoShen","steam_id":76561198147434663,"connected_time":14000000000,"state":"spawning","ping":66},{"user_id":774,"name":"shawty say i smell","steam_id":76561198059560324,"connected_time":567000000000,"state":"active","ping":60},{"user_id":780,"name":"Etna","steam_id":76561198055810858,"connected_time":264000000000,"state":"active","ping":105},{"user_id":775,"name":"Warg","steam_id":76561198040868420,"connected_time":564000000000,"state":"active","ping":83},{"user_id":776,"name":"Cat doin laundry","steam_id":76561198063895852,"connected_time":563000000000,"state":"active","ping":82},{"user_id":777,"name":"UBCS Recruit Muffin","steam_id":76561198021051925,"connected_time":553000000000,"state":"active","ping":60},{"user_id":783,"name":"Cosmic Torgue","steam_id":76561198828724945,"connected_time":7000000000,"state":"spawning","ping":74},{"user_id":778,"name":"Lanky Kong","steam_id":76561198142455488,"connected_time":551000000000,"state":"active","ping":45}]},{"server_id":15,"name":"Uncletopia | New York City | 3 | Stopwatch Beta","name_short":"nyc-3","host":"nyc-1.us.uncletopia.com","port":27035,"enabled":true,"region":"us-east","cc":"us","latitude":40.73061,"longitude":-73.93524,"reserved":0,"last_update":"0001-01-01T00:00:00Z","name_a2s":"Uncletopia | New York City | 3 | Stopwatch Beta","protocol":17,"map":"workshop/pl_summercoast_rc8e.ugc1761528829","folder":"tf","game":"Team Fortress","app_id":440,"player_count":0,"max_players":24,"Bots":0,"server_type":"Dedicated","server_os":"Linux","password":true,"vac":true,"version":"7757534","steam_id":85568392924742820,"keywords":["nocrits","nodmgspread","payload","uncletopia"],"game_id":440,"stv_port":27036,"stv_name":"Uncletopia | New York City | 3 | Stopwatch Beta | STV","players":null},{"server_id":16,"name":"Uncletopia | New York City | 4 | Community","name_short":"nyc-4","host":"nyc-1.us.uncletopia.com","port":27045,"enabled":true,"region":"us-east","cc":"us","latitude":40.73061,"longitude":-73.93524,"reserved":0,"last_update":"0001-01-01T00:00:00Z","name_a2s":"Uncletopia | New York City | 4 | Community","protocol":17,"map":"workshop/pl_barnblitz_pro7.ugc582280235","folder":"tf","game":"Team Fortress","app_id":440,"player_count":0,"max_players":24,"Bots":0,"server_type":"Dedicated","server_os":"Linux","password":true,"vac":true,"version":"7757534","steam_id":85568392924742821,"keywords":["nocrits","nodmgspread","payload","uncletopia"],"game_id":440,"stv_port":27046,"stv_name":"Uncletopia | New York City | 4 | Community | STV","players":null},{"server_id":142,"name":"Uncletopia | São Paulo | 1 | All Maps","name_short":"sao-1","host":"sao-1.br.uncletopia.com","port":27015,"enabled":true,"region":"sa","cc":"br","latitude":-23.533773,"longitude":-46.62529,"reserved":0,"last_update":"0001-01-01T00:00:00Z","name_a2s":"Uncletopia | São Paulo | 1 | All Maps","protocol":17,"map":"koth_viaduct","folder":"tf","game":"Team Fortress","app_id":440,"player_count":0,"max_players":24,"Bots":0,"server_type":"Dedicated","server_os":"Linux","password":true,"vac":true,"version":"7757534","steam_id":85568392924469996,"keywords":["cp","nocrits","nodmgspread","uncletopia"],"game_id":440,"stv_port":27016,"stv_name":"Uncletopia | São Paulo | 1 | All Maps | STV","players":null},{"server_id":143,"name":"Uncletopia | São Paulo | 2 | All Maps","name_short":"sao-2","host":"sao-2.br.uncletopia.com","port":27015,"enabled":true,"region":"sa","cc":"br","latitude":-23.533773,"longitude":-46.62529,"reserved":0,"last_update":"0001-01-01T00:00:00Z","name_a2s":"Uncletopia | São Paulo | 2 | All Maps","protocol":17,"map":"pl_swiftwater_final1","folder":"tf","game":"Team Fortress","app_id":440,"player_count":0,"max_players":24,"Bots":0,"server_type":"Dedicated","server_os":"Linux","password":true,"vac":true,"version":"7757534","steam_id":85568392924485349,"keywords":["nocrits","nodmgspread","payload","uncletopia"],"game_id":440,"stv_port":27016,"stv_name":"Uncletopia | São Paulo | 2 | All Maps | STV","players":null},{"server_id":7,"name":"Uncletopia | Seattle | 1 | All Maps","name_short":"sea-1","host":"sea-1.us.uncletopia.com","port":27015,"enabled":true,"region":"us-west","cc":"us","latitude":47.608013,"longitude":-122.33517,"reserved":0,"last_update":"0001-01-01T00:00:00Z","name_a2s":"Uncletopia | Seattle | 1 | All Maps","protocol":17,"map":"pl_badwater","folder":"tf","game":"Team Fortress","app_id":440,"player_count":24,"max_players":24,"Bots":0,"server_type":"Dedicated","server_os":"Linux","password":true,"vac":true,"version":"7757534","steam_id":85568392924469997,"keywords":["nocrits","nodmgspread","payload","uncletopia"],"game_id":440,"stv_port":27016,"stv_name":"Uncletopia | Seattle | 1 | All Maps | STV","players":[{"user_id":747,"name":"jole","steam_id":76561198037292232,"connected_time":32000000000,"state":"active","ping":131},{"user_id":733,"name":"Calypso","steam_id":76561198082939544,"connected_time":896000000000,"state":"active","ping":76},{"user_id":703,"name":"dust | she/it","steam_id":76561198045218909,"connected_time":3234000000000,"state":"active","ping":40},{"user_id":697,"name":"MCman","steam_id":76561198412110305,"connected_time":4336000000000,"state":"active","ping":76},{"user_id":710,"name":"=Silver=","steam_id":76561198292307127,"connected_time":2677000000000,"state":"active","ping":71},{"user_id":734,"name":"GayestClownAbs (Danganronpa ref","steam_id":76561199089549888,"connected_time":895000000000,"state":"active","ping":80},{"user_id":731,"name":"amby","steam_id":76561198143569935,"connected_time":1005000000000,"state":"active","ping":77},{"user_id":728,"name":"Hassium","steam_id":76561198162541373,"connected_time":1359000000000,"state":"active","ping":55},{"user_id":735,"name":"Mengle","steam_id":76561198001953684,"connected_time":895000000000,"state":"active","ping":109},{"user_id":727,"name":"Res Ipsa","steam_id":76561198041349210,"connected_time":1371000000000,"state":"active","ping":75},{"user_id":732,"name":"Spaceman","steam_id":76561198349305249,"connected_time":970000000000,"state":"active","ping":57},{"user_id":744,"name":"Papi Pescado","steam_id":76561198039500575,"connected_time":733000000000,"state":"active","ping":108},{"user_id":708,"name":"EzPzJapanezy","steam_id":76561198014194723,"connected_time":3054000000000,"state":"active","ping":59},{"user_id":737,"name":"General Fisticuffs","steam_id":76561198255721392,"connected_time":876000000000,"state":"active","ping":105},{"user_id":745,"name":"tender mike","steam_id":76561198058821622,"connected_time":269000000000,"state":"active","ping":104},{"user_id":739,"name":"Jovo","steam_id":76561197993265970,"connected_time":859000000000,"state":"active","ping":44},{"user_id":740,"name":"Dr. Professor PJ, Ph.D","steam_id":76561198004429398,"connected_time":850000000000,"state":"active","ping":103},{"user_id":741,"name":"digitigrade legs son.","steam_id":76561199173064830,"connected_time":837000000000,"state":"active","ping":78},{"user_id":691,"name":"ุ","steam_id":76561198084134025,"connected_time":4547000000000,"state":"active","ping":71},{"user_id":746,"name":"Skoad","steam_id":76561198104650528,"connected_time":112000000000,"state":"active","ping":61},{"user_id":742,"name":"Quack","steam_id":76561199086339263,"connected_time":819000000000,"state":"active","ping":114},{"user_id":715,"name":"The Population of Sweden","steam_id":76561198202201644,"connected_time":2664000000000,"state":"active","ping":43},{"user_id":743,"name":"fridge","steam_id":76561199328301077,"connected_time":811000000000,"state":"active","ping":104},{"user_id":712,"name":"Mignyanne :3","steam_id":76561198048754056,"connected_time":2676000000000,"state":"active","ping":68}]},{"server_id":119,"name":"Uncletopia | Seattle | 2 | All Maps","name_short":"sea-2","host":"sea-1.us.uncletopia.com","port":27025,"enabled":true,"region":"us-west","cc":"us","latitude":47.608013,"longitude":-122.33517,"reserved":0,"last_update":"0001-01-01T00:00:00Z","name_a2s":"Uncletopia | Seattle | 2 | All Maps","protocol":17,"map":"pl_badwater","folder":"tf","game":"Team Fortress","app_id":440,"player_count":24,"max_players":24,"Bots":0,"server_type":"Dedicated","server_os":"Linux","password":true,"vac":true,"version":"7757534","steam_id":85568392924469998,"keywords":["nocrits","nodmgspread","payload","uncletopia"],"game_id":440,"stv_port":27026,"stv_name":"Uncletopia | Seattle | 2 | All Maps | STV","players":[{"user_id":462,"name":"DoctorHa","steam_id":76561198044026008,"connected_time":10680000000000,"state":"active","ping":98},{"user_id":303,"name":"liftin'","steam_id":76561199089515791,"connected_time":23971000000000,"state":"active","ping":75},{"user_id":603,"name":"Dargoos","steam_id":76561198366212046,"connected_time":5194000000000,"state":"active","ping":75},{"user_id":678,"name":"darktheif54","steam_id":76561198043650119,"connected_time":2299000000000,"state":"active","ping":92},{"user_id":644,"name":"Agent86","steam_id":76561198046794593,"connected_time":4477000000000,"state":"active","ping":109},{"user_id":702,"name":"chrome 2008 (she/they)","steam_id":76561198321277216,"connected_time":673000000000,"state":"active","ping":71},{"user_id":691,"name":"Fernhat","steam_id":76561198025369016,"connected_time":1798000000000,"state":"active","ping":113},{"user_id":693,"name":"green cupcake","steam_id":76561198114030795,"connected_time":1753000000000,"state":"active","ping":53},{"user_id":519,"name":"Felipe Ramirez 2013","steam_id":76561198150497397,"connected_time":7397000000000,"state":"active","ping":83},{"user_id":708,"name":"R5-D4","steam_id":76561198025196439,"connected_time":367000000000,"state":"active","ping":56},{"user_id":697,"name":"Thorngot","steam_id":76561198398094468,"connected_time":1171000000000,"state":"active","ping":38},{"user_id":653,"name":"magic","steam_id":76561198031957385,"connected_time":3811000000000,"state":"active","ping":68},{"user_id":683,"name":"Rafl","steam_id":76561198055222756,"connected_time":2203000000000,"state":"active","ping":90},{"user_id":684,"name":"Korbi.","steam_id":76561198355711373,"connected_time":2158000000000,"state":"active","ping":73},{"user_id":709,"name":"Idontknow","steam_id":76561199207044048,"connected_time":237000000000,"state":"active","ping":48},{"user_id":686,"name":"Please_insert_id","steam_id":76561198058140301,"connected_time":2141000000000,"state":"active","ping":131},{"user_id":705,"name":"mega","steam_id":76561198089520959,"connected_time":423000000000,"state":"active","ping":101},{"user_id":675,"name":"Trogdor","steam_id":76561198121353181,"connected_time":2486000000000,"state":"active","ping":76},{"user_id":665,"name":"[GUT] RiDiK®","steam_id":76561197969756446,"connected_time":3398000000000,"state":"active","ping":84},{"user_id":703,"name":"oToqd","steam_id":76561198389063713,"connected_time":471000000000,"state":"active","ping":69},{"user_id":692,"name":"Tibetan Pop Star","steam_id":76561198844903984,"connected_time":1797000000000,"state":"active","ping":93},{"user_id":695,"name":"Cob","steam_id":76561198042518365,"connected_time":1221000000000,"state":"active","ping":71},{"user_id":701,"name":"Joshzu","steam_id":76561198200521137,"connected_time":925000000000,"state":"active","ping":46},{"user_id":707,"name":"Nolan","steam_id":76561198169648081,"connected_time":381000000000,"state":"active","ping":104}]},{"server_id":406,"name":"Uncletopia | Seattle | 3 | Stopwatch Beta","name_short":"sea-3","host":"sea-1.us.uncletopia.com","port":27035,"enabled":true,"region":"us-west","cc":"us","latitude":47.608013,"longitude":-122.33517,"reserved":0,"last_update":"0001-01-01T00:00:00Z","name_a2s":"Uncletopia | Seattle | 3 | Stopwatch Beta","protocol":17,"map":"workshop/pl_vigil_rc9.ugc1266210012","folder":"tf","game":"Team Fortress","app_id":440,"player_count":0,"max_players":24,"Bots":0,"server_type":"Dedicated","server_os":"Linux","password":true,"vac":true,"version":"7757534","steam_id":85568392924515217,"keywords":["nocrits","nodmgspread","payload","uncletopia"],"game_id":440,"stv_port":27036,"stv_name":"Uncletopia | Seattle | 3 | Stopwatch Beta | STV","players":null},{"server_id":17,"name":"Uncletopia | San Francisco | 1 | All Maps","name_short":"sfo-1","host":"sfo-1.us.uncletopia.com","port":27015,"enabled":true,"region":"us-west","cc":"us","latitude":37.77397,"longitude":-122.4313,"reserved":0,"last_update":"0001-01-01T00:00:00Z","name_a2s":"Uncletopia | San Francisco | 1 | All Maps","protocol":17,"map":"cp_mercenarypark","folder":"tf","game":"Team Fortress","app_id":440,"player_count":24,"max_players":24,"Bots":0,"server_type":"Dedicated","server_os":"Linux","password":true,"vac":true,"version":"7757534","steam_id":85568392924469999,"keywords":["cp","nocrits","nodmgspread","uncletopia"],"game_id":440,"stv_port":27016,"stv_name":"Uncletopia | San Francisco | 1 | All Maps | STV","players":[{"user_id":687,"name":"Chongo","steam_id":76561198017604393,"connected_time":3921000000000,"state":"active","ping":60},{"user_id":722,"name":"Krazy","steam_id":76561198835502709,"connected_time":733000000000,"state":"active","ping":52},{"user_id":712,"name":"borzier","steam_id":76561198069190432,"connected_time":2210000000000,"state":"active","ping":122},{"user_id":680,"name":"Soda","steam_id":76561198219209367,"connected_time":4730000000000,"state":"active","ping":58},{"user_id":735,"name":"For The Food","steam_id":76561198377358499,"connected_time":142000000000,"state":"active","ping":80},{"user_id":724,"name":"Sorrelyn","steam_id":76561198040851062,"connected_time":693000000000,"state":"active","ping":93},{"user_id":730,"name":"HE’S IN THE GODDAMN WALLS","steam_id":76561198363267009,"connected_time":630000000000,"state":"active","ping":82},{"user_id":719,"name":"[VP]PurplePaladin","steam_id":76561198017011129,"connected_time":1226000000000,"state":"active","ping":111},{"user_id":709,"name":"bro i think i got rabies","steam_id":76561198204169516,"connected_time":2623000000000,"state":"active","ping":67},{"user_id":734,"name":"The Super Mario Bros. Movie","steam_id":76561198871692156,"connected_time":483000000000,"state":"active","ping":74},{"user_id":721,"name":"Thunder","steam_id":76561198097721532,"connected_time":788000000000,"state":"active","ping":60},{"user_id":727,"name":"Coolshroomish","steam_id":76561199109440924,"connected_time":659000000000,"state":"active","ping":70},{"user_id":713,"name":"Locrian","steam_id":76561198356159602,"connected_time":1997000000000,"state":"active","ping":72},{"user_id":666,"name":"Gocel","steam_id":76561198071467515,"connected_time":6138000000000,"state":"active","ping":116},{"user_id":736,"name":"Sweattadpole","steam_id":76561199456100100,"connected_time":115000000000,"state":"active","ping":168},{"user_id":728,"name":"[Bandit]","steam_id":76561197986919852,"connected_time":648000000000,"state":"active","ping":71},{"user_id":689,"name":"sagekiss","steam_id":76561198038831240,"connected_time":3522000000000,"state":"active","ping":77},{"user_id":729,"name":"kiemoXD","steam_id":76561199054147571,"connected_time":640000000000,"state":"active","ping":98},{"user_id":731,"name":"RileyBlack2344","steam_id":76561199120958526,"connected_time":587000000000,"state":"active","ping":86},{"user_id":707,"name":"EXPERIENCED INDIVIDUAL","steam_id":76561198140231083,"connected_time":2704000000000,"state":"active","ping":90},{"user_id":675,"name":"peee pee man","steam_id":76561198044979205,"connected_time":5123000000000,"state":"active","ping":119},{"user_id":732,"name":"ecumber","steam_id":76561198169958831,"connected_time":517000000000,"state":"active","ping":52},{"user_id":733,"name":"Eremital","steam_id":76561198069557669,"connected_time":511000000000,"state":"active","ping":70},{"user_id":711,"name":"Ranger Lugi","steam_id":76561198143611016,"connected_time":2469000000000,"state":"active","ping":73}]},{"server_id":18,"name":"Uncletopia | San Francisco | 2 | All Maps","name_short":"sfo-2","host":"sfo-1.us.uncletopia.com","port":27025,"enabled":true,"region":"us-west","cc":"us","latitude":37.77397,"longitude":-122.4313,"reserved":0,"last_update":"0001-01-01T00:00:00Z","name_a2s":"Uncletopia | San Francisco | 2 | All Maps","protocol":17,"map":"pl_borneo","folder":"tf","game":"Team Fortress","app_id":440,"player_count":24,"max_players":24,"Bots":0,"server_type":"Dedicated","server_os":"Linux","password":true,"vac":true,"version":"7757534","steam_id":85568392924470000,"keywords":["nocrits","nodmgspread","payload","uncletopia"],"game_id":440,"stv_port":27026,"stv_name":"Uncletopia | San Francisco | 2 | All Maps | STV","players":[{"user_id":444,"name":"ham man","steam_id":76561199185880170,"connected_time":390000000000,"state":"active","ping":115},{"user_id":418,"name":"Homete Homete","steam_id":76561198005615283,"connected_time":2257000000000,"state":"active","ping":33},{"user_id":429,"name":"D.A.V.I.D","steam_id":76561199443570634,"connected_time":1381000000000,"state":"active","ping":86},{"user_id":410,"name":"memes.us.memes","steam_id":76561198194728506,"connected_time":2890000000000,"state":"active","ping":106},{"user_id":443,"name":"Miles77","steam_id":76561198310300322,"connected_time":498000000000,"state":"active","ping":62},{"user_id":441,"name":"Ellen Baker","steam_id":76561198065712435,"connected_time":864000000000,"state":"active","ping":67},{"user_id":446,"name":"GKEmperor","steam_id":76561197995187011,"connected_time":206000000000,"state":"active","ping":61},{"user_id":445,"name":"JZ","steam_id":76561198377029198,"connected_time":373000000000,"state":"active","ping":117},{"user_id":431,"name":"Purple","steam_id":76561198412639010,"connected_time":1293000000000,"state":"active","ping":62},{"user_id":396,"name":"ForAPessimistImPrettyOptimistic","steam_id":76561198170128009,"connected_time":3622000000000,"state":"active","ping":55},{"user_id":389,"name":"The Moon","steam_id":76561198082926682,"connected_time":4008000000000,"state":"active","ping":46},{"user_id":432,"name":"Jam Jams","steam_id":76561198128811267,"connected_time":1279000000000,"state":"active","ping":81},{"user_id":433,"name":"GඞMER","steam_id":76561198340389876,"connected_time":1262000000000,"state":"active","ping":78},{"user_id":434,"name":"ChipE","steam_id":76561198137146627,"connected_time":1243000000000,"state":"active","ping":63},{"user_id":435,"name":"Harold","steam_id":76561198057317770,"connected_time":1226000000000,"state":"active","ping":44},{"user_id":447,"name":"mango cafe","steam_id":76561198142328193,"connected_time":80000000000,"state":"active","ping":71},{"user_id":381,"name":"Agent Q","steam_id":76561198830829003,"connected_time":4771000000000,"state":"active","ping":80},{"user_id":404,"name":"ChromeOwl","steam_id":76561198953786715,"connected_time":3266000000000,"state":"active","ping":79},{"user_id":407,"name":"The Professor","steam_id":76561198046165617,"connected_time":3142000000000,"state":"active","ping":99},{"user_id":440,"name":"Bony","steam_id":76561199001748822,"connected_time":1183000000000,"state":"active","ping":67},{"user_id":437,"name":"HOG RIDER","steam_id":76561198298589502,"connected_time":1224000000000,"state":"active","ping":60},{"user_id":438,"name":"DAS SCHNITZELSTIEN","steam_id":76561198051137159,"connected_time":1211000000000,"state":"active","ping":79},{"user_id":442,"name":"nefarious evil sorcerer pack","steam_id":76561198150406851,"connected_time":734000000000,"state":"active","ping":54},{"user_id":413,"name":"Happy","steam_id":76561198141742299,"connected_time":2872000000000,"state":"active","ping":95}]},{"server_id":19,"name":"Uncletopia | San Francisco | 3 | Stopwatch Beta","name_short":"sfo-3","host":"sfo-1.us.uncletopia.com","port":27035,"enabled":true,"region":"us-west","cc":"us","latitude":37.77397,"longitude":-122.4313,"reserved":0,"last_update":"0001-01-01T00:00:00Z","name_a2s":"Uncletopia | San Francisco | 3 | Stopwatch Beta","protocol":17,"map":"workshop/pl_summercoast_rc8e.ugc1761528829","folder":"tf","game":"Team Fortress","app_id":440,"player_count":0,"max_players":24,"Bots":0,"server_type":"Dedicated","server_os":"Linux","password":true,"vac":true,"version":"7757534","steam_id":85568392924742824,"keywords":["nocrits","nodmgspread","payload","uncletopia"],"game_id":440,"stv_port":27036,"stv_name":"Uncletopia | San Francisco | 3 | Stopwatch Beta | STV","players":null},{"server_id":20,"name":"Uncletopia | San Francisco | 4 | Community","name_short":"sfo-4","host":"sfo-1.us.uncletopia.com","port":27045,"enabled":true,"region":"us-west","cc":"us","latitude":37.77397,"longitude":-122.4313,"reserved":0,"last_update":"0001-01-01T00:00:00Z","name_a2s":"Uncletopia | San Francisco | 4 | Community","protocol":17,"map":"workshop/koth_slaughter_rc1.ugc1712845210","folder":"tf","game":"Team Fortress","app_id":440,"player_count":0,"max_players":24,"Bots":0,"server_type":"Dedicated","server_os":"Linux","password":true,"vac":true,"version":"7757534","steam_id":85568392924742826,"keywords":["cp","nocrits","nodmgspread","uncletopia"],"game_id":440,"stv_port":27046,"stv_name":"Uncletopia | San Francisco | 4 | Community | STV","players":null},{"server_id":141,"name":"Uncletopia | Sydney | 1 | All Maps","name_short":"syd-1","host":"syd-1.au.uncletopia.com","port":27015,"enabled":true,"region":"au","cc":"au","latitude":-33.865143,"longitude":151.2099,"reserved":0,"last_update":"0001-01-01T00:00:00Z","name_a2s":"Uncletopia | Sydney | 1 | All Maps","protocol":17,"map":"pl_badwater","folder":"tf","game":"Team Fortress","app_id":440,"player_count":24,"max_players":24,"Bots":0,"server_type":"Dedicated","server_os":"Linux","password":true,"vac":true,"version":"7757534","steam_id":85568392924470001,"keywords":["nocrits","nodmgspread","payload","uncletopia"],"game_id":440,"stv_port":27016,"stv_name":"Uncletopia | Sydney | 1 | All Maps | STV","players":[{"user_id":279,"name":"Warren","steam_id":76561198120350917,"connected_time":2559000000000,"state":"active","ping":44},{"user_id":284,"name":"Mufasa69","steam_id":76561198126569201,"connected_time":2198000000000,"state":"active","ping":73},{"user_id":281,"name":"Mr Mahal","steam_id":76561198123234137,"connected_time":2446000000000,"state":"active","ping":56},{"user_id":242,"name":"alex","steam_id":76561198053382248,"connected_time":3315000000000,"state":"active","ping":41},{"user_id":243,"name":"dinxie","steam_id":76561199448765541,"connected_time":3286000000000,"state":"active","ping":69},{"user_id":307,"name":"DeathEagle シ","steam_id":76561197997644542,"connected_time":590000000000,"state":"active","ping":46},{"user_id":292,"name":"EpicGuy4227","steam_id":76561198094132328,"connected_time":1776000000000,"state":"active","ping":55},{"user_id":232,"name":"alqwnq","steam_id":76561198133867907,"connected_time":4061000000000,"state":"active","ping":73},{"user_id":240,"name":"Flak","steam_id":76561198205833232,"connected_time":3509000000000,"state":"active","ping":50},{"user_id":244,"name":"echidna","steam_id":76561198044514230,"connected_time":3268000000000,"state":"active","ping":62},{"user_id":298,"name":"electro599","steam_id":76561198058148858,"connected_time":1271000000000,"state":"active","ping":54},{"user_id":229,"name":"modus","steam_id":76561198025099660,"connected_time":4173000000000,"state":"active","ping":32},{"user_id":303,"name":"Wampy","steam_id":76561199211235248,"connected_time":710000000000,"state":"active","ping":57},{"user_id":275,"name":"Tees","steam_id":76561199174602317,"connected_time":2646000000000,"state":"active","ping":56},{"user_id":286,"name":"Chips-N-Dip","steam_id":76561198128801755,"connected_time":2107000000000,"state":"active","ping":72},{"user_id":304,"name":"xander","steam_id":76561198063481761,"connected_time":703000000000,"state":"active","ping":38},{"user_id":308,"name":"Shadow Puppeteer","steam_id":76561198151121997,"connected_time":527000000000,"state":"active","ping":78},{"user_id":312,"name":"SubHam","steam_id":76561198071578622,"connected_time":309000000000,"state":"active","ping":72},{"user_id":299,"name":"el [?!]","steam_id":76561198077802034,"connected_time":1064000000000,"state":"active","ping":82},{"user_id":283,"name":"AzureFox","steam_id":76561198108179408,"connected_time":2403000000000,"state":"active","ping":82},{"user_id":266,"name":"Invidia","steam_id":76561198096251579,"connected_time":2889000000000,"state":"active","ping":45},{"user_id":302,"name":"i Ken smell u","steam_id":76561198301282416,"connected_time":726000000000,"state":"active","ping":56},{"user_id":267,"name":"Top Ramen","steam_id":76561198028969833,"connected_time":2878000000000,"state":"active","ping":45},{"user_id":278,"name":"Marzell","steam_id":76561198151276153,"connected_time":2607000000000,"state":"active","ping":90}]},{"server_id":123,"name":"Uncletopia | Sydney | 2 | All Maps","name_short":"syd-2","host":"syd-1.au.uncletopia.com","port":27025,"enabled":true,"region":"au","cc":"au","latitude":-33.865143,"longitude":151.2099,"reserved":0,"last_update":"0001-01-01T00:00:00Z","name_a2s":"Uncletopia | Sydney | 2 | All Maps","protocol":17,"map":"koth_lakeside_final","folder":"tf","game":"Team Fortress","app_id":440,"player_count":0,"max_players":24,"Bots":0,"server_type":"Dedicated","server_os":"Linux","password":true,"vac":true,"version":"7757534","steam_id":85568392924470002,"keywords":["cp","nocrits","nodmgspread","uncletopia"],"game_id":440,"stv_port":27026,"stv_name":"Uncletopia | Sydney | 2 | All Maps | STV","players":null},{"server_id":395,"name":"Uncletopia | Sydney | 3 | All Maps","name_short":"syd-3","host":"syd-1.au.uncletopia.com","port":27035,"enabled":true,"region":"au","cc":"au","latitude":-33.865143,"longitude":151.2099,"reserved":0,"last_update":"0001-01-01T00:00:00Z","name_a2s":"Uncletopia | Sydney | 3 | All Maps","protocol":17,"map":"cp_mountainlab","folder":"tf","game":"Team Fortress","app_id":440,"player_count":0,"max_players":24,"Bots":0,"server_type":"Dedicated","server_os":"Linux","password":true,"vac":true,"version":"7757534","steam_id":85568392925194467,"keywords":["cp","nocrits","nodmgspread","uncletopia"],"game_id":440,"stv_port":27036,"stv_name":"Uncletopia | Sydney | 3 | All Maps | STV","players":null},{"server_id":396,"name":"Uncletopia | Sydney | 4 | All Maps","name_short":"syd-4","host":"syd-1.au.uncletopia.com","port":27045,"enabled":true,"region":"au","cc":"au","latitude":-33.865143,"longitude":151.2099,"reserved":0,"last_update":"0001-01-01T00:00:00Z","name_a2s":"Uncletopia | Sydney | 4 | All Maps","protocol":17,"map":"koth_highpass","folder":"tf","game":"Team Fortress","app_id":440,"player_count":0,"max_players":24,"Bots":0,"server_type":"Dedicated","server_os":"Linux","password":true,"vac":true,"version":"7757534","steam_id":85568392925397958,"keywords":["cp","nocrits","nodmgspread","uncletopia"],"game_id":440,"stv_port":27046,"stv_name":"Uncletopia | Sydney | 4 | All Maps | STV","players":null},{"server_id":58,"name":"Uncletopia | Sydney | 5 | Stopwatch Beta","name_short":"syd-5","host":"syd-1.au.uncletopia.com","port":27055,"enabled":true,"region":"au","cc":"au","latitude":-33.865143,"longitude":151.2099,"reserved":0,"last_update":"0001-01-01T00:00:00Z","name_a2s":"Uncletopia | Sydney | 5 | Stopwatch Beta","protocol":17,"map":"workshop/pl_summercoast_rc8e.ugc1761528829","folder":"tf","game":"Team Fortress","app_id":440,"player_count":0,"max_players":24,"Bots":0,"server_type":"Dedicated","server_os":"Linux","password":true,"vac":true,"version":"7757534","steam_id":85568392925397959,"keywords":["nocrits","nodmgspread","payload","uncletopia"],"game_id":440,"stv_port":27056,"stv_name":"Uncletopia | Sydney | 5 | Stopwatch Beta | STV","players":null},{"server_id":59,"name":"Uncletopia | Sydney | 6 | Community","name_short":"syd-6","host":"syd-1.au.uncletopia.com","port":27065,"enabled":true,"region":"au","cc":"au","latitude":-33.865143,"longitude":151.2099,"reserved":0,"last_update":"0001-01-01T00:00:00Z","name_a2s":"Uncletopia | Sydney | 6 | Community","protocol":17,"map":"workshop/cp_overgrown_rc7b.ugc503939302","folder":"tf","game":"Team Fortress","app_id":440,"player_count":0,"max_players":24,"Bots":0,"server_type":"Dedicated","server_os":"Linux","password":true,"vac":true,"version":"7757534","steam_id":85568392925397960,"keywords":["cp","nocrits","nodmgspread","uncletopia"],"game_id":440,"stv_port":27066,"stv_name":"Uncletopia | Sydney | 6 | Community | STV","players":null},{"server_id":49,"name":"Uncletopia | Warsaw | 1 | All Maps","name_short":"waw-1","host":"waw-1.pl.uncletopia.com","port":27015,"enabled":true,"region":"eu","cc":"pl","latitude":52.2297,"longitude":21.017532,"reserved":0,"last_update":"0001-01-01T00:00:00Z","name_a2s":"","protocol":0,"map":"","folder":"","game":"","app_id":0,"player_count":0,"max_players":0,"Bots":0,"server_type":"","server_os":"","password":false,"vac":false,"version":"","steam_id":0,"keywords":null,"game_id":0,"stv_port":0,"stv_name":"","players":null},{"server_id":50,"name":"Uncletopia | Warsaw | 2 | All Maps","name_short":"waw-2","host":"waw-1.pl.uncletopia.com","port":27025,"enabled":true,"region":"eu","cc":"pl","latitude":52.2297,"longitude":21.017532,"reserved":0,"last_update":"0001-01-01T00:00:00Z","name_a2s":"Uncletopia | Warsaw | 2 | All Maps","protocol":17,"map":"koth_lakeside_final","folder":"tf","game":"Team Fortress","app_id":440,"player_count":0,"max_players":24,"Bots":0,"server_type":"Dedicated","server_os":"Linux","password":true,"vac":true,"version":"7757534","steam_id":85568392925397851,"keywords":["cp","nocrits","nodmgspread","uncletopia"],"game_id":440,"stv_port":27026,"stv_name":"Uncletopia | Warsaw | 2 | All Maps | STV","players":null},{"server_id":51,"name":"Uncletopia | Warsaw | 3 | All Maps","name_short":"waw-3","host":"waw-1.pl.uncletopia.com","port":27035,"enabled":true,"region":"eu","cc":"pl","latitude":52.2297,"longitude":21.017532,"reserved":0,"last_update":"0001-01-01T00:00:00Z","name_a2s":"Uncletopia | Warsaw | 3 | All Maps","protocol":17,"map":"pl_barnblitz","folder":"tf","game":"Team Fortress","app_id":440,"player_count":0,"max_players":24,"Bots":0,"server_type":"Dedicated","server_os":"Linux","password":true,"vac":true,"version":"7757534","steam_id":85568392925397852,"keywords":["nocrits","nodmgspread","payload","uncletopia"],"game_id":440,"stv_port":27036,"stv_name":"Uncletopia | Warsaw | 3 | All Maps | STV","players":null},{"server_id":52,"name":"Uncletopia | Warsaw | 4 | All Maps","name_short":"waw-4","host":"waw-1.pl.uncletopia.com","port":27045,"enabled":true,"region":"eu","cc":"pl","latitude":52.2297,"longitude":21.017532,"reserved":0,"last_update":"0001-01-01T00:00:00Z","name_a2s":"Uncletopia | Warsaw | 4 | All Maps","protocol":17,"map":"koth_lakeside_final","folder":"tf","game":"Team Fortress","app_id":440,"player_count":0,"max_players":24,"Bots":0,"server_type":"Dedicated","server_os":"Linux","password":true,"vac":true,"version":"7757534","steam_id":85568392925397853,"keywords":["cp","nocrits","nodmgspread","uncletopia"],"game_id":440,"stv_port":27046,"stv_name":"Uncletopia | Warsaw | 4 | All Maps | STV","players":null},{"server_id":53,"name":"Uncletopia | Warsaw | 5 | Stopwatch Beta","name_short":"waw-5","host":"waw-1.pl.uncletopia.com","port":27055,"enabled":true,"region":"eu","cc":"pl","latitude":52.2297,"longitude":21.017532,"reserved":0,"last_update":"0001-01-01T00:00:00Z","name_a2s":"Uncletopia | Warsaw | 5 | Stopwatch Beta","protocol":17,"map":"workshop/koth_bagel_rc6.ugc2514036946","folder":"tf","game":"Team Fortress","app_id":440,"player_count":0,"max_players":24,"Bots":0,"server_type":"Dedicated","server_os":"Linux","password":true,"vac":true,"version":"7757534","steam_id":85568392925397854,"keywords":["cp","nocrits","nodmgspread","uncletopia"],"game_id":440,"stv_port":27056,"stv_name":"Uncletopia | Warsaw | 5 | Stopwatch Beta | STV","players":null},{"server_id":54,"name":"Uncletopia | Warsaw | 6 | Community","name_short":"waw-6","host":"waw-1.pl.uncletopia.com","port":27065,"enabled":true,"region":"eu","cc":"pl","latitude":52.2297,"longitude":21.017532,"reserved":0,"last_update":"0001-01-01T00:00:00Z","name_a2s":"Uncletopia | Warsaw | 6 | Community","protocol":17,"map":"workshop/koth_kemptown_rc1.ugc767410655","folder":"tf","game":"Team Fortress","app_id":440,"player_count":0,"max_players":24,"Bots":0,"server_type":"Dedicated","server_os":"Linux","password":true,"vac":true,"version":"7757534","steam_id":85568392925397856,"keywords":["cp","nocrits","nodmgspread","uncletopia"],"game_id":440,"stv_port":27066,"stv_name":"Uncletopia | Warsaw | 6 | Community | STV","players":null}]}