{"status":true,"message":"","result":[{"server_id":9,"name":"Uncletopia | Atlanta | 1 | All Maps","name_short":"atl-1","host":"atl-1.us.uncletopia.com","port":27015,"enabled":true,"region":"us-east","cc":"us","latitude":33.753746,"longitude":-84.38633,"reserved":0,"last_update":"0001-01-01T00:00:00Z","name_a2s":"Uncletopia | Atlanta | 1 | All Maps","protocol":17,"map":"koth_nucleus","folder":"tf","game":"Team Fortress","app_id":440,"player_count":24,"max_players":24,"Bots":0,"server_type":"Dedicated","server_os":"Linux","password":true,"vac":true,"version":"7961495","steam_id":85568392924469982,"keywords":["cp","nocrits","nodmgspread","uncletopia"],"game_id":440,"stv_port":27016,"stv_name":"Uncletopia | Atlanta | 1 | All Maps | STV","players":null},{"server_id":104,"name":"Uncletopia | Atlanta | 2 | All Maps","name_short":"atl-2","host":"atl-1.us.uncletopia.com","port":27025,"enabled":true,"region":"us-east","cc":"us","latitude":33.753746,"longitude":-84.38633,"reserved":0,"last_update":"0001-01-01T00:00:00Z","name_a2s":"Uncletopia | Atlanta | 2 | All Maps","protocol":17,"map":"pl_badwater","folder":"tf","game":"Team Fortress","app_id":440,"player_count":20,"max_players":24,"Bots":0,"server_type":"Dedicated","server_os":"Linux","password":true,"vac":true,"version":"7961495","steam_id":85568392924469983,"keywords":["nocrits","nodmgspread","payload","uncletopia"],"game_id":440,"stv_port":27026,"stv_name":"Uncletopia | Atlanta | 2 | All Maps | STV","players":null},{"server_id":400,"name":"Uncletopia | Atlanta | 3 | All Maps","name_short":"atl-3","host":"atl-1.us.uncletopia.com","port":27035,"enabled":true,"region":"us-east","cc":"us","latitude":33.753746,"longitude":-84.38633,"reserved":0,"last_update":"0001-01-01T00:00:00Z","name_a2s":"Uncletopia | Atlanta | 3 | All Maps","protocol":17,"map":"pl_swiftwater_final1","folder":"tf","game":"Team Fortress","app_id":440,"player_count":24,"max_players":24,"Bots":0,"server_type":"Dedicated","server_os":"Linux","password":true,"vac":true,"version":"7961495","steam_id":85568392924515187,"keywords":["nocrits","nodmgspread","payload","uncletopia"],"game_id":440,"stv_port":27036,"stv_name":"Uncletopia | Atlanta | 3 | All Maps | STV","players":null},{"server_id":401,"name":"Uncletopia | Atlanta | 4 | Community","name_short":"atl-4","host":"atl-1.us.uncletopia.com","port":27045,"enabled":true,"region":"us-east","cc":"us","latitude":33.753746,"longitude":-84.38633,"reserved":0,"last_update":"0001-01-01T00:00:00Z","name_a2s":"Uncletopia | Atlanta | 4 | Community","protocol":17,"map":"koth_trenchfoot_b1a","folder":"tf","game":"Team Fortress","app_id":440,"player_count":0,"max_players":24,"Bots":0,"server_type":"Dedicated","server_os":"Linux","password":true,"vac":true,"version":"7961495","steam_id":85568392924515188,"keywords":["cp","nocrits","nodmgspread","uncletopia"],"game_id":440,"stv_port":27046,"stv_name":"Uncletopia | Atlanta | 4 | Community | STV","players":null},{"server_id":2,"name":"Uncletopia | Chicago | 1 | All Maps","name_short":"chi-1","host":"chi-1.us.uncletopia.com","port":27015,"enabled":true,"region":"us-central","cc":"us","latitude":41.881832,"longitude":-87.62318,"reserved":0,"last_update":"0001-01-01T00:00:00Z","name_a2s":"Uncletopia | Chicago | 1 | All Maps","protocol":17,"map":"pl_pier","folder":"tf","game":"Team Fortress","app_id":440,"player_count":22,"max_players":24,"Bots":0,"server_type":"Dedicated","server_os":"Linux","password":true,"vac":true,"version":"7961495","steam_id":85568392924469984,"keywords":["nocrits","nodmgspread","payload","uncletopia"],"game_id":440,"stv_port":27016,"stv_name":"Uncletopia | Chicago | 1 | All Maps | STV","players":[{"user_id":245,"name":"hammy","steam_id":76561198035751911,"connected_time":3105000000000,"state":"active","ping":68},{"user_id":316,"name":"kibsta","steam_id":76561198991982630,"connected_time":1666000000000,"state":"active","ping":57},{"user_id":304,"name":"Astoriae!","steam_id":76561199090168858,"connected_time":2056000000000,"state":"active","ping":67},{"user_id":262,"name":"ROGUE-PLANET","steam_id":76561198116023052,"connected_time":2796000000000,"state":"active","ping":87},{"user_id":114,"name":"Konyek","steam_id":76561198164591872,"connected_time":5480000000000,"state":"active","ping":51},{"user_id":299,"name":"Space Lizard","steam_id":76561198056798193,"connected_time":2123000000000,"state":"active","ping":69},{"user_id":320,"name":"berserker_tf2 yt","steam_id":76561198303464488,"connected_time":1548000000000,"state":"active","ping":69},{"user_id":252,"name":"Psychosis","steam_id":76561198078659070,"connected_time":2926000000000,"state":"active","ping":78},{"user_id":312,"name":"Venk","steam_id":76561198251131422,"connected_time":1809000000000,"state":"active","ping":70},{"user_id":338,"name":"Inpecular","steam_id":76561198096571237,"connected_time":166000000000,"state":"active","ping":83},{"user_id":324,"name":"Notsocreative","steam_id":76561198236372202,"connected_time":1259000000000,"state":"active","ping":78},{"user_id":342,"name":"Tired.¬∞m√ê","steam_id":76561198072620682,"connected_time":64000000000,"state":"active","ping":83},{"user_id":84,"name":"Devoid","steam_id":76561198254039012,"connected_time":6387000000000,"state":"active","ping":48},{"user_id":331,"name":"summerlis","steam_id":76561198165324438,"connected_time":655000000000,"state":"active","ping":92},{"user_id":334,"name":"NoobCesar","steam_id":76561198095250755,"connected_time":416000000000,"state":"active","ping":64},{"user_id":328,"name":"pinky","steam_id":76561199109784776,"connected_time":841000000000,"state":"active","ping":55},{"user_id":318,"name":"Ros","steam_id":76561199055963822,"connected_time":1662000000000,"state":"active","ping":71},{"user_id":303,"name":"BluTagg63„Äé·µÄ ∞·µÉ·µó·¥ÆÀ°·µò","steam_id":76561198827222309,"connected_time":2091000000000,"state":"active","ping":67},{"user_id":234,"name":"Punsequence64","steam_id":76561199201885917,"connected_time":3300000000000,"state":"active","ping":68},{"user_id":330,"name":"SHADOW","steam_id":76561198207768148,"connected_time":697000000000,"state":"active","ping":103},{"user_id":319,"name":"DinkleBerg","steam_id":76561198891626233,"connected_time":1623000000000,"state":"active","ping":64},{"user_id":337,"name":"Milkmur","steam_id":76561198210043821,"connected_time":202000000000,"state":"active","ping":68}]},{"server_id":106,"name":"Uncletopia | Chicago | 2 | All Maps","name_short":"chi-2","host":"chi-1.us.uncletopia.com","port":27025,"enabled":true,"region":"us-central","cc":"us","latitude":41.881832,"longitude":-87.62318,"reserved":0,"last_update":"0001-01-01T00:00:00Z","name_a2s":"Uncletopia | Chicago | 2 | All Maps","protocol":17,"map":"cp_sunshine","folder":"tf","game":"Team Fortress","app_id":440,"player_count":24,"max_players":24,"Bots":0,"server_type":"Dedicated","server_os":"Linux","password":true,"vac":true,"version":"7961495","steam_id":85568392924469985,"keywords":["cp","nocrits","nodmgspread","uncletopia"],"game_id":440,"stv_port":27026,"stv_name":"Uncletopia | Chicago | 2 | All Maps | STV","players":[{"user_id":464,"name":"GoldtoothFour","steam_id":76561198055529332,"connected_time":1700000000000,"state":"active","ping":47},{"user_id":444,"name":"Chlorm","steam_id":76561198147052737,"connected_time":3139000000000,"state":"active","ping":45},{"user_id":480,"name":"Jak(i)","steam_id":76561198076823144,"connected_time":329000000000,"state":"active","ping":64},{"user_id":473,"name":"sailor","steam_id":76561198091015050,"connected_time":1200000000000,"state":"active","ping":49},{"user_id":461,"name":"rat eater","steam_id":76561199216874750,"connected_time":2063000000000,"state":"active","ping":54},{"user_id":445,"name":"Cyclops_672","steam_id":76561198080169497,"connected_time":3062000000000,"state":"active","ping":51},{"user_id":283,"name":"Yongle","steam_id":76561198068591156,"connected_time":15851000000000,"state":"active","ping":53},{"user_id":438,"name":"0100101101100001011100100110110","steam_id":76561198034028769,"connected_time":3680000000000,"state":"active","ping":60},{"user_id":467,"name":"Queen Frau the Round","steam_id":76561197999942134,"connected_time":1512000000000,"state":"active","ping":44},{"user_id":446,"name":"b","steam_id":76561198118211523,"connected_time":3061000000000,"state":"active","ping":58},{"user_id":447,"name":"SWISS!","steam_id":76561198271971252,"connected_time":3055000000000,"state":"active","ping":68},{"user_id":479,"name":"Autogyro","steam_id":76561198047943679,"connected_time":513000000000,"state":"active","ping":58},{"user_id":483,"name":"muchloveandkappa","steam_id":76561198041622603,"connected_time":306000000000,"state":"active","ping":51},{"user_id":482,"name":"Kep","steam_id":76561199215126029,"connected_time":325000000000,"state":"active","ping":56},{"user_id":484,"name":"choi","steam_id":76561198053669887,"connected_time":304000000000,"state":"active","ping":115},{"user_id":470,"name":"Netter","steam_id":76561198086309544,"connected_time":1492000000000,"state":"active","ping":85},{"user_id":466,"name":"Whip_the_Rabbit","steam_id":76561198049896057,"connected_time":1687000000000,"state":"active","ping":107},{"user_id":487,"name":"chikin.sauce","steam_id":76561198042464635,"connected_time":51000000000,"state":"active","ping":77},{"user_id":453,"name":"magnolia","steam_id":76561199376721697,"connected_time":2881000000000,"state":"active","ping":61},{"user_id":448,"name":"define ok","steam_id":76561198068190834,"connected_time":3050000000000,"state":"active","ping":114},{"user_id":486,"name":"klover","steam_id":76561198072254781,"connected_time":237000000000,"state":"active","ping":93},{"user_id":475,"name":"Reckless Klondike","steam_id":76561198060904416,"connected_time":1087000000000,"state":"active","ping":77},{"user_id":478,"name":"Pop","steam_id":76561199012562851,"connected_time":761000000000,"state":"active","ping":106},{"user_id":429,"name":"hoos","steam_id":76561198045985910,"connected_time":4824000000000,"state":"active","ping":83}]},{"server_id":402,"name":"Uncletopia | Chicago | 3 | All Maps","name_short":"chi-3","host":"chi-1.us.uncletopia.com","port":27035,"enabled":true,"region":"us-central","cc":"us","latitude":41.881832,"longitude":-87.62318,"reserved":0,"last_update":"0001-01-01T00:00:00Z","name_a2s":"Uncletopia | Chicago | 3 | All Maps","protocol":17,"map":"cp_altitude","folder":"tf","game":"Team Fortress","app_id":440,"player_count":0,"max_players":24,"Bots":0,"server_type":"Dedicated","server_os":"Linux","password":true,"vac":true,"version":"7961495","steam_id":85568392924515191,"keywords":["cp","nocrits","nodmgspread","uncletopia"],"game_id":440,"stv_port":27036,"stv_name":"Uncletopia | Chicago | 3 | All Maps | STV","players":null},{"server_id":403,"name":"Uncletopia | Chicago | 4 | All Maps","name_short":"chi-4","host":"chi-1.us.uncletopia.com","port":27045,"enabled":true,"region":"us-central","cc":"us","latitude":41.881832,"longitude":-87.62318,"reserved":0,"last_update":"0001-01-01T00:00:00Z","name_a2s":"Uncletopia | Chicago | 4 | All Maps","protocol":17,"map":"pl_frontier_final","folder":"tf","game":"Team Fortress","app_id":440,"player_count":0,"max_players":24,"Bots":0,"server_type":"Dedicated","server_os":"Linux","password":true,"vac":true,"version":"7961495","steam_id":85568392924515193,"keywords":["nocrits","nodmgspread","payload","uncletopia"],"game_id":440,"stv_port":27046,"stv_name":"Uncletopia | Chicago | 4 | All Maps | STV","players":null},{"server_id":36,"name":"Uncletopia | Chicago | 5 | All Maps","name_short":"chi-5","host":"chi-2.us.uncletopia.com","port":27015,"enabled":true,"region":"us-central","cc":"us","latitude":41.881832,"longitude":-87.62318,"reserved":0,"last_update":"0001-01-01T00:00:00Z","name_a2s":"Uncletopia | Chicago | 5 | All Maps","protocol":17,"map":"koth_harvest_final","folder":"tf","game":"Team Fortress","app_id":440,"player_count":21,"max_players":24,"Bots":0,"server_type":"Dedicated","server_os":"Linux","password":true,"vac":true,"version":"7961495","steam_id":85568392924866362,"keywords":["cp","nocrits","nodmgspread","uncletopia"],"game_id":440,"stv_port":27016,"stv_name":"Uncletopia | Chicago | 5 | All Maps | STV","players":[{"user_id":195,"name":"Squope","steam_id":76561198983129293,"connected_time":2709000000000,"state":"active","ping":71},{"user_id":221,"name":"boygamer02","steam_id":76561198306206686,"connected_time":974000000000,"state":"active","ping":86},{"user_id":215,"name":"Church","steam_id":76561199214866732,"connected_time":1115000000000,"state":"active","ping":59},{"user_id":99,"name":"Butters495","steam_id":76561197998689042,"connected_time":7549000000000,"state":"active","ping":81},{"user_id":222,"name":"Crouching Noob Hidden Sniper","steam_id":76561197971328473,"connected_time":877000000000,"state":"active","ping":89},{"user_id":206,"name":"theghostofbinladen","steam_id":76561198881434725,"connected_time":1781000000000,"state":"active","ping":57},{"user_id":223,"name":"Kadrox","steam_id":76561199228653314,"connected_time":862000000000,"state":"active","ping":68},{"user_id":224,"name":"Snazzy Salamander","steam_id":76561198144534560,"connected_time":839000000000,"state":"active","ping":44},{"user_id":148,"name":"Kamin","steam_id":76561198255299559,"connected_time":4942000000000,"state":"active","ping":88},{"user_id":175,"name":"Prof. Prostate","steam_id":76561199103869446,"connected_time":3691000000000,"state":"active","ping":69},{"user_id":205,"name":"Apple Zoo","steam_id":76561198013732450,"connected_time":1870000000000,"state":"active","ping":57},{"user_id":230,"name":"The rat","steam_id":76561198050432341,"connected_time":330000000000,"state":"active","ping":152},{"user_id":189,"name":"An Erect Penis :)","steam_id":76561198086477485,"connected_time":3174000000000,"state":"active","ping":44},{"user_id":229,"name":"Drew P. Sack","steam_id":76561198036201738,"connected_time":463000000000,"state":"active","ping":51},{"user_id":207,"name":"Lenny Gaggins","steam_id":76561198119768140,"connected_time":1672000000000,"state":"active","ping":74},{"user_id":219,"name":"taylor_pink_blob","steam_id":76561198796412358,"connected_time":1020000000000,"state":"active","ping":113},{"user_id":208,"name":"jolo","steam_id":76561198042831480,"connected_time":1489000000000,"state":"active","ping":65},{"user_id":214,"name":"Mehman","steam_id":76561199020244051,"connected_time":1186000000000,"state":"active","ping":94},{"user_id":232,"name":"what flavor...","steam_id":76561198103496593,"connected_time":100000000000,"state":"active","ping":70},{"user_id":213,"name":"yeyoi","steam_id":76561198069821885,"connected_time":1330000000000,"state":"active","ping":77}]},{"server_id":37,"name":"Uncletopia | Chicago | 6 | All Maps","name_short":"chi-6","host":"chi-2.us.uncletopia.com","port":27025,"enabled":true,"region":"us-central","cc":"us","latitude":41.881832,"longitude":-87.62318,"reserved":0,"last_update":"0001-01-01T00:00:00Z","name_a2s":"Uncletopia | Chicago | 6 | All Maps","protocol":17,"map":"pl_swiftwater_final1","folder":"tf","game":"Team Fortress","app_id":440,"player_count":22,"max_players":24,"Bots":0,"server_type":"Dedicated","server_os":"Linux","password":true,"vac":true,"version":"7961495","steam_id":85568392924866363,"keywords":["nocrits","nodmgspread","payload","uncletopia"],"game_id":440,"stv_port":27026,"stv_name":"Uncletopia | Chicago | 6 | All Maps | STV","players":[{"user_id":282,"name":"bakkhertz","steam_id":76561198046745579,"connected_time":3305000000000,"state":"active","ping":85},{"user_id":318,"name":"TheDude","steam_id":76561198314764519,"connected_time":1425000000000,"state":"active","ping":107},{"user_id":334,"name":"„ÄåDaws_Dudeguy„Äç","steam_id":76561198205838645,"connected_time":57000000000,"state":"active","ping":65},{"user_id":332,"name":"twizted","steam_id":76561197960407274,"connected_time":140000000000,"state":"active","ping":76},{"user_id":335,"name":"Female Gamer","steam_id":76561199366482682,"connected_time":17000000000,"state":"active","ping":102},{"user_id":329,"name":"Ghost Lord","steam_id":76561198088956723,"connected_time":163000000000,"state":"active","ping":103},{"user_id":309,"name":"dos","steam_id":76561198370614805,"connected_time":1944000000000,"state":"active","ping":88},{"user_id":314,"name":"lorislk989","steam_id":76561199224251630,"connected_time":1855000000000,"state":"active","ping":165},{"user_id":315,"name":"Medic_GF","steam_id":76561198993946607,"connected_time":1854000000000,"state":"active","ping":63},{"user_id":327,"name":"The Stallion","steam_id":76561198142249307,"connected_time":691000000000,"state":"active","ping":49},{"user_id":295,"name":"Miles","steam_id":76561198026075277,"connected_time":2534000000000,"state":"active","ping":67},{"user_id":286,"name":"100FootTallGoose","steam_id":76561198056611082,"connected_time":3148000000000,"state":"active","ping":49},{"user_id":336,"name":"heck","steam_id":76561198308547958,"connected_time":11000000000,"state":"spawning","ping":59},{"user_id":330,"name":"Tankless Water Heater","steam_id":76561198014574925,"connected_time":159000000000,"state":"active","ping":81},{"user_id":303,"name":"crispylego_","steam_id":76561199453679719,"connected_time":2123000000000,"state":"active","ping":128},{"user_id":328,"name":"Sugahu17S","steam_id":76561198799403828,"connected_time":183000000000,"state":"active","ping":56},{"user_id":285,"name":"glankinator","steam_id":76561198354077256,"connected_time":3188000000000,"state":"active","ping":47},{"user_id":331,"name":"mothra","steam_id":76561198028444359,"connected_time":153000000000,"state":"active","ping":135},{"user_id":287,"name":"Willem Dafoe","steam_id":76561198037453253,"connected_time":3133000000000,"state":"active","ping":60},{"user_id":293,"name":"cj da man","steam_id":76561198303575607,"connected_time":2661000000000,"state":"active","ping":88},{"user_id":326,"name":"CORGI.EXE","steam_id":76561198077093432,"connected_time":792000000000,"state":"active","ping":69},{"user_id":316,"name":"Indigolake","steam_id":76561198202215807,"connected_time":1854000000000,"state":"active","ping":85}]},{"server_id":38,"name":"Uncletopia | Chicago | 7 | Stopwatch Beta","name_short":"chi-7","host":"chi-2.us.uncletopia.com","port":27035,"enabled":true,"region":"us-central","cc":"us","latitude":41.881832,"longitude":-87.62318,"reserved":0,"last_update":"0001-01-01T00:00:00Z","name_a2s":"Uncletopia | Chicago | 7 | Stopwatch Beta","protocol":17,"map":"pl_badwater","folder":"tf","game":"Team Fortress","app_id":440,"player_count":0,"max_players":24,"Bots":0,"server_type":"Dedicated","server_os":"Linux","password":true,"vac":true,"version":"7961495","steam_id":85568392924866364,"keywords":["nocrits","nodmgspread","payload","uncletopia"],"game_id":440,"stv_port":27036,"stv_name":"Uncletopia | Chicago | 7 | Stopwatch Beta | STV","players":null},{"server_id":39,"name":"Uncletopia | Chicago | 8 | Community","name_short":"chi-8","host":"chi-2.us.uncletopia.com","port":27045,"enabled":true,"region":"us-central","cc":"us","latitude":41.881832,"longitude":-87.62318,"reserved":0,"last_update":"0001-01-01T00:00:00Z","name_a2s":"Uncletopia | Chicago | 8 | Community","protocol":17,"map":"workshop/cp_propaganda_b18.ugc1603743849","folder":"tf","game":"Team Fortress","app_id":440,"player_count":24,"max_players":24,"Bots":0,"server_type":"Dedicated","server_os":"Linux","password":true,"vac":true,"version":"7961495","steam_id":85568392924866365,"keywords":["cp","nocrits","nodmgspread","uncletopia"],"game_id":440,"stv_port":27046,"stv_name":"Uncletopia | Chicago | 8 | Community | STV","players":[{"user_id":260,"name":"SmearierGold7","steam_id":76561198065689410,"connected_time":2931000000000,"state":"active","ping":78},{"user_id":275,"name":"KFC Rat","steam_id":76561198135128086,"connected_time":1414000000000,"state":"active","ping":120},{"user_id":283,"name":"arctic_mists","steam_id":76561198132879435,"connected_time":110000000000,"state":"active","ping":60},{"user_id":261,"name":"Retrowave","steam_id":76561198061921346,"connected_time":2922000000000,"state":"active","ping":61},{"user_id":222,"name":"Cleverless Biped","steam_id":76561198045984856,"connected_time":5931000000000,"state":"active","ping":115},{"user_id":284,"name":"gaming pro","steam_id":76561198218038463,"connected_time":6000000000,"state":"spawning","ping":56},{"user_id":270,"name":"Peri","steam_id":76561198255311543,"connected_time":2104000000000,"state":"active","ping":87},{"user_id":240,"name":"Raccoon.Of.Waffle.House","steam_id":76561199018770554,"connected_time":4083000000000,"state":"active","ping":79},{"user_id":263,"name":"Archmage Walter White","steam_id":76561198059005726,"connected_time":2807000000000,"state":"active","ping":81},{"user_id":278,"name":"Keroro","steam_id":76561198075106705,"connected_time":361000000000,"state":"active","ping":71},{"user_id":219,"name":"Skiddy","steam_id":76561198125942665,"connected_time":6037000000000,"state":"active","ping":75},{"user_id":267,"name":"Meow1732","steam_id":76561198410300828,"connected_time":2465000000000,"state":"active","ping":96},{"user_id":274,"name":"Captain S. Forrest","steam_id":76561198062463029,"connected_time":1854000000000,"state":"active","ping":98},{"user_id":277,"name":"this","steam_id":76561198170195505,"connected_time":860000000000,"state":"active","ping":82},{"user_id":266,"name":"Thedarkdot","steam_id":76561199200787877,"connected_time":2566000000000,"state":"active","ping":70},{"user_id":186,"name":"Pdawgdavis02","steam_id":76561199209633860,"connected_time":7005000000000,"state":"active","ping":71},{"user_id":281,"name":"weeabuuuu","steam_id":76561198056084417,"connected_time":203000000000,"state":"active","ping":77},{"user_id":231,"name":"The Original Toaster","steam_id":76561198984718975,"connected_time":5468000000000,"state":"active","ping":53},{"user_id":268,"name":"WLpeanut","steam_id":76561197981006264,"connected_time":2209000000000,"state":"active","ping":922},{"user_id":254,"name":"Cheese4Everyone","steam_id":76561198022333985,"connected_time":3376000000000,"state":"active","ping":61},{"user_id":272,"name":"Sea Captain","steam_id":76561198043432905,"connected_time":1966000000000,"state":"active","ping":113},{"user_id":271,"name":"Capt.Swag","steam_id":76561198088340994,"connected_time":2076000000000,"state":"active","ping":78},{"user_id":239,"name":"Neophyte","steam_id":76561198027183394,"connected_time":4142000000000,"state":"active","ping":91},{"user_id":282,"name":"LavenderSys","steam_id":76561198289106015,"connected_time":200000000000,"state":"active","ping":80}]},{"server_id":8,"name":"Uncletopia | Dallas | 1 | All Maps","name_short":"dal-1","host":"dal-1.us.uncletopia.com","port":27015,"enabled":true,"region":"us-central","cc":"us","latitude":32.779167,"longitude":-96.80889,"reserved":0,"last_update":"0001-01-01T00:00:00Z","name_a2s":"Uncletopia | Dallas | 1 | All Maps","protocol":17,"map":"cp_dustbowl","folder":"tf","game":"Team Fortress","app_id":440,"player_count":24,"max_players":24,"Bots":0,"server_type":"Dedicated","server_os":"Linux","password":true,"vac":true,"version":"7961495","steam_id":85568392924469986,"keywords":["cp","nocrits","nodmgspread","uncletopia"],"game_id":440,"stv_port":27016,"stv_name":"Uncletopia | Dallas | 1 | All Maps | STV","players":[{"user_id":397,"name":"iamboomie","steam_id":76561198080462836,"connected_time":1105000000000,"state":"active","ping":70},{"user_id":384,"name":"king of eblock","steam_id":76561198800324957,"connected_time":1355000000000,"state":"active","ping":61},{"user_id":386,"name":"Sup m8","steam_id":76561198081659121,"connected_time":1303000000000,"state":"active","ping":35},{"user_id":412,"name":"evan_is_sauce","steam_id":76561199086802383,"connected_time":195000000000,"state":"active","ping":79},{"user_id":408,"name":"Rob","steam_id":76561199187786660,"connected_time":498000000000,"state":"active","ping":55},{"user_id":398,"name":"Panfried","steam_id":76561198009882074,"connected_time":1088000000000,"state":"active","ping":100},{"user_id":411,"name":"landohickman10","steam_id":76561199396893327,"connected_time":308000000000,"state":"active","ping":84},{"user_id":389,"name":"imng","steam_id":76561198014988031,"connected_time":1257000000000,"state":"active","ping":71},{"user_id":391,"name":"sawrik","steam_id":76561198018808213,"connected_time":1199000000000,"state":"active","ping":84},{"user_id":380,"name":"4i3k,6ijm3","steam_id":76561198238664158,"connected_time":2067000000000,"state":"active","ping":94},{"user_id":368,"name":"Levi","steam_id":76561198089832776,"connected_time":3705000000000,"state":"active","ping":57},{"user_id":392,"name":"üå∏MelWormüå∏","steam_id":76561198084145814,"connected_time":1196000000000,"state":"active","ping":63},{"user_id":407,"name":"Gay Loogi Gang","steam_id":76561198097031529,"connected_time":505000000000,"state":"active","ping":78},{"user_id":393,"name":"Faerun_F","steam_id":76561198443906094,"connected_time":1195000000000,"state":"active","ping":61},{"user_id":378,"name":"Zetta","steam_id":76561198045710113,"connected_time":2124000000000,"state":"active","ping":86},{"user_id":395,"name":"SwordBreaker","steam_id":76561199135564076,"connected_time":1164000000000,"state":"active","ping":76},{"user_id":414,"name":"FanaticSalt","steam_id":76561199380123059,"connected_time":74000000000,"state":"spawning","ping":42},{"user_id":396,"name":"BestAvgGamer","steam_id":76561198209871075,"connected_time":1159000000000,"state":"active","ping":85},{"user_id":399,"name":"4OH2 Jack","steam_id":76561198240702298,"connected_time":1067000000000,"state":"active","ping":97},{"user_id":409,"name":"Billy Mays","steam_id":76561197998876324,"connected_time":391000000000,"state":"active","ping":107},{"user_id":410,"name":"2002 Toyota Corolla VE","steam_id":76561198149172070,"connected_time":391000000000,"state":"active","ping":45},{"user_id":400,"name":"wolf_71","steam_id":76561198963570945,"connected_time":1054000000000,"state":"active","ping":48},{"user_id":406,"name":"Sax","steam_id":76561198055425123,"connected_time":548000000000,"state":"active","ping":115},{"user_id":374,"name":"mitanashi","steam_id":76561198074573932,"connected_time":3259000000000,"state":"active","ping":150}]},{"server_id":108,"name":"Uncletopia | Dallas | 2 | All Maps","name_short":"dal-2","host":"dal-1.us.uncletopia.com","port":27025,"enabled":true,"region":"us-central","cc":"us","latitude":32.779167,"longitude":-96.80889,"reserved":0,"last_update":"0001-01-01T00:00:00Z","name_a2s":"Uncletopia | Dallas | 2 | All Maps","protocol":17,"map":"pl_barnblitz","folder":"tf","game":"Team Fortress","app_id":440,"player_count":24,"max_players":24,"Bots":0,"server_type":"Dedicated","server_os":"Linux","password":true,"vac":true,"version":"7961495","steam_id":85568392924469988,"keywords":["nocrits","nodmgspread","payload","uncletopia"],"game_id":440,"stv_port":27026,"stv_name":"Uncletopia | Dallas | 2 | All Maps | STV","players":[{"user_id":71,"name":"plink","steam_id":76561198057829889,"connected_time":1042000000000,"state":"active","ping":54},{"user_id":55,"name":"webaline :3","steam_id":76561199052450127,"connected_time":2064000000000,"state":"active","ping":83},{"user_id":51,"name":"SmokeyGalaxy","steam_id":76561198118780516,"connected_time":2333000000000,"state":"active","ping":61},{"user_id":33,"name":"artichoke","steam_id":76561198980994364,"connected_time":3614000000000,"state":"active","ping":100},{"user_id":66,"name":"schmuck","steam_id":76561198143789773,"connected_time":1616000000000,"state":"active","ping":43},{"user_id":48,"name":"angry loser","steam_id":76561198128363064,"connected_time":2530000000000,"state":"active","ping":84},{"user_id":36,"name":"hforce11","steam_id":76561198087647130,"connected_time":3260000000000,"state":"active","ping":72},{"user_id":47,"name":"‚ú†CrustyCake‚ú†","steam_id":76561198155062405,"connected_time":2567000000000,"state":"active","ping":103},{"user_id":38,"name":"Smug","steam_id":76561198448205229,"connected_time":3169000000000,"state":"active","ping":77},{"user_id":56,"name":"The Griddy","steam_id":76561198062763756,"connected_time":2056000000000,"state":"active","ping":94},{"user_id":43,"name":"Courtney Dickinson","steam_id":76561198061528590,"connected_time":2706000000000,"state":"active","ping":96},{"user_id":42,"name":"souVern","steam_id":76561198046940771,"connected_time":2744000000000,"state":"active","ping":73},{"user_id":44,"name":"GreySweaterCat","steam_id":76561198351860293,"connected_time":2704000000000,"state":"active","ping":67},{"user_id":49,"name":"√êŒπ—è—Ç—É B…ÑŒ≤bl—î","steam_id":76561198382555244,"connected_time":2517000000000,"state":"active","ping":50},{"user_id":69,"name":"ApocalypticFirefly","steam_id":76561198064405546,"connected_time":1344000000000,"state":"active","ping":171},{"user_id":57,"name":"Beantama","steam_id":76561198986811476,"connected_time":2016000000000,"state":"active","ping":64},{"user_id":67,"name":"Rubus Beer","steam_id":76561198065041957,"connected_time":1597000000000,"state":"active","ping":78},{"user_id":59,"name":"motherfucker 2.0","steam_id":76561198141189209,"connected_time":1895000000000,"state":"active","ping":41},{"user_id":60,"name":"Zombiehunter11","steam_id":76561198237517830,"connected_time":1892000000000,"state":"active","ping":89},{"user_id":61,"name":"Colonel Salt","steam_id":76561198207009563,"connected_time":1872000000000,"state":"active","ping":59},{"user_id":62,"name":"Wigl","steam_id":76561198019324464,"connected_time":1857000000000,"state":"active","ping":78},{"user_id":63,"name":"Dumb Bitch Juice","steam_id":76561199493938783,"connected_time":1840000000000,"state":"active","ping":47},{"user_id":64,"name":"A Can of AriZona Green Tea","steam_id":76561198062481133,"connected_time":1823000000000,"state":"active","ping":75},{"user_id":72,"name":"violent monkey porn","steam_id":76561199285074344,"connected_time":774000000000,"state":"active","ping":159}]},{"server_id":404,"name":"Uncletopia | Dallas | 3 | All Maps","name_short":"dal-3","host":"dal-1.us.uncletopia.com","port":27035,"enabled":true,"region":"us-central","cc":"us","latitude":32.779167,"longitude":-96.80889,"reserved":0,"last_update":"0001-01-01T00:00:00Z","name_a2s":"Uncletopia | Dallas | 3 | All Maps","protocol":17,"map":"cp_mountainlab","folder":"tf","game":"Team Fortress","app_id":440,"player_count":0,"max_players":24,"Bots":0,"server_type":"Dedicated","server_os":"Linux","password":true,"vac":true,"version":"7961495","steam_id":85568392924515219,"keywords":["cp","nocrits","nodmgspread","uncletopia"],"game_id":440,"stv_port":27036,"stv_name":"Uncletopia | Dallas | 3 | All Maps | STV","players":null},{"server_id":405,"name":"Uncletopia | Dallas | 4 | Community","name_short":"dal-4","host":"dal-1.us.uncletopia.com","port":27045,"enabled":true,"region":"us-central","cc":"us","latitude":32.779167,"longitude":-96.80889,"reserved":0,"last_update":"0001-01-01T00:00:00Z","name_a2s":"Uncletopia | Dallas | 4 | Community","protocol":17,"map":"workshop/pl_badwater_pro_v12.ugc2142942074","folder":"tf","game":"Team Fortress","app_id":440,"player_count":0,"max_players":24,"Bots":0,"server_type":"Dedicated","server_os":"Linux","password":true,"vac":true,"version":"7961495","steam_id":85568392924515220,"keywords":["nocrits","nodmgspread","payload","uncletopia"],"game_id":440,"stv_port":27046,"stv_name":"Uncletopia | Dallas | 4 | Community | STV","players":null},{"server_id":5,"name":"Uncletopia | Frankfurt | 1 | All Maps","name_short":"frk-1","host":"frk-1.de.uncletopia.com","port":27015,"enabled":true,"region":"eu","cc":"de","latitude":50.110924,"longitude":8.682127,"reserved":0,"last_update":"0001-01-01T00:00:00Z","name_a2s":"Uncletopia | Frankfurt | 1 | All Maps","protocol":17,"map":"pl_badwater","folder":"tf","game":"Team Fortress","app_id":440,"player_count":24,"max_players":24,"Bots":0,"server_type":"Dedicated","server_os":"Linux","password":true,"vac":true,"version":"7961495","steam_id":85568392924469989,"keywords":["nocrits","nodmgspread","payload","uncletopia"],"game_id":440,"stv_port":27016,"stv_name":"Uncletopia | Frankfurt | 1 | All Maps | STV","players":[{"user_id":433,"name":"Metalli","steam_id":76561198078735026,"connected_time":7298000000000,"state":"active","ping":96},{"user_id":489,"name":"mohemmedmokhter2005","steam_id":76561199197650506,"connected_time":1862000000000,"state":"active","ping":107},{"user_id":491,"name":"Pyrolander","steam_id":76561198050785450,"connected_time":1823000000000,"state":"active","ping":45},{"user_id":463,"name":"the one who grips","steam_id":76561198381106289,"connected_time":4272000000000,"state":"active","ping":73},{"user_id":492,"name":"Sheen (Khang)","steam_id":76561198371062974,"connected_time":1809000000000,"state":"active","ping":85},{"user_id":364,"name":"Engie's best friend","steam_id":76561197961707932,"connected_time":12006000000000,"state":"active","ping":48},{"user_id":482,"name":"Acanda","steam_id":76561198123246537,"connected_time":2657000000000,"state":"active","ping":46},{"user_id":495,"name":"Xriasp","steam_id":76561198104721321,"connected_time":1664000000000,"state":"active","ping":91},{"user_id":502,"name":"H2n9","steam_id":76561198055811259,"connected_time":625000000000,"state":"active","ping":68},{"user_id":483,"name":"Nonok","steam_id":76561199480685498,"connected_time":2533000000000,"state":"active","ping":73},{"user_id":503,"name":"Ewelinka Zniszczenia","steam_id":76561198307374456,"connected_time":610000000000,"state":"active","ping":64},{"user_id":498,"name":"mlemdic","steam_id":76561198090001673,"connected_time":1125000000000,"state":"active","ping":128},{"user_id":266,"name":"Carter","steam_id":76561198005243938,"connected_time":18129000000000,"state":"active","ping":85},{"user_id":500,"name":"Rick Astley's Foot","steam_id":76561198862617917,"connected_time":926000000000,"state":"active","ping":186},{"user_id":494,"name":"gerber local brewery","steam_id":76561198183623117,"connected_time":1748000000000,"state":"active","ping":58},{"user_id":476,"name":"vMatyn","steam_id":76561198438929275,"connected_time":3216000000000,"state":"active","ping":68},{"user_id":501,"name":"N","steam_id":76561198176593895,"connected_time":812000000000,"state":"active","ping":73},{"user_id":509,"name":"BLACKBIRD CLOSE [she/her]","steam_id":76561198262910410,"connected_time":50000000000,"state":"active","ping":91},{"user_id":499,"name":"Krefa12","steam_id":76561198268375393,"connected_time":1125000000000,"state":"active","ping":75},{"user_id":472,"name":"HelwiiHill","steam_id":76561198066730552,"connected_time":3920000000000,"state":"active","ping":80},{"user_id":508,"name":"Leeroy Jenkins","steam_id":76561198137210227,"connected_time":340000000000,"state":"active","ping":63},{"user_id":493,"name":"GuyWithoutAPie","steam_id":76561198054512149,"connected_time":1798000000000,"state":"active","ping":61},{"user_id":480,"name":"Benzo Fury","steam_id":76561198025259336,"connected_time":3121000000000,"state":"active","ping":54},{"user_id":506,"name":"Snek","steam_id":76561198026689255,"connected_time":528000000000,"state":"active","ping":66}]},{"server_id":110,"name":"Uncletopia | Frankfurt | 2 | All Maps","name_short":"frk-2","host":"frk-1.de.uncletopia.com","port":27025,"enabled":true,"region":"eu","cc":"de","latitude":50.110924,"longitude":8.682127,"reserved":0,"last_update":"0001-01-01T00:00:00Z","name_a2s":"Uncletopia | Frankfurt | 2 | All Maps","protocol":17,"map":"cp_sunshine","folder":"tf","game":"Team Fortress","app_id":440,"player_count":23,"max_players":24,"Bots":0,"server_type":"Dedicated","server_os":"Linux","password":true,"vac":true,"version":"7961495","steam_id":85568392924469990,"keywords":["cp","nocrits","nodmgspread","uncletopia"],"game_id":440,"stv_port":27026,"stv_name":"Uncletopia | Frankfurt | 2 | All Maps | STV","players":[{"user_id":379,"name":"squib","steam_id":76561198049170360,"connected_time":4092000000000,"state":"active","ping":53},{"user_id":358,"name":"BigChunk","steam_id":76561198215962313,"connected_time":5943000000000,"state":"active","ping":37},{"user_id":415,"name":"htraB","steam_id":76561198043122677,"connected_time":489000000000,"state":"active","ping":58},{"user_id":412,"name":"„É†GeRmAn |√óUA√ó„É†","steam_id":76561199044754898,"connected_time":791000000000,"state":"active","ping":63},{"user_id":388,"name":"Varsk","steam_id":76561198061398890,"connected_time":3548000000000,"state":"active","ping":55},{"user_id":392,"name":"Rarky","steam_id":76561198054398642,"connected_time":3421000000000,"state":"active","ping":47},{"user_id":424,"name":"Janner","steam_id":76561198127045282,"connected_time":80000000000,"state":"active","ping":60},{"user_id":422,"name":"void","steam_id":76561198035831433,"connected_time":178000000000,"state":"active","ping":74},{"user_id":414,"name":"fast3r","steam_id":76561198415542035,"connected_time":537000000000,"state":"active","ping":53},{"user_id":418,"name":"a freakin' knight","steam_id":76561198371341044,"connected_time":341000000000,"state":"active","ping":130},{"user_id":425,"name":"Toni Pepperoni","steam_id":76561198814211030,"connected_time":46000000000,"state":"active","ping":218},{"user_id":419,"name":"Lorenzo Lovers","steam_id":76561198073973581,"connected_time":280000000000,"state":"active","ping":75},{"user_id":253,"name":"Just Navlis","steam_id":76561198090479609,"connected_time":13328000000000,"state":"active","ping":45},{"user_id":411,"name":"Vitun vittu","steam_id":76561198110679463,"connected_time":1594000000000,"state":"active","ping":76},{"user_id":420,"name":"Mr.Schnittlauch","steam_id":76561198295868113,"connected_time":272000000000,"state":"active","ping":52},{"user_id":408,"name":"Dewotter","steam_id":76561198007653168,"connected_time":1759000000000,"state":"active","ping":67},{"user_id":387,"name":"xavier","steam_id":76561198076494034,"connected_time":3812000000000,"state":"active","ping":57},{"user_id":413,"name":"Jon","steam_id":76561198148858397,"connected_time":561000000000,"state":"active","ping":72},{"user_id":421,"name":"sBLOCKER  85","steam_id":76561198939078994,"connected_time":262000000000,"state":"active","ping":133},{"user_id":369,"name":"hananamanna","steam_id":76561198006570285,"connected_time":5233000000000,"state":"active","ping":119},{"user_id":220,"name":"hyvakii705","steam_id":76561198086630552,"connected_time":15803000000000,"state":"active","ping":89},{"user_id":390,"name":"Vershal Smershal","steam_id":76561198116223995,"connected_time":3537000000000,"state":"active","ping":60},{"user_id":393,"name":"\u003e\u003c\u003e","steam_id":76561198190225954,"connected_time":3421000000000,"state":"active","ping":84}]},{"server_id":308,"name":"Uncletopia | Frankfurt | 3 | All Maps","name_short":"frk-3","host":"frk-1.de.uncletopia.com","port":27035,"enabled":true,"region":"eu","cc":"de","latitude":50.110924,"longitude":8.682127,"reserved":0,"last_update":"0001-01-01T00:00:00Z","name_a2s":"Uncletopia | Frankfurt | 3 | All Maps","protocol":17,"map":"pl_upward","folder":"tf","game":"Team Fortress","app_id":440,"player_count":23,"max_players":24,"Bots":0,"server_type":"Dedicated","server_os":"Linux","password":true,"vac":true,"version":"7961495","steam_id":85568392924504274,"keywords":["nocrits","nodmgspread","payload","uncletopia"],"game_id":440,"stv_port":27036,"stv_name":"Uncletopia | Frankfurt | 3 | All Maps | STV","players":[{"user_id":416,"name":"Virtual Turtle","steam_id":76561198056255236,"connected_time":1651000000000,"state":"active","ping":47},{"user_id":427,"name":"Finnish Farmer","steam_id":76561198205366043,"connected_time":517000000000,"state":"active","ping":84},{"user_id":430,"name":"60hz laptop","steam_id":76561198111229919,"connected_time":445000000000,"state":"active","ping":63},{"user_id":381,"name":"Mak≈Çowicz","steam_id":76561198281831506,"connected_time":4387000000000,"state":"active","ping":75},{"user_id":398,"name":"Volterion #SaveTf2","steam_id":76561198293088484,"connected_time":3315000000000,"state":"active","ping":58},{"user_id":431,"name":"yuck","steam_id":76561197987249568,"connected_time":380000000000,"state":"active","ping":104},{"user_id":429,"name":"socaramel","steam_id":76561197984480336,"connected_time":500000000000,"state":"active","ping":75},{"user_id":418,"name":"badrobot","steam_id":76561198322878356,"connected_time":1227000000000,"state":"active","ping":90},{"user_id":432,"name":"[SQ UA] MartianDill","steam_id":76561198405382822,"connected_time":359000000000,"state":"active","ping":63},{"user_id":415,"name":"tf2 snake","steam_id":76561198193971167,"connected_time":1737000000000,"state":"active","ping":51},{"user_id":403,"name":"PanPatrik","steam_id":76561198293331527,"connected_time":2827000000000,"state":"active","ping":53},{"user_id":405,"name":"Pacyfista Feminista Frutarianin","steam_id":76561198435883762,"connected_time":2769000000000,"state":"active","ping":74},{"user_id":419,"name":"Scobra [FR]","steam_id":76561198000734400,"connected_time":1209000000000,"state":"active","ping":111},{"user_id":324,"name":"‚ôÇ Animan ‚ôÇ Studios ‚ôÇ","steam_id":76561198308302932,"connected_time":9270000000000,"state":"active","ping":95},{"user_id":424,"name":"Ignot","steam_id":76561198235896754,"connected_time":776000000000,"state":"active","ping":76},{"user_id":387,"name":"Archive","steam_id":76561198071255385,"connected_time":4284000000000,"state":"active","ping":87},{"user_id":423,"name":"[OGT] droidpeti","steam_id":76561199066820289,"connected_time":839000000000,"state":"active","ping":81},{"user_id":420,"name":"Dandroid7","steam_id":76561198947673092,"connected_time":864000000000,"state":"active","ping":47},{"user_id":433,"name":"Sinyxs","steam_id":76561198053726401,"connected_time":355000000000,"state":"active","ping":54},{"user_id":436,"name":"Rask","steam_id":76561198052934944,"connected_time":129000000000,"state":"active","ping":98},{"user_id":426,"name":"Raulca25","steam_id":76561199068256964,"connected_time":652000000000,"state":"active","ping":94},{"user_id":422,"name":"Ank0","steam_id":76561198214180388,"connected_time":853000000000,"state":"active","ping":74},{"user_id":397,"name":"Ë™∞„Åã„ÅåË¶ã„Å¶„ÅÑ„Çã","steam_id":76561198834913692,"connected_time":3392000000000,"state":"active","ping":64}]},{"server_id":309,"name":"Uncletopia | Frankfurt | 4 | All Maps","name_short":"frk-4","host":"frk-1.de.uncletopia.com","port":27045,"enabled":true,"region":"eu","cc":"de","latitude":50.110924,"longitude":8.682127,"reserved":0,"last_update":"0001-01-01T00:00:00Z","name_a2s":"Uncletopia | Frankfurt | 4 | All Maps","protocol":17,"map":"pl_rumford_event","folder":"tf","game":"Team Fortress","app_id":440,"player_count":23,"max_players":24,"Bots":0,"server_type":"Dedicated","server_os":"Linux","password":true,"vac":true,"version":"7961495","steam_id":85568392924504275,"keywords":["nocrits","nodmgspread","payload","uncletopia"],"game_id":440,"stv_port":27046,"stv_name":"Uncletopia | Frankfurt | 4 | All Maps | STV","players":[{"user_id":442,"name":"Guy :)","steam_id":76561199095049662,"connected_time":3896000000000,"state":"active","ping":66},{"user_id":483,"name":"Bia≈Çy","steam_id":76561197996016988,"connected_time":93000000000,"state":"active","ping":70},{"user_id":484,"name":"Mata_FM","steam_id":76561198044824504,"connected_time":92000000000,"state":"active","ping":60},{"user_id":385,"name":"G/3","steam_id":76561198234844188,"connected_time":8249000000000,"state":"active","ping":57},{"user_id":474,"name":"oswin","steam_id":76561198101349961,"connected_time":691000000000,"state":"active","ping":80},{"user_id":476,"name":"GIYGAS","steam_id":76561198193888289,"connected_time":490000000000,"state":"active","ping":97},{"user_id":466,"name":"vurtun","steam_id":76561198857395274,"connected_time":1543000000000,"state":"active","ping":49},{"user_id":470,"name":"Blitzo","steam_id":76561198002935399,"connected_time":1235000000000,"state":"active","ping":51},{"user_id":485,"name":"spinning on uncletopia","steam_id":76561199233979726,"connected_time":88000000000,"state":"active","ping":81},{"user_id":386,"name":"Summer ‚ô•","steam_id":76561198047723907,"connected_time":8231000000000,"state":"active","ping":54},{"user_id":477,"name":"aimer","steam_id":76561198324357479,"connected_time":449000000000,"state":"active","ping":70},{"user_id":461,"name":"highest noon","steam_id":76561199103959197,"connected_time":1662000000000,"state":"active","ping":87},{"user_id":480,"name":"Ambatukrit","steam_id":76561198838206526,"connected_time":307000000000,"state":"active","ping":54},{"user_id":478,"name":"ThatTFguy","steam_id":76561198056794321,"connected_time":352000000000,"state":"active","ping":73},{"user_id":446,"name":"Qwertuss","steam_id":76561198026305366,"connected_time":3191000000000,"state":"active","ping":57},{"user_id":406,"name":"Bottle O' Scrumpy","steam_id":76561199244250562,"connected_time":7226000000000,"state":"active","ping":104},{"user_id":486,"name":"The Lady","steam_id":76561198029895809,"connected_time":72000000000,"state":"active","ping":75},{"user_id":475,"name":"Vexu","steam_id":76561198113145846,"connected_time":639000000000,"state":"active","ping":83},{"user_id":479,"name":"ducks","steam_id":76561198166148685,"connected_time":342000000000,"state":"active","ping":42},{"user_id":473,"name":"R@DIO","steam_id":76561197995533046,"connected_time":1191000000000,"state":"active","ping":75},{"user_id":487,"name":"Aimy","steam_id":76561198798548854,"connected_time":0,"state":"spawning","ping":26},{"user_id":458,"name":"rets","steam_id":76561198061551392,"connected_time":2163000000000,"state":"active","ping":75},{"user_id":409,"name":"Mudderbad","steam_id":76561199040869510,"connected_time":7169000000000,"state":"active","ping":70}]},{"server_id":310,"name":"Uncletopia | Frankfurt | 5 | All Maps","name_short":"frk-5","host":"frk-1.de.uncletopia.com","port":27055,"enabled":true,"region":"eu","cc":"de","latitude":50.110924,"longitude":8.682127,"reserved":0,"last_update":"0001-01-01T00:00:00Z","name_a2s":"Uncletopia | Frankfurt | 5 | All Maps","protocol":17,"map":"pl_borneo","folder":"tf","game":"Team Fortress","app_id":440,"player_count":24,"max_players":24,"Bots":0,"server_type":"Dedicated","server_os":"Linux","password":true,"vac":true,"version":"7961495","steam_id":85568392924504277,"keywords":["nocrits","nodmgspread","payload","uncletopia"],"game_id":440,"stv_port":27056,"stv_name":"Uncletopia | Frankfurt | 5 | All Maps | STV","players":[{"user_id":417,"name":"Urfangonultasadana","steam_id":76561199389286151,"connected_time":3744000000000,"state":"active","ping":100},{"user_id":464,"name":"someone","steam_id":76561199471582243,"connected_time":72000000000,"state":"active","ping":87},{"user_id":446,"name":"Chef","steam_id":76561198392489772,"connected_time":1148000000000,"state":"active","ping":59},{"user_id":442,"name":"joachym","steam_id":76561198428579761,"connected_time":1299000000000,"state":"active","ping":55},{"user_id":462,"name":"Crusader","steam_id":76561198239172686,"connected_time":270000000000,"state":"active","ping":67},{"user_id":433,"name":"ÎãπÏã†ÏùÄ Î≥¥ÎÖ∏Î≥¥ÏûÖÎãàÎã§","steam_id":76561198017114970,"connected_time":2008000000000,"state":"active","ping":53},{"user_id":450,"name":"Confused1221","steam_id":76561199061802741,"connected_time":1117000000000,"state":"active","ping":72},{"user_id":451,"name":"Lesu","steam_id":76561198064130397,"connected_time":998000000000,"state":"active","ping":66},{"user_id":425,"name":"n-ski","steam_id":76561198020550849,"connected_time":3510000000000,"state":"active","ping":75},{"user_id":463,"name":"Guwop","steam_id":76561197970425737,"connected_time":225000000000,"state":"active","ping":161},{"user_id":421,"name":"Ixsus\u003c3","steam_id":76561198094756869,"connected_time":3693000000000,"state":"active","ping":47},{"user_id":453,"name":"Reague","steam_id":76561199092175631,"connected_time":985000000000,"state":"active","ping":183},{"user_id":454,"name":"–ë—ã–¥–ª–∞ –≤–æ–π","steam_id":76561198041371314,"connected_time":984000000000,"state":"active","ping":123},{"user_id":412,"name":"Majami","steam_id":76561198054365738,"connected_time":3898000000000,"state":"active","ping":84},{"user_id":456,"name":"ozz-man","steam_id":76561198084676522,"connected_time":905000000000,"state":"active","ping":90},{"user_id":457,"name":"Robik","steam_id":76561198007126367,"connected_time":902000000000,"state":"active","ping":75},{"user_id":435,"name":"Alibi","steam_id":76561198061845595,"connected_time":1929000000000,"state":"active","ping":59},{"user_id":459,"name":"Intimatt","steam_id":76561198066393546,"connected_time":759000000000,"state":"active","ping":68},{"user_id":280,"name":"realness","steam_id":76561199129226935,"connected_time":11992000000000,"state":"active","ping":94},{"user_id":458,"name":"Rudy Karma","steam_id":76561198349348738,"connected_time":900000000000,"state":"active","ping":48},{"user_id":449,"name":"Local Dumbass","steam_id":76561198252211608,"connected_time":1137000000000,"state":"active","ping":73},{"user_id":443,"name":"Keroz1n","steam_id":76561197998681491,"connected_time":1270000000000,"state":"active","ping":65},{"user_id":426,"name":"momo","steam_id":76561198120008008,"connected_time":3505000000000,"state":"active","ping":60},{"user_id":399,"name":"[SIEGE]Tevzi","steam_id":76561198046007448,"connected_time":4369000000000,"state":"active","ping":70}]},{"server_id":311,"name":"Uncletopia | Frankfurt | 6 | All Maps","name_short":"frk-6","host":"frk-1.de.uncletopia.com","port":27065,"enabled":true,"region":"eu","cc":"de","latitude":50.110924,"longitude":8.682127,"reserved":0,"last_update":"0001-01-01T00:00:00Z","name_a2s":"Uncletopia | Frankfurt | 6 | All Maps","protocol":17,"map":"pl_swiftwater_final1","folder":"tf","game":"Team Fortress","app_id":440,"player_count":22,"max_players":24,"Bots":0,"server_type":"Dedicated","server_os":"Linux","password":true,"vac":true,"version":"7961495","steam_id":85568392924504278,"keywords":["nocrits","nodmgspread","payload","uncletopia"],"game_id":440,"stv_port":27066,"stv_name":"Uncletopia | Frankfurt | 6 | All Maps | STV","players":[{"user_id":44,"name":"THE_LAG","steam_id":76561198859195693,"connected_time":2528000000000,"state":"active","ping":92},{"user_id":76,"name":"Blackish","steam_id":76561198888787438,"connected_time":462000000000,"state":"active","ping":85},{"user_id":46,"name":"Deckard","steam_id":76561198004704647,"connected_time":2519000000000,"state":"active","ping":74},{"user_id":77,"name":"Phlogmaster Flex","steam_id":76561198033695429,"connected_time":425000000000,"state":"active","ping":59},{"user_id":48,"name":"stefanbejenari","steam_id":76561199466718294,"connected_time":2276000000000,"state":"active","ping":81},{"user_id":74,"name":"skill","steam_id":76561198106012909,"connected_time":509000000000,"state":"active","ping":67},{"user_id":50,"name":"Purple toaster yt","steam_id":76561199071229316,"connected_time":1690000000000,"state":"active","ping":68},{"user_id":75,"name":"Fallen Dog","steam_id":76561198851387188,"connected_time":482000000000,"state":"active","ping":64},{"user_id":85,"name":"Kapitan Polska","steam_id":76561197968069413,"connected_time":72000000000,"state":"active","ping":67},{"user_id":86,"name":"Eltonius","steam_id":76561198157560715,"connected_time":53000000000,"state":"active","ping":75},{"user_id":78,"name":"paradise ‚ú®","steam_id":76561198966057450,"connected_time":375000000000,"state":"active","ping":78},{"user_id":63,"name":"Flying skyhigh","steam_id":76561198372971096,"connected_time":930000000000,"state":"active","ping":74},{"user_id":87,"name":"Facundo","steam_id":76561198197637349,"connected_time":9000000000,"state":"active","ping":106},{"user_id":58,"name":"caramelldancin'","steam_id":76561198193357946,"connected_time":1261000000000,"state":"active","ping":100},{"user_id":64,"name":"Lopat","steam_id":76561198820264239,"connected_time":924000000000,"state":"active","ping":149},{"user_id":67,"name":"Kozioro≈ºek","steam_id":76561198149816511,"connected_time":858000000000,"state":"active","ping":83},{"user_id":73,"name":"clean carp","steam_id":76561198127053294,"connected_time":581000000000,"state":"active","ping":72},{"user_id":80,"name":"Firiak","steam_id":76561198050216930,"connected_time":297000000000,"state":"active","ping":67},{"user_id":84,"name":"apple","steam_id":76561198142581128,"connected_time":126000000000,"state":"active","ping":57},{"user_id":81,"name":"please do not the cat","steam_id":76561198089003514,"connected_time":221000000000,"state":"active","ping":40},{"user_id":82,"name":"det","steam_id":76561198261505536,"connected_time":215000000000,"state":"active","ping":72},{"user_id":83,"name":"toe sucking freak","steam_id":76561198411069806,"connected_time":214000000000,"state":"active","ping":74}]},{"server_id":23,"name":"Uncletopia | Frankfurt | 7 | Stopwatch Beta","name_short":"frk-7","host":"frk-1.de.uncletopia.com","port":27075,"enabled":true,"region":"eu","cc":"de","latitude":50.110924,"longitude":8.682127,"reserved":0,"last_update":"0001-01-01T00:00:00Z","name_a2s":"Uncletopia | Frankfurt | 7 | Stopwatch Beta","protocol":17,"map":"workshop/koth_ashville_final.ugc2130459942","folder":"tf","game":"Team Fortress","app_id":440,"player_count":4,"max_players":24,"Bots":0,"server_type":"Dedicated","server_os":"Linux","password":true,"vac":true,"version":"7961495","steam_id":85568392924742827,"keywords":["cp","nocrits","nodmgspread","uncletopia"],"game_id":440,"stv_port":27076,"stv_name":"Uncletopia | Frankfurt | 7 | Stopwatch Beta | STV","players":[{"user_id":31,"name":"63756d","steam_id":76561198808699024,"connected_time":3918000000000,"state":"active","ping":62},{"user_id":37,"name":"Fat Pigeon","steam_id":76561198817940142,"connected_time":153000000000,"state":"active","ping":46},{"user_id":35,"name":"Henry Fonda","steam_id":76561199378865926,"connected_time":2312000000000,"state":"active","ping":85},{"user_id":23,"name":"aidux86","steam_id":76561198975008961,"connected_time":5499000000000,"state":"active","ping":56}]},{"server_id":24,"name":"Uncletopia | Frankfurt | 8 | Community","name_short":"frk-8","host":"frk-1.de.uncletopia.com","port":27085,"enabled":true,"region":"eu","cc":"de","latitude":50.110924,"longitude":8.682127,"reserved":0,"last_update":"0001-01-01T00:00:00Z","name_a2s":"Uncletopia | Frankfurt | 8 | Community","protocol":17,"map":"workshop/koth_synthetic_rc6a.ugc1549817316","folder":"tf","game":"Team Fortress","app_id":440,"player_count":0,"max_players":24,"Bots":0,"server_type":"Dedicated","server_os":"Linux","password":true,"vac":true,"version":"7961495","steam_id":85568392924742828,"keywords":["cp","nocrits","nodmgspread","uncletopia"],"game_id":440,"stv_port":27086,"stv_name":"Uncletopia | Frankfurt | 8 | Community | STV","players":null},{"server_id":202,"name":"Uncletopia | Hong Kong | 1 | All Maps","name_short":"hgk-1","host":"hgk-1.hk.uncletopia.com","port":27015,"enabled":true,"region":"asia","cc":"hk","latitude":22.302711,"longitude":114.177216,"reserved":0,"last_update":"0001-01-01T00:00:00Z","name_a2s":"Uncletopia | Hong Kong | 1 | All Maps","protocol":17,"map":"pl_badwater","folder":"tf","game":"Team Fortress","app_id":440,"player_count":0,"max_players":24,"Bots":0,"server_type":"Dedicated","server_os":"Linux","password":true,"vac":true,"version":"7961495","steam_id":85568392924494504,"keywords":["nocrits","nodmgspread","payload","uncletopia"],"game_id":440,"stv_port":27016,"stv_name":"Uncletopia | Hong Kong | 1 | All Maps | STV","players":null},{"server_id":1,"name":"Uncletopia | Los Angeles | 1 | All Maps","name_short":"lax-1","host":"lax-1.us.uncletopia.com","port":27015,"enabled":true,"region":"us-west","cc":"us","latitude":33.94279,"longitude":-118.41004,"reserved":0,"last_update":"0001-01-01T00:00:00Z","name_a2s":"Uncletopia | Los Angeles | 1 | All Maps","protocol":17,"map":"pl_swiftwater_final1","folder":"tf","game":"Team Fortress","app_id":440,"player_count":23,"max_players":24,"Bots":0,"server_type":"Dedicated","server_os":"Linux","password":true,"vac":true,"version":"7961495","steam_id":85568392924469991,"keywords":["nocrits","nodmgspread","payload","uncletopia"],"game_id":440,"stv_port":27016,"stv_name":"Uncletopia | Los Angeles | 1 | All Maps | STV","players":[{"user_id":146,"name":"NFL.com","steam_id":76561198113405376,"connected_time":3581000000000,"state":"active","ping":53},{"user_id":190,"name":"King0500","steam_id":76561198402396167,"connected_time":775000000000,"state":"active","ping":67},{"user_id":197,"name":"Gaming123","steam_id":76561198801780168,"connected_time":351000000000,"state":"active","ping":112},{"user_id":203,"name":"Schnitz","steam_id":76561198265484253,"connected_time":148000000000,"state":"active","ping":55},{"user_id":204,"name":"JDizzle","steam_id":76561199122696841,"connected_time":102000000000,"state":"active","ping":70},{"user_id":207,"name":"Cael Thavain","steam_id":76561198136789464,"connected_time":1000000000,"state":"spawning","ping":127},{"user_id":205,"name":"dreamy bull","steam_id":76561198881144114,"connected_time":97000000000,"state":"active","ping":76},{"user_id":206,"name":"shakoiwa","steam_id":76561199059441773,"connected_time":63000000000,"state":"active","ping":61},{"user_id":198,"name":"FI LO","steam_id":76561198976530881,"connected_time":348000000000,"state":"active","ping":30},{"user_id":191,"name":"Rhutebeer","steam_id":76561198018302761,"connected_time":765000000000,"state":"active","ping":116},{"user_id":184,"name":"MayKaye","steam_id":76561199016092265,"connected_time":891000000000,"state":"active","ping":65},{"user_id":187,"name":"Beepleton The 3rd","steam_id":76561198081466207,"connected_time":795000000000,"state":"active","ping":93},{"user_id":199,"name":"Sozuki","steam_id":76561198961150367,"connected_time":344000000000,"state":"active","ping":47},{"user_id":188,"name":"Lo-Pan","steam_id":76561198085670133,"connected_time":793000000000,"state":"active","ping":87},{"user_id":183,"name":"Pal","steam_id":76561198079657093,"connected_time":983000000000,"state":"active","ping":71},{"user_id":201,"name":"Mr. Pockets","steam_id":76561198053657771,"connected_time":159000000000,"state":"active","ping":57},{"user_id":179,"name":"1234567891011121314151617181920","steam_id":76561198338739253,"connected_time":1651000000000,"state":"active","ping":48},{"user_id":194,"name":"mr poop","steam_id":76561199195196632,"connected_time":628000000000,"state":"active","ping":79},{"user_id":145,"name":"PunyHappyFace","steam_id":76561198118059305,"connected_time":4021000000000,"state":"active","ping":45},{"user_id":192,"name":"unicornCatLiliOwO","steam_id":76561199391478575,"connected_time":739000000000,"state":"active","ping":100},{"user_id":195,"name":"PS2","steam_id":76561198108799902,"connected_time":572000000000,"state":"active","ping":102},{"user_id":120,"name":"Fozzy","steam_id":76561198258458765,"connected_time":5966000000000,"state":"active","ping":75},{"user_id":202,"name":"Yoozer","steam_id":76561198420257694,"connected_time":158000000000,"state":"active","ping":49}]},{"server_id":112,"name":"Uncletopia | Los Angeles | 2 | All Maps","name_short":"lax-2","host":"lax-1.us.uncletopia.com","port":27025,"enabled":true,"region":"us-west","cc":"us","latitude":33.94279,"longitude":-118.41004,"reserved":0,"last_update":"0001-01-01T00:00:00Z","name_a2s":"Uncletopia | Los Angeles | 2 | All Maps","protocol":17,"map":"pl_swiftwater_final1","folder":"tf","game":"Team Fortress","app_id":440,"player_count":0,"max_players":24,"Bots":0,"server_type":"Dedicated","server_os":"Linux","password":true,"vac":true,"version":"7961495","steam_id":85568392924469992,"keywords":["nocrits","nodmgspread","payload","uncletopia"],"game_id":440,"stv_port":27026,"stv_name":"Uncletopia | Los Angeles | 2 | All Maps | STV","players":null},{"server_id":324,"name":"Uncletopia | Los Angeles | 3 | All Maps","name_short":"lax-3","host":"lax-1.us.uncletopia.com","port":27035,"enabled":true,"region":"us-west","cc":"us","latitude":33.94279,"longitude":-118.41004,"reserved":0,"last_update":"0001-01-01T00:00:00Z","name_a2s":"Uncletopia | Los Angeles | 3 | All Maps","protocol":17,"map":"pl_pier","folder":"tf","game":"Team Fortress","app_id":440,"player_count":23,"max_players":24,"Bots":0,"server_type":"Dedicated","server_os":"Linux","password":true,"vac":true,"version":"7961495","steam_id":85568392924510198,"keywords":["nocrits","nodmgspread","payload","uncletopia"],"game_id":440,"stv_port":27036,"stv_name":"Uncletopia | Los Angeles | 3 | All Maps | STV","players":[{"user_id":332,"name":"Speedy","steam_id":76561198080761661,"connected_time":2218000000000,"state":"active","ping":121},{"user_id":4,"name":"Biden Blast","steam_id":76561198366729030,"connected_time":25951000000000,"state":"active","ping":45},{"user_id":333,"name":"I just joined","steam_id":76561198057999536,"connected_time":2144000000000,"state":"active","ping":59},{"user_id":377,"name":"Hown Brash","steam_id":76561198418115635,"connected_time":18000000000,"state":"active","ping":124},{"user_id":361,"name":"SD","steam_id":76561198217410988,"connected_time":900000000000,"state":"active","ping":45},{"user_id":366,"name":"yellow ·óúÀ¨·óú","steam_id":76561198366474647,"connected_time":600000000000,"state":"active","ping":57},{"user_id":373,"name":"XxDragon4321xX","steam_id":76561198046705735,"connected_time":323000000000,"state":"active","ping":114},{"user_id":363,"name":"JustADuck","steam_id":76561198311260943,"connected_time":866000000000,"state":"active","ping":102},{"user_id":357,"name":"BREAD MANN","steam_id":76561198949379945,"connected_time":1201000000000,"state":"active","ping":107},{"user_id":359,"name":"Adam Wixord","steam_id":76561198077881405,"connected_time":974000000000,"state":"active","ping":44},{"user_id":341,"name":"fonz!E","steam_id":76561197987165510,"connected_time":1791000000000,"state":"active","ping":45},{"user_id":343,"name":"ooidial","steam_id":76561199086221916,"connected_time":1755000000000,"state":"active","ping":125},{"user_id":364,"name":"EJ","steam_id":76561198126224944,"connected_time":848000000000,"state":"active","ping":44},{"user_id":347,"name":"Sirmrmagoo","steam_id":76561198993190424,"connected_time":1615000000000,"state":"active","ping":98},{"user_id":369,"name":"Jebby","steam_id":76561198300150276,"connected_time":493000000000,"state":"active","ping":97},{"user_id":367,"name":"coolbust carti","steam_id":76561198065384345,"connected_time":579000000000,"state":"active","ping":55},{"user_id":346,"name":"pink knite","steam_id":76561198311543042,"connected_time":1686000000000,"state":"active","ping":38},{"user_id":370,"name":"BreadnDip","steam_id":76561198362635423,"connected_time":488000000000,"state":"active","ping":70},{"user_id":351,"name":"GH578","steam_id":76561199493262585,"connected_time":1480000000000,"state":"active","ping":88},{"user_id":374,"name":"Apollo","steam_id":76561198162364702,"connected_time":315000000000,"state":"active","ping":75},{"user_id":358,"name":"mafia is mafia","steam_id":76561198042574722,"connected_time":1176000000000,"state":"active","ping":82},{"user_id":368,"name":"Velgrauder","steam_id":76561198848526938,"connected_time":564000000000,"state":"active","ping":102},{"user_id":375,"name":"dankmemer9999","steam_id":76561199088438884,"connected_time":298000000000,"state":"active","ping":98}]},{"server_id":25,"name":"Uncletopia | Los Angeles | 4 | Stopwatch Beta","name_short":"lax-4","host":"lax-1.us.uncletopia.com","port":27045,"enabled":true,"region":"us-west","cc":"us","latitude":33.94279,"longitude":-118.41004,"reserved":0,"last_update":"0001-01-01T00:00:00Z","name_a2s":"Uncletopia | Los Angeles | 4 | Stopwatch Beta","protocol":17,"map":"pl_upward","folder":"tf","game":"Team Fortress","app_id":440,"player_count":0,"max_players":24,"Bots":0,"server_type":"Dedicated","server_os":"Linux","password":true,"vac":true,"version":"7961495","steam_id":85568392924510199,"keywords":["nocrits","nodmgspread","payload","uncletopia"],"game_id":440,"stv_port":27046,"stv_name":"Uncletopia | Los Angeles | 4 | Stopwatch Beta | STV","players":null},{"server_id":11,"name":"Uncletopia | London | 1 | All Maps","name_short":"lon-1","host":"lon-1.uk.uncletopia.com","port":27015,"enabled":true,"region":"eu","cc":"gb","latitude":51.509865,"longitude":-0.118092,"reserved":0,"last_update":"0001-01-01T00:00:00Z","name_a2s":"Uncletopia | London | 1 | All Maps","protocol":17,"map":"cp_steel","folder":"tf","game":"Team Fortress","app_id":440,"player_count":24,"max_players":24,"Bots":0,"server_type":"Dedicated","server_os":"Linux","password":true,"vac":true,"version":"7961495","steam_id":85568392924367362,"keywords":["cp","nocrits","nodmgspread","uncletopia"],"game_id":440,"stv_port":27016,"stv_name":"Uncletopia | London | 1 | All Maps | STV","players":[{"user_id":507,"name":"Floris","steam_id":76561198001717422,"connected_time":968000000000,"state":"active","ping":56},{"user_id":478,"name":"Sixie","steam_id":76561198251675360,"connected_time":3144000000000,"state":"active","ping":51},{"user_id":488,"name":"Aaron","steam_id":76561197990046953,"connected_time":2219000000000,"state":"active","ping":56},{"user_id":491,"name":"flamingosaurus","steam_id":76561198051455397,"connected_time":2053000000000,"state":"active","ping":43},{"user_id":423,"name":"Lyra","steam_id":76561198043601838,"connected_time":8476000000000,"state":"active","ping":75},{"user_id":508,"name":"Dolcelatte","steam_id":76561198038501770,"connected_time":944000000000,"state":"active","ping":60},{"user_id":516,"name":"RedFog","steam_id":76561198284713081,"connected_time":194000000000,"state":"active","ping":51},{"user_id":436,"name":"Trapezoid","steam_id":76561198059369295,"connected_time":7130000000000,"state":"active","ping":62},{"user_id":518,"name":"Û†Å≥‚Åß‚Åß Kruthal","steam_id":76561198245726582,"connected_time":78000000000,"state":"active","ping":84},{"user_id":285,"name":"Snake-chan","steam_id":76561199044755854,"connected_time":18257000000000,"state":"active","ping":82},{"user_id":472,"name":"Lux","steam_id":76561198060417740,"connected_time":3989000000000,"state":"active","ping":47},{"user_id":512,"name":"Slifer the Sky Dragon","steam_id":76561198062255803,"connected_time":794000000000,"state":"active","ping":75},{"user_id":343,"name":"Tails8521","steam_id":76561198051747164,"connected_time":14459000000000,"state":"active","ping":59},{"user_id":515,"name":"here widdle wabbit‚Ä¶ come here","steam_id":76561198190583242,"connected_time":209000000000,"state":"active","ping":86},{"user_id":510,"name":"Fenkenstein","steam_id":76561198129648509,"connected_time":918000000000,"state":"active","ping":65},{"user_id":505,"name":"professional nonprofessional","steam_id":76561199200442395,"connected_time":987000000000,"state":"active","ping":74},{"user_id":479,"name":"A Red Brick","steam_id":76561198317522580,"connected_time":2887000000000,"state":"active","ping":91},{"user_id":430,"name":"gayboi farti","steam_id":76561199121999431,"connected_time":7695000000000,"state":"active","ping":36},{"user_id":500,"name":"beda","steam_id":76561198277943630,"connected_time":1097000000000,"state":"active","ping":74},{"user_id":492,"name":"hmscole09","steam_id":76561198811362788,"connected_time":1840000000000,"state":"active","ping":47},{"user_id":517,"name":"Remenos","steam_id":76561198029337778,"connected_time":190000000000,"state":"active","ping":106},{"user_id":454,"name":"fence_","steam_id":76561198150386379,"connected_time":5224000000000,"state":"active","ping":46},{"user_id":514,"name":"Fran","steam_id":76561199070516960,"connected_time":537000000000,"state":"active","ping":72},{"user_id":502,"name":"Colingaffney","steam_id":76561198197984574,"connected_time":1037000000000,"state":"active","ping":67}]},{"server_id":114,"name":"Uncletopia | London | 2 | All Maps","name_short":"lon-2","host":"lon-1.uk.uncletopia.com","port":27025,"enabled":true,"region":"eu","cc":"gb","latitude":51.509865,"longitude":-0.118092,"reserved":0,"last_update":"0001-01-01T00:00:00Z","name_a2s":"Uncletopia | London | 2 | All Maps","protocol":17,"map":"pl_barnblitz","folder":"tf","game":"Team Fortress","app_id":440,"player_count":24,"max_players":24,"Bots":0,"server_type":"Dedicated","server_os":"Linux","password":true,"vac":true,"version":"7961495","steam_id":85568392924470941,"keywords":["nocrits","nodmgspread","payload","uncletopia"],"game_id":440,"stv_port":27026,"stv_name":"Uncletopia | London | 2 | All Maps | STV","players":[{"user_id":568,"name":"Tomaash","steam_id":76561198115542042,"connected_time":1762000000000,"state":"active","ping":40},{"user_id":610,"name":"Slawomir Szmeichel","steam_id":76561198368694578,"connected_time":469000000000,"state":"active","ping":72},{"user_id":619,"name":"Duke Nukem Loves W+M1!","steam_id":76561199013457963,"connected_time":168000000000,"state":"active","ping":51},{"user_id":574,"name":"oskar.collins2","steam_id":76561199092232637,"connected_time":1332000000000,"state":"active","ping":83},{"user_id":611,"name":"my mom","steam_id":76561199225201569,"connected_time":454000000000,"state":"active","ping":124},{"user_id":490,"name":"MaeMae","steam_id":76561198252524452,"connected_time":6082000000000,"state":"active","ping":48},{"user_id":544,"name":"quickfast","steam_id":76561199438900919,"connected_time":3216000000000,"state":"active","ping":44},{"user_id":589,"name":"GEP Gun","steam_id":76561197981821003,"connected_time":1052000000000,"state":"active","ping":55},{"user_id":408,"name":"jona3838","steam_id":76561199097658195,"connected_time":11629000000000,"state":"active","ping":107},{"user_id":569,"name":"balanced diet","steam_id":76561198240320806,"connected_time":1724000000000,"state":"active","ping":75},{"user_id":620,"name":"Ben UFO","steam_id":76561198001648348,"connected_time":167000000000,"state":"active","ping":48},{"user_id":548,"name":"Baikalov","steam_id":76561198819783192,"connected_time":2931000000000,"state":"active","ping":64},{"user_id":617,"name":"Artemis","steam_id":76561198199091801,"connected_time":259000000000,"state":"active","ping":49},{"user_id":621,"name":"I sell exotic parrots","steam_id":76561199192434258,"connected_time":143000000000,"state":"active","ping":95},{"user_id":553,"name":"tomo","steam_id":76561199015097595,"connected_time":2576000000000,"state":"active","ping":46},{"user_id":570,"name":"przksk","steam_id":76561198450284221,"connected_time":1597000000000,"state":"active","ping":85},{"user_id":572,"name":"msh","steam_id":76561198367669395,"connected_time":1387000000000,"state":"active","ping":39},{"user_id":555,"name":"beheading video from 2009","steam_id":76561198834897089,"connected_time":2519000000000,"state":"active","ping":74},{"user_id":622,"name":"OffMilky","steam_id":76561198831440921,"connected_time":82000000000,"state":"active","ping":26},{"user_id":606,"name":"konstlang","steam_id":76561198083980412,"connected_time":622000000000,"state":"active","ping":91},{"user_id":567,"name":"Luk3","steam_id":76561198340519063,"connected_time":1818000000000,"state":"active","ping":55},{"user_id":564,"name":"pardner","steam_id":76561198451471161,"connected_time":2163000000000,"state":"active","ping":61},{"user_id":518,"name":"glyph","steam_id":76561197980736364,"connected_time":4630000000000,"state":"active","ping":86},{"user_id":592,"name":"sloppy transgirl toppy","steam_id":76561198057092208,"connected_time":1012000000000,"state":"active","ping":75}]},{"server_id":320,"name":"Uncletopia | London | 3 | All Maps","name_short":"lon-3","host":"lon-1.uk.uncletopia.com","port":27035,"enabled":true,"region":"eu","cc":"gb","latitude":51.509865,"longitude":-0.118092,"reserved":0,"last_update":"0001-01-01T00:00:00Z","name_a2s":"Uncletopia | London | 3 | All Maps","protocol":17,"map":"pl_upward","folder":"tf","game":"Team Fortress","app_id":440,"player_count":23,"max_players":24,"Bots":0,"server_type":"Dedicated","server_os":"Linux","password":true,"vac":true,"version":"7961495","steam_id":85568392924510192,"keywords":["nocrits","nodmgspread","payload","uncletopia"],"game_id":440,"stv_port":27036,"stv_name":"Uncletopia | London | 3 | All Maps | STV","players":[{"user_id":220,"name":"Tryborya","steam_id":76561199009620947,"connected_time":522000000000,"state":"active","ping":77},{"user_id":202,"name":"ROX","steam_id":76561198272289320,"connected_time":1755000000000,"state":"active","ping":64},{"user_id":186,"name":"FlukeY","steam_id":76561198026137327,"connected_time":2731000000000,"state":"active","ping":56},{"user_id":217,"name":"LSKi","steam_id":76561198215470228,"connected_time":698000000000,"state":"active","ping":73},{"user_id":193,"name":"YEET BOY THE GREAT","steam_id":76561198197991343,"connected_time":2538000000000,"state":"active","ping":167},{"user_id":222,"name":"Omyskull","steam_id":76561198131711758,"connected_time":381000000000,"state":"active","ping":63},{"user_id":223,"name":"CharVarPiracy","steam_id":76561198841600694,"connected_time":362000000000,"state":"active","ping":51},{"user_id":118,"name":"tjeeena gubbbnnn","steam_id":76561199163884827,"connected_time":7145000000000,"state":"active","ping":100},{"user_id":229,"name":"Garth Marenghi","steam_id":76561198009830164,"connected_time":45000000000,"state":"spawning","ping":42},{"user_id":209,"name":"marcus.subaru@subarumotors.jp","steam_id":76561198104896547,"connected_time":1218000000000,"state":"active","ping":75},{"user_id":158,"name":"Literal Bread","steam_id":76561199188332023,"connected_time":4286000000000,"state":"active","ping":52},{"user_id":212,"name":"Racco","steam_id":76561198198855238,"connected_time":1158000000000,"state":"active","ping":59},{"user_id":120,"name":"Baiterz","steam_id":76561198030815786,"connected_time":7060000000000,"state":"active","ping":65},{"user_id":230,"name":"Teddy \u003c3","steam_id":76561198307893662,"connected_time":43000000000,"state":"active","ping":76},{"user_id":185,"name":"kilo","steam_id":76561198015641339,"connected_time":2773000000000,"state":"active","ping":75},{"user_id":228,"name":"narlee","steam_id":76561198058084646,"connected_time":199000000000,"state":"active","ping":85},{"user_id":221,"name":"Nathan","steam_id":76561198394485387,"connected_time":427000000000,"state":"active","ping":63},{"user_id":214,"name":"DelaNo","steam_id":76561199125086655,"connected_time":1127000000000,"state":"active","ping":49},{"user_id":227,"name":"Bobo","steam_id":76561198052308399,"connected_time":228000000000,"state":"active","ping":62},{"user_id":215,"name":"Smuggs","steam_id":76561197999456003,"connected_time":976000000000,"state":"active","ping":38},{"user_id":167,"name":"BackDoorExit","steam_id":76561199136645382,"connected_time":3394000000000,"state":"active","ping":58},{"user_id":206,"name":"Elon Musk's Last Braincell","steam_id":76561198846784757,"connected_time":1661000000000,"state":"active","ping":59},{"user_id":136,"name":"Soup","steam_id":76561199081651572,"connected_time":6272000000000,"state":"active","ping":62}]},{"server_id":321,"name":"Uncletopia | London | 4 | All Maps","name_short":"lon-4","host":"lon-1.uk.uncletopia.com","port":27045,"enabled":true,"region":"eu","cc":"gb","latitude":51.509865,"longitude":-0.118092,"reserved":0,"last_update":"0001-01-01T00:00:00Z","name_a2s":"Uncletopia | London | 4 | All Maps","protocol":17,"map":"cp_process_final","folder":"tf","game":"Team Fortress","app_id":440,"player_count":23,"max_players":24,"Bots":0,"server_type":"Dedicated","server_os":"Linux","password":true,"vac":true,"version":"7961495","steam_id":85568392924510193,"keywords":["cp","nocrits","nodmgspread","uncletopia"],"game_id":440,"stv_port":27046,"stv_name":"Uncletopia | London | 4 | All Maps | STV","players":[{"user_id":410,"name":"W42P","steam_id":76561198451290410,"connected_time":5250000000000,"state":"active","ping":89},{"user_id":423,"name":"gothmoth","steam_id":76561198386910896,"connected_time":4649000000000,"state":"active","ping":71},{"user_id":447,"name":"Podge","steam_id":76561199077425079,"connected_time":2933000000000,"state":"active","ping":56},{"user_id":312,"name":"Kiogeki","steam_id":76561197996707843,"connected_time":12308000000000,"state":"active","ping":34},{"user_id":471,"name":"Neonlemurs","steam_id":76561198161147186,"connected_time":983000000000,"state":"active","ping":64},{"user_id":478,"name":"Akero","steam_id":76561198857883916,"connected_time":363000000000,"state":"active","ping":76},{"user_id":419,"name":"Punker","steam_id":76561198255964089,"connected_time":4716000000000,"state":"active","ping":119},{"user_id":464,"name":"DOGGO","steam_id":76561198044243069,"connected_time":1960000000000,"state":"active","ping":67},{"user_id":359,"name":"apetor rip","steam_id":76561198140517762,"connected_time":9043000000000,"state":"active","ping":70},{"user_id":475,"name":"Pope Poopus the Turd","steam_id":76561198405684866,"connected_time":783000000000,"state":"active","ping":42},{"user_id":476,"name":"akakez","steam_id":76561198095432821,"connected_time":774000000000,"state":"active","ping":119},{"user_id":479,"name":"‚ô•Medical student‚ô•","steam_id":76561199119401415,"connected_time":334000000000,"state":"active","ping":120},{"user_id":458,"name":"TheEmeraldStar","steam_id":76561198072942529,"connected_time":2636000000000,"state":"active","ping":71},{"user_id":472,"name":"Linguini","steam_id":76561198327750625,"connected_time":893000000000,"state":"active","ping":33},{"user_id":473,"name":"Tx_madmash","steam_id":76561198924656512,"connected_time":893000000000,"state":"active","ping":152},{"user_id":361,"name":"finbar","steam_id":76561198056812396,"connected_time":8706000000000,"state":"active","ping":86},{"user_id":469,"name":"Alpaca","steam_id":76561198029839079,"connected_time":1304000000000,"state":"active","ping":45},{"user_id":470,"name":"mista white","steam_id":76561199387233667,"connected_time":1267000000000,"state":"active","ping":72},{"user_id":444,"name":"emag live","steam_id":76561198047164140,"connected_time":3676000000000,"state":"active","ping":52},{"user_id":477,"name":"Rock..","steam_id":76561198004641963,"connected_time":766000000000,"state":"active","ping":75},{"user_id":466,"name":"Silverdarlin","steam_id":76561198118540970,"connected_time":1580000000000,"state":"active","ping":50},{"user_id":460,"name":"dumb idiot moron","steam_id":76561198053929269,"connected_time":2601000000000,"state":"active","ping":91},{"user_id":467,"name":"Grogon","steam_id":76561198203300218,"connected_time":1562000000000,"state":"active","ping":62}]},{"server_id":21,"name":"Uncletopia | London | 5 | All Maps","name_short":"lon-5","host":"lon-1.uk.uncletopia.com","port":27055,"enabled":true,"region":"eu","cc":"gb","latitude":51.509865,"longitude":-0.118092,"reserved":0,"last_update":"0001-01-01T00:00:00Z","name_a2s":"Uncletopia | London | 5 | All Maps","protocol":17,"map":"koth_viaduct","folder":"tf","game":"Team Fortress","app_id":440,"player_count":22,"max_players":24,"Bots":0,"server_type":"Dedicated","server_os":"Linux","password":true,"vac":true,"version":"7961495","steam_id":85568392924742829,"keywords":["cp","nocrits","nodmgspread","uncletopia"],"game_id":440,"stv_port":27056,"stv_name":"Uncletopia | London | 5 | All Maps | STV","players":[{"user_id":473,"name":"Gubbly Bubbins","steam_id":76561198101451654,"connected_time":15000000000,"state":"active","ping":46},{"user_id":461,"name":"Kolanciasty ‚ô•","steam_id":76561198020042179,"connected_time":854000000000,"state":"active","ping":84},{"user_id":424,"name":"big pizza","steam_id":76561198082377293,"connected_time":3964000000000,"state":"active","ping":51},{"user_id":449,"name":"741","steam_id":76561198307602421,"connected_time":2303000000000,"state":"active","ping":104},{"user_id":447,"name":"543","steam_id":76561199074095198,"connected_time":2370000000000,"state":"active","ping":111},{"user_id":463,"name":"Kardiol","steam_id":76561198122344852,"connected_time":824000000000,"state":"active","ping":59},{"user_id":471,"name":"BIG FUCKING BACON","steam_id":76561198014856290,"connected_time":273000000000,"state":"active","ping":65},{"user_id":382,"name":"DANDELION","steam_id":76561198038451376,"connected_time":7031000000000,"state":"active","ping":43},{"user_id":462,"name":"451","steam_id":76561199099592506,"connected_time":837000000000,"state":"active","ping":31},{"user_id":450,"name":"Monke","steam_id":76561199015607390,"connected_time":2204000000000,"state":"active","ping":62},{"user_id":389,"name":"Eoghan","steam_id":76561198095344395,"connected_time":6507000000000,"state":"active","ping":49},{"user_id":434,"name":"Finn","steam_id":76561198179960193,"connected_time":2957000000000,"state":"active","ping":31},{"user_id":453,"name":"Lorents","steam_id":76561198796919618,"connected_time":2094000000000,"state":"active","ping":63},{"user_id":456,"name":"Toot","steam_id":76561198267288496,"connected_time":2000000000000,"state":"active","ping":44},{"user_id":464,"name":"Flying Chemist","steam_id":76561198085039837,"connected_time":696000000000,"state":"active","ping":63},{"user_id":467,"name":"JujuBalu","steam_id":76561198207253071,"connected_time":574000000000,"state":"active","ping":61},{"user_id":454,"name":"Ritmic Mortal","steam_id":76561198352862033,"connected_time":2094000000000,"state":"active","ping":114},{"user_id":455,"name":"Mike","steam_id":76561198228455736,"connected_time":2049000000000,"state":"active","ping":47},{"user_id":472,"name":"sarii ‚òÜ","steam_id":76561199155102111,"connected_time":100000000000,"state":"active","ping":70},{"user_id":468,"name":"pipe bomb gaming","steam_id":76561199036776540,"connected_time":572000000000,"state":"active","ping":56},{"user_id":429,"name":"Seron-Lowell","steam_id":76561198070291347,"connected_time":3319000000000,"state":"active","ping":60},{"user_id":469,"name":"Liamish11","steam_id":76561198176235318,"connected_time":572000000000,"state":"active","ping":99}]},{"server_id":22,"name":"Uncletopia | London | 6 | All Maps","name_short":"lon-6","host":"lon-1.uk.uncletopia.com","port":27065,"enabled":true,"region":"eu","cc":"gb","latitude":51.509865,"longitude":-0.118092,"reserved":0,"last_update":"0001-01-01T00:00:00Z","name_a2s":"Uncletopia | London | 6 | All Maps","protocol":17,"map":"pl_pier","folder":"tf","game":"Team Fortress","app_id":440,"player_count":23,"max_players":24,"Bots":0,"server_type":"Dedicated","server_os":"Linux","password":true,"vac":true,"version":"7961495","steam_id":85568392924742830,"keywords":["nocrits","nodmgspread","payload","uncletopia"],"game_id":440,"stv_port":27066,"stv_name":"Uncletopia | London | 6 | All Maps | STV","players":[{"user_id":188,"name":"WaffleCat","steam_id":76561198300396822,"connected_time":4610000000000,"state":"active","ping":110},{"user_id":254,"name":"Dangerous Man","steam_id":76561198986834496,"connected_time":310000000000,"state":"active","ping":124},{"user_id":239,"name":"FrostyBob","steam_id":76561197997161148,"connected_time":1461000000000,"state":"active","ping":55},{"user_id":251,"name":"Vector","steam_id":76561198061444488,"connected_time":340000000000,"state":"active","ping":66},{"user_id":252,"name":"frosty","steam_id":76561198094560834,"connected_time":325000000000,"state":"active","ping":51},{"user_id":187,"name":"ANGELFISH","steam_id":76561198027536466,"connected_time":4621000000000,"state":"active","ping":100},{"user_id":258,"name":"Bill Carr","steam_id":76561198110033943,"connected_time":248000000000,"state":"active","ping":35},{"user_id":255,"name":"Jack_26","steam_id":76561198034566531,"connected_time":289000000000,"state":"active","ping":97},{"user_id":235,"name":"Donac Dum","steam_id":76561198064089294,"connected_time":1695000000000,"state":"active","ping":51},{"user_id":243,"name":"Redkiller","steam_id":76561199453655288,"connected_time":1071000000000,"state":"active","ping":129},{"user_id":256,"name":"onuralp_tf2","steam_id":76561198133321967,"connected_time":282000000000,"state":"active","ping":99},{"user_id":215,"name":"Emerald","steam_id":76561199141384216,"connected_time":3424000000000,"state":"active","ping":48},{"user_id":268,"name":"Ja Yeti","steam_id":76561199203212796,"connected_time":60000000000,"state":"active","ping":791},{"user_id":259,"name":"GoldWasHere","steam_id":76561199233572406,"connected_time":230000000000,"state":"active","ping":296},{"user_id":232,"name":"Alpharo","steam_id":76561199121971759,"connected_time":2046000000000,"state":"active","ping":52},{"user_id":260,"name":"NANI?!?!?!","steam_id":76561198172078559,"connected_time":224000000000,"state":"active","ping":75},{"user_id":249,"name":"odanerT","steam_id":76561197981100897,"connected_time":719000000000,"state":"active","ping":77},{"user_id":261,"name":"woople","steam_id":76561198076625889,"connected_time":216000000000,"state":"active","ping":87},{"user_id":263,"name":"Explosive Poptart","steam_id":76561198023918830,"connected_time":178000000000,"state":"active","ping":43},{"user_id":264,"name":"TEMZ","steam_id":76561198799288322,"connected_time":175000000000,"state":"active","ping":55},{"user_id":267,"name":"Knoxx","steam_id":76561198260692541,"connected_time":93000000000,"state":"active","ping":46},{"user_id":250,"name":"Puss in Boots","steam_id":76561198211599767,"connected_time":383000000000,"state":"active","ping":56},{"user_id":265,"name":"mr gaming","steam_id":76561198110103308,"connected_time":147000000000,"state":"active","ping":47}]},{"server_id":40,"name":"Uncletopia | London | 7 | No Payload","name_short":"lon-7","host":"lon-1.uk.uncletopia.com","port":27075,"enabled":true,"region":"eu","cc":"gb","latitude":51.509865,"longitude":-0.118092,"reserved":0,"last_update":"0001-01-01T00:00:00Z","name_a2s":"Uncletopia | London | 7 | No Payload","protocol":17,"map":"koth_harvest_final","folder":"tf","game":"Team Fortress","app_id":440,"player_count":2,"max_players":24,"Bots":0,"server_type":"Dedicated","server_os":"Linux","password":true,"vac":true,"version":"7961495","steam_id":85568392924964314,"keywords":["cp","nocrits","nodmgspread","uncletopia"],"game_id":440,"stv_port":27076,"stv_name":"Uncletopia | London | 7 | No Payload | STV","players":[{"user_id":16,"name":"EEEEEH","steam_id":76561198126717413,"connected_time":395000000000,"state":"active","ping":85},{"user_id":17,"name":"DonutellaÓÑÉ","steam_id":76561198193972491,"connected_time":235000000000,"state":"active","ping":44}]},{"server_id":41,"name":"Uncletopia | London | 8 | Community","name_short":"lon-8","host":"lon-1.uk.uncletopia.com","port":27085,"enabled":true,"region":"eu","cc":"gb","latitude":51.509865,"longitude":-0.118092,"reserved":0,"last_update":"0001-01-01T00:00:00Z","name_a2s":"Uncletopia | London | 8 | Community","protocol":17,"map":"workshop/cp_bruhstbowl_b6.ugc2878604990","folder":"tf","game":"Team Fortress","app_id":440,"player_count":0,"max_players":24,"Bots":0,"server_type":"Dedicated","server_os":"Linux","password":true,"vac":true,"version":"7961495","steam_id":85568392924964315,"keywords":["cp","nocrits","nodmgspread","uncletopia"],"game_id":440,"stv_port":27086,"stv_name":"Uncletopia | London | 8 | Community | STV","players":null},{"server_id":300,"name":"Uncletopia | Montr√©al | 1 | All Maps","name_short":"mtl-1","host":"mtl-1.ca.uncletopia.com","port":27015,"enabled":true,"region":"us-east","cc":"ca","latitude":45.50889,"longitude":-73.56167,"reserved":0,"last_update":"0001-01-01T00:00:00Z","name_a2s":"","protocol":0,"map":"","folder":"","game":"","app_id":0,"player_count":24,"max_players":0,"Bots":0,"server_type":"","server_os":"","password":false,"vac":false,"version":"","steam_id":0,"keywords":null,"game_id":0,"stv_port":0,"stv_name":"","players":[{"user_id":67,"name":"TakeSeven","steam_id":76561198042380776,"connected_time":2410000000000,"state":"active","ping":72},{"user_id":68,"name":"L to the OG","steam_id":76561199215811448,"connected_time":2337000000000,"state":"active","ping":52},{"user_id":93,"name":"FRANKIEonPCP","steam_id":76561198208451949,"connected_time":606000000000,"state":"active","ping":77},{"user_id":100,"name":"HOOPLA","steam_id":76561198993451858,"connected_time":339000000000,"state":"active","ping":46},{"user_id":94,"name":"Captain Bug","steam_id":76561198137763878,"connected_time":570000000000,"state":"active","ping":68},{"user_id":98,"name":"Vladimir Puddin","steam_id":76561198139674520,"connected_time":511000000000,"state":"active","ping":72},{"user_id":84,"name":"Sigma-Bonds","steam_id":76561198176229951,"connected_time":1174000000000,"state":"active","ping":63},{"user_id":81,"name":"Pyro Takes Skill","steam_id":76561198148353860,"connected_time":1542000000000,"state":"active","ping":78},{"user_id":104,"name":"my name jeff","steam_id":76561198179816898,"connected_time":185000000000,"state":"active","ping":67},{"user_id":38,"name":"Pom","steam_id":76561198043235509,"connected_time":4599000000000,"state":"active","ping":51},{"user_id":105,"name":"Orange Gaming Llama","steam_id":76561199088577021,"connected_time":157000000000,"state":"active","ping":76},{"user_id":83,"name":"wolfgrey139","steam_id":76561199206554751,"connected_time":1317000000000,"state":"active","ping":61},{"user_id":102,"name":"Cjmanjanson","steam_id":76561198048553474,"connected_time":280000000000,"state":"active","ping":59},{"user_id":96,"name":"1-800-GHOST-DANCE","steam_id":76561198835430429,"connected_time":552000000000,"state":"active","ping":89},{"user_id":99,"name":"Spiral Mountain","steam_id":76561198058683715,"connected_time":503000000000,"state":"active","ping":74},{"user_id":97,"name":"Malevo","steam_id":76561198148606522,"connected_time":545000000000,"state":"active","ping":90},{"user_id":101,"name":"Cat in Your Backyard","steam_id":76561197979078330,"connected_time":311000000000,"state":"active","ping":54},{"user_id":76,"name":"Fat Kid In a Dragonball T-Shirt","steam_id":76561198182589975,"connected_time":2205000000000,"state":"active","ping":65},{"user_id":87,"name":"Messiah of Vibe","steam_id":76561198873411211,"connected_time":1022000000000,"state":"active","ping":87},{"user_id":106,"name":"Hindmost","steam_id":76561199081837220,"connected_time":87000000000,"state":"active","ping":110},{"user_id":103,"name":"Omegacat69","steam_id":76561199224022636,"connected_time":264000000000,"state":"spawning","ping":90},{"user_id":55,"name":"Slob and Sup","steam_id":76561198123441203,"connected_time":3684000000000,"state":"active","ping":58},{"user_id":57,"name":"Mrs.Frizzle","steam_id":76561198117157085,"connected_time":3627000000000,"state":"active","ping":60},{"user_id":58,"name":"SpectraUnseen","steam_id":76561198073501022,"connected_time":3624000000000,"state":"active","ping":44}]},{"server_id":301,"name":"Uncletopia | Montr√©al | 2 | All Maps","name_short":"mtl-2","host":"mtl-1.ca.uncletopia.com","port":27025,"enabled":true,"region":"us-east","cc":"ca","latitude":45.50889,"longitude":-73.56167,"reserved":0,"last_update":"0001-01-01T00:00:00Z","name_a2s":"","protocol":0,"map":"","folder":"","game":"","app_id":0,"player_count":4,"max_players":0,"Bots":0,"server_type":"","server_os":"","password":false,"vac":false,"version":"","steam_id":0,"keywords":null,"game_id":0,"stv_port":0,"stv_name":"","players":[{"user_id":13,"name":"Crogun","steam_id":76561198056163737,"connected_time":2147000000000,"state":"active","ping":58},{"user_id":14,"name":"Minefield Mike","steam_id":76561198111042556,"connected_time":2147000000000,"state":"active","ping":59},{"user_id":15,"name":"MagicCraftMaster","steam_id":76561198179156615,"connected_time":551000000000,"state":"active","ping":82},{"user_id":16,"name":"cerenunnos","steam_id":76561198037121655,"connected_time":153000000000,"state":"active","ping":58}]},{"server_id":302,"name":"Uncletopia | Montr√©al | 3 | All Maps","name_short":"mtl-3","host":"mtl-1.ca.uncletopia.com","port":27035,"enabled":true,"region":"us-east","cc":"ca","latitude":45.50889,"longitude":-73.56167,"reserved":0,"last_update":"0001-01-01T00:00:00Z","name_a2s":"","protocol":0,"map":"","folder":"","game":"","app_id":0,"player_count":0,"max_players":0,"Bots":0,"server_type":"","server_os":"","password":false,"vac":false,"version":"","steam_id":0,"keywords":null,"game_id":0,"stv_port":0,"stv_name":"","players":null},{"server_id":303,"name":"Uncletopia | Montr√©al | 4 | No Payload","name_short":"mtl-4","host":"mtl-1.ca.uncletopia.com","port":27045,"enabled":true,"region":"us-east","cc":"ca","latitude":45.50889,"longitude":-73.56167,"reserved":0,"last_update":"0001-01-01T00:00:00Z","name_a2s":"","protocol":0,"map":"","folder":"","game":"","app_id":0,"player_count":0,"max_players":0,"Bots":0,"server_type":"","server_os":"","password":false,"vac":false,"version":"","steam_id":0,"keywords":null,"game_id":0,"stv_port":0,"stv_name":"","players":null},{"server_id":13,"name":"Uncletopia | New York City | 1 | All Maps","name_short":"nyc-1","host":"nyc-1.us.uncletopia.com","port":27015,"enabled":true,"region":"us-east","cc":"us","latitude":40.73061,"longitude":-73.93524,"reserved":0,"last_update":"0001-01-01T00:00:00Z","name_a2s":"Uncletopia | New York City | 1 | All Maps","protocol":17,"map":"pl_frontier_final","folder":"tf","game":"Team Fortress","app_id":440,"player_count":24,"max_players":24,"Bots":0,"server_type":"Dedicated","server_os":"Linux","password":true,"vac":true,"version":"7961495","steam_id":85568392924469993,"keywords":["nocrits","nodmgspread","payload","uncletopia"],"game_id":440,"stv_port":27016,"stv_name":"Uncletopia | New York City | 1 | All Maps | STV","players":[{"user_id":274,"name":"sexo maestro 5000","steam_id":76561199493946100,"connected_time":1885000000000,"state":"active","ping":34},{"user_id":257,"name":"Andale","steam_id":76561198326236983,"connected_time":3309000000000,"state":"active","ping":128},{"user_id":285,"name":"TheUKnowWho","steam_id":76561198181418159,"connected_time":1081000000000,"state":"active","ping":69},{"user_id":295,"name":"The Sinister Potion","steam_id":76561198131280715,"connected_time":722000000000,"state":"active","ping":63},{"user_id":296,"name":"rehabilitated convict","steam_id":76561198150535873,"connected_time":683000000000,"state":"active","ping":91},{"user_id":293,"name":"StarLy","steam_id":76561198174428289,"connected_time":749000000000,"state":"active","ping":83},{"user_id":287,"name":"Magik","steam_id":76561198200169706,"connected_time":990000000000,"state":"active","ping":46},{"user_id":298,"name":"malarkeyman","steam_id":76561198844473584,"connected_time":474000000000,"state":"active","ping":55},{"user_id":294,"name":"Penis scout gaming","steam_id":76561199013551051,"connected_time":740000000000,"state":"active","ping":63},{"user_id":281,"name":"kicking","steam_id":76561198337783795,"connected_time":1341000000000,"state":"active","ping":48},{"user_id":289,"name":"King Ass Ripper","steam_id":76561198407602830,"connected_time":831000000000,"state":"active","ping":81},{"user_id":275,"name":"Broadway Rose","steam_id":76561198046083342,"connected_time":1720000000000,"state":"active","ping":46},{"user_id":244,"name":"Jimbo Slice","steam_id":76561198064830847,"connected_time":4248000000000,"state":"active","ping":56},{"user_id":270,"name":"Day Old Fish Sticks","steam_id":76561198175499737,"connected_time":2074000000000,"state":"active","ping":96},{"user_id":277,"name":"froge","steam_id":76561198304959766,"connected_time":1648000000000,"state":"active","ping":152},{"user_id":297,"name":"Not_Douglas","steam_id":76561199024184136,"connected_time":677000000000,"state":"active","ping":70},{"user_id":278,"name":"Wang of Wall St","steam_id":76561198047460598,"connected_time":1619000000000,"state":"active","ping":58},{"user_id":282,"name":"goopy","steam_id":76561198058617451,"connected_time":1307000000000,"state":"active","ping":70},{"user_id":202,"name":"Mr. Sandman","steam_id":76561198091900067,"connected_time":7286000000000,"state":"active","ping":47},{"user_id":299,"name":"screaming","steam_id":76561198050523315,"connected_time":12000000000,"state":"active","ping":130},{"user_id":284,"name":"Duchess","steam_id":76561198042490743,"connected_time":1154000000000,"state":"active","ping":55},{"user_id":261,"name":"agent cody banks","steam_id":76561197999215868,"connected_time":3167000000000,"state":"active","ping":76},{"user_id":209,"name":"wow12000000000000098","steam_id":76561198016826181,"connected_time":5948000000000,"state":"active","ping":71},{"user_id":290,"name":"goose","steam_id":76561198139632880,"connected_time":831000000000,"state":"active","ping":68}]},{"server_id":14,"name":"Uncletopia | New York City | 2 | All Maps","name_short":"nyc-2","host":"nyc-1.us.uncletopia.com","port":27025,"enabled":true,"region":"us-east","cc":"us","latitude":40.73061,"longitude":-73.93524,"reserved":0,"last_update":"0001-01-01T00:00:00Z","name_a2s":"Uncletopia | New York City | 2 | All Maps","protocol":17,"map":"pl_frontier_final","folder":"tf","game":"Team Fortress","app_id":440,"player_count":24,"max_players":24,"Bots":0,"server_type":"Dedicated","server_os":"Linux","password":true,"vac":true,"version":"7961495","steam_id":85568392924469994,"keywords":["nocrits","nodmgspread","payload","uncletopia"],"game_id":440,"stv_port":27026,"stv_name":"Uncletopia | New York City | 2 | All Maps | STV","players":[{"user_id":153,"name":"PaintingSky","steam_id":76561198315973318,"connected_time":2396000000000,"state":"active","ping":53},{"user_id":180,"name":"NightEmerald","steam_id":76561198878856805,"connected_time":280000000000,"state":"active","ping":46},{"user_id":99,"name":"My Form Empties","steam_id":76561197993777553,"connected_time":5819000000000,"state":"active","ping":120},{"user_id":179,"name":"watt554","steam_id":76561198970073173,"connected_time":414000000000,"state":"active","ping":76},{"user_id":119,"name":"RazDaz","steam_id":76561198280695081,"connected_time":4251000000000,"state":"active","ping":61},{"user_id":181,"name":"PyroEagle","steam_id":76561198296434231,"connected_time":105000000000,"state":"active","ping":92},{"user_id":150,"name":"oof aim small brain","steam_id":76561198079925551,"connected_time":2511000000000,"state":"active","ping":49},{"user_id":170,"name":"Myx (eviler version)","steam_id":76561198256889832,"connected_time":1108000000000,"state":"active","ping":61},{"user_id":165,"name":"smokecloud","steam_id":76561198136296903,"connected_time":1328000000000,"state":"active","ping":60},{"user_id":173,"name":"menk3","steam_id":76561198120888597,"connected_time":949000000000,"state":"active","ping":56},{"user_id":161,"name":"frank","steam_id":76561198186815298,"connected_time":1953000000000,"state":"active","ping":99},{"user_id":172,"name":"Malinok","steam_id":76561198025681131,"connected_time":995000000000,"state":"active","ping":108},{"user_id":174,"name":"Nordie","steam_id":76561198102297774,"connected_time":945000000000,"state":"active","ping":77},{"user_id":98,"name":"Schizophrenic Hallucination","steam_id":76561199489855499,"connected_time":5821000000000,"state":"active","ping":126},{"user_id":167,"name":"MetalNavigator","steam_id":76561198974231439,"connected_time":1199000000000,"state":"active","ping":96},{"user_id":177,"name":"TheSnowGhost","steam_id":76561198271967286,"connected_time":732000000000,"state":"active","ping":58},{"user_id":182,"name":"Cosmic Torgue","steam_id":76561198828724945,"connected_time":79000000000,"state":"active","ping":81},{"user_id":175,"name":"Spike Bones","steam_id":76561198234926120,"connected_time":940000000000,"state":"active","ping":88},{"user_id":183,"name":"leumas","steam_id":76561198240408540,"connected_time":72000000000,"state":"active","ping":47},{"user_id":160,"name":"Okpar","steam_id":76561199221067945,"connected_time":2120000000000,"state":"active","ping":84},{"user_id":178,"name":"Captain Cosmic","steam_id":76561199025356432,"connected_time":600000000000,"state":"active","ping":56},{"user_id":184,"name":"MDD","steam_id":76561197998850659,"connected_time":68000000000,"state":"active","ping":78},{"user_id":176,"name":"dcqwerty","steam_id":76561198964101426,"connected_time":918000000000,"state":"active","ping":43},{"user_id":149,"name":"Flowers","steam_id":76561198031669899,"connected_time":2681000000000,"state":"active","ping":63}]},{"server_id":15,"name":"Uncletopia | New York City | 3 | Stopwatch Beta","name_short":"nyc-3","host":"nyc-1.us.uncletopia.com","port":27035,"enabled":true,"region":"us-east","cc":"us","latitude":40.73061,"longitude":-73.93524,"reserved":0,"last_update":"0001-01-01T00:00:00Z","name_a2s":"Uncletopia | New York City | 3 | Stopwatch Beta","protocol":17,"map":"cp_sunshine","folder":"tf","game":"Team Fortress","app_id":440,"player_count":0,"max_players":24,"Bots":0,"server_type":"Dedicated","server_os":"Linux","password":true,"vac":true,"version":"7961495","steam_id":85568392924742820,"keywords":["cp","nocrits","nodmgspread","uncletopia"],"game_id":440,"stv_port":27036,"stv_name":"Uncletopia | New York City | 3 | Stopwatch Beta | STV","players":null},{"server_id":16,"name":"Uncletopia | New York City | 4 | Community","name_short":"nyc-4","host":"nyc-1.us.uncletopia.com","port":27045,"enabled":true,"region":"us-east","cc":"us","latitude":40.73061,"longitude":-73.93524,"reserved":0,"last_update":"0001-01-01T00:00:00Z","name_a2s":"Uncletopia | New York City | 4 | Community","protocol":17,"map":"workshop/koth_bagel_rc6.ugc2514036946","folder":"tf","game":"Team Fortress","app_id":440,"player_count":9,"max_players":24,"Bots":0,"server_type":"Dedicated","server_os":"Linux","password":true,"vac":true,"version":"7961495","steam_id":85568392924742821,"keywords":["cp","nocrits","nodmgspread","uncletopia"],"game_id":440,"stv_port":27046,"stv_name":"Uncletopia | New York City | 4 | Community | STV","players":[{"user_id":10,"name":"Jimmy Jr","steam_id":76561198961051367,"connected_time":4285000000000,"state":"active","ping":74},{"user_id":11,"name":"DigitLuck","steam_id":76561199222376379,"connected_time":4245000000000,"state":"active","ping":59},{"user_id":48,"name":"Soul of Cinder (aka SoC)","steam_id":76561198018958668,"connected_time":351000000000,"state":"active","ping":60},{"user_id":14,"name":"EEssential","steam_id":76561199317594248,"connected_time":3823000000000,"state":"active","ping":62},{"user_id":39,"name":"iightning","steam_id":76561199067138887,"connected_time":1870000000000,"state":"active","ping":60},{"user_id":44,"name":"marshmellowguy","steam_id":76561199008710694,"connected_time":830000000000,"state":"active","ping":122},{"user_id":46,"name":"scoob","steam_id":76561198305722028,"connected_time":521000000000,"state":"active","ping":51},{"user_id":19,"name":"Finn","steam_id":76561199038429679,"connected_time":3079000000000,"state":"active","ping":66},{"user_id":50,"name":"XboxGold14dayfreetrial","steam_id":76561199087480628,"connected_time":181000000000,"state":"active","ping":123}]},{"server_id":142,"name":"Uncletopia | S√£o Paulo | 1 | All Maps","name_short":"sao-1","host":"sao-1.br.uncletopia.com","port":27015,"enabled":true,"region":"sa","cc":"br","latitude":-23.533773,"longitude":-46.62529,"reserved":0,"last_update":"0001-01-01T00:00:00Z","name_a2s":"Uncletopia | S√£o Paulo | 1 | All Maps","protocol":17,"map":"pl_frontier_final","folder":"tf","game":"Team Fortress","app_id":440,"player_count":20,"max_players":24,"Bots":0,"server_type":"Dedicated","server_os":"Linux","password":true,"vac":true,"version":"7961495","steam_id":85568392924469996,"keywords":["nocrits","nodmgspread","payload","uncletopia"],"game_id":440,"stv_port":27016,"stv_name":"Uncletopia | S√£o Paulo | 1 | All Maps | STV","players":[{"user_id":60,"name":"matheus whatsapp","steam_id":76561199359501901,"connected_time":2091000000000,"state":"active","ping":42},{"user_id":77,"name":"Colt_H","steam_id":76561198930291960,"connected_time":725000000000,"state":"active","ping":49},{"user_id":18,"name":"Evaldo","steam_id":76561198127614670,"connected_time":6596000000000,"state":"active","ping":45},{"user_id":67,"name":"vacaloca25","steam_id":76561198082683352,"connected_time":1615000000000,"state":"active","ping":66},{"user_id":62,"name":"Tati","steam_id":76561198097756059,"connected_time":2002000000000,"state":"active","ping":76},{"user_id":79,"name":"Phalanx","steam_id":76561198043563282,"connected_time":402000000000,"state":"active","ping":45},{"user_id":70,"name":"Fe^","steam_id":76561198067610246,"connected_time":1231000000000,"state":"active","ping":57},{"user_id":45,"name":"hadinode","steam_id":76561198191475573,"connected_time":4904000000000,"state":"active","ping":53},{"user_id":21,"name":"G0LD3N","steam_id":76561198125139387,"connected_time":6483000000000,"state":"active","ping":32},{"user_id":22,"name":"LeOptic","steam_id":76561198131106666,"connected_time":6470000000000,"state":"active","ping":49},{"user_id":23,"name":"anaheisenberg","steam_id":76561198304847307,"connected_time":6459000000000,"state":"active","ping":60},{"user_id":26,"name":"Aust","steam_id":76561198067966650,"connected_time":6310000000000,"state":"active","ping":44},{"user_id":55,"name":"Gogoyle50","steam_id":76561198148524228,"connected_time":3105000000000,"state":"active","ping":51},{"user_id":39,"name":"pablogamer.120","steam_id":76561199001995992,"connected_time":5234000000000,"state":"active","ping":85},{"user_id":51,"name":"kadme","steam_id":76561198059057839,"connected_time":4109000000000,"state":"active","ping":105},{"user_id":76,"name":"Listerine","steam_id":76561198246367662,"connected_time":1113000000000,"state":"active","ping":58},{"user_id":52,"name":"Copas","steam_id":76561198131478483,"connected_time":4085000000000,"state":"active","ping":58},{"user_id":42,"name":"YellowEyePatch Guy","steam_id":76561199108111310,"connected_time":5108000000000,"state":"active","ping":56},{"user_id":48,"name":"„ÉΩ‡ºº‡∫àŸÑÕú‡∫à‡ºΩÔæâ","steam_id":76561198049898909,"connected_time":4686000000000,"state":"active","ping":74},{"user_id":54,"name":"Blue9Fairy","steam_id":76561198039942928,"connected_time":4046000000000,"state":"active","ping":56}]},{"server_id":143,"name":"Uncletopia | S√£o Paulo | 2 | Community","name_short":"sao-2","host":"sao-2.br.uncletopia.com","port":27015,"enabled":true,"region":"sa","cc":"br","latitude":-23.533773,"longitude":-46.62529,"reserved":0,"last_update":"0001-01-01T00:00:00Z","name_a2s":"Uncletopia | S√£o Paulo | 2 | Community","protocol":17,"map":"workshop/pl_vigil_rc9.ugc1266210012","folder":"tf","game":"Team Fortress","app_id":440,"player_count":0,"max_players":24,"Bots":0,"server_type":"Dedicated","server_os":"Linux","password":true,"vac":true,"version":"7961495","steam_id":85568392924485349,"keywords":["nocrits","nodmgspread","payload","uncletopia"],"game_id":440,"stv_port":27016,"stv_name":"Uncletopia | S√£o Paulo | 2 | Community | STV","players":null},{"server_id":7,"name":"Uncletopia | Seattle | 1 | All Maps","name_short":"sea-1","host":"sea-1.us.uncletopia.com","port":27015,"enabled":true,"region":"us-west","cc":"us","latitude":47.608013,"longitude":-122.33517,"reserved":0,"last_update":"0001-01-01T00:00:00Z","name_a2s":"Uncletopia | Seattle | 1 | All Maps","protocol":17,"map":"pl_pier","folder":"tf","game":"Team Fortress","app_id":440,"player_count":12,"max_players":24,"Bots":0,"server_type":"Dedicated","server_os":"Linux","password":true,"vac":true,"version":"7961495","steam_id":85568392924469997,"keywords":["nocrits","nodmgspread","payload","uncletopia"],"game_id":440,"stv_port":27016,"stv_name":"Uncletopia | Seattle | 1 | All Maps | STV","players":[{"user_id":226,"name":"Meso","steam_id":76561199088153190,"connected_time":321000000000,"state":"active","ping":52},{"user_id":227,"name":"Peppino","steam_id":76561199139504199,"connected_time":320000000000,"state":"active","ping":83},{"user_id":221,"name":"mango cafe","steam_id":76561198142328193,"connected_time":685000000000,"state":"active","ping":45},{"user_id":230,"name":"·µâ·µç·µç ∏‚Åø·µí·µç Eggynog","steam_id":76561198161365634,"connected_time":92000000000,"state":"active","ping":47},{"user_id":223,"name":"cringy","steam_id":76561198323000455,"connected_time":569000000000,"state":"active","ping":85},{"user_id":229,"name":"Impressley Snipes","steam_id":76561197988329891,"connected_time":112000000000,"state":"active","ping":58},{"user_id":179,"name":"ScoobieSlayer79","steam_id":76561198061701905,"connected_time":4574000000000,"state":"active","ping":96},{"user_id":202,"name":"ducks is the name","steam_id":76561198049372798,"connected_time":2846000000000,"state":"active","ping":140},{"user_id":231,"name":"rad killl raccoon","steam_id":76561198980975595,"connected_time":17000000000,"state":"active","ping":105},{"user_id":212,"name":"CashGordon","steam_id":76561197975594096,"connected_time":1816000000000,"state":"active","ping":36},{"user_id":204,"name":"Why does glass taste like blood","steam_id":76561198253922494,"connected_time":2731000000000,"state":"active","ping":86},{"user_id":218,"name":"GarbonzoBeans","steam_id":76561199057652491,"connected_time":1310000000000,"state":"active","ping":71}]},{"server_id":119,"name":"Uncletopia | Seattle | 2 | All Maps","name_short":"sea-2","host":"sea-1.us.uncletopia.com","port":27025,"enabled":true,"region":"us-west","cc":"us","latitude":47.608013,"longitude":-122.33517,"reserved":0,"last_update":"0001-01-01T00:00:00Z","name_a2s":"Uncletopia | Seattle | 2 | All Maps","protocol":17,"map":"pl_badwater","folder":"tf","game":"Team Fortress","app_id":440,"player_count":5,"max_players":24,"Bots":0,"server_type":"Dedicated","server_os":"Linux","password":true,"vac":true,"version":"7961495","steam_id":85568392924469998,"keywords":["nocrits","nodmgspread","payload","uncletopia"],"game_id":440,"stv_port":27026,"stv_name":"Uncletopia | Seattle | 2 | All Maps | STV","players":[{"user_id":20,"name":"laggy mcstab","steam_id":76561198106379962,"connected_time":1655000000000,"state":"active","ping":53},{"user_id":21,"name":"your girl","steam_id":76561199050118111,"connected_time":1582000000000,"state":"active","ping":58},{"user_id":23,"name":"Princess_Shukles","steam_id":76561199084916610,"connected_time":861000000000,"state":"active","ping":70},{"user_id":25,"name":"BoyKisser","steam_id":76561199200969139,"connected_time":365000000000,"state":"active","ping":131},{"user_id":26,"name":"nzippy","steam_id":76561199048618678,"connected_time":137000000000,"state":"active","ping":52}]},{"server_id":406,"name":"Uncletopia | Seattle | 3 | Stopwatch Beta","name_short":"sea-3","host":"sea-1.us.uncletopia.com","port":27035,"enabled":true,"region":"us-west","cc":"us","latitude":47.608013,"longitude":-122.33517,"reserved":0,"last_update":"0001-01-01T00:00:00Z","name_a2s":"Uncletopia | Seattle | 3 | Stopwatch Beta","protocol":17,"map":"koth_lakeside_final","folder":"tf","game":"Team Fortress","app_id":440,"player_count":0,"max_players":24,"Bots":0,"server_type":"Dedicated","server_os":"Linux","password":true,"vac":true,"version":"7961495","steam_id":85568392924515217,"keywords":["cp","nocrits","nodmgspread","uncletopia"],"game_id":440,"stv_port":27036,"stv_name":"Uncletopia | Seattle | 3 | Stopwatch Beta | STV","players":null},{"server_id":17,"name":"Uncletopia | San Francisco | 1 | All Maps","name_short":"sfo-1","host":"sfo-1.us.uncletopia.com","port":27015,"enabled":true,"region":"us-west","cc":"us","latitude":37.77397,"longitude":-122.4313,"reserved":0,"last_update":"0001-01-01T00:00:00Z","name_a2s":"Uncletopia | San Francisco | 1 | All Maps","protocol":17,"map":"pl_snowycoast","folder":"tf","game":"Team Fortress","app_id":440,"player_count":16,"max_players":24,"Bots":0,"server_type":"Dedicated","server_os":"Linux","password":true,"vac":true,"version":"7961495","steam_id":85568392924469999,"keywords":["nocrits","nodmgspread","payload","uncletopia"],"game_id":440,"stv_port":27016,"stv_name":"Uncletopia | San Francisco | 1 | All Maps | STV","players":[{"user_id":66,"name":"sauce","steam_id":76561198155481540,"connected_time":4129000000000,"state":"spawning","ping":68},{"user_id":92,"name":"spacetoven","steam_id":76561198115821131,"connected_time":2467000000000,"state":"spawning","ping":205},{"user_id":90,"name":"noceof","steam_id":76561198043656816,"connected_time":2644000000000,"state":"spawning","ping":136},{"user_id":83,"name":"radical","steam_id":76561199194112599,"connected_time":3272000000000,"state":"spawning","ping":120},{"user_id":80,"name":"zinqi","steam_id":76561198376838848,"connected_time":3309000000000,"state":"spawning","ping":134},{"user_id":121,"name":"Capybara Enjoyer","steam_id":76561199147114434,"connected_time":15000000000,"state":"spawning","ping":94},{"user_id":108,"name":"BYS ShadowFenix","steam_id":76561198186807115,"connected_time":1698000000000,"state":"spawning","ping":34},{"user_id":94,"name":"yurppp","steam_id":76561198169768539,"connected_time":2438000000000,"state":"spawning","ping":65},{"user_id":77,"name":"primordialheath","steam_id":76561199386942638,"connected_time":3520000000000,"state":"spawning","ping":113},{"user_id":118,"name":"TheMagicMrWaffle","steam_id":76561198104357256,"connected_time":502000000000,"state":"spawning","ping":35},{"user_id":120,"name":"Limp Pumpo Discography Fan Club","steam_id":76561198145748479,"connected_time":344000000000,"state":"spawning","ping":68},{"user_id":111,"name":"Squids023","steam_id":76561199013031576,"connected_time":1668000000000,"state":"spawning","ping":60},{"user_id":98,"name":"Das Anchor","steam_id":76561198060173151,"connected_time":2288000000000,"state":"spawning","ping":71},{"user_id":43,"name":"Peepster","steam_id":76561198297854733,"connected_time":6495000000000,"state":"spawning","ping":110},{"user_id":117,"name":"Ringo","steam_id":76561198066595010,"connected_time":1019000000000,"state":"spawning","ping":47},{"user_id":119,"name":"Raphael","steam_id":76561198101425586,"connected_time":374000000000,"state":"spawning","ping":49}]},{"server_id":18,"name":"Uncletopia | San Francisco | 2 | All Maps","name_short":"sfo-2","host":"sfo-1.us.uncletopia.com","port":27025,"enabled":true,"region":"us-west","cc":"us","latitude":37.77397,"longitude":-122.4313,"reserved":0,"last_update":"0001-01-01T00:00:00Z","name_a2s":"Uncletopia | San Francisco | 2 | All Maps","protocol":17,"map":"koth_highpass","folder":"tf","game":"Team Fortress","app_id":440,"player_count":0,"max_players":24,"Bots":0,"server_type":"Dedicated","server_os":"Linux","password":true,"vac":true,"version":"7961495","steam_id":85568392924470000,"keywords":["cp","nocrits","nodmgspread","uncletopia"],"game_id":440,"stv_port":27026,"stv_name":"Uncletopia | San Francisco | 2 | All Maps | STV","players":null},{"server_id":19,"name":"Uncletopia | San Francisco | 3 | Stopwatch Beta","name_short":"sfo-3","host":"sfo-1.us.uncletopia.com","port":27035,"enabled":true,"region":"us-west","cc":"us","latitude":37.77397,"longitude":-122.4313,"reserved":0,"last_update":"0001-01-01T00:00:00Z","name_a2s":"Uncletopia | San Francisco | 3 | Stopwatch Beta","protocol":17,"map":"pl_borneo","folder":"tf","game":"Team Fortress","app_id":440,"player_count":0,"max_players":24,"Bots":0,"server_type":"Dedicated","server_os":"Linux","password":true,"vac":true,"version":"7961495","steam_id":85568392924742824,"keywords":["nocrits","nodmgspread","payload","uncletopia"],"game_id":440,"stv_port":27036,"stv_name":"Uncletopia | San Francisco | 3 | Stopwatch Beta | STV","players":null},{"server_id":20,"name":"Uncletopia | San Francisco | 4 | Community","name_short":"sfo-4","host":"sfo-1.us.uncletopia.com","port":27045,"enabled":true,"region":"us-west","cc":"us","latitude":37.77397,"longitude":-122.4313,"reserved":0,"last_update":"0001-01-01T00:00:00Z","name_a2s":"Uncletopia | San Francisco | 4 | Community","protocol":17,"map":"koth_viaduct","folder":"tf","game":"Team Fortress","app_id":440,"player_count":0,"max_players":24,"Bots":0,"server_type":"Dedicated","server_os":"Linux","password":true,"vac":true,"version":"7961495","steam_id":85568392924742826,"keywords":["cp","nocrits","nodmgspread","uncletopia"],"game_id":440,"stv_port":27046,"stv_name":"Uncletopia | San Francisco | 4 | Community | STV","players":null},{"server_id":141,"name":"Uncletopia | Sydney | 1 | All Maps","name_short":"syd-1","host":"syd-1.au.uncletopia.com","port":27015,"enabled":true,"region":"au","cc":"au","latitude":-33.865143,"longitude":151.2099,"reserved":0,"last_update":"0001-01-01T00:00:00Z","name_a2s":"Uncletopia | Sydney | 1 | All Maps","protocol":17,"map":"cp_snakewater_final1","folder":"tf","game":"Team Fortress","app_id":440,"player_count":0,"max_players":24,"Bots":0,"server_type":"Dedicated","server_os":"Linux","password":true,"vac":true,"version":"7961495","steam_id":85568392924470001,"keywords":["cp","nocrits","nodmgspread","uncletopia"],"game_id":440,"stv_port":27016,"stv_name":"Uncletopia | Sydney | 1 | All Maps | STV","players":null},{"server_id":123,"name":"Uncletopia | Sydney | 2 | All Maps","name_short":"syd-2","host":"syd-1.au.uncletopia.com","port":27025,"enabled":true,"region":"au","cc":"au","latitude":-33.865143,"longitude":151.2099,"reserved":0,"last_update":"0001-01-01T00:00:00Z","name_a2s":"Uncletopia | Sydney | 2 | All Maps","protocol":17,"map":"pl_snowycoast","folder":"tf","game":"Team Fortress","app_id":440,"player_count":0,"max_players":24,"Bots":0,"server_type":"Dedicated","server_os":"Linux","password":true,"vac":true,"version":"7961495","steam_id":85568392924470002,"keywords":["nocrits","nodmgspread","payload","uncletopia"],"game_id":440,"stv_port":27026,"stv_name":"Uncletopia | Sydney | 2 | All Maps | STV","players":null},{"server_id":395,"name":"Uncletopia | Sydney | 3 | All Maps","name_short":"syd-3","host":"syd-1.au.uncletopia.com","port":27035,"enabled":true,"region":"au","cc":"au","latitude":-33.865143,"longitude":151.2099,"reserved":0,"last_update":"0001-01-01T00:00:00Z","name_a2s":"Uncletopia | Sydney | 3 | All Maps","protocol":17,"map":"cp_dustbowl","folder":"tf","game":"Team Fortress","app_id":440,"player_count":0,"max_players":24,"Bots":0,"server_type":"Dedicated","server_os":"Linux","password":true,"vac":true,"version":"7961495","steam_id":85568392925194467,"keywords":["cp","nocrits","nodmgspread","uncletopia"],"game_id":440,"stv_port":27036,"stv_name":"Uncletopia | Sydney | 3 | All Maps | STV","players":null},{"server_id":396,"name":"Uncletopia | Sydney | 4 | All Maps","name_short":"syd-4","host":"syd-1.au.uncletopia.com","port":27045,"enabled":true,"region":"au","cc":"au","latitude":-33.865143,"longitude":151.2099,"reserved":0,"last_update":"0001-01-01T00:00:00Z","name_a2s":"Uncletopia | Sydney | 4 | All Maps","protocol":17,"map":"cp_dustbowl","folder":"tf","game":"Team Fortress","app_id":440,"player_count":0,"max_players":24,"Bots":0,"server_type":"Dedicated","server_os":"Linux","password":true,"vac":true,"version":"7961495","steam_id":85568392925397958,"keywords":["cp","nocrits","nodmgspread","uncletopia"],"game_id":440,"stv_port":27046,"stv_name":"Uncletopia | Sydney | 4 | All Maps | STV","players":null},{"server_id":58,"name":"Uncletopia | Sydney | 5 | Stopwatch Beta","name_short":"syd-5","host":"syd-1.au.uncletopia.com","port":27055,"enabled":true,"region":"au","cc":"au","latitude":-33.865143,"longitude":151.2099,"reserved":0,"last_update":"0001-01-01T00:00:00Z","name_a2s":"Uncletopia | Sydney | 5 | Stopwatch Beta","protocol":17,"map":"koth_viaduct","folder":"tf","game":"Team Fortress","app_id":440,"player_count":0,"max_players":24,"Bots":0,"server_type":"Dedicated","server_os":"Linux","password":true,"vac":true,"version":"7961495","steam_id":85568392925397959,"keywords":["cp","nocrits","nodmgspread","uncletopia"],"game_id":440,"stv_port":27056,"stv_name":"Uncletopia | Sydney | 5 | Stopwatch Beta | STV","players":null},{"server_id":59,"name":"Uncletopia | Sydney | 6 | Community","name_short":"syd-6","host":"syd-1.au.uncletopia.com","port":27065,"enabled":true,"region":"au","cc":"au","latitude":-33.865143,"longitude":151.2099,"reserved":0,"last_update":"0001-01-01T00:00:00Z","name_a2s":"Uncletopia | Sydney | 6 | Community","protocol":17,"map":"koth_cascade","folder":"tf","game":"Team Fortress","app_id":440,"player_count":0,"max_players":24,"Bots":0,"server_type":"Dedicated","server_os":"Linux","password":true,"vac":true,"version":"7961495","steam_id":85568392925397960,"keywords":["cp","nocrits","nodmgspread","uncletopia"],"game_id":440,"stv_port":27066,"stv_name":"Uncletopia | Sydney | 6 | Community | STV","players":null},{"server_id":49,"name":"Uncletopia | Warsaw | 1 | All Maps","name_short":"waw-1","host":"waw-1.pl.uncletopia.com","port":27015,"enabled":true,"region":"eu","cc":"pl","latitude":52.2297,"longitude":21.017532,"reserved":0,"last_update":"0001-01-01T00:00:00Z","name_a2s":"Uncletopia | Warsaw | 1 | All Maps","protocol":17,"map":"koth_highpass","folder":"tf","game":"Team Fortress","app_id":440,"player_count":0,"max_players":24,"Bots":0,"server_type":"Dedicated","server_os":"Linux","password":true,"vac":true,"version":"7961495","steam_id":85568392925397850,"keywords":["cp","nocrits","nodmgspread","uncletopia"],"game_id":440,"stv_port":27016,"stv_name":"Uncletopia | Warsaw | 1 | All Maps | STV","players":null},{"server_id":50,"name":"Uncletopia | Warsaw | 2 | All Maps","name_short":"waw-2","host":"waw-1.pl.uncletopia.com","port":27025,"enabled":true,"region":"eu","cc":"pl","latitude":52.2297,"longitude":21.017532,"reserved":0,"last_update":"0001-01-01T00:00:00Z","name_a2s":"Uncletopia | Warsaw | 2 | All Maps","protocol":17,"map":"koth_viaduct","folder":"tf","game":"Team Fortress","app_id":440,"player_count":0,"max_players":24,"Bots":0,"server_type":"Dedicated","server_os":"Linux","password":true,"vac":true,"version":"7961495","steam_id":85568392925397851,"keywords":["cp","nocrits","nodmgspread","uncletopia"],"game_id":440,"stv_port":27026,"stv_name":"Uncletopia | Warsaw | 2 | All Maps | STV","players":null},{"server_id":51,"name":"Uncletopia | Warsaw | 3 | All Maps","name_short":"waw-3","host":"waw-1.pl.uncletopia.com","port":27035,"enabled":true,"region":"eu","cc":"pl","latitude":52.2297,"longitude":21.017532,"reserved":0,"last_update":"0001-01-01T00:00:00Z","name_a2s":"Uncletopia | Warsaw | 3 | All Maps","protocol":17,"map":"koth_lakeside_final","folder":"tf","game":"Team Fortress","app_id":440,"player_count":2,"max_players":24,"Bots":0,"server_type":"Dedicated","server_os":"Linux","password":true,"vac":true,"version":"7961495","steam_id":85568392925397852,"keywords":["cp","nocrits","nodmgspread","uncletopia"],"game_id":440,"stv_port":27036,"stv_name":"Uncletopia | Warsaw | 3 | All Maps | STV","players":[{"user_id":49,"name":"Douglas MacDrip The Second","steam_id":76561198865364180,"connected_time":6972000000000,"state":"active","ping":39},{"user_id":123,"name":"chillrend_morphs_high_lod6","steam_id":76561198452963141,"connected_time":2442000000000,"state":"active","ping":91}]},{"server_id":52,"name":"Uncletopia | Warsaw | 4 | All Maps","name_short":"waw-4","host":"waw-1.pl.uncletopia.com","port":27045,"enabled":true,"region":"eu","cc":"pl","latitude":52.2297,"longitude":21.017532,"reserved":0,"last_update":"0001-01-01T00:00:00Z","name_a2s":"Uncletopia | Warsaw | 4 | All Maps","protocol":17,"map":"pl_swiftwater_final1","folder":"tf","game":"Team Fortress","app_id":440,"player_count":0,"max_players":24,"Bots":0,"server_type":"Dedicated","server_os":"Linux","password":true,"vac":true,"version":"7961495","steam_id":85568392925397853,"keywords":["nocrits","nodmgspread","payload","uncletopia"],"game_id":440,"stv_port":27046,"stv_name":"Uncletopia | Warsaw | 4 | All Maps | STV","players":null},{"server_id":53,"name":"Uncletopia | Warsaw | 5 | Stopwatch Beta","name_short":"waw-5","host":"waw-1.pl.uncletopia.com","port":27055,"enabled":true,"region":"eu","cc":"pl","latitude":52.2297,"longitude":21.017532,"reserved":0,"last_update":"0001-01-01T00:00:00Z","name_a2s":"Uncletopia | Warsaw | 5 | Stopwatch Beta","protocol":17,"map":"workshop/koth_ramjam_rc1.ugc459778887","folder":"tf","game":"Team Fortress","app_id":440,"player_count":0,"max_players":24,"Bots":0,"server_type":"Dedicated","server_os":"Linux","password":true,"vac":true,"version":"7961495","steam_id":85568392925397854,"keywords":["cp","nocrits","nodmgspread","uncletopia"],"game_id":440,"stv_port":27056,"stv_name":"Uncletopia | Warsaw | 5 | Stopwatch Beta | STV","players":null},{"server_id":54,"name":"Uncletopia | Warsaw | 6 | Community","name_short":"waw-6","host":"waw-1.pl.uncletopia.com","port":27065,"enabled":true,"region":"eu","cc":"pl","latitude":52.2297,"longitude":21.017532,"reserved":0,"last_update":"0001-01-01T00:00:00Z","name_a2s":"Uncletopia | Warsaw | 6 | Community","protocol":17,"map":"workshop/pl_vigil_rc9.ugc1266210012","folder":"tf","game":"Team Fortress","app_id":440,"player_count":0,"max_players":24,"Bots":0,"server_type":"Dedicated","server_os":"Linux","password":true,"vac":true,"version":"7961495","steam_id":85568392925397856,"keywords":["nocrits","nodmgspread","payload","uncletopia"],"game_id":440,"stv_port":27066,"stv_name":"Uncletopia | Warsaw | 6 | Community | STV","players":null}]}