{"status":true,"message":"","result":[{"server_id":9,"name":"Uncletopia | Atlanta | 1 | All Maps","name_short":"atl-1","host":"atl-1.us.uncletopia.com","port":27015,"enabled":true,"region":"us-east","cc":"us","latitude":33.753746,"longitude":-84.38633,"reserved":0,"last_update":"0001-01-01T00:00:00Z","name_a2s":"Uncletopia | Atlanta | 1 | All Maps","protocol":17,"map":"pl_badwater","folder":"tf","game":"Team Fortress","app_id":440,"player_count":1,"max_players":24,"Bots":0,"server_type":"Dedicated","server_os":"Linux","password":true,"vac":true,"version":"7757534","steam_id":85568392924469982,"keywords":["nocrits","nodmgspread","payload","uncletopia"],"game_id":440,"stv_port":27016,"stv_name":"Uncletopia | Atlanta | 1 | All Maps | STV","players":[{"user_id":816,"name":"fa√ßade","steam_id":76561199157009256,"connected_time":20000000000,"state":"active","ping":94}]},{"server_id":104,"name":"Uncletopia | Atlanta | 2 | All Maps","name_short":"atl-2","host":"atl-1.us.uncletopia.com","port":27025,"enabled":true,"region":"us-east","cc":"us","latitude":33.753746,"longitude":-84.38633,"reserved":0,"last_update":"0001-01-01T00:00:00Z","name_a2s":"Uncletopia | Atlanta | 2 | All Maps","protocol":17,"map":"pl_snowycoast","folder":"tf","game":"Team Fortress","app_id":440,"player_count":0,"max_players":24,"Bots":0,"server_type":"Dedicated","server_os":"Linux","password":true,"vac":true,"version":"7757534","steam_id":85568392924469983,"keywords":["nocrits","nodmgspread","payload","uncletopia"],"game_id":440,"stv_port":27026,"stv_name":"Uncletopia | Atlanta | 2 | All Maps | STV","players":null},{"server_id":400,"name":"Uncletopia | Atlanta | 3 | Community","name_short":"atl-3","host":"atl-1.us.uncletopia.com","port":27035,"enabled":true,"region":"us-east","cc":"us","latitude":33.753746,"longitude":-84.38633,"reserved":0,"last_update":"0001-01-01T00:00:00Z","name_a2s":"Uncletopia | Atlanta | 3 | Community","protocol":17,"map":"workshop/koth_trenchfoot_b1a.ugc731436616","folder":"tf","game":"Team Fortress","app_id":440,"player_count":0,"max_players":24,"Bots":0,"server_type":"Dedicated","server_os":"Linux","password":true,"vac":true,"version":"7757534","steam_id":85568392924515187,"keywords":["cp","nocrits","nodmgspread","uncletopia"],"game_id":440,"stv_port":27036,"stv_name":"Uncletopia | Atlanta | 3 | Community | STV","players":null},{"server_id":401,"name":"Uncletopia | Atlanta | 4 | No Payload","name_short":"atl-4","host":"atl-1.us.uncletopia.com","port":27045,"enabled":true,"region":"us-east","cc":"us","latitude":33.753746,"longitude":-84.38633,"reserved":0,"last_update":"0001-01-01T00:00:00Z","name_a2s":"","protocol":0,"map":"","folder":"","game":"","app_id":0,"player_count":0,"max_players":0,"Bots":0,"server_type":"","server_os":"","password":false,"vac":false,"version":"","steam_id":0,"keywords":null,"game_id":0,"stv_port":0,"stv_name":"","players":null},{"server_id":2,"name":"Uncletopia | Chicago | 1 | All Maps","name_short":"chi-1","host":"chi-1.us.uncletopia.com","port":27015,"enabled":true,"region":"us-central","cc":"us","latitude":41.881832,"longitude":-87.62318,"reserved":0,"last_update":"0001-01-01T00:00:00Z","name_a2s":"Uncletopia | Chicago | 1 | All Maps","protocol":17,"map":"pl_barnblitz","folder":"tf","game":"Team Fortress","app_id":440,"player_count":21,"max_players":24,"Bots":0,"server_type":"Dedicated","server_os":"Linux","password":true,"vac":true,"version":"7757534","steam_id":85568392924469984,"keywords":["nocrits","nodmgspread","payload","uncletopia"],"game_id":440,"stv_port":27016,"stv_name":"Uncletopia | Chicago | 1 | All Maps | STV","players":[{"user_id":1071,"name":"PBxJAY","steam_id":76561198402471788,"connected_time":1949000000000,"state":"active","ping":117},{"user_id":1090,"name":"WHOPPER WHOPPER WHOPPER","steam_id":76561198035776269,"connected_time":1168000000000,"state":"active","ping":62},{"user_id":1103,"name":"Joakt","steam_id":76561199171401911,"connected_time":320000000000,"state":"spawning","ping":65},{"user_id":1100,"name":"Ryuujin","steam_id":76561198000897946,"connected_time":747000000000,"state":"active","ping":116},{"user_id":1029,"name":"Ayylmao","steam_id":76561198104780147,"connected_time":5184000000000,"state":"active","ping":40},{"user_id":1066,"name":"miji","steam_id":76561198002909892,"connected_time":2414000000000,"state":"active","ping":45},{"user_id":1041,"name":"Bede","steam_id":76561198200063398,"connected_time":4452000000000,"state":"active","ping":67},{"user_id":1033,"name":"koishi gaming Ê•µ","steam_id":76561198189371461,"connected_time":4767000000000,"state":"active","ping":80},{"user_id":1105,"name":"Carpigani","steam_id":76561199472897062,"connected_time":4000000000,"state":"spawning","ping":107},{"user_id":1081,"name":"Paradoxical_Wayfarer","steam_id":76561198043250942,"connected_time":1569000000000,"state":"active","ping":45},{"user_id":1063,"name":"Whitest Noise","steam_id":76561198079343840,"connected_time":2557000000000,"state":"active","ping":62},{"user_id":1067,"name":"hermit wizard","steam_id":76561198015156743,"connected_time":2284000000000,"state":"active","ping":77},{"user_id":1098,"name":"Viol3tOni","steam_id":76561198079208738,"connected_time":815000000000,"state":"active","ping":98},{"user_id":1084,"name":"Tanman653","steam_id":76561199046653301,"connected_time":1489000000000,"state":"active","ping":106},{"user_id":1078,"name":"freethinker99","steam_id":76561198125327740,"connected_time":1724000000000,"state":"active","ping":56},{"user_id":1083,"name":"Spy Gaming","steam_id":76561198453295613,"connected_time":1500000000000,"state":"active","ping":109},{"user_id":1104,"name":"Reflector","steam_id":76561198078999855,"connected_time":160000000000,"state":"active","ping":47},{"user_id":1087,"name":"Brisk","steam_id":76561198129769783,"connected_time":1359000000000,"state":"active","ping":75},{"user_id":972,"name":"Aegis","steam_id":76561198272052750,"connected_time":9977000000000,"state":"active","ping":72},{"user_id":1076,"name":"Urine Enthusiast [Piss Gaming]","steam_id":76561198067798973,"connected_time":1782000000000,"state":"active","ping":118},{"user_id":1079,"name":"Lipton","steam_id":76561198135397441,"connected_time":1724000000000,"state":"active","ping":76}]},{"server_id":106,"name":"Uncletopia | Chicago | 2 | All Maps","name_short":"chi-2","host":"chi-1.us.uncletopia.com","port":27025,"enabled":true,"region":"us-central","cc":"us","latitude":41.881832,"longitude":-87.62318,"reserved":0,"last_update":"0001-01-01T00:00:00Z","name_a2s":"Uncletopia | Chicago | 2 | All Maps","protocol":17,"map":"pl_snowycoast","folder":"tf","game":"Team Fortress","app_id":440,"player_count":24,"max_players":24,"Bots":0,"server_type":"Dedicated","server_os":"Linux","password":true,"vac":true,"version":"7757534","steam_id":85568392924469985,"keywords":["nocrits","nodmgspread","payload","uncletopia"],"game_id":440,"stv_port":27026,"stv_name":"Uncletopia | Chicago | 2 | All Maps | STV","players":[{"user_id":925,"name":"AnonymousCritter","steam_id":76561198864475187,"connected_time":635000000000,"state":"active","ping":51},{"user_id":928,"name":"McDonald's Hashbrown at 4am","steam_id":76561198273769337,"connected_time":340000000000,"state":"active","ping":64},{"user_id":858,"name":"have a nice life fan","steam_id":76561198159684104,"connected_time":6848000000000,"state":"active","ping":70},{"user_id":859,"name":"I am Lex","steam_id":76561198342910289,"connected_time":6826000000000,"state":"active","ping":52},{"user_id":921,"name":"The Rising of the Engineer Hero","steam_id":76561198107199405,"connected_time":754000000000,"state":"active","ping":165},{"user_id":929,"name":"Moon Goon","steam_id":76561198051498778,"connected_time":304000000000,"state":"active","ping":83},{"user_id":860,"name":"FieryWon","steam_id":76561198017962247,"connected_time":6823000000000,"state":"active","ping":56},{"user_id":861,"name":"sqgly","steam_id":76561198105508955,"connected_time":6819000000000,"state":"active","ping":51},{"user_id":913,"name":"sammie.tebo","steam_id":76561199212495985,"connected_time":2105000000000,"state":"active","ping":148},{"user_id":923,"name":"Wolowolowolowolowolowolowolowol","steam_id":76561199217207233,"connected_time":698000000000,"state":"active","ping":81},{"user_id":926,"name":"Old St. Scat","steam_id":76561198322096569,"connected_time":523000000000,"state":"active","ping":99},{"user_id":927,"name":"woman respecter","steam_id":76561198083225542,"connected_time":383000000000,"state":"active","ping":81},{"user_id":916,"name":"mEch114","steam_id":76561198236936060,"connected_time":1874000000000,"state":"active","ping":72},{"user_id":936,"name":"that guy","steam_id":76561198875283042,"connected_time":143000000000,"state":"active","ping":65},{"user_id":937,"name":"Lilac","steam_id":76561198977523626,"connected_time":121000000000,"state":"active","ping":68},{"user_id":882,"name":"ShiverBorn","steam_id":76561198384811149,"connected_time":5961000000000,"state":"active","ping":76},{"user_id":932,"name":"frozenwasanokmovie","steam_id":76561198157407952,"connected_time":213000000000,"state":"active","ping":101},{"user_id":933,"name":"Dishonored","steam_id":76561198799292091,"connected_time":212000000000,"state":"active","ping":56},{"user_id":934,"name":"Oni","steam_id":76561198112066584,"connected_time":209000000000,"state":"active","ping":60},{"user_id":870,"name":"very dazzling","steam_id":76561198072179483,"connected_time":6500000000000,"state":"active","ping":88},{"user_id":910,"name":"SmudgeAlot","steam_id":76561199470365621,"connected_time":2496000000000,"state":"active","ping":104},{"user_id":935,"name":"Coolshroomish","steam_id":76561199109440924,"connected_time":199000000000,"state":"active","ping":89},{"user_id":938,"name":"SearingGustav #tG","steam_id":76561198040560786,"connected_time":64000000000,"state":"active","ping":115},{"user_id":939,"name":"StarTube","steam_id":76561199122946418,"connected_time":39000000000,"state":"active","ping":145}]},{"server_id":402,"name":"Uncletopia | Chicago | 3 | All Maps","name_short":"chi-3","host":"chi-1.us.uncletopia.com","port":27035,"enabled":true,"region":"us-central","cc":"us","latitude":41.881832,"longitude":-87.62318,"reserved":0,"last_update":"0001-01-01T00:00:00Z","name_a2s":"Uncletopia | Chicago | 3 | All Maps","protocol":17,"map":"pl_badwater","folder":"tf","game":"Team Fortress","app_id":440,"player_count":23,"max_players":24,"Bots":0,"server_type":"Dedicated","server_os":"Linux","password":true,"vac":true,"version":"7757534","steam_id":85568392924515191,"keywords":["nocrits","nodmgspread","payload","uncletopia"],"game_id":440,"stv_port":27036,"stv_name":"Uncletopia | Chicago | 3 | All Maps | STV","players":[{"user_id":827,"name":"Arcadletus","steam_id":76561198976009938,"connected_time":2368000000000,"state":"active","ping":95},{"user_id":774,"name":"scottish resistance enjoyer","steam_id":76561198053164901,"connected_time":5559000000000,"state":"active","ping":59},{"user_id":841,"name":"Bludgeon","steam_id":76561198272009412,"connected_time":220000000000,"state":"active","ping":104},{"user_id":822,"name":"MysticFanDubs","steam_id":76561198092968742,"connected_time":2572000000000,"state":"active","ping":89},{"user_id":824,"name":"Snickey","steam_id":76561198049469531,"connected_time":2520000000000,"state":"active","ping":76},{"user_id":787,"name":"Srattinee","steam_id":76561198199840395,"connected_time":4555000000000,"state":"active","ping":55},{"user_id":790,"name":"Perri002","steam_id":76561199227901389,"connected_time":4527000000000,"state":"active","ping":119},{"user_id":799,"name":"FireQuiz","steam_id":76561198107357249,"connected_time":4131000000000,"state":"active","ping":101},{"user_id":796,"name":"too funky ·óúÀ¨·óú","steam_id":76561199120399776,"connected_time":4283000000000,"state":"active","ping":67},{"user_id":788,"name":"Shaw Han","steam_id":76561198204259015,"connected_time":4549000000000,"state":"active","ping":56},{"user_id":800,"name":"Kurg","steam_id":76561198143381218,"connected_time":4125000000000,"state":"active","ping":47},{"user_id":789,"name":"R1verz","steam_id":76561198056087178,"connected_time":4538000000000,"state":"active","ping":100},{"user_id":836,"name":"sad playa","steam_id":76561198007489102,"connected_time":837000000000,"state":"active","ping":99},{"user_id":825,"name":"remilia","steam_id":76561198069180543,"connected_time":2513000000000,"state":"active","ping":84},{"user_id":840,"name":"Scoutroad","steam_id":76561198136564680,"connected_time":345000000000,"state":"active","ping":79},{"user_id":838,"name":"The Super Mario Bros. Movie","steam_id":76561198871692156,"connected_time":607000000000,"state":"active","ping":98},{"user_id":833,"name":"soph","steam_id":76561198067497459,"connected_time":890000000000,"state":"active","ping":61},{"user_id":835,"name":"GOT DA STRAP ON ME #NOLESBO","steam_id":76561198144766439,"connected_time":879000000000,"state":"active","ping":44},{"user_id":803,"name":"Wizard Raccoon","steam_id":76561198072562591,"connected_time":4099000000000,"state":"active","ping":80},{"user_id":747,"name":"FullMetalSlugCat","steam_id":76561199193784099,"connected_time":7749000000000,"state":"active","ping":87},{"user_id":839,"name":"Got Oil?","steam_id":76561199238964574,"connected_time":395000000000,"state":"active","ping":70},{"user_id":832,"name":"badboy6996","steam_id":76561197969386201,"connected_time":1450000000000,"state":"active","ping":60},{"user_id":829,"name":"O Dog","steam_id":76561198133498912,"connected_time":2010000000000,"state":"active","ping":102}]},{"server_id":403,"name":"Uncletopia | Chicago | 4 | All Maps","name_short":"chi-4","host":"chi-1.us.uncletopia.com","port":27045,"enabled":true,"region":"us-central","cc":"us","latitude":41.881832,"longitude":-87.62318,"reserved":0,"last_update":"0001-01-01T00:00:00Z","name_a2s":"Uncletopia | Chicago | 4 | All Maps","protocol":17,"map":"pl_badwater","folder":"tf","game":"Team Fortress","app_id":440,"player_count":24,"max_players":24,"Bots":0,"server_type":"Dedicated","server_os":"Linux","password":true,"vac":true,"version":"7757534","steam_id":85568392924515193,"keywords":["nocrits","nodmgspread","payload","uncletopia"],"game_id":440,"stv_port":27046,"stv_name":"Uncletopia | Chicago | 4 | All Maps | STV","players":[{"user_id":634,"name":"Krome","steam_id":76561198087317232,"connected_time":1752000000000,"state":"active","ping":83},{"user_id":640,"name":"Hifumi Togo","steam_id":76561198074930636,"connected_time":665000000000,"state":"active","ping":41},{"user_id":641,"name":"Wubbox From My Singing Monsters","steam_id":76561198272471440,"connected_time":622000000000,"state":"active","ping":72},{"user_id":644,"name":"Odd Life","steam_id":76561198244979998,"connected_time":573000000000,"state":"active","ping":105},{"user_id":600,"name":"Mr. Luggy","steam_id":76561198072723392,"connected_time":3915000000000,"state":"active","ping":92},{"user_id":621,"name":"onsen episode","steam_id":76561197979960008,"connected_time":3254000000000,"state":"active","ping":51},{"user_id":642,"name":"2 CD's","steam_id":76561199004227813,"connected_time":590000000000,"state":"active","ping":56},{"user_id":643,"name":"wesker can hit it tbh","steam_id":76561197968351430,"connected_time":586000000000,"state":"active","ping":100},{"user_id":645,"name":"ü§®","steam_id":76561199365672047,"connected_time":553000000000,"state":"active","ping":79},{"user_id":631,"name":"Bearegard","steam_id":76561198061926542,"connected_time":2161000000000,"state":"active","ping":65},{"user_id":646,"name":"derpins","steam_id":76561198125261443,"connected_time":553000000000,"state":"active","ping":110},{"user_id":639,"name":"Cuntslinger","steam_id":76561198303948269,"connected_time":1257000000000,"state":"active","ping":66},{"user_id":604,"name":"trobort","steam_id":76561198027150357,"connected_time":3759000000000,"state":"active","ping":84},{"user_id":628,"name":"rico suave","steam_id":76561198093252989,"connected_time":2625000000000,"state":"active","ping":92},{"user_id":637,"name":"ldshwt","steam_id":76561198090364357,"connected_time":1518000000000,"state":"active","ping":159},{"user_id":649,"name":"CreepyCook","steam_id":76561198242874622,"connected_time":35000000000,"state":"active","ping":74},{"user_id":638,"name":"Sovulous","steam_id":76561198045389233,"connected_time":1345000000000,"state":"active","ping":68},{"user_id":648,"name":"Team Fartpiss Poo","steam_id":76561199163591880,"connected_time":142000000000,"state":"active","ping":89},{"user_id":636,"name":"Frickballs","steam_id":76561198453089992,"connected_time":1660000000000,"state":"active","ping":95},{"user_id":615,"name":"vareh","steam_id":76561197993190926,"connected_time":3333000000000,"state":"active","ping":106},{"user_id":629,"name":"AdmiralSharpie","steam_id":76561198066394239,"connected_time":2395000000000,"state":"active","ping":66},{"user_id":617,"name":"dirty30","steam_id":76561198021226566,"connected_time":3317000000000,"state":"active","ping":92},{"user_id":618,"name":"villainy","steam_id":76561199061380038,"connected_time":3313000000000,"state":"active","ping":75},{"user_id":633,"name":"heavensandwiches","steam_id":76561198019021094,"connected_time":2082000000000,"state":"active","ping":81}]},{"server_id":36,"name":"Uncletopia | Chicago | 5 | All Maps","name_short":"chi-5","host":"chi-2.us.uncletopia.com","port":27015,"enabled":true,"region":"us-central","cc":"us","latitude":41.881832,"longitude":-87.62318,"reserved":0,"last_update":"0001-01-01T00:00:00Z","name_a2s":"Uncletopia | Chicago | 5 | All Maps","protocol":17,"map":"koth_lakeside_final","folder":"tf","game":"Team Fortress","app_id":440,"player_count":0,"max_players":24,"Bots":0,"server_type":"Dedicated","server_os":"Linux","password":true,"vac":true,"version":"7757534","steam_id":85568392924866362,"keywords":["cp","nocrits","nodmgspread","uncletopia"],"game_id":440,"stv_port":27016,"stv_name":"Uncletopia | Chicago | 5 | All Maps | STV","players":null},{"server_id":37,"name":"Uncletopia | Chicago | 6 | All Maps","name_short":"chi-6","host":"chi-2.us.uncletopia.com","port":27025,"enabled":true,"region":"us-central","cc":"us","latitude":41.881832,"longitude":-87.62318,"reserved":0,"last_update":"0001-01-01T00:00:00Z","name_a2s":"Uncletopia | Chicago | 6 | All Maps","protocol":17,"map":"koth_highpass","folder":"tf","game":"Team Fortress","app_id":440,"player_count":0,"max_players":24,"Bots":0,"server_type":"Dedicated","server_os":"Linux","password":true,"vac":true,"version":"7757534","steam_id":85568392924866363,"keywords":["cp","nocrits","nodmgspread","uncletopia"],"game_id":440,"stv_port":27026,"stv_name":"Uncletopia | Chicago | 6 | All Maps | STV","players":null},{"server_id":38,"name":"Uncletopia | Chicago | 7 | Stopwatch Beta","name_short":"chi-7","host":"chi-2.us.uncletopia.com","port":27035,"enabled":true,"region":"us-central","cc":"us","latitude":41.881832,"longitude":-87.62318,"reserved":0,"last_update":"0001-01-01T00:00:00Z","name_a2s":"Uncletopia | Chicago | 7 | Stopwatch Beta","protocol":17,"map":"workshop/koth_ashville_final.ugc2130459942","folder":"tf","game":"Team Fortress","app_id":440,"player_count":0,"max_players":24,"Bots":0,"server_type":"Dedicated","server_os":"Linux","password":true,"vac":true,"version":"7757534","steam_id":85568392924866364,"keywords":["cp","nocrits","nodmgspread","uncletopia"],"game_id":440,"stv_port":27036,"stv_name":"Uncletopia | Chicago | 7 | Stopwatch Beta | STV","players":null},{"server_id":39,"name":"Uncletopia | Chicago | 8 | Community","name_short":"chi-8","host":"chi-2.us.uncletopia.com","port":27045,"enabled":true,"region":"us-central","cc":"us","latitude":41.881832,"longitude":-87.62318,"reserved":0,"last_update":"0001-01-01T00:00:00Z","name_a2s":"Uncletopia | Chicago | 8 | Community","protocol":17,"map":"workshop/koth_ramjam_rc1.ugc459778887","folder":"tf","game":"Team Fortress","app_id":440,"player_count":2,"max_players":24,"Bots":0,"server_type":"Dedicated","server_os":"Linux","password":true,"vac":true,"version":"7757534","steam_id":85568392924866365,"keywords":["cp","nocrits","nodmgspread","uncletopia"],"game_id":440,"stv_port":27046,"stv_name":"Uncletopia | Chicago | 8 | Community | STV","players":[{"user_id":13,"name":"090-nsalih","steam_id":76561199467467873,"connected_time":944000000000,"state":"active","ping":130},{"user_id":8,"name":"heisenburger","steam_id":76561198986534519,"connected_time":3404000000000,"state":"active","ping":89}]},{"server_id":8,"name":"Uncletopia | Dallas | 1 | All Maps","name_short":"dal-1","host":"dal-1.us.uncletopia.com","port":27015,"enabled":true,"region":"us-central","cc":"us","latitude":32.779167,"longitude":-96.80889,"reserved":0,"last_update":"0001-01-01T00:00:00Z","name_a2s":"Uncletopia | Dallas | 1 | All Maps","protocol":17,"map":"cp_gorge","folder":"tf","game":"Team Fortress","app_id":440,"player_count":23,"max_players":24,"Bots":0,"server_type":"Dedicated","server_os":"Linux","password":true,"vac":true,"version":"7757534","steam_id":85568392924469986,"keywords":["cp","nocrits","nodmgspread","uncletopia"],"game_id":440,"stv_port":27016,"stv_name":"Uncletopia | Dallas | 1 | All Maps | STV","players":[{"user_id":836,"name":"loki loki","steam_id":76561198062058311,"connected_time":1553000000000,"state":"active","ping":76},{"user_id":820,"name":"pleasehelpidonthavefingers","steam_id":76561199367935846,"connected_time":2955000000000,"state":"active","ping":65},{"user_id":870,"name":"Tyfonic","steam_id":76561198179282774,"connected_time":142000000000,"state":"active","ping":92},{"user_id":864,"name":"heimdall","steam_id":76561198069380992,"connected_time":203000000000,"state":"active","ping":63},{"user_id":865,"name":"tobrehto","steam_id":76561198097544038,"connected_time":199000000000,"state":"active","ping":67},{"user_id":816,"name":"audio","steam_id":76561198095122808,"connected_time":3113000000000,"state":"active","ping":57},{"user_id":867,"name":"Faraday","steam_id":76561198089928357,"connected_time":197000000000,"state":"active","ping":49},{"user_id":869,"name":"Knower","steam_id":76561198036213722,"connected_time":178000000000,"state":"active","ping":74},{"user_id":858,"name":"l1R0GUE1l","steam_id":76561199012375718,"connected_time":875000000000,"state":"active","ping":96},{"user_id":866,"name":"Veridian","steam_id":76561198096334078,"connected_time":197000000000,"state":"active","ping":76},{"user_id":872,"name":"Doubie","steam_id":76561198104492019,"connected_time":21000000000,"state":"active","ping":85},{"user_id":857,"name":"EmpireSieger95","steam_id":76561199031944116,"connected_time":928000000000,"state":"active","ping":97},{"user_id":841,"name":"griff928","steam_id":76561198149614679,"connected_time":1449000000000,"state":"active","ping":72},{"user_id":842,"name":"Hector Salamanca","steam_id":76561199103213955,"connected_time":1429000000000,"state":"active","ping":104},{"user_id":860,"name":"KOOLAID","steam_id":76561198062775462,"connected_time":691000000000,"state":"active","ping":75},{"user_id":862,"name":"Auburn","steam_id":76561198199541493,"connected_time":563000000000,"state":"active","ping":85},{"user_id":846,"name":"Xbox_Pro_2016","steam_id":76561198176126519,"connected_time":1394000000000,"state":"active","ping":87},{"user_id":847,"name":"fish album fan","steam_id":76561198281735951,"connected_time":1368000000000,"state":"active","ping":70},{"user_id":848,"name":"brockonline","steam_id":76561199015537819,"connected_time":1361000000000,"state":"active","ping":76},{"user_id":863,"name":"Whoplops","steam_id":76561197977188933,"connected_time":548000000000,"state":"active","ping":87},{"user_id":851,"name":"Rat_king","steam_id":76561199465689129,"connected_time":1303000000000,"state":"active","ping":54},{"user_id":868,"name":"aphex twink","steam_id":76561198984612489,"connected_time":192000000000,"state":"active","ping":77},{"user_id":852,"name":"Eden Hazard","steam_id":76561198089241053,"connected_time":1275000000000,"state":"active","ping":93}]},{"server_id":108,"name":"Uncletopia | Dallas | 2 | All Maps","name_short":"dal-2","host":"dal-1.us.uncletopia.com","port":27025,"enabled":true,"region":"us-central","cc":"us","latitude":32.779167,"longitude":-96.80889,"reserved":0,"last_update":"0001-01-01T00:00:00Z","name_a2s":"Uncletopia | Dallas | 2 | All Maps","protocol":17,"map":"cp_junction_final","folder":"tf","game":"Team Fortress","app_id":440,"player_count":19,"max_players":24,"Bots":0,"server_type":"Dedicated","server_os":"Linux","password":true,"vac":true,"version":"7757534","steam_id":85568392924469988,"keywords":["cp","nocrits","nodmgspread","uncletopia"],"game_id":440,"stv_port":27026,"stv_name":"Uncletopia | Dallas | 2 | All Maps | STV","players":[{"user_id":597,"name":"Full Throttle Axolotl","steam_id":76561198041836477,"connected_time":1006000000000,"state":"active","ping":55},{"user_id":567,"name":"Korporal K. Reep","steam_id":76561199098222561,"connected_time":4651000000000,"state":"active","ping":178},{"user_id":613,"name":"nemaxilb :3","steam_id":76561199074875663,"connected_time":179000000000,"state":"active","ping":74},{"user_id":618,"name":"Mengle","steam_id":76561198001953684,"connected_time":30000000000,"state":"active","ping":77},{"user_id":598,"name":"18 pounds","steam_id":76561198025804838,"connected_time":992000000000,"state":"active","ping":44},{"user_id":615,"name":"to_op4u","steam_id":76561198354526834,"connected_time":132000000000,"state":"active","ping":72},{"user_id":525,"name":"bolainassr0","steam_id":76561199079078845,"connected_time":9008000000000,"state":"active","ping":98},{"user_id":616,"name":"Antwan","steam_id":76561198246200638,"connected_time":125000000000,"state":"active","ping":43},{"user_id":537,"name":"zpalmtree","steam_id":76561198134307620,"connected_time":8088000000000,"state":"active","ping":89},{"user_id":617,"name":"Axel Beoulve","steam_id":76561198126511231,"connected_time":58000000000,"state":"active","ping":103},{"user_id":599,"name":"Octosquid","steam_id":76561198336922072,"connected_time":979000000000,"state":"active","ping":48},{"user_id":608,"name":"Mufalito","steam_id":76561198951889482,"connected_time":626000000000,"state":"active","ping":143},{"user_id":600,"name":"PopePurple","steam_id":76561198080955830,"connected_time":971000000000,"state":"active","ping":101},{"user_id":610,"name":"Engie Buddy¬©","steam_id":76561199026911063,"connected_time":464000000000,"state":"active","ping":106},{"user_id":591,"name":"‚ô° ironterrortrain ‚ô°","steam_id":76561198046460418,"connected_time":1302000000000,"state":"active","ping":98},{"user_id":607,"name":"xXxbloddywritszxXx","steam_id":76561198025849070,"connected_time":655000000000,"state":"active","ping":55},{"user_id":603,"name":"oldestman","steam_id":76561199108815470,"connected_time":909000000000,"state":"active","ping":39},{"user_id":463,"name":"Villenova","steam_id":76561198073606416,"connected_time":13413000000000,"state":"active","ping":63},{"user_id":572,"name":"turtle","steam_id":76561198112673874,"connected_time":4227000000000,"state":"active","ping":85}]},{"server_id":5,"name":"Uncletopia | Frankfurt | 1 | All Maps","name_short":"frk-1","host":"frk-1.de.uncletopia.com","port":27015,"enabled":true,"region":"eu","cc":"de","latitude":50.110924,"longitude":8.682127,"reserved":0,"last_update":"0001-01-01T00:00:00Z","name_a2s":"Uncletopia | Frankfurt | 1 | All Maps","protocol":17,"map":"pl_snowycoast","folder":"tf","game":"Team Fortress","app_id":440,"player_count":1,"max_players":24,"Bots":0,"server_type":"Dedicated","server_os":"Linux","password":true,"vac":true,"version":"7757534","steam_id":85568392924469989,"keywords":["nocrits","nodmgspread","payload","uncletopia"],"game_id":440,"stv_port":27016,"stv_name":"Uncletopia | Frankfurt | 1 | All Maps | STV","players":[{"user_id":3,"name":"j100j","steam_id":76561198338726444,"connected_time":90000000000,"state":"active","ping":93}]},{"server_id":110,"name":"Uncletopia | Frankfurt | 2 | All Maps","name_short":"frk-2","host":"frk-1.de.uncletopia.com","port":27025,"enabled":true,"region":"eu","cc":"de","latitude":50.110924,"longitude":8.682127,"reserved":0,"last_update":"0001-01-01T00:00:00Z","name_a2s":"Uncletopia | Frankfurt | 2 | All Maps","protocol":17,"map":"cp_snakewater_final1","folder":"tf","game":"Team Fortress","app_id":440,"player_count":0,"max_players":24,"Bots":0,"server_type":"Dedicated","server_os":"Linux","password":true,"vac":true,"version":"7757534","steam_id":85568392924469990,"keywords":["cp","nocrits","nodmgspread","uncletopia"],"game_id":440,"stv_port":27026,"stv_name":"Uncletopia | Frankfurt | 2 | All Maps | STV","players":null},{"server_id":308,"name":"Uncletopia | Frankfurt | 3 | All Maps","name_short":"frk-3","host":"frk-1.de.uncletopia.com","port":27035,"enabled":true,"region":"eu","cc":"de","latitude":50.110924,"longitude":8.682127,"reserved":0,"last_update":"0001-01-01T00:00:00Z","name_a2s":"Uncletopia | Frankfurt | 3 | All Maps","protocol":17,"map":"cp_snakewater_final1","folder":"tf","game":"Team Fortress","app_id":440,"player_count":0,"max_players":24,"Bots":0,"server_type":"Dedicated","server_os":"Linux","password":true,"vac":true,"version":"7757534","steam_id":85568392924504274,"keywords":["cp","nocrits","nodmgspread","uncletopia"],"game_id":440,"stv_port":27036,"stv_name":"Uncletopia | Frankfurt | 3 | All Maps | STV","players":null},{"server_id":309,"name":"Uncletopia | Frankfurt | 4 | All Maps","name_short":"frk-4","host":"frk-1.de.uncletopia.com","port":27045,"enabled":true,"region":"eu","cc":"de","latitude":50.110924,"longitude":8.682127,"reserved":0,"last_update":"0001-01-01T00:00:00Z","name_a2s":"Uncletopia | Frankfurt | 4 | All Maps","protocol":17,"map":"koth_viaduct","folder":"tf","game":"Team Fortress","app_id":440,"player_count":0,"max_players":24,"Bots":0,"server_type":"Dedicated","server_os":"Linux","password":true,"vac":true,"version":"7757534","steam_id":85568392924504275,"keywords":["cp","nocrits","nodmgspread","uncletopia"],"game_id":440,"stv_port":27046,"stv_name":"Uncletopia | Frankfurt | 4 | All Maps | STV","players":null},{"server_id":310,"name":"Uncletopia | Frankfurt | 5 | All Maps","name_short":"frk-5","host":"frk-1.de.uncletopia.com","port":27055,"enabled":true,"region":"eu","cc":"de","latitude":50.110924,"longitude":8.682127,"reserved":0,"last_update":"0001-01-01T00:00:00Z","name_a2s":"Uncletopia | Frankfurt | 5 | All Maps","protocol":17,"map":"koth_lakeside_final","folder":"tf","game":"Team Fortress","app_id":440,"player_count":0,"max_players":24,"Bots":0,"server_type":"Dedicated","server_os":"Linux","password":true,"vac":true,"version":"7757534","steam_id":85568392924504277,"keywords":["cp","nocrits","nodmgspread","uncletopia"],"game_id":440,"stv_port":27056,"stv_name":"Uncletopia | Frankfurt | 5 | All Maps | STV","players":null},{"server_id":311,"name":"Uncletopia | Frankfurt | 6 | All Maps","name_short":"frk-6","host":"frk-1.de.uncletopia.com","port":27065,"enabled":true,"region":"eu","cc":"de","latitude":50.110924,"longitude":8.682127,"reserved":0,"last_update":"0001-01-01T00:00:00Z","name_a2s":"Uncletopia | Frankfurt | 6 | All Maps","protocol":17,"map":"pl_frontier_final","folder":"tf","game":"Team Fortress","app_id":440,"player_count":0,"max_players":24,"Bots":0,"server_type":"Dedicated","server_os":"Linux","password":true,"vac":true,"version":"7757534","steam_id":85568392924504278,"keywords":["nocrits","nodmgspread","payload","uncletopia"],"game_id":440,"stv_port":27066,"stv_name":"Uncletopia | Frankfurt | 6 | All Maps | STV","players":null},{"server_id":23,"name":"Uncletopia | Frankfurt | 7 | Stopwatch Beta","name_short":"frk-7","host":"frk-1.de.uncletopia.com","port":27075,"enabled":true,"region":"eu","cc":"de","latitude":50.110924,"longitude":8.682127,"reserved":0,"last_update":"0001-01-01T00:00:00Z","name_a2s":"Uncletopia | Frankfurt | 7 | Stopwatch Beta","protocol":17,"map":"cp_sunshine","folder":"tf","game":"Team Fortress","app_id":440,"player_count":0,"max_players":24,"Bots":0,"server_type":"Dedicated","server_os":"Linux","password":true,"vac":true,"version":"7757534","steam_id":85568392924742827,"keywords":["cp","nocrits","nodmgspread","uncletopia"],"game_id":440,"stv_port":27076,"stv_name":"Uncletopia | Frankfurt | 7 | Stopwatch Beta | STV","players":null},{"server_id":24,"name":"Uncletopia | Frankfurt | 8 | Community","name_short":"frk-8","host":"frk-1.de.uncletopia.com","port":27085,"enabled":true,"region":"eu","cc":"de","latitude":50.110924,"longitude":8.682127,"reserved":0,"last_update":"0001-01-01T00:00:00Z","name_a2s":"Uncletopia | Frankfurt | 8 | Community","protocol":17,"map":"koth_lakeside_final","folder":"tf","game":"Team Fortress","app_id":440,"player_count":0,"max_players":24,"Bots":0,"server_type":"Dedicated","server_os":"Linux","password":true,"vac":true,"version":"7757534","steam_id":85568392924742828,"keywords":["cp","nocrits","nodmgspread","uncletopia"],"game_id":440,"stv_port":27086,"stv_name":"Uncletopia | Frankfurt | 8 | Community | STV","players":null},{"server_id":202,"name":"Uncletopia | Hong Kong | 1 | All Maps","name_short":"hgk-1","host":"hgk-1.hk.uncletopia.com","port":27015,"enabled":true,"region":"asia","cc":"hk","latitude":22.302711,"longitude":114.177216,"reserved":0,"last_update":"0001-01-01T00:00:00Z","name_a2s":"Uncletopia | Hong Kong | 1 | All Maps","protocol":17,"map":"pl_upward","folder":"tf","game":"Team Fortress","app_id":440,"player_count":24,"max_players":24,"Bots":0,"server_type":"Dedicated","server_os":"Linux","password":true,"vac":true,"version":"7757534","steam_id":85568392924494504,"keywords":["nocrits","nodmgspread","payload","uncletopia"],"game_id":440,"stv_port":27016,"stv_name":"Uncletopia | Hong Kong | 1 | All Maps | STV","players":[{"user_id":180,"name":"Buttman","steam_id":76561198044693388,"connected_time":209000000000,"state":"active","ping":46},{"user_id":120,"name":"phd in ejaculation management","steam_id":76561198138187921,"connected_time":7765000000000,"state":"active","ping":46},{"user_id":118,"name":"P","steam_id":76561198304514505,"connected_time":8446000000000,"state":"active","ping":76},{"user_id":153,"name":"spinach (old mouse)","steam_id":76561198042539541,"connected_time":3404000000000,"state":"active","ping":83},{"user_id":125,"name":"ArcticDolphin","steam_id":76561198203626319,"connected_time":7561000000000,"state":"active","ping":128},{"user_id":150,"name":"Momoxhien","steam_id":76561198414997429,"connected_time":3756000000000,"state":"active","ping":59},{"user_id":161,"name":"tiden2000","steam_id":76561198092969425,"connected_time":1649000000000,"state":"active","ping":106},{"user_id":171,"name":"Incompertent mercenaries","steam_id":76561198386626651,"connected_time":401000000000,"state":"active","ping":60},{"user_id":178,"name":"hayonsteam","steam_id":76561199438952901,"connected_time":360000000000,"state":"active","ping":52},{"user_id":168,"name":"Worst player ever","steam_id":76561199245124028,"connected_time":1230000000000,"state":"active","ping":111},{"user_id":167,"name":"GreggieBoi","steam_id":76561199085200364,"connected_time":1301000000000,"state":"active","ping":96},{"user_id":179,"name":"Vortex Artemisio","steam_id":76561198833527091,"connected_time":356000000000,"state":"active","ping":94},{"user_id":169,"name":"7853","steam_id":76561199390507975,"connected_time":1215000000000,"state":"active","ping":57},{"user_id":173,"name":"Milk‚ù§","steam_id":76561198163911560,"connected_time":396000000000,"state":"active","ping":136},{"user_id":111,"name":"Mysterious_Network","steam_id":76561199445957166,"connected_time":9286000000000,"state":"active","ping":82},{"user_id":164,"name":"Nice","steam_id":76561199180653046,"connected_time":1626000000000,"state":"active","ping":130},{"user_id":154,"name":"LET THE INTRUSIVE THOUGHTS WIN","steam_id":76561199174449723,"connected_time":3254000000000,"state":"active","ping":111},{"user_id":123,"name":"water tastes good","steam_id":76561199375947670,"connected_time":7763000000000,"state":"active","ping":62},{"user_id":146,"name":":uroSmonk:","steam_id":76561198074339034,"connected_time":4274000000000,"state":"active","ping":72},{"user_id":159,"name":"Pin","steam_id":76561199070154388,"connected_time":2110000000000,"state":"active","ping":137},{"user_id":144,"name":"screaming sniper","steam_id":76561199085568674,"connected_time":4702000000000,"state":"active","ping":86},{"user_id":176,"name":"brainless bozo","steam_id":76561198055553140,"connected_time":366000000000,"state":"active","ping":76},{"user_id":177,"name":"Taisho","steam_id":76561198334229197,"connected_time":365000000000,"state":"active","ping":64},{"user_id":165,"name":"David Keithson","steam_id":76561199279393636,"connected_time":1626000000000,"state":"active","ping":79}]},{"server_id":1,"name":"Uncletopia | Los Angeles | 1 | All Maps","name_short":"lax-1","host":"lax-1.us.uncletopia.com","port":27015,"enabled":true,"region":"us-west","cc":"us","latitude":33.94279,"longitude":-118.41004,"reserved":0,"last_update":"0001-01-01T00:00:00Z","name_a2s":"Uncletopia | Los Angeles | 1 | All Maps","protocol":17,"map":"cp_altitude","folder":"tf","game":"Team Fortress","app_id":440,"player_count":0,"max_players":24,"Bots":0,"server_type":"Dedicated","server_os":"Linux","password":true,"vac":true,"version":"7757534","steam_id":85568392924469991,"keywords":["cp","nocrits","nodmgspread","uncletopia"],"game_id":440,"stv_port":27016,"stv_name":"Uncletopia | Los Angeles | 1 | All Maps | STV","players":null},{"server_id":112,"name":"Uncletopia | Los Angeles | 2 | All Maps","name_short":"lax-2","host":"lax-1.us.uncletopia.com","port":27025,"enabled":true,"region":"us-west","cc":"us","latitude":33.94279,"longitude":-118.41004,"reserved":0,"last_update":"0001-01-01T00:00:00Z","name_a2s":"Uncletopia | Los Angeles | 2 | All Maps","protocol":17,"map":"koth_viaduct","folder":"tf","game":"Team Fortress","app_id":440,"player_count":24,"max_players":24,"Bots":0,"server_type":"Dedicated","server_os":"Linux","password":true,"vac":true,"version":"7757534","steam_id":85568392924469992,"keywords":["cp","nocrits","nodmgspread","uncletopia"],"game_id":440,"stv_port":27026,"stv_name":"Uncletopia | Los Angeles | 2 | All Maps | STV","players":[{"user_id":908,"name":"jadesouledout","steam_id":76561198866936507,"connected_time":1453000000000,"state":"active","ping":53},{"user_id":919,"name":"Wacks","steam_id":76561198079476100,"connected_time":1137000000000,"state":"active","ping":58},{"user_id":909,"name":"Wendall555","steam_id":76561198985637603,"connected_time":1427000000000,"state":"active","ping":46},{"user_id":930,"name":"ScoutBox","steam_id":76561198111539895,"connected_time":169000000000,"state":"active","ping":45},{"user_id":910,"name":"CPTforever","steam_id":76561198237767198,"connected_time":1381000000000,"state":"active","ping":45},{"user_id":890,"name":"eau:","steam_id":76561198110020262,"connected_time":3221000000000,"state":"active","ping":37},{"user_id":911,"name":"Elite_Friendly","steam_id":76561198819972127,"connected_time":1306000000000,"state":"active","ping":81},{"user_id":929,"name":"Literal Vampire Potbelly Goblin","steam_id":76561197970527356,"connected_time":373000000000,"state":"active","ping":41},{"user_id":912,"name":"YellowPro55","steam_id":76561198355177278,"connected_time":1209000000000,"state":"active","ping":92},{"user_id":900,"name":"Ortadragon","steam_id":76561198023058412,"connected_time":2826000000000,"state":"active","ping":55},{"user_id":892,"name":"PortalMaster555 | trade.tf","steam_id":76561198097321251,"connected_time":3149000000000,"state":"active","ping":81},{"user_id":913,"name":"Chalupa Jones","steam_id":76561198335855588,"connected_time":1201000000000,"state":"active","ping":46},{"user_id":931,"name":"Rain","steam_id":76561198032318897,"connected_time":158000000000,"state":"active","ping":68},{"user_id":926,"name":"takeshi_","steam_id":76561198148797456,"connected_time":1017000000000,"state":"active","ping":60},{"user_id":932,"name":"sherv","steam_id":76561198000826577,"connected_time":4000000000,"state":"spawning","ping":43},{"user_id":888,"name":"mrthugpug1732","steam_id":76561198881200768,"connected_time":3497000000000,"state":"active","ping":71},{"user_id":916,"name":"FI LO","steam_id":76561198976530881,"connected_time":1162000000000,"state":"active","ping":44},{"user_id":898,"name":"Ken-Sama","steam_id":76561198040465331,"connected_time":3071000000000,"state":"active","ping":59},{"user_id":933,"name":"patjiaviar","steam_id":76561199465783209,"connected_time":2000000000,"state":"spawning","ping":28},{"user_id":920,"name":"bucue","steam_id":76561198053364136,"connected_time":1131000000000,"state":"active","ping":45},{"user_id":921,"name":"The Bombinomicon","steam_id":76561198209881263,"connected_time":1124000000000,"state":"active","ping":54},{"user_id":922,"name":"GKumo","steam_id":76561198023175868,"connected_time":1121000000000,"state":"active","ping":61},{"user_id":923,"name":"Chicken Joe","steam_id":76561198095143020,"connected_time":1119000000000,"state":"active","ping":93},{"user_id":925,"name":"Kilora","steam_id":76561198103356827,"connected_time":1098000000000,"state":"active","ping":95}]},{"server_id":324,"name":"Uncletopia | Los Angeles | 3 | All Maps","name_short":"lax-3","host":"lax-1.us.uncletopia.com","port":27035,"enabled":true,"region":"us-west","cc":"us","latitude":33.94279,"longitude":-118.41004,"reserved":0,"last_update":"0001-01-01T00:00:00Z","name_a2s":"Uncletopia | Los Angeles | 3 | All Maps","protocol":17,"map":"pl_badwater","folder":"tf","game":"Team Fortress","app_id":440,"player_count":21,"max_players":24,"Bots":0,"server_type":"Dedicated","server_os":"Linux","password":true,"vac":true,"version":"7757534","steam_id":85568392924510198,"keywords":["nocrits","nodmgspread","payload","uncletopia"],"game_id":440,"stv_port":27036,"stv_name":"Uncletopia | Los Angeles | 3 | All Maps | STV","players":[{"user_id":609,"name":"Coupe Clip","steam_id":76561198990124955,"connected_time":2786000000000,"state":"active","ping":136},{"user_id":603,"name":"LX-24","steam_id":76561198016168993,"connected_time":3211000000000,"state":"active","ping":79},{"user_id":636,"name":"00","steam_id":76561198041700636,"connected_time":217000000000,"state":"active","ping":48},{"user_id":637,"name":"sevvy \u003c3","steam_id":76561198219129496,"connected_time":202000000000,"state":"active","ping":55},{"user_id":613,"name":"CUBICLE #35","steam_id":76561198799010228,"connected_time":1055000000000,"state":"active","ping":60},{"user_id":638,"name":"BlixyDragon","steam_id":76561198295422834,"connected_time":148000000000,"state":"active","ping":154},{"user_id":607,"name":"agentredx05","steam_id":76561198324962084,"connected_time":2814000000000,"state":"active","ping":91},{"user_id":639,"name":"Tuna","steam_id":76561198129907971,"connected_time":127000000000,"state":"active","ping":59},{"user_id":640,"name":"PENGEST","steam_id":76561198202605381,"connected_time":126000000000,"state":"active","ping":48},{"user_id":618,"name":"Artificial Unintelligence","steam_id":76561199056745987,"connected_time":676000000000,"state":"active","ping":90},{"user_id":626,"name":"luca","steam_id":76561198069235730,"connected_time":418000000000,"state":"active","ping":104},{"user_id":641,"name":"Ellis","steam_id":76561198993634489,"connected_time":102000000000,"state":"active","ping":71},{"user_id":620,"name":"Sheo","steam_id":76561198142599906,"connected_time":615000000000,"state":"active","ping":86},{"user_id":621,"name":"trev","steam_id":76561198372593596,"connected_time":569000000000,"state":"active","ping":64},{"user_id":622,"name":"Spooky","steam_id":76561198281260555,"connected_time":510000000000,"state":"active","ping":112},{"user_id":642,"name":"Starkiller","steam_id":76561198101643120,"connected_time":16000000000,"state":"spawning","ping":114},{"user_id":627,"name":"Gay Cake","steam_id":76561198004388831,"connected_time":397000000000,"state":"active","ping":122},{"user_id":628,"name":"Holiday Fartcruise","steam_id":76561198043851584,"connected_time":392000000000,"state":"active","ping":157},{"user_id":629,"name":"nella","steam_id":76561198079349621,"connected_time":377000000000,"state":"active","ping":55},{"user_id":630,"name":"Featherless Biped","steam_id":76561198034171721,"connected_time":375000000000,"state":"active","ping":104},{"user_id":631,"name":"Agent Mania","steam_id":76561198029741272,"connected_time":367000000000,"state":"active","ping":49}]},{"server_id":25,"name":"Uncletopia | Los Angeles | 4 | Stopwatch Beta","name_short":"lax-4","host":"lax-1.us.uncletopia.com","port":27045,"enabled":true,"region":"us-west","cc":"us","latitude":33.94279,"longitude":-118.41004,"reserved":0,"last_update":"0001-01-01T00:00:00Z","name_a2s":"Uncletopia | Los Angeles | 4 | Stopwatch Beta","protocol":17,"map":"pl_swiftwater_final1","folder":"tf","game":"Team Fortress","app_id":440,"player_count":0,"max_players":24,"Bots":0,"server_type":"Dedicated","server_os":"Linux","password":true,"vac":true,"version":"7757534","steam_id":85568392924510199,"keywords":["nocrits","nodmgspread","payload","uncletopia"],"game_id":440,"stv_port":27046,"stv_name":"Uncletopia | Los Angeles | 4 | Stopwatch Beta | STV","players":null},{"server_id":11,"name":"Uncletopia | London | 1 | All Maps","name_short":"lon-1","host":"lon-1.uk.uncletopia.com","port":27015,"enabled":true,"region":"eu","cc":"gb","latitude":51.509865,"longitude":-0.118092,"reserved":0,"last_update":"0001-01-01T00:00:00Z","name_a2s":"Uncletopia | London | 1 | All Maps","protocol":17,"map":"cp_snakewater_final1","folder":"tf","game":"Team Fortress","app_id":440,"player_count":24,"max_players":24,"Bots":0,"server_type":"Dedicated","server_os":"Linux","password":true,"vac":true,"version":"7757534","steam_id":85568392924367362,"keywords":["cp","nocrits","nodmgspread","uncletopia"],"game_id":440,"stv_port":27016,"stv_name":"Uncletopia | London | 1 | All Maps | STV","players":[{"user_id":15,"name":"Voks_","steam_id":76561198159687785,"connected_time":2930000000000,"state":"active","ping":70},{"user_id":16,"name":"bachusa1657","steam_id":76561198202175911,"connected_time":2777000000000,"state":"active","ping":75},{"user_id":59,"name":"Mercenary","steam_id":76561198965998351,"connected_time":513000000000,"state":"active","ping":79},{"user_id":61,"name":"sriracha..","steam_id":76561198005560221,"connected_time":336000000000,"state":"active","ping":109},{"user_id":63,"name":"DunkleG","steam_id":76561198053816186,"connected_time":247000000000,"state":"active","ping":75},{"user_id":64,"name":"B.batt","steam_id":76561198998684199,"connected_time":146000000000,"state":"active","ping":133},{"user_id":21,"name":"Guru","steam_id":76561198093853069,"connected_time":2372000000000,"state":"active","ping":69},{"user_id":22,"name":"BONK-TEC!","steam_id":76561198272667029,"connected_time":2354000000000,"state":"active","ping":51},{"user_id":50,"name":"FingerMan","steam_id":76561198004040091,"connected_time":1335000000000,"state":"active","ping":60},{"user_id":24,"name":"Rin-Nakaret","steam_id":76561197971051188,"connected_time":2262000000000,"state":"active","ping":59},{"user_id":25,"name":"Zireael","steam_id":76561198188258338,"connected_time":2222000000000,"state":"active","ping":127},{"user_id":26,"name":"Hedge Knight","steam_id":76561198989449047,"connected_time":2220000000000,"state":"active","ping":128},{"user_id":29,"name":"imthegerman","steam_id":76561198053401077,"connected_time":2179000000000,"state":"active","ping":118},{"user_id":30,"name":"Wujek Cacek","steam_id":76561198010267943,"connected_time":2142000000000,"state":"active","ping":77},{"user_id":51,"name":"bong trivet","steam_id":76561198000302311,"connected_time":1303000000000,"state":"active","ping":149},{"user_id":52,"name":"Cryspoeth47","steam_id":76561198892776023,"connected_time":1244000000000,"state":"active","ping":126},{"user_id":33,"name":"Bonduelle#Savetf2","steam_id":76561199041992422,"connected_time":1928000000000,"state":"active","ping":177},{"user_id":36,"name":"Egor Pomidor","steam_id":76561199175688390,"connected_time":1724000000000,"state":"active","ping":82},{"user_id":62,"name":"vet","steam_id":76561198110545854,"connected_time":269000000000,"state":"active","ping":156},{"user_id":54,"name":"ddd","steam_id":76561199374431690,"connected_time":1198000000000,"state":"active","ping":108},{"user_id":40,"name":"Commander DM","steam_id":76561198059236770,"connected_time":1654000000000,"state":"active","ping":81},{"user_id":55,"name":"Rox","steam_id":76561198417690390,"connected_time":1123000000000,"state":"active","ping":171},{"user_id":44,"name":"Sirky","steam_id":76561198082407725,"connected_time":1567000000000,"state":"active","ping":56},{"user_id":45,"name":"Lord Aerial","steam_id":76561198288157281,"connected_time":1555000000000,"state":"active","ping":76}]},{"server_id":114,"name":"Uncletopia | London | 2 | All Maps","name_short":"lon-2","host":"lon-1.uk.uncletopia.com","port":27025,"enabled":true,"region":"eu","cc":"gb","latitude":51.509865,"longitude":-0.118092,"reserved":0,"last_update":"0001-01-01T00:00:00Z","name_a2s":"Uncletopia | London | 2 | All Maps","protocol":17,"map":"koth_viaduct","folder":"tf","game":"Team Fortress","app_id":440,"player_count":0,"max_players":24,"Bots":0,"server_type":"Dedicated","server_os":"Linux","password":true,"vac":true,"version":"7757534","steam_id":85568392924470941,"keywords":["cp","nocrits","nodmgspread","uncletopia"],"game_id":440,"stv_port":27026,"stv_name":"Uncletopia | London | 2 | All Maps | STV","players":null},{"server_id":320,"name":"Uncletopia | London | 3 | All Maps","name_short":"lon-3","host":"lon-1.uk.uncletopia.com","port":27035,"enabled":true,"region":"eu","cc":"gb","latitude":51.509865,"longitude":-0.118092,"reserved":0,"last_update":"0001-01-01T00:00:00Z","name_a2s":"Uncletopia | London | 3 | All Maps","protocol":17,"map":"cp_dustbowl","folder":"tf","game":"Team Fortress","app_id":440,"player_count":0,"max_players":24,"Bots":0,"server_type":"Dedicated","server_os":"Linux","password":true,"vac":true,"version":"7757534","steam_id":85568392924510192,"keywords":["cp","nocrits","nodmgspread","uncletopia"],"game_id":440,"stv_port":27036,"stv_name":"Uncletopia | London | 3 | All Maps | STV","players":null},{"server_id":321,"name":"Uncletopia | London | 4 | All Maps","name_short":"lon-4","host":"lon-1.uk.uncletopia.com","port":27045,"enabled":true,"region":"eu","cc":"gb","latitude":51.509865,"longitude":-0.118092,"reserved":0,"last_update":"0001-01-01T00:00:00Z","name_a2s":"Uncletopia | London | 4 | All Maps","protocol":17,"map":"cp_dustbowl","folder":"tf","game":"Team Fortress","app_id":440,"player_count":0,"max_players":24,"Bots":0,"server_type":"Dedicated","server_os":"Linux","password":true,"vac":true,"version":"7757534","steam_id":85568392924510193,"keywords":["cp","nocrits","nodmgspread","uncletopia"],"game_id":440,"stv_port":27046,"stv_name":"Uncletopia | London | 4 | All Maps | STV","players":null},{"server_id":21,"name":"Uncletopia | London | 5 | All Maps","name_short":"lon-5","host":"lon-1.uk.uncletopia.com","port":27055,"enabled":true,"region":"eu","cc":"gb","latitude":51.509865,"longitude":-0.118092,"reserved":0,"last_update":"0001-01-01T00:00:00Z","name_a2s":"Uncletopia | London | 5 | All Maps","protocol":17,"map":"cp_altitude","folder":"tf","game":"Team Fortress","app_id":440,"player_count":0,"max_players":24,"Bots":0,"server_type":"Dedicated","server_os":"Linux","password":true,"vac":true,"version":"7757534","steam_id":85568392924742829,"keywords":["cp","nocrits","nodmgspread","uncletopia"],"game_id":440,"stv_port":27056,"stv_name":"Uncletopia | London | 5 | All Maps | STV","players":null},{"server_id":22,"name":"Uncletopia | London | 6 | All Maps","name_short":"lon-6","host":"lon-1.uk.uncletopia.com","port":27065,"enabled":true,"region":"eu","cc":"gb","latitude":51.509865,"longitude":-0.118092,"reserved":0,"last_update":"0001-01-01T00:00:00Z","name_a2s":"Uncletopia | London | 6 | All Maps","protocol":17,"map":"cp_mountainlab","folder":"tf","game":"Team Fortress","app_id":440,"player_count":0,"max_players":24,"Bots":0,"server_type":"Dedicated","server_os":"Linux","password":true,"vac":true,"version":"7757534","steam_id":85568392924742830,"keywords":["cp","nocrits","nodmgspread","uncletopia"],"game_id":440,"stv_port":27066,"stv_name":"Uncletopia | London | 6 | All Maps | STV","players":null},{"server_id":40,"name":"Uncletopia | London | 7 | No Payload","name_short":"lon-7","host":"lon-1.uk.uncletopia.com","port":27075,"enabled":true,"region":"eu","cc":"gb","latitude":51.509865,"longitude":-0.118092,"reserved":0,"last_update":"0001-01-01T00:00:00Z","name_a2s":"Uncletopia | London | 7 | No Payload","protocol":17,"map":"pl_badwater","folder":"tf","game":"Team Fortress","app_id":440,"player_count":0,"max_players":24,"Bots":0,"server_type":"Dedicated","server_os":"Linux","password":true,"vac":true,"version":"7757534","steam_id":85568392924964314,"keywords":["nocrits","nodmgspread","payload","uncletopia"],"game_id":440,"stv_port":27076,"stv_name":"Uncletopia | London | 7 | No Payload | STV","players":null},{"server_id":41,"name":"Uncletopia | London | 8 | Community","name_short":"lon-8","host":"lon-1.uk.uncletopia.com","port":27085,"enabled":true,"region":"eu","cc":"gb","latitude":51.509865,"longitude":-0.118092,"reserved":0,"last_update":"0001-01-01T00:00:00Z","name_a2s":"Uncletopia | London | 8 | Community","protocol":17,"map":"workshop/koth_bagel_rc6.ugc2514036946","folder":"tf","game":"Team Fortress","app_id":440,"player_count":0,"max_players":24,"Bots":0,"server_type":"Dedicated","server_os":"Linux","password":true,"vac":true,"version":"7757534","steam_id":85568392924964315,"keywords":["cp","nocrits","nodmgspread","uncletopia"],"game_id":440,"stv_port":27086,"stv_name":"Uncletopia | London | 8 | Community | STV","players":null},{"server_id":300,"name":"Uncletopia | Montr√©al | 1 | All Maps","name_short":"mtl-1","host":"mtl-1.ca.uncletopia.com","port":27015,"enabled":true,"region":"us-east","cc":"ca","latitude":45.50889,"longitude":-73.56167,"reserved":0,"last_update":"0001-01-01T00:00:00Z","name_a2s":"Uncletopia | Montr√©al | 1 | All Maps","protocol":17,"map":"cp_sunshine","folder":"tf","game":"Team Fortress","app_id":440,"player_count":0,"max_players":24,"Bots":0,"server_type":"Dedicated","server_os":"Linux","password":true,"vac":true,"version":"7757534","steam_id":85568392924500087,"keywords":["cp","nocrits","nodmgspread","uncletopia"],"game_id":440,"stv_port":27016,"stv_name":"Uncletopia | Montr√©al | 1 | All Maps | STV","players":null},{"server_id":301,"name":"Uncletopia | Montr√©al | 2 | All Maps","name_short":"mtl-2","host":"mtl-1.ca.uncletopia.com","port":27025,"enabled":true,"region":"us-east","cc":"ca","latitude":45.50889,"longitude":-73.56167,"reserved":0,"last_update":"0001-01-01T00:00:00Z","name_a2s":"Uncletopia | Montr√©al | 2 | All Maps","protocol":17,"map":"pl_snowycoast","folder":"tf","game":"Team Fortress","app_id":440,"player_count":0,"max_players":24,"Bots":0,"server_type":"Dedicated","server_os":"Linux","password":true,"vac":true,"version":"7757534","steam_id":85568392924500088,"keywords":["nocrits","nodmgspread","payload","uncletopia"],"game_id":440,"stv_port":27026,"stv_name":"Uncletopia | Montr√©al | 2 | All Maps | STV","players":null},{"server_id":302,"name":"Uncletopia | Montr√©al | 3 | All Maps","name_short":"mtl-3","host":"mtl-1.ca.uncletopia.com","port":27035,"enabled":true,"region":"us-east","cc":"ca","latitude":45.50889,"longitude":-73.56167,"reserved":0,"last_update":"0001-01-01T00:00:00Z","name_a2s":"Uncletopia | Montr√©al | 3 | All Maps","protocol":17,"map":"koth_cascade","folder":"tf","game":"Team Fortress","app_id":440,"player_count":0,"max_players":24,"Bots":0,"server_type":"Dedicated","server_os":"Linux","password":true,"vac":true,"version":"7757534","steam_id":85568392924500089,"keywords":["cp","nocrits","nodmgspread","uncletopia"],"game_id":440,"stv_port":27036,"stv_name":"Uncletopia | Montr√©al | 3 | All Maps | STV","players":null},{"server_id":303,"name":"Uncletopia | Montr√©al | 4 | No Payload","name_short":"mtl-4","host":"mtl-1.ca.uncletopia.com","port":27045,"enabled":true,"region":"us-east","cc":"ca","latitude":45.50889,"longitude":-73.56167,"reserved":0,"last_update":"0001-01-01T00:00:00Z","name_a2s":"Uncletopia | Montr√©al | 4 | No Payload","protocol":17,"map":"koth_suijin","folder":"tf","game":"Team Fortress","app_id":440,"player_count":0,"max_players":24,"Bots":0,"server_type":"Dedicated","server_os":"Linux","password":true,"vac":true,"version":"7757534","steam_id":85568392924500090,"keywords":["cp","nocrits","nodmgspread","uncletopia"],"game_id":440,"stv_port":27046,"stv_name":"Uncletopia | Montr√©al | 4 | No Payload | STV","players":null},{"server_id":13,"name":"Uncletopia | New York City | 1 | All Maps","name_short":"nyc-1","host":"nyc-1.us.uncletopia.com","port":27015,"enabled":true,"region":"us-east","cc":"us","latitude":40.73061,"longitude":-73.93524,"reserved":0,"last_update":"0001-01-01T00:00:00Z","name_a2s":"Uncletopia | New York City | 1 | All Maps","protocol":17,"map":"cp_snakewater_final1","folder":"tf","game":"Team Fortress","app_id":440,"player_count":0,"max_players":24,"Bots":0,"server_type":"Dedicated","server_os":"Linux","password":true,"vac":true,"version":"7757534","steam_id":85568392924469993,"keywords":["cp","nocrits","nodmgspread","uncletopia"],"game_id":440,"stv_port":27016,"stv_name":"Uncletopia | New York City | 1 | All Maps | STV","players":null},{"server_id":14,"name":"Uncletopia | New York City | 2 | All Maps","name_short":"nyc-2","host":"nyc-1.us.uncletopia.com","port":27025,"enabled":true,"region":"us-east","cc":"us","latitude":40.73061,"longitude":-73.93524,"reserved":0,"last_update":"0001-01-01T00:00:00Z","name_a2s":"Uncletopia | New York City | 2 | All Maps","protocol":17,"map":"koth_highpass","folder":"tf","game":"Team Fortress","app_id":440,"player_count":0,"max_players":24,"Bots":0,"server_type":"Dedicated","server_os":"Linux","password":true,"vac":true,"version":"7757534","steam_id":85568392924469994,"keywords":["cp","nocrits","nodmgspread","uncletopia"],"game_id":440,"stv_port":27026,"stv_name":"Uncletopia | New York City | 2 | All Maps | STV","players":null},{"server_id":15,"name":"Uncletopia | New York City | 3 | Stopwatch Beta","name_short":"nyc-3","host":"nyc-1.us.uncletopia.com","port":27035,"enabled":true,"region":"us-east","cc":"us","latitude":40.73061,"longitude":-73.93524,"reserved":0,"last_update":"0001-01-01T00:00:00Z","name_a2s":"Uncletopia | New York City | 3 | Stopwatch Beta","protocol":17,"map":"workshop/cp_reckoner_rc6.ugc674719999","folder":"tf","game":"Team Fortress","app_id":440,"player_count":0,"max_players":24,"Bots":0,"server_type":"Dedicated","server_os":"Linux","password":true,"vac":true,"version":"7757534","steam_id":85568392924742820,"keywords":["cp","nocrits","nodmgspread","uncletopia"],"game_id":440,"stv_port":27036,"stv_name":"Uncletopia | New York City | 3 | Stopwatch Beta | STV","players":null},{"server_id":16,"name":"Uncletopia | New York City | 4 | Community","name_short":"nyc-4","host":"nyc-1.us.uncletopia.com","port":27045,"enabled":true,"region":"us-east","cc":"us","latitude":40.73061,"longitude":-73.93524,"reserved":0,"last_update":"0001-01-01T00:00:00Z","name_a2s":"Uncletopia | New York City | 4 | Community","protocol":17,"map":"workshop/cp_alloy_rc3.ugc592805587","folder":"tf","game":"Team Fortress","app_id":440,"player_count":0,"max_players":24,"Bots":0,"server_type":"Dedicated","server_os":"Linux","password":true,"vac":true,"version":"7757534","steam_id":85568392924742821,"keywords":["cp","nocrits","nodmgspread","uncletopia"],"game_id":440,"stv_port":27046,"stv_name":"Uncletopia | New York City | 4 | Community | STV","players":null},{"server_id":142,"name":"Uncletopia | S√£o Paulo | 1 | All Maps","name_short":"sao-1","host":"sao-1.br.uncletopia.com","port":27015,"enabled":true,"region":"sa","cc":"br","latitude":-23.533773,"longitude":-46.62529,"reserved":0,"last_update":"0001-01-01T00:00:00Z","name_a2s":"Uncletopia | S√£o Paulo | 1 | All Maps","protocol":17,"map":"koth_cascade","folder":"tf","game":"Team Fortress","app_id":440,"player_count":0,"max_players":24,"Bots":0,"server_type":"Dedicated","server_os":"Linux","password":true,"vac":true,"version":"7757534","steam_id":85568392924469996,"keywords":["cp","nocrits","nodmgspread","uncletopia"],"game_id":440,"stv_port":27016,"stv_name":"Uncletopia | S√£o Paulo | 1 | All Maps | STV","players":null},{"server_id":143,"name":"Uncletopia | S√£o Paulo | 2 | All Maps","name_short":"sao-2","host":"sao-2.br.uncletopia.com","port":27015,"enabled":true,"region":"sa","cc":"br","latitude":-23.533773,"longitude":-46.62529,"reserved":0,"last_update":"0001-01-01T00:00:00Z","name_a2s":"Uncletopia | S√£o Paulo | 2 | All Maps","protocol":17,"map":"pl_badwater","folder":"tf","game":"Team Fortress","app_id":440,"player_count":0,"max_players":24,"Bots":0,"server_type":"Dedicated","server_os":"Linux","password":true,"vac":true,"version":"7757534","steam_id":85568392924485349,"keywords":["nocrits","nodmgspread","payload","uncletopia"],"game_id":440,"stv_port":27016,"stv_name":"Uncletopia | S√£o Paulo | 2 | All Maps | STV","players":null},{"server_id":7,"name":"Uncletopia | Seattle | 1 | All Maps","name_short":"sea-1","host":"sea-1.us.uncletopia.com","port":27015,"enabled":true,"region":"us-west","cc":"us","latitude":47.608013,"longitude":-122.33517,"reserved":0,"last_update":"0001-01-01T00:00:00Z","name_a2s":"Uncletopia | Seattle | 1 | All Maps","protocol":17,"map":"pl_badwater","folder":"tf","game":"Team Fortress","app_id":440,"player_count":24,"max_players":24,"Bots":0,"server_type":"Dedicated","server_os":"Linux","password":true,"vac":true,"version":"7757534","steam_id":85568392924469997,"keywords":["nocrits","nodmgspread","payload","uncletopia"],"game_id":440,"stv_port":27016,"stv_name":"Uncletopia | Seattle | 1 | All Maps | STV","players":[{"user_id":831,"name":"how do i control my guy?","steam_id":76561198158855211,"connected_time":559000000000,"state":"active","ping":45},{"user_id":826,"name":"‚ô•haunti","steam_id":76561199235580556,"connected_time":1089000000000,"state":"active","ping":45},{"user_id":786,"name":"squats!","steam_id":76561198314221897,"connected_time":3145000000000,"state":"active","ping":64},{"user_id":822,"name":"toes","steam_id":76561198221151676,"connected_time":1280000000000,"state":"active","ping":58},{"user_id":774,"name":"Tungsten","steam_id":76561198312854342,"connected_time":4875000000000,"state":"active","ping":56},{"user_id":749,"name":"ejschild745","steam_id":76561199013388867,"connected_time":7204000000000,"state":"active","ping":69},{"user_id":793,"name":"An Old Lady","steam_id":76561198047480318,"connected_time":2521000000000,"state":"active","ping":66},{"user_id":830,"name":"Gary, 40, soul sucking 9-5","steam_id":76561198073812888,"connected_time":594000000000,"state":"active","ping":49},{"user_id":772,"name":"Hassium","steam_id":76561198162541373,"connected_time":5036000000000,"state":"active","ping":55},{"user_id":828,"name":"Fajita Master","steam_id":76561198329150962,"connected_time":822000000000,"state":"active","ping":76},{"user_id":833,"name":"green","steam_id":76561198166861105,"connected_time":206000000000,"state":"active","ping":70},{"user_id":801,"name":"ubiquitous man","steam_id":76561198073782350,"connected_time":2256000000000,"state":"active","ping":123},{"user_id":827,"name":"AjiZu","steam_id":76561198143301039,"connected_time":1041000000000,"state":"active","ping":87},{"user_id":800,"name":"Strikerbolt","steam_id":76561199095622897,"connected_time":2392000000000,"state":"active","ping":79},{"user_id":829,"name":"Nierin","steam_id":76561198227545132,"connected_time":611000000000,"state":"active","ping":72},{"user_id":815,"name":"RiverMoot","steam_id":76561198081530179,"connected_time":1601000000000,"state":"active","ping":139},{"user_id":732,"name":"Fawful's Minion","steam_id":76561198090120779,"connected_time":9003000000000,"state":"active","ping":74},{"user_id":812,"name":"SanitysEdge","steam_id":76561198130732813,"connected_time":1676000000000,"state":"active","ping":76},{"user_id":813,"name":"DMJanitor","steam_id":76561198058929753,"connected_time":1663000000000,"state":"active","ping":78},{"user_id":834,"name":"denomes","steam_id":76561198002969945,"connected_time":95000000000,"state":"active","ping":76},{"user_id":818,"name":"mewtek","steam_id":76561198138599995,"connected_time":1529000000000,"state":"active","ping":96},{"user_id":823,"name":"p}","steam_id":76561198145784505,"connected_time":1265000000000,"state":"active","ping":75},{"user_id":792,"name":"Lord Hater","steam_id":76561199158148782,"connected_time":2654000000000,"state":"active","ping":56},{"user_id":820,"name":"SeaverBeaver","steam_id":76561199053263314,"connected_time":1511000000000,"state":"active","ping":74}]},{"server_id":119,"name":"Uncletopia | Seattle | 2 | All Maps","name_short":"sea-2","host":"sea-1.us.uncletopia.com","port":27025,"enabled":true,"region":"us-west","cc":"us","latitude":47.608013,"longitude":-122.33517,"reserved":0,"last_update":"0001-01-01T00:00:00Z","name_a2s":"Uncletopia | Seattle | 2 | All Maps","protocol":17,"map":"cp_mountainlab","folder":"tf","game":"Team Fortress","app_id":440,"player_count":24,"max_players":24,"Bots":0,"server_type":"Dedicated","server_os":"Linux","password":true,"vac":true,"version":"7757534","steam_id":85568392924469998,"keywords":["cp","nocrits","nodmgspread","uncletopia"],"game_id":440,"stv_port":27026,"stv_name":"Uncletopia | Seattle | 2 | All Maps | STV","players":[{"user_id":654,"name":"JayLatne","steam_id":76561198258221077,"connected_time":137000000000,"state":"active","ping":47},{"user_id":631,"name":"Dizzy","steam_id":76561199186348759,"connected_time":2424000000000,"state":"active","ping":122},{"user_id":655,"name":"rock gaming","steam_id":76561199402868311,"connected_time":135000000000,"state":"active","ping":85},{"user_id":632,"name":"Macro","steam_id":76561199442846226,"connected_time":2387000000000,"state":"active","ping":124},{"user_id":638,"name":"stogna bologna","steam_id":76561197997123642,"connected_time":2152000000000,"state":"active","ping":53},{"user_id":657,"name":"ShortZ [PTF]","steam_id":76561198146344977,"connected_time":88000000000,"state":"active","ping":122},{"user_id":649,"name":"Snippykeegan","steam_id":76561198274529343,"connected_time":666000000000,"state":"active","ping":77},{"user_id":648,"name":"Mitsuri's V-Taper","steam_id":76561198045209288,"connected_time":1016000000000,"state":"active","ping":71},{"user_id":658,"name":"vvvvvinyl","steam_id":76561198116805255,"connected_time":39000000000,"state":"spawning","ping":56},{"user_id":659,"name":"mremannn","steam_id":76561198241105316,"connected_time":37000000000,"state":"active","ping":64},{"user_id":637,"name":"goat simulator","steam_id":76561198334059206,"connected_time":2256000000000,"state":"active","ping":82},{"user_id":650,"name":"alcoHollis","steam_id":76561198069797453,"connected_time":392000000000,"state":"active","ping":58},{"user_id":656,"name":"hart","steam_id":76561198046073848,"connected_time":130000000000,"state":"active","ping":45},{"user_id":639,"name":"dlatgirp","steam_id":76561198417137724,"connected_time":2142000000000,"state":"active","ping":69},{"user_id":640,"name":"Puskinti","steam_id":76561198032120688,"connected_time":2141000000000,"state":"active","ping":60},{"user_id":653,"name":"HellaCopter","steam_id":76561198062313698,"connected_time":214000000000,"state":"active","ping":45},{"user_id":567,"name":"Psych03","steam_id":76561198061753667,"connected_time":8328000000000,"state":"active","ping":77},{"user_id":630,"name":"volta","steam_id":76561199214283884,"connected_time":2668000000000,"state":"active","ping":146},{"user_id":628,"name":"Wafflemuscle","steam_id":76561198868628982,"connected_time":2905000000000,"state":"active","ping":42},{"user_id":642,"name":"Kaos","steam_id":76561198059816476,"connected_time":2085000000000,"state":"active","ping":89},{"user_id":643,"name":"GeekyFox3","steam_id":76561198267733290,"connected_time":2083000000000,"state":"active","ping":105},{"user_id":615,"name":"MisterManne","steam_id":76561198106598600,"connected_time":4051000000000,"state":"active","ping":55},{"user_id":652,"name":"pudding","steam_id":76561199089788373,"connected_time":347000000000,"state":"active","ping":113},{"user_id":660,"name":"Quietsharp","steam_id":76561198277968438,"connected_time":33000000000,"state":"active","ping":81}]},{"server_id":406,"name":"Uncletopia | Seattle | 3 | Stopwatch Beta","name_short":"sea-3","host":"sea-1.us.uncletopia.com","port":27035,"enabled":true,"region":"us-west","cc":"us","latitude":47.608013,"longitude":-122.33517,"reserved":0,"last_update":"0001-01-01T00:00:00Z","name_a2s":"Uncletopia | Seattle | 3 | Stopwatch Beta","protocol":17,"map":"koth_highpass","folder":"tf","game":"Team Fortress","app_id":440,"player_count":0,"max_players":24,"Bots":0,"server_type":"Dedicated","server_os":"Linux","password":true,"vac":true,"version":"7757534","steam_id":85568392924515217,"keywords":["cp","nocrits","nodmgspread","uncletopia"],"game_id":440,"stv_port":27036,"stv_name":"Uncletopia | Seattle | 3 | Stopwatch Beta | STV","players":null},{"server_id":17,"name":"Uncletopia | San Francisco | 1 | All Maps","name_short":"sfo-1","host":"sfo-1.us.uncletopia.com","port":27015,"enabled":true,"region":"us-west","cc":"us","latitude":37.77397,"longitude":-122.4313,"reserved":0,"last_update":"0001-01-01T00:00:00Z","name_a2s":"Uncletopia | San Francisco | 1 | All Maps","protocol":17,"map":"pl_badwater","folder":"tf","game":"Team Fortress","app_id":440,"player_count":24,"max_players":24,"Bots":0,"server_type":"Dedicated","server_os":"Linux","password":true,"vac":true,"version":"7757534","steam_id":85568392924469999,"keywords":["nocrits","nodmgspread","payload","uncletopia"],"game_id":440,"stv_port":27016,"stv_name":"Uncletopia | San Francisco | 1 | All Maps | STV","players":[{"user_id":535,"name":"kite man","steam_id":76561198156336213,"connected_time":905000000000,"state":"active","ping":46},{"user_id":520,"name":"selvhat","steam_id":76561198114225509,"connected_time":2766000000000,"state":"active","ping":59},{"user_id":442,"name":"Durial321","steam_id":76561198145669711,"connected_time":8366000000000,"state":"active","ping":54},{"user_id":481,"name":"bigman1","steam_id":76561198050225055,"connected_time":6173000000000,"state":"active","ping":55},{"user_id":496,"name":"Lambchop","steam_id":76561198043900363,"connected_time":4752000000000,"state":"active","ping":60},{"user_id":532,"name":"legolas","steam_id":76561198069665819,"connected_time":958000000000,"state":"active","ping":46},{"user_id":519,"name":"Trips","steam_id":76561198054581597,"connected_time":2806000000000,"state":"active","ping":44},{"user_id":538,"name":"Soothsayer","steam_id":76561198051750641,"connected_time":800000000000,"state":"active","ping":64},{"user_id":522,"name":"Ylime","steam_id":76561198027878221,"connected_time":2642000000000,"state":"active","ping":67},{"user_id":524,"name":"Mischief_EJ1","steam_id":76561198109226673,"connected_time":2467000000000,"state":"active","ping":64},{"user_id":531,"name":"[Colorbomb]","steam_id":76561198006316527,"connected_time":1255000000000,"state":"active","ping":74},{"user_id":515,"name":"clipclop287","steam_id":76561199119130842,"connected_time":3191000000000,"state":"active","ping":69},{"user_id":508,"name":"Sadodere Grimace","steam_id":76561198008332028,"connected_time":4136000000000,"state":"active","ping":65},{"user_id":527,"name":"huiei","steam_id":76561198073763735,"connected_time":2147000000000,"state":"active","ping":57},{"user_id":530,"name":"Ian","steam_id":76561198159334435,"connected_time":1667000000000,"state":"active","ping":164},{"user_id":525,"name":"NotAWeeb","steam_id":76561198165530739,"connected_time":2431000000000,"state":"active","ping":59},{"user_id":474,"name":"Bocchi the Cock","steam_id":76561198152455316,"connected_time":6535000000000,"state":"active","ping":151},{"user_id":544,"name":"blekk","steam_id":76561198000082101,"connected_time":388000000000,"state":"active","ping":87},{"user_id":540,"name":"SIGMA [BS]","steam_id":76561197962604879,"connected_time":641000000000,"state":"active","ping":124},{"user_id":546,"name":"Satan-2","steam_id":76561199231742764,"connected_time":156000000000,"state":"active","ping":131},{"user_id":533,"name":"Acen","steam_id":76561198142660400,"connected_time":953000000000,"state":"active","ping":89},{"user_id":537,"name":"The Champagne of Mayonnaise","steam_id":76561197961107982,"connected_time":820000000000,"state":"active","ping":103},{"user_id":543,"name":"QwQ","steam_id":76561198432226673,"connected_time":464000000000,"state":"active","ping":74},{"user_id":518,"name":"Joequavius","steam_id":76561199153306412,"connected_time":2847000000000,"state":"active","ping":65}]},{"server_id":18,"name":"Uncletopia | San Francisco | 2 | All Maps","name_short":"sfo-2","host":"sfo-1.us.uncletopia.com","port":27025,"enabled":true,"region":"us-west","cc":"us","latitude":37.77397,"longitude":-122.4313,"reserved":0,"last_update":"0001-01-01T00:00:00Z","name_a2s":"Uncletopia | San Francisco | 2 | All Maps","protocol":17,"map":"pl_borneo","folder":"tf","game":"Team Fortress","app_id":440,"player_count":24,"max_players":24,"Bots":0,"server_type":"Dedicated","server_os":"Linux","password":true,"vac":true,"version":"7757534","steam_id":85568392924470000,"keywords":["nocrits","nodmgspread","payload","uncletopia"],"game_id":440,"stv_port":27026,"stv_name":"Uncletopia | San Francisco | 2 | All Maps | STV","players":[{"user_id":730,"name":"Cordial_Lump","steam_id":76561198027777950,"connected_time":2736000000000,"state":"active","ping":129},{"user_id":755,"name":"John Smith","steam_id":76561198185776555,"connected_time":1456000000000,"state":"active","ping":51},{"user_id":759,"name":"Grognak","steam_id":76561198044710527,"connected_time":1379000000000,"state":"active","ping":70},{"user_id":732,"name":"freyja","steam_id":76561198012480197,"connected_time":2715000000000,"state":"active","ping":40},{"user_id":765,"name":"sweaterfan","steam_id":76561199389567214,"connected_time":434000000000,"state":"active","ping":95},{"user_id":719,"name":"Sierra Foxtrot","steam_id":76561197996667382,"connected_time":3609000000000,"state":"active","ping":93},{"user_id":722,"name":"jenny possum","steam_id":76561198062879460,"connected_time":3416000000000,"state":"active","ping":59},{"user_id":692,"name":"Thexx ‚ù§","steam_id":76561198113823050,"connected_time":6437000000000,"state":"active","ping":68},{"user_id":766,"name":"rorywashere /·ê† - Àï -„Éû ‚≥ä","steam_id":76561198065825165,"connected_time":20000000000,"state":"spawning","ping":225},{"user_id":739,"name":"Medic","steam_id":76561198152570304,"connected_time":2508000000000,"state":"active","ping":60},{"user_id":715,"name":"ferby","steam_id":76561198028229594,"connected_time":4067000000000,"state":"active","ping":49},{"user_id":746,"name":"Willowl","steam_id":76561198074612980,"connected_time":2344000000000,"state":"active","ping":146},{"user_id":752,"name":"Blows","steam_id":76561198065349185,"connected_time":1485000000000,"state":"active","ping":47},{"user_id":712,"name":"moth, man, you're troubled","steam_id":76561198801533626,"connected_time":4343000000000,"state":"active","ping":116},{"user_id":713,"name":"Robogineer","steam_id":76561198026994739,"connected_time":4298000000000,"state":"active","ping":58},{"user_id":742,"name":"sniffy","steam_id":76561198184933255,"connected_time":2430000000000,"state":"active","ping":60},{"user_id":764,"name":"WonderousWafflehouse3.141592653","steam_id":76561198051562461,"connected_time":567000000000,"state":"active","ping":63},{"user_id":756,"name":"Crooked--Savant","steam_id":76561198070937094,"connected_time":1456000000000,"state":"active","ping":44},{"user_id":714,"name":"fitotutus","steam_id":76561197974993253,"connected_time":4291000000000,"state":"active","ping":141},{"user_id":749,"name":"oil","steam_id":76561198099980149,"connected_time":2109000000000,"state":"active","ping":59},{"user_id":762,"name":"O_x","steam_id":76561198289696924,"connected_time":817000000000,"state":"active","ping":52},{"user_id":754,"name":"BLU Payload Cart","steam_id":76561198352427247,"connected_time":1471000000000,"state":"active","ping":67},{"user_id":748,"name":"[Bandit]","steam_id":76561197986919852,"connected_time":2313000000000,"state":"active","ping":65},{"user_id":718,"name":"p9 jorts (zoot)","steam_id":76561199041179985,"connected_time":3838000000000,"state":"active","ping":80}]},{"server_id":19,"name":"Uncletopia | San Francisco | 3 | Stopwatch Beta","name_short":"sfo-3","host":"sfo-1.us.uncletopia.com","port":27035,"enabled":true,"region":"us-west","cc":"us","latitude":37.77397,"longitude":-122.4313,"reserved":0,"last_update":"0001-01-01T00:00:00Z","name_a2s":"Uncletopia | San Francisco | 3 | Stopwatch Beta","protocol":17,"map":"pl_borneo","folder":"tf","game":"Team Fortress","app_id":440,"player_count":0,"max_players":24,"Bots":0,"server_type":"Dedicated","server_os":"Linux","password":true,"vac":true,"version":"7757534","steam_id":85568392924742824,"keywords":["nocrits","nodmgspread","payload","uncletopia"],"game_id":440,"stv_port":27036,"stv_name":"Uncletopia | San Francisco | 3 | Stopwatch Beta | STV","players":null},{"server_id":20,"name":"Uncletopia | San Francisco | 4 | Community","name_short":"sfo-4","host":"sfo-1.us.uncletopia.com","port":27045,"enabled":true,"region":"us-west","cc":"us","latitude":37.77397,"longitude":-122.4313,"reserved":0,"last_update":"0001-01-01T00:00:00Z","name_a2s":"Uncletopia | San Francisco | 4 | Community","protocol":17,"map":"workshop/pl_boundary_final1.ugc456799153","folder":"tf","game":"Team Fortress","app_id":440,"player_count":1,"max_players":24,"Bots":0,"server_type":"Dedicated","server_os":"Linux","password":true,"vac":true,"version":"7757534","steam_id":85568392924742826,"keywords":["nocrits","nodmgspread","payload","uncletopia"],"game_id":440,"stv_port":27046,"stv_name":"Uncletopia | San Francisco | 4 | Community | STV","players":[{"user_id":5,"name":"koko","steam_id":76561198953867666,"connected_time":58000000000,"state":"active","ping":217}]},{"server_id":141,"name":"Uncletopia | Sydney | 1 | All Maps","name_short":"syd-1","host":"syd-1.au.uncletopia.com","port":27015,"enabled":true,"region":"au","cc":"au","latitude":-33.865143,"longitude":151.2099,"reserved":0,"last_update":"0001-01-01T00:00:00Z","name_a2s":"Uncletopia | Sydney | 1 | All Maps","protocol":17,"map":"pl_swiftwater_final1","folder":"tf","game":"Team Fortress","app_id":440,"player_count":24,"max_players":24,"Bots":0,"server_type":"Dedicated","server_os":"Linux","password":true,"vac":true,"version":"7757534","steam_id":85568392924470001,"keywords":["nocrits","nodmgspread","payload","uncletopia"],"game_id":440,"stv_port":27016,"stv_name":"Uncletopia | Sydney | 1 | All Maps | STV","players":[{"user_id":140,"name":"Poop2Hard","steam_id":76561198099383586,"connected_time":973000000000,"state":"active","ping":58},{"user_id":118,"name":"Loga(n)","steam_id":76561198252922034,"connected_time":2205000000000,"state":"active","ping":70},{"user_id":156,"name":"Nades","steam_id":76561198012542005,"connected_time":434000000000,"state":"active","ping":61},{"user_id":139,"name":"BobbyFlobby","steam_id":76561198341487196,"connected_time":1028000000000,"state":"active","ping":78},{"user_id":144,"name":"Zoey","steam_id":76561198126153554,"connected_time":737000000000,"state":"active","ping":79},{"user_id":122,"name":"Juni","steam_id":76561198329391466,"connected_time":2126000000000,"state":"active","ping":89},{"user_id":126,"name":"mushroom","steam_id":76561197992336470,"connected_time":1869000000000,"state":"active","ping":100},{"user_id":123,"name":"Warmwalker","steam_id":76561198025089589,"connected_time":2114000000000,"state":"active","ping":143},{"user_id":162,"name":"tom :D","steam_id":76561198073393715,"connected_time":9000000000,"state":"active","ping":117},{"user_id":134,"name":"Vix","steam_id":76561199076889222,"connected_time":1177000000000,"state":"active","ping":49},{"user_id":153,"name":"Distilledrain41","steam_id":76561198272717119,"connected_time":559000000000,"state":"active","ping":47},{"user_id":131,"name":"electro599","steam_id":76561198058148858,"connected_time":1420000000000,"state":"active","ping":57},{"user_id":135,"name":"Tiger_Tan","steam_id":76561198221733844,"connected_time":1171000000000,"state":"active","ping":73},{"user_id":147,"name":"PieMuncher","steam_id":76561198107221185,"connected_time":647000000000,"state":"active","ping":75},{"user_id":100,"name":"Voncrumb","steam_id":76561198054076313,"connected_time":3568000000000,"state":"active","ping":50},{"user_id":148,"name":"floop flub","steam_id":76561198418968979,"connected_time":644000000000,"state":"active","ping":99},{"user_id":149,"name":"faithless","steam_id":76561198064565908,"connected_time":628000000000,"state":"active","ping":81},{"user_id":161,"name":"Madallar","steam_id":76561198379635302,"connected_time":162000000000,"state":"active","ping":77},{"user_id":159,"name":"homes inc","steam_id":76561198170188198,"connected_time":236000000000,"state":"active","ping":57},{"user_id":155,"name":"MrSpooder","steam_id":76561199029919742,"connected_time":487000000000,"state":"active","ping":45},{"user_id":151,"name":"‚ÇÆ…Ü‚Ç¥‚ÇÆ≈Ç‚Çµ…Ñ‚±†√ò‚±§…Ñ‚Ç•","steam_id":76561199349964541,"connected_time":587000000000,"state":"active","ping":57},{"user_id":152,"name":"soupy","steam_id":76561198073734936,"connected_time":567000000000,"state":"active","ping":88},{"user_id":158,"name":"wilson","steam_id":76561198094093147,"connected_time":389000000000,"state":"active","ping":105},{"user_id":111,"name":"weezer","steam_id":76561199439508788,"connected_time":3081000000000,"state":"active","ping":64}]},{"server_id":123,"name":"Uncletopia | Sydney | 2 | All Maps","name_short":"syd-2","host":"syd-1.au.uncletopia.com","port":27025,"enabled":true,"region":"au","cc":"au","latitude":-33.865143,"longitude":151.2099,"reserved":0,"last_update":"0001-01-01T00:00:00Z","name_a2s":"Uncletopia | Sydney | 2 | All Maps","protocol":17,"map":"koth_viaduct","folder":"tf","game":"Team Fortress","app_id":440,"player_count":23,"max_players":24,"Bots":0,"server_type":"Dedicated","server_os":"Linux","password":true,"vac":true,"version":"7757534","steam_id":85568392924470002,"keywords":["cp","nocrits","nodmgspread","uncletopia"],"game_id":440,"stv_port":27026,"stv_name":"Uncletopia | Sydney | 2 | All Maps | STV","players":[{"user_id":279,"name":"whiteshaq","steam_id":76561198131988811,"connected_time":496000000000,"state":"active","ping":49},{"user_id":225,"name":"Jodelk√∂nig Franzl Lang","steam_id":76561198007667830,"connected_time":3389000000000,"state":"active","ping":45},{"user_id":152,"name":"Swate","steam_id":76561198042991670,"connected_time":10195000000000,"state":"active","ping":57},{"user_id":198,"name":"Livid","steam_id":76561198060024585,"connected_time":5256000000000,"state":"active","ping":37},{"user_id":280,"name":"EpicGuy4227","steam_id":76561198094132328,"connected_time":479000000000,"state":"active","ping":53},{"user_id":287,"name":"Arpazha","steam_id":76561199072257230,"connected_time":199000000000,"state":"active","ping":144},{"user_id":288,"name":"CypressFluff (She/Her)","steam_id":76561198174667818,"connected_time":120000000000,"state":"active","ping":56},{"user_id":282,"name":"moon rising","steam_id":76561198442198135,"connected_time":380000000000,"state":"active","ping":48},{"user_id":284,"name":"VeXed","steam_id":76561198071379867,"connected_time":374000000000,"state":"active","ping":54},{"user_id":276,"name":"Capwned","steam_id":76561198199847073,"connected_time":826000000000,"state":"active","ping":73},{"user_id":274,"name":"Don Cheezel","steam_id":76561198321407264,"connected_time":974000000000,"state":"active","ping":65},{"user_id":283,"name":"Yric","steam_id":76561198050493469,"connected_time":377000000000,"state":"active","ping":51},{"user_id":289,"name":"Smellyblackman","steam_id":76561198009593698,"connected_time":75000000000,"state":"active","ping":44},{"user_id":277,"name":"The :)","steam_id":76561198958059883,"connected_time":811000000000,"state":"active","ping":80},{"user_id":290,"name":"ThirtyTwelve","steam_id":76561199192513554,"connected_time":60000000000,"state":"active","ping":52},{"user_id":183,"name":"itsjustmarvin77","steam_id":76561199375656301,"connected_time":6366000000000,"state":"active","ping":74},{"user_id":278,"name":"Redditor","steam_id":76561199475501282,"connected_time":723000000000,"state":"active","ping":57},{"user_id":285,"name":"gary without the r","steam_id":76561198061532381,"connected_time":370000000000,"state":"active","ping":57},{"user_id":291,"name":"EmmArrGus","steam_id":76561198106343847,"connected_time":25000000000,"state":"active","ping":46},{"user_id":261,"name":"Kouroboros","steam_id":76561198141283669,"connected_time":1133000000000,"state":"active","ping":85},{"user_id":262,"name":"SamBites(F2P)","steam_id":76561199177609225,"connected_time":1131000000000,"state":"active","ping":150},{"user_id":238,"name":"Tantei Rotana","steam_id":76561198041204323,"connected_time":2267000000000,"state":"active","ping":62},{"user_id":224,"name":"SUSHIMAN","steam_id":76561199089989428,"connected_time":3462000000000,"state":"active","ping":87}]},{"server_id":395,"name":"Uncletopia | Sydney | 3 | All Maps","name_short":"syd-3","host":"syd-1.au.uncletopia.com","port":27035,"enabled":true,"region":"au","cc":"au","latitude":-33.865143,"longitude":151.2099,"reserved":0,"last_update":"0001-01-01T00:00:00Z","name_a2s":"Uncletopia | Sydney | 3 | All Maps","protocol":17,"map":"pl_swiftwater_final1","folder":"tf","game":"Team Fortress","app_id":440,"player_count":4,"max_players":24,"Bots":0,"server_type":"Dedicated","server_os":"Linux","password":true,"vac":true,"version":"7757534","steam_id":85568392925194467,"keywords":["nocrits","nodmgspread","payload","uncletopia"],"game_id":440,"stv_port":27036,"stv_name":"Uncletopia | Sydney | 3 | All Maps | STV","players":[{"user_id":365,"name":"‡∏∏bifcheg","steam_id":76561198319806610,"connected_time":6990000000000,"state":"active","ping":69},{"user_id":461,"name":"smite","steam_id":76561198845304189,"connected_time":269000000000,"state":"active","ping":78},{"user_id":459,"name":"biff","steam_id":76561198069603865,"connected_time":359000000000,"state":"active","ping":50},{"user_id":357,"name":"Long_Neck","steam_id":76561198059207275,"connected_time":7869000000000,"state":"active","ping":89}]},{"server_id":396,"name":"Uncletopia | Sydney | 4 | All Maps","name_short":"syd-4","host":"syd-1.au.uncletopia.com","port":27045,"enabled":true,"region":"au","cc":"au","latitude":-33.865143,"longitude":151.2099,"reserved":0,"last_update":"0001-01-01T00:00:00Z","name_a2s":"Uncletopia | Sydney | 4 | All Maps","protocol":17,"map":"cp_sunshine","folder":"tf","game":"Team Fortress","app_id":440,"player_count":0,"max_players":24,"Bots":0,"server_type":"Dedicated","server_os":"Linux","password":true,"vac":true,"version":"7757534","steam_id":85568392925397958,"keywords":["cp","nocrits","nodmgspread","uncletopia"],"game_id":440,"stv_port":27046,"stv_name":"Uncletopia | Sydney | 4 | All Maps | STV","players":null},{"server_id":58,"name":"Uncletopia | Sydney | 5 | Stopwatch Beta","name_short":"syd-5","host":"syd-1.au.uncletopia.com","port":27055,"enabled":true,"region":"au","cc":"au","latitude":-33.865143,"longitude":151.2099,"reserved":0,"last_update":"0001-01-01T00:00:00Z","name_a2s":"Uncletopia | Sydney | 5 | Stopwatch Beta","protocol":17,"map":"workshop/cp_reckoner_rc6.ugc674719999","folder":"tf","game":"Team Fortress","app_id":440,"player_count":0,"max_players":24,"Bots":0,"server_type":"Dedicated","server_os":"Linux","password":true,"vac":true,"version":"7757534","steam_id":85568392925397959,"keywords":["cp","nocrits","nodmgspread","uncletopia"],"game_id":440,"stv_port":27056,"stv_name":"Uncletopia | Sydney | 5 | Stopwatch Beta | STV","players":null},{"server_id":59,"name":"Uncletopia | Sydney | 6 | Community","name_short":"syd-6","host":"syd-1.au.uncletopia.com","port":27065,"enabled":true,"region":"au","cc":"au","latitude":-33.865143,"longitude":151.2099,"reserved":0,"last_update":"0001-01-01T00:00:00Z","name_a2s":"Uncletopia | Sydney | 6 | Community","protocol":17,"map":"workshop/koth_ramjam_rc1.ugc459778887","folder":"tf","game":"Team Fortress","app_id":440,"player_count":0,"max_players":24,"Bots":0,"server_type":"Dedicated","server_os":"Linux","password":true,"vac":true,"version":"7757534","steam_id":85568392925397960,"keywords":["cp","nocrits","nodmgspread","uncletopia"],"game_id":440,"stv_port":27066,"stv_name":"Uncletopia | Sydney | 6 | Community | STV","players":null},{"server_id":49,"name":"Uncletopia | Warsaw | 1 | All Maps","name_short":"waw-1","host":"waw-1.pl.uncletopia.com","port":27015,"enabled":true,"region":"eu","cc":"pl","latitude":52.2297,"longitude":21.017532,"reserved":0,"last_update":"0001-01-01T00:00:00Z","name_a2s":"","protocol":0,"map":"","folder":"","game":"","app_id":0,"player_count":0,"max_players":0,"Bots":0,"server_type":"","server_os":"","password":false,"vac":false,"version":"","steam_id":0,"keywords":null,"game_id":0,"stv_port":0,"stv_name":"","players":null},{"server_id":50,"name":"Uncletopia | Warsaw | 2 | All Maps","name_short":"waw-2","host":"waw-1.pl.uncletopia.com","port":27025,"enabled":true,"region":"eu","cc":"pl","latitude":52.2297,"longitude":21.017532,"reserved":0,"last_update":"0001-01-01T00:00:00Z","name_a2s":"Uncletopia | Warsaw | 2 | All Maps","protocol":17,"map":"koth_viaduct","folder":"tf","game":"Team Fortress","app_id":440,"player_count":0,"max_players":24,"Bots":0,"server_type":"Dedicated","server_os":"Linux","password":true,"vac":true,"version":"7757534","steam_id":85568392925397851,"keywords":["cp","nocrits","nodmgspread","uncletopia"],"game_id":440,"stv_port":27026,"stv_name":"Uncletopia | Warsaw | 2 | All Maps | STV","players":null},{"server_id":51,"name":"Uncletopia | Warsaw | 3 | All Maps","name_short":"waw-3","host":"waw-1.pl.uncletopia.com","port":27035,"enabled":true,"region":"eu","cc":"pl","latitude":52.2297,"longitude":21.017532,"reserved":0,"last_update":"0001-01-01T00:00:00Z","name_a2s":"Uncletopia | Warsaw | 3 | All Maps","protocol":17,"map":"pl_badwater","folder":"tf","game":"Team Fortress","app_id":440,"player_count":0,"max_players":24,"Bots":0,"server_type":"Dedicated","server_os":"Linux","password":true,"vac":true,"version":"7757534","steam_id":85568392925397852,"keywords":["nocrits","nodmgspread","payload","uncletopia"],"game_id":440,"stv_port":27036,"stv_name":"Uncletopia | Warsaw | 3 | All Maps | STV","players":null},{"server_id":52,"name":"Uncletopia | Warsaw | 4 | All Maps","name_short":"waw-4","host":"waw-1.pl.uncletopia.com","port":27045,"enabled":true,"region":"eu","cc":"pl","latitude":52.2297,"longitude":21.017532,"reserved":0,"last_update":"0001-01-01T00:00:00Z","name_a2s":"Uncletopia | Warsaw | 4 | All Maps","protocol":17,"map":"koth_lakeside_final","folder":"tf","game":"Team Fortress","app_id":440,"player_count":0,"max_players":24,"Bots":0,"server_type":"Dedicated","server_os":"Linux","password":true,"vac":true,"version":"7757534","steam_id":85568392925397853,"keywords":["cp","nocrits","nodmgspread","uncletopia"],"game_id":440,"stv_port":27046,"stv_name":"Uncletopia | Warsaw | 4 | All Maps | STV","players":null},{"server_id":53,"name":"Uncletopia | Warsaw | 5 | Stopwatch Beta","name_short":"waw-5","host":"waw-1.pl.uncletopia.com","port":27055,"enabled":true,"region":"eu","cc":"pl","latitude":52.2297,"longitude":21.017532,"reserved":0,"last_update":"0001-01-01T00:00:00Z","name_a2s":"Uncletopia | Warsaw | 5 | Stopwatch Beta","protocol":17,"map":"pl_borneo","folder":"tf","game":"Team Fortress","app_id":440,"player_count":0,"max_players":24,"Bots":0,"server_type":"Dedicated","server_os":"Linux","password":true,"vac":true,"version":"7757534","steam_id":85568392925397854,"keywords":["nocrits","nodmgspread","payload","uncletopia"],"game_id":440,"stv_port":27056,"stv_name":"Uncletopia | Warsaw | 5 | Stopwatch Beta | STV","players":null},{"server_id":54,"name":"Uncletopia | Warsaw | 6 | Community","name_short":"waw-6","host":"waw-1.pl.uncletopia.com","port":27065,"enabled":true,"region":"eu","cc":"pl","latitude":52.2297,"longitude":21.017532,"reserved":0,"last_update":"0001-01-01T00:00:00Z","name_a2s":"Uncletopia | Warsaw | 6 | Community","protocol":17,"map":"koth_lakeside_final","folder":"tf","game":"Team Fortress","app_id":440,"player_count":0,"max_players":24,"Bots":0,"server_type":"Dedicated","server_os":"Linux","password":true,"vac":true,"version":"7757534","steam_id":85568392925397856,"keywords":["cp","nocrits","nodmgspread","uncletopia"],"game_id":440,"stv_port":27066,"stv_name":"Uncletopia | Warsaw | 6 | Community | STV","players":null}]}