{"status":true,"message":"","result":[{"server_id":9,"name":"Uncletopia | Atlanta | 1 | All Maps","name_short":"atl-1","host":"atl-1.us.uncletopia.com","port":27015,"enabled":true,"region":"us-east","cc":"us","latitude":33.753746,"longitude":-84.38633,"reserved":0,"last_update":"0001-01-01T00:00:00Z","name_a2s":"Uncletopia | Atlanta | 1 | All Maps","protocol":17,"map":"pl_swiftwater_final1","folder":"tf","game":"Team Fortress","app_id":440,"player_count":13,"max_players":24,"Bots":0,"server_type":"Dedicated","server_os":"Linux","password":true,"vac":true,"version":"7708610","steam_id":85568392924469982,"keywords":["nocrits","nodmgspread","payload","uncletopia"],"game_id":440,"stv_port":27016,"stv_name":"Uncletopia | Atlanta | 1 | All Maps | STV","players":[{"user_id":1011,"name":"ATL1 | Decolour","steam_id":76561199045608372,"connected_time":2010000000000,"state":"active","ping":69},{"user_id":1012,"name":"‚ùÖAlyx‚ùÖ","steam_id":76561198024303978,"connected_time":1993000000000,"state":"active","ping":57},{"user_id":1013,"name":"Oak","steam_id":76561198092135570,"connected_time":1992000000000,"state":"active","ping":57},{"user_id":1022,"name":"spoonful","steam_id":76561198927517471,"connected_time":797000000000,"state":"active","ping":48},{"user_id":1015,"name":"Mage","steam_id":76561198285026879,"connected_time":1930000000000,"state":"active","ping":69},{"user_id":1016,"name":"ATL1 | Lav4ie They/Them","steam_id":76561198825997674,"connected_time":1924000000000,"state":"active","ping":60},{"user_id":1017,"name":"Winter","steam_id":76561198312741335,"connected_time":1906000000000,"state":"active","ping":150},{"user_id":1018,"name":"SnowStorm","steam_id":76561198095817025,"connected_time":1846000000000,"state":"active","ping":31},{"user_id":1021,"name":"Assitins","steam_id":76561198041572892,"connected_time":1441000000000,"state":"active","ping":61},{"user_id":1020,"name":"floofy","steam_id":76561198389769098,"connected_time":1767000000000,"state":"active","ping":88},{"user_id":1027,"name":"JellyParrot","steam_id":76561199190990163,"connected_time":12000000000,"state":"spawning","ping":62},{"user_id":1026,"name":"shooty","steam_id":76561198128485603,"connected_time":98000000000,"state":"active","ping":54},{"user_id":1025,"name":"BURTMCSLURP","steam_id":76561198026118940,"connected_time":493000000000,"state":"active","ping":79}]},{"server_id":400,"name":"Uncletopia | Atlanta | 3 | All Maps","name_short":"atl-3","host":"atl-1.us.uncletopia.com","port":27035,"enabled":true,"region":"us-east","cc":"us","latitude":33.753746,"longitude":-84.38633,"reserved":0,"last_update":"0001-01-01T00:00:00Z","name_a2s":"Uncletopia | Atlanta | 3 | All Maps","protocol":17,"map":"pl_swiftwater_final1","folder":"tf","game":"Team Fortress","app_id":440,"player_count":0,"max_players":24,"Bots":0,"server_type":"Dedicated","server_os":"Linux","password":true,"vac":true,"version":"7708610","steam_id":85568392924515187,"keywords":["nocrits","nodmgspread","payload","uncletopia"],"game_id":440,"stv_port":27036,"stv_name":"Uncletopia | Atlanta | 3 | All Maps | STV","players":null},{"server_id":401,"name":"Uncletopia | Atlanta | 4 | No Payload","name_short":"atl-4","host":"atl-1.us.uncletopia.com","port":27045,"enabled":true,"region":"us-east","cc":"us","latitude":33.753746,"longitude":-84.38633,"reserved":0,"last_update":"0001-01-01T00:00:00Z","name_a2s":"Uncletopia | Atlanta | 4 | No Payload","protocol":17,"map":"plr_pipeline","folder":"tf","game":"Team Fortress","app_id":440,"player_count":0,"max_players":24,"Bots":0,"server_type":"Dedicated","server_os":"Linux","password":true,"vac":true,"version":"7708610","steam_id":85568392924515188,"keywords":["nocrits","nodmgspread","payload","uncletopia"],"game_id":440,"stv_port":27046,"stv_name":"Uncletopia | Atlanta | 4 | No Payload | STV","players":null},{"server_id":2,"name":"Uncletopia | Chicago | 1 | All Maps","name_short":"chi-1","host":"chi-1.us.uncletopia.com","port":27015,"enabled":true,"region":"us-central","cc":"us","latitude":41.881832,"longitude":-87.62318,"reserved":0,"last_update":"0001-01-01T00:00:00Z","name_a2s":"Uncletopia | Chicago | 1 | All Maps","protocol":17,"map":"cp_mountainlab","folder":"tf","game":"Team Fortress","app_id":440,"player_count":24,"max_players":24,"Bots":0,"server_type":"Dedicated","server_os":"Linux","password":true,"vac":true,"version":"7708610","steam_id":85568392924469984,"keywords":["cp","nocrits","nodmgspread","uncletopia"],"game_id":440,"stv_port":27016,"stv_name":"Uncletopia | Chicago | 1 | All Maps | STV","players":[{"user_id":814,"name":"They/Them pussy got me like","steam_id":76561198050964269,"connected_time":2504000000000,"state":"active","ping":84},{"user_id":846,"name":"Sovulous","steam_id":76561198045389233,"connected_time":1078000000000,"state":"active","ping":75},{"user_id":855,"name":"jerma but crying and lesbian","steam_id":76561198110661425,"connected_time":490000000000,"state":"active","ping":47},{"user_id":845,"name":"¬°ayudame!","steam_id":76561198071421094,"connected_time":1107000000000,"state":"active","ping":100},{"user_id":823,"name":"Spooks ‚òÜ","steam_id":76561198118095626,"connected_time":1946000000000,"state":"active","ping":84},{"user_id":856,"name":"pelicAn","steam_id":76561197963422599,"connected_time":177000000000,"state":"active","ping":64},{"user_id":825,"name":"Baka!‚ë®‚ë®‚ë®‚ë®","steam_id":76561198152948254,"connected_time":1890000000000,"state":"active","ping":61},{"user_id":837,"name":"CassandraRC7 (She/her)","steam_id":76561198094123940,"connected_time":1330000000000,"state":"active","ping":62},{"user_id":827,"name":"BooBoo lft","steam_id":76561198150772294,"connected_time":1639000000000,"state":"active","ping":59},{"user_id":817,"name":"Cinn","steam_id":76561198091650021,"connected_time":2380000000000,"state":"active","ping":98},{"user_id":828,"name":"Dylanxp300","steam_id":76561198271974937,"connected_time":1636000000000,"state":"active","ping":82},{"user_id":829,"name":"Gilgamesh","steam_id":76561198317113179,"connected_time":1630000000000,"state":"active","ping":60},{"user_id":842,"name":"Couriadore","steam_id":76561198055814008,"connected_time":1248000000000,"state":"active","ping":57},{"user_id":830,"name":"BleeboBleebo","steam_id":76561198151549658,"connected_time":1592000000000,"state":"active","ping":76},{"user_id":849,"name":"Elizabeth truss","steam_id":76561198058250979,"connected_time":963000000000,"state":"active","ping":60},{"user_id":857,"name":"the potato boy","steam_id":76561198069506128,"connected_time":31000000000,"state":"active","ping":45},{"user_id":854,"name":"Luke [DG]","steam_id":76561198005064120,"connected_time":710000000000,"state":"active","ping":94},{"user_id":851,"name":"wiwi","steam_id":76561198094220383,"connected_time":939000000000,"state":"active","ping":67},{"user_id":838,"name":"-BRH- Tangled up in Bluegrass","steam_id":76561197987181139,"connected_time":1287000000000,"state":"active","ping":67},{"user_id":839,"name":"-√ü–Ø“¢- CYBER PYRO","steam_id":76561197973948102,"connected_time":1283000000000,"state":"active","ping":79},{"user_id":840,"name":"Edg4rAllanBro","steam_id":76561198273233681,"connected_time":1280000000000,"state":"active","ping":45},{"user_id":841,"name":"Shadow Zero -√ü–Ø“¢-","steam_id":76561198025326136,"connected_time":1279000000000,"state":"active","ping":54},{"user_id":843,"name":"wa","steam_id":76561198012945016,"connected_time":1243000000000,"state":"active","ping":57},{"user_id":852,"name":"PirateJet","steam_id":76561198050858744,"connected_time":919000000000,"state":"active","ping":110}]},{"server_id":106,"name":"Uncletopia | Chicago | 2 | All Maps","name_short":"chi-2","host":"chi-1.us.uncletopia.com","port":27025,"enabled":true,"region":"us-central","cc":"us","latitude":41.881832,"longitude":-87.62318,"reserved":0,"last_update":"0001-01-01T00:00:00Z","name_a2s":"Uncletopia | Chicago | 2 | All Maps","protocol":17,"map":"koth_cascade","folder":"tf","game":"Team Fortress","app_id":440,"player_count":0,"max_players":24,"Bots":0,"server_type":"Dedicated","server_os":"Linux","password":true,"vac":true,"version":"7708610","steam_id":85568392924469985,"keywords":["cp","nocrits","nodmgspread","uncletopia"],"game_id":440,"stv_port":27026,"stv_name":"Uncletopia | Chicago | 2 | All Maps | STV","players":null},{"server_id":402,"name":"Uncletopia | Chicago | 3 | All Maps","name_short":"chi-3","host":"chi-1.us.uncletopia.com","port":27035,"enabled":true,"region":"us-central","cc":"us","latitude":41.881832,"longitude":-87.62318,"reserved":0,"last_update":"0001-01-01T00:00:00Z","name_a2s":"Uncletopia | Chicago | 3 | All Maps","protocol":17,"map":"pl_snowycoast","folder":"tf","game":"Team Fortress","app_id":440,"player_count":0,"max_players":24,"Bots":0,"server_type":"Dedicated","server_os":"Linux","password":true,"vac":true,"version":"7708610","steam_id":85568392924515191,"keywords":["nocrits","nodmgspread","payload","uncletopia"],"game_id":440,"stv_port":27036,"stv_name":"Uncletopia | Chicago | 3 | All Maps | STV","players":null},{"server_id":403,"name":"Uncletopia | Chicago | 4 | All Maps","name_short":"chi-4","host":"chi-1.us.uncletopia.com","port":27045,"enabled":true,"region":"us-central","cc":"us","latitude":41.881832,"longitude":-87.62318,"reserved":0,"last_update":"0001-01-01T00:00:00Z","name_a2s":"Uncletopia | Chicago | 4 | All Maps","protocol":17,"map":"cp_dustbowl","folder":"tf","game":"Team Fortress","app_id":440,"player_count":24,"max_players":24,"Bots":0,"server_type":"Dedicated","server_os":"Linux","password":true,"vac":true,"version":"7708610","steam_id":85568392924515193,"keywords":["cp","nocrits","nodmgspread","uncletopia"],"game_id":440,"stv_port":27046,"stv_name":"Uncletopia | Chicago | 4 | All Maps | STV","players":[{"user_id":705,"name":"Harley [Ramiel]","steam_id":76561198079510840,"connected_time":250000000000,"state":"active","ping":93},{"user_id":699,"name":"envythealchemist//À¢·µñ·µó·∂† ∏","steam_id":76561198099470277,"connected_time":1165000000000,"state":"active","ping":80},{"user_id":656,"name":"Psychosis","steam_id":76561198078659070,"connected_time":2924000000000,"state":"active","ping":76},{"user_id":706,"name":"CyberCanine","steam_id":76561198863750818,"connected_time":229000000000,"state":"active","ping":95},{"user_id":695,"name":"Jelqing Table","steam_id":76561198051373750,"connected_time":1238000000000,"state":"active","ping":68},{"user_id":687,"name":"MrLeftTurn","steam_id":76561198856743969,"connected_time":1591000000000,"state":"active","ping":124},{"user_id":688,"name":"AlexLovesYou","steam_id":76561199163263543,"connected_time":1511000000000,"state":"active","ping":100},{"user_id":689,"name":"jayv","steam_id":76561198210215504,"connected_time":1383000000000,"state":"active","ping":63},{"user_id":664,"name":"ASadTeddyBear","steam_id":76561198968206673,"connected_time":2406000000000,"state":"active","ping":69},{"user_id":690,"name":"Gentlegen","steam_id":76561198257368619,"connected_time":1383000000000,"state":"active","ping":93},{"user_id":700,"name":"Golem","steam_id":76561199015772917,"connected_time":1017000000000,"state":"active","ping":110},{"user_id":646,"name":"Kraul","steam_id":76561198043682060,"connected_time":3951000000000,"state":"active","ping":94},{"user_id":674,"name":"Glass Joe","steam_id":76561198317365741,"connected_time":1927000000000,"state":"active","ping":62},{"user_id":707,"name":"god's silliest soldier","steam_id":76561198143132686,"connected_time":222000000000,"state":"active","ping":88},{"user_id":680,"name":"MOMMY HOG","steam_id":76561199230929836,"connected_time":1795000000000,"state":"active","ping":93},{"user_id":637,"name":"shroomish enjoyer","steam_id":76561198149775502,"connected_time":4996000000000,"state":"active","ping":77},{"user_id":696,"name":"WHA DA HELLLL NO WAAaaAYYY","steam_id":76561198232500756,"connected_time":1233000000000,"state":"active","ping":74},{"user_id":702,"name":"VOID","steam_id":76561198107501413,"connected_time":735000000000,"state":"active","ping":60},{"user_id":675,"name":"bite of 87 (real NOT CLICKBAIT)","steam_id":76561198045832398,"connected_time":1921000000000,"state":"active","ping":81},{"user_id":638,"name":"Red","steam_id":76561198051557567,"connected_time":4975000000000,"state":"active","ping":60},{"user_id":609,"name":"HUGE HOG","steam_id":76561198079923652,"connected_time":7877000000000,"state":"active","ping":88},{"user_id":654,"name":"ailee","steam_id":76561198284326069,"connected_time":3618000000000,"state":"active","ping":56},{"user_id":698,"name":"akirajimbo","steam_id":76561197979960008,"connected_time":1208000000000,"state":"active","ping":59},{"user_id":676,"name":"Funke Monke","steam_id":76561198079440976,"connected_time":1921000000000,"state":"active","ping":62}]},{"server_id":36,"name":"Uncletopia | Chicago | 5 | All Maps","name_short":"chi-5","host":"chi-2.us.uncletopia.com","port":27015,"enabled":true,"region":"us-central","cc":"us","latitude":41.881832,"longitude":-87.62318,"reserved":0,"last_update":"0001-01-01T00:00:00Z","name_a2s":"Uncletopia | Chicago | 5 | All Maps","protocol":17,"map":"ctf_turbine","folder":"tf","game":"Team Fortress","app_id":440,"player_count":14,"max_players":24,"Bots":0,"server_type":"Dedicated","server_os":"Linux","password":true,"vac":true,"version":"7708610","steam_id":85568392924866362,"keywords":["ctf","nocrits","nodmgspread","uncletopia"],"game_id":440,"stv_port":27016,"stv_name":"Uncletopia | Chicago | 5 | All Maps | STV","players":[{"user_id":439,"name":"AshenHunter13","steam_id":76561199115603117,"connected_time":713000000000,"state":"active","ping":64},{"user_id":438,"name":"ipadkid","steam_id":76561199239446808,"connected_time":1229000000000,"state":"active","ping":95},{"user_id":440,"name":"Dura","steam_id":76561198334676366,"connected_time":59000000000,"state":"active","ping":79},{"user_id":442,"name":"Zippy","steam_id":76561198279229422,"connected_time":47000000000,"state":"active","ping":40},{"user_id":443,"name":"breathing meat donut","steam_id":76561198123566649,"connected_time":39000000000,"state":"active","ping":72},{"user_id":400,"name":"matkaster","steam_id":76561197998546486,"connected_time":6079000000000,"state":"active","ping":46},{"user_id":411,"name":"Stboxnard","steam_id":76561198089888887,"connected_time":5177000000000,"state":"active","ping":112},{"user_id":444,"name":"Rubi","steam_id":76561198799014963,"connected_time":2000000000,"state":"spawning","ping":80},{"user_id":417,"name":"bad spy player","steam_id":76561198873699671,"connected_time":4534000000000,"state":"active","ping":97},{"user_id":394,"name":"JPSS","steam_id":76561199239530493,"connected_time":6512000000000,"state":"active","ping":77},{"user_id":395,"name":"Lone Dancer","steam_id":76561199096241116,"connected_time":6407000000000,"state":"active","ping":51},{"user_id":408,"name":"SirJameston","steam_id":76561198035674306,"connected_time":5251000000000,"state":"active","ping":48},{"user_id":421,"name":"Evolution","steam_id":76561198144767370,"connected_time":4388000000000,"state":"active","ping":45},{"user_id":350,"name":"Sleepy Brady","steam_id":76561198867378129,"connected_time":9245000000000,"state":"active","ping":63}]},{"server_id":37,"name":"Uncletopia | Chicago | 6 | All Maps","name_short":"chi-6","host":"chi-2.us.uncletopia.com","port":27025,"enabled":true,"region":"us-central","cc":"us","latitude":41.881832,"longitude":-87.62318,"reserved":0,"last_update":"0001-01-01T00:00:00Z","name_a2s":"Uncletopia | Chicago | 6 | All Maps","protocol":17,"map":"cp_mountainlab","folder":"tf","game":"Team Fortress","app_id":440,"player_count":0,"max_players":24,"Bots":0,"server_type":"Dedicated","server_os":"Linux","password":true,"vac":true,"version":"7708610","steam_id":85568392924866363,"keywords":["cp","nocrits","nodmgspread","uncletopia"],"game_id":440,"stv_port":27026,"stv_name":"Uncletopia | Chicago | 6 | All Maps | STV","players":null},{"server_id":38,"name":"Uncletopia | Chicago | 7 | No Payload","name_short":"chi-7","host":"chi-2.us.uncletopia.com","port":27035,"enabled":true,"region":"us-central","cc":"us","latitude":41.881832,"longitude":-87.62318,"reserved":0,"last_update":"0001-01-01T00:00:00Z","name_a2s":"Uncletopia | Chicago | 7 | No Payload","protocol":17,"map":"koth_lazarus","folder":"tf","game":"Team Fortress","app_id":440,"player_count":0,"max_players":24,"Bots":0,"server_type":"Dedicated","server_os":"Linux","password":true,"vac":true,"version":"7708610","steam_id":85568392924866364,"keywords":["cp","nocrits","nodmgspread","uncletopia"],"game_id":440,"stv_port":27036,"stv_name":"Uncletopia | Chicago | 7 | No Payload | STV","players":null},{"server_id":39,"name":"Uncletopia | Chicago | 8 | Community","name_short":"chi-8","host":"chi-2.us.uncletopia.com","port":27045,"enabled":true,"region":"us-central","cc":"us","latitude":41.881832,"longitude":-87.62318,"reserved":0,"last_update":"0001-01-01T00:00:00Z","name_a2s":"Uncletopia | Chicago | 8 | Community","protocol":17,"map":"workshop/koth_bagel_rc5.ugc2514036946","folder":"tf","game":"Team Fortress","app_id":440,"player_count":0,"max_players":24,"Bots":0,"server_type":"Dedicated","server_os":"Linux","password":true,"vac":true,"version":"7708610","steam_id":85568392924866365,"keywords":["cp","nocrits","nodmgspread","uncletopia"],"game_id":440,"stv_port":27046,"stv_name":"Uncletopia | Chicago | 8 | Community | STV","players":null},{"server_id":8,"name":"Uncletopia | Dallas | 1 | All Maps","name_short":"dal-1","host":"dal-1.us.uncletopia.com","port":27015,"enabled":true,"region":"us-central","cc":"us","latitude":32.779167,"longitude":-96.80889,"reserved":0,"last_update":"0001-01-01T00:00:00Z","name_a2s":"Uncletopia | Dallas | 1 | All Maps","protocol":17,"map":"pl_pier","folder":"tf","game":"Team Fortress","app_id":440,"player_count":0,"max_players":24,"Bots":0,"server_type":"Dedicated","server_os":"Linux","password":true,"vac":true,"version":"7708610","steam_id":85568392924469986,"keywords":["nocrits","nodmgspread","payload","uncletopia"],"game_id":440,"stv_port":27016,"stv_name":"Uncletopia | Dallas | 1 | All Maps | STV","players":null},{"server_id":108,"name":"Uncletopia | Dallas | 2 | All Maps","name_short":"dal-2","host":"dal-1.us.uncletopia.com","port":27025,"enabled":true,"region":"us-central","cc":"us","latitude":32.779167,"longitude":-96.80889,"reserved":0,"last_update":"0001-01-01T00:00:00Z","name_a2s":"Uncletopia | Dallas | 2 | All Maps","protocol":17,"map":"koth_viaduct","folder":"tf","game":"Team Fortress","app_id":440,"player_count":24,"max_players":24,"Bots":0,"server_type":"Dedicated","server_os":"Linux","password":true,"vac":true,"version":"7708610","steam_id":85568392924469988,"keywords":["cp","nocrits","nodmgspread","uncletopia"],"game_id":440,"stv_port":27026,"stv_name":"Uncletopia | Dallas | 2 | All Maps | STV","players":[{"user_id":682,"name":"walfarina","steam_id":76561198370483931,"connected_time":1552000000000,"state":"active","ping":83},{"user_id":683,"name":"Yuudachi","steam_id":76561198059812393,"connected_time":1516000000000,"state":"active","ping":96},{"user_id":686,"name":"Farseer Ulwithy","steam_id":76561197965179245,"connected_time":1192000000000,"state":"active","ping":107},{"user_id":709,"name":"self sufficient kitten","steam_id":76561197960592612,"connected_time":138000000000,"state":"active","ping":85},{"user_id":698,"name":"Petey","steam_id":76561198007339151,"connected_time":771000000000,"state":"active","ping":72},{"user_id":655,"name":"TJ Zensuke","steam_id":76561198033371196,"connected_time":3057000000000,"state":"active","ping":88},{"user_id":707,"name":"Hernandez$","steam_id":76561198019324588,"connected_time":409000000000,"state":"active","ping":61},{"user_id":689,"name":"Carcino","steam_id":76561198006170253,"connected_time":1093000000000,"state":"active","ping":69},{"user_id":681,"name":"leopardo123atl","steam_id":76561198872648238,"connected_time":1574000000000,"state":"active","ping":72},{"user_id":690,"name":"Frongus","steam_id":76561197979056451,"connected_time":1086000000000,"state":"active","ping":91},{"user_id":695,"name":"Soap","steam_id":76561198074619142,"connected_time":879000000000,"state":"active","ping":75},{"user_id":692,"name":"Non-Union Mexican Equivalent","steam_id":76561198013399809,"connected_time":964000000000,"state":"active","ping":60},{"user_id":693,"name":"majo","steam_id":76561199443511982,"connected_time":936000000000,"state":"active","ping":90},{"user_id":696,"name":"aeop","steam_id":76561198153671643,"connected_time":859000000000,"state":"active","ping":90},{"user_id":700,"name":"lenn","steam_id":76561198058036859,"connected_time":691000000000,"state":"active","ping":85},{"user_id":699,"name":"Taco","steam_id":76561198158621392,"connected_time":739000000000,"state":"active","ping":87},{"user_id":701,"name":"Ch4rl33","steam_id":76561198037008621,"connected_time":670000000000,"state":"active","ping":73},{"user_id":630,"name":"SavHud","steam_id":76561199111713748,"connected_time":6124000000000,"state":"active","ping":96},{"user_id":640,"name":"Lore","steam_id":76561198098407538,"connected_time":4324000000000,"state":"active","ping":68},{"user_id":621,"name":"Rusty","steam_id":76561198056557928,"connected_time":6944000000000,"state":"active","ping":73},{"user_id":671,"name":"Rat Smacker","steam_id":76561199090197628,"connected_time":1985000000000,"state":"active","ping":47},{"user_id":672,"name":"Aves","steam_id":76561198135771748,"connected_time":1980000000000,"state":"active","ping":73},{"user_id":702,"name":"bully","steam_id":76561198353579611,"connected_time":663000000000,"state":"active","ping":74},{"user_id":706,"name":"Brigadier Brownie","steam_id":76561198040852898,"connected_time":481000000000,"state":"active","ping":82}]},{"server_id":5,"name":"Uncletopia | Frankfurt | 1 | All Maps","name_short":"frk-1","host":"frk-1.de.uncletopia.com","port":27015,"enabled":true,"region":"eu","cc":"de","latitude":50.110924,"longitude":8.682127,"reserved":0,"last_update":"0001-01-01T00:00:00Z","name_a2s":"Uncletopia | Frankfurt | 1 | All Maps","protocol":17,"map":"pl_swiftwater_final1","folder":"tf","game":"Team Fortress","app_id":440,"player_count":0,"max_players":24,"Bots":0,"server_type":"Dedicated","server_os":"Linux","password":true,"vac":true,"version":"7708610","steam_id":85568392924469989,"keywords":["nocrits","nodmgspread","payload","uncletopia"],"game_id":440,"stv_port":27016,"stv_name":"Uncletopia | Frankfurt | 1 | All Maps | STV","players":null},{"server_id":110,"name":"Uncletopia | Frankfurt | 2 | All Maps","name_short":"frk-2","host":"frk-1.de.uncletopia.com","port":27025,"enabled":true,"region":"eu","cc":"de","latitude":50.110924,"longitude":8.682127,"reserved":0,"last_update":"0001-01-01T00:00:00Z","name_a2s":"Uncletopia | Frankfurt | 2 | All Maps","protocol":17,"map":"pl_pier","folder":"tf","game":"Team Fortress","app_id":440,"player_count":0,"max_players":24,"Bots":0,"server_type":"Dedicated","server_os":"Linux","password":true,"vac":true,"version":"7708610","steam_id":85568392924469990,"keywords":["nocrits","nodmgspread","payload","uncletopia"],"game_id":440,"stv_port":0,"stv_name":"","players":null},{"server_id":308,"name":"Uncletopia | Frankfurt | 3 | All Maps","name_short":"frk-3","host":"frk-1.de.uncletopia.com","port":27035,"enabled":true,"region":"eu","cc":"de","latitude":50.110924,"longitude":8.682127,"reserved":0,"last_update":"0001-01-01T00:00:00Z","name_a2s":"Uncletopia | Frankfurt | 3 | All Maps","protocol":17,"map":"koth_cascade","folder":"tf","game":"Team Fortress","app_id":440,"player_count":0,"max_players":24,"Bots":0,"server_type":"Dedicated","server_os":"Linux","password":true,"vac":true,"version":"7708610","steam_id":85568392924504274,"keywords":["cp","nocrits","nodmgspread","uncletopia"],"game_id":440,"stv_port":0,"stv_name":"","players":null},{"server_id":309,"name":"Uncletopia | Frankfurt | 4 | All Maps","name_short":"frk-4","host":"frk-1.de.uncletopia.com","port":27045,"enabled":true,"region":"eu","cc":"de","latitude":50.110924,"longitude":8.682127,"reserved":0,"last_update":"0001-01-01T00:00:00Z","name_a2s":"Uncletopia | Frankfurt | 4 | All Maps","protocol":17,"map":"pl_swiftwater_final1","folder":"tf","game":"Team Fortress","app_id":440,"player_count":0,"max_players":24,"Bots":0,"server_type":"Dedicated","server_os":"Linux","password":true,"vac":true,"version":"7708610","steam_id":85568392924504275,"keywords":["nocrits","nodmgspread","payload","uncletopia"],"game_id":440,"stv_port":0,"stv_name":"","players":null},{"server_id":310,"name":"Uncletopia | Frankfurt | 5 | All Maps","name_short":"frk-5","host":"frk-1.de.uncletopia.com","port":27055,"enabled":true,"region":"eu","cc":"de","latitude":50.110924,"longitude":8.682127,"reserved":0,"last_update":"0001-01-01T00:00:00Z","name_a2s":"Uncletopia | Frankfurt | 5 | All Maps","protocol":17,"map":"koth_cascade","folder":"tf","game":"Team Fortress","app_id":440,"player_count":0,"max_players":24,"Bots":0,"server_type":"Dedicated","server_os":"Linux","password":true,"vac":true,"version":"7708610","steam_id":85568392924504277,"keywords":["cp","nocrits","nodmgspread","uncletopia"],"game_id":440,"stv_port":0,"stv_name":"","players":null},{"server_id":311,"name":"Uncletopia | Frankfurt | 6 | All Maps","name_short":"frk-6","host":"frk-1.de.uncletopia.com","port":27065,"enabled":true,"region":"eu","cc":"de","latitude":50.110924,"longitude":8.682127,"reserved":0,"last_update":"0001-01-01T00:00:00Z","name_a2s":"Uncletopia | Frankfurt | 6 | All Maps","protocol":17,"map":"koth_lakeside_final","folder":"tf","game":"Team Fortress","app_id":440,"player_count":0,"max_players":24,"Bots":0,"server_type":"Dedicated","server_os":"Linux","password":true,"vac":true,"version":"7708610","steam_id":85568392924504278,"keywords":["cp","nocrits","nodmgspread","uncletopia"],"game_id":440,"stv_port":0,"stv_name":"","players":null},{"server_id":23,"name":"Uncletopia | Frankfurt | 7 | No Payload","name_short":"frk-7","host":"frk-1.de.uncletopia.com","port":27075,"enabled":true,"region":"eu","cc":"de","latitude":50.110924,"longitude":8.682127,"reserved":0,"last_update":"0001-01-01T00:00:00Z","name_a2s":"Uncletopia | Frankfurt | 7 | No Payload","protocol":17,"map":"pl_frontier_final","folder":"tf","game":"Team Fortress","app_id":440,"player_count":0,"max_players":24,"Bots":0,"server_type":"Dedicated","server_os":"Linux","password":true,"vac":true,"version":"7708610","steam_id":85568392924742827,"keywords":["nocrits","nodmgspread","payload","uncletopia"],"game_id":440,"stv_port":0,"stv_name":"","players":null},{"server_id":24,"name":"Uncletopia | Frankfurt | 8 | Community","name_short":"frk-8","host":"frk-1.de.uncletopia.com","port":27085,"enabled":true,"region":"eu","cc":"de","latitude":50.110924,"longitude":8.682127,"reserved":0,"last_update":"0001-01-01T00:00:00Z","name_a2s":"Uncletopia | Frankfurt | 8 | Community","protocol":17,"map":"workshop/koth_ashville_final.ugc2130459942","folder":"tf","game":"Team Fortress","app_id":440,"player_count":0,"max_players":24,"Bots":0,"server_type":"Dedicated","server_os":"Linux","password":true,"vac":true,"version":"7708610","steam_id":85568392924742828,"keywords":["cp","nocrits","nodmgspread","uncletopia"],"game_id":440,"stv_port":27086,"stv_name":"Uncletopia | Frankfurt | 8 | Community | STV","players":null},{"server_id":202,"name":"Uncletopia | Hong Kong | 1 | All Maps","name_short":"hgk-1","host":"hgk-1.hk.uncletopia.com","port":27015,"enabled":true,"region":"asia","cc":"hk","latitude":22.302711,"longitude":114.177216,"reserved":0,"last_update":"0001-01-01T00:00:00Z","name_a2s":"Uncletopia | Hong Kong | 1 | All Maps","protocol":17,"map":"pl_badwater","folder":"tf","game":"Team Fortress","app_id":440,"player_count":24,"max_players":24,"Bots":0,"server_type":"Dedicated","server_os":"Linux","password":true,"vac":true,"version":"7708610","steam_id":85568392924494504,"keywords":["nocrits","nodmgspread","payload","uncletopia"],"game_id":440,"stv_port":27016,"stv_name":"Uncletopia | Hong Kong | 1 | All Maps | STV","players":[{"user_id":241,"name":"Lu","steam_id":76561198320532821,"connected_time":6431000000000,"state":"active","ping":46},{"user_id":252,"name":"momosneakeradventure","steam_id":76561199046440440,"connected_time":4977000000000,"state":"active","ping":60},{"user_id":331,"name":"cellum95","steam_id":76561198172146871,"connected_time":1061000000000,"state":"active","ping":68},{"user_id":332,"name":"Lym0n","steam_id":76561199192420260,"connected_time":911000000000,"state":"active","ping":118},{"user_id":271,"name":"nick","steam_id":76561198400698408,"connected_time":3082000000000,"state":"active","ping":90},{"user_id":269,"name":"TechMaster12(F2P)","steam_id":76561199244754236,"connected_time":3094000000000,"state":"active","ping":96},{"user_id":333,"name":"CaptainBozo","steam_id":76561199151959977,"connected_time":748000000000,"state":"active","ping":56},{"user_id":334,"name":"Alan the Annihilator","steam_id":76561198346128694,"connected_time":727000000000,"state":"active","ping":59},{"user_id":161,"name":"Michael Scott","steam_id":76561198023082794,"connected_time":9613000000000,"state":"active","ping":46},{"user_id":139,"name":"cjp","steam_id":76561198081702190,"connected_time":12481000000000,"state":"active","ping":84},{"user_id":272,"name":"17","steam_id":76561198241530712,"connected_time":3082000000000,"state":"active","ping":56},{"user_id":335,"name":"in pain","steam_id":76561199180206324,"connected_time":552000000000,"state":"active","ping":103},{"user_id":338,"name":"the sex","steam_id":76561198129661272,"connected_time":433000000000,"state":"active","ping":68},{"user_id":92,"name":"Noyour","steam_id":76561198323259830,"connected_time":17473000000000,"state":"active","ping":114},{"user_id":210,"name":"bakabazooka(merrychrismas)","steam_id":76561198061628689,"connected_time":8613000000000,"state":"active","ping":52},{"user_id":340,"name":"L√∫d","steam_id":76561198828840546,"connected_time":270000000000,"state":"active","ping":74},{"user_id":325,"name":"Ê≥°Ê§íÊ±Å","steam_id":76561198403423470,"connected_time":1700000000000,"state":"active","ping":75},{"user_id":280,"name":"iced","steam_id":76561198999114004,"connected_time":2934000000000,"state":"active","ping":90},{"user_id":339,"name":"GreggieBoi","steam_id":76561199085200364,"connected_time":342000000000,"state":"active","ping":58},{"user_id":279,"name":"ÁÖôÊµ∑ | Enkai","steam_id":76561198050460825,"connected_time":2941000000000,"state":"active","ping":86},{"user_id":114,"name":"ogey","steam_id":76561198074339034,"connected_time":15083000000000,"state":"active","ping":75},{"user_id":330,"name":"Jimi Hen-Dicks Excrements","steam_id":76561198826565047,"connected_time":1145000000000,"state":"active","ping":83},{"user_id":341,"name":"crusader king","steam_id":76561198110843506,"connected_time":24000000000,"state":"spawning","ping":70},{"user_id":288,"name":"Momoxhien","steam_id":76561198414997429,"connected_time":2594000000000,"state":"active","ping":63}]},{"server_id":1,"name":"Uncletopia | Los Angeles | 1 | All Maps","name_short":"lax-1","host":"lax-1.us.uncletopia.com","port":27015,"enabled":true,"region":"us-west","cc":"us","latitude":33.94279,"longitude":-118.41004,"reserved":0,"last_update":"0001-01-01T00:00:00Z","name_a2s":"Uncletopia | Los Angeles | 1 | All Maps","protocol":17,"map":"cp_sunshine","folder":"tf","game":"Team Fortress","app_id":440,"player_count":24,"max_players":24,"Bots":0,"server_type":"Dedicated","server_os":"Linux","password":true,"vac":true,"version":"7708610","steam_id":85568392924469991,"keywords":["cp","nocrits","nodmgspread","uncletopia"],"game_id":440,"stv_port":27016,"stv_name":"Uncletopia | Los Angeles | 1 | All Maps | STV","players":[{"user_id":137,"name":"Squatter1","steam_id":76561198078987734,"connected_time":5585000000000,"state":"active","ping":69},{"user_id":161,"name":"Theory-Y","steam_id":76561198116419931,"connected_time":4203000000000,"state":"active","ping":101},{"user_id":183,"name":"WaveDashing","steam_id":76561198308592006,"connected_time":1571000000000,"state":"active","ping":42},{"user_id":162,"name":"BIGGS","steam_id":76561198057399996,"connected_time":4162000000000,"state":"active","ping":47},{"user_id":127,"name":"Googol","steam_id":76561198015967429,"connected_time":6333000000000,"state":"active","ping":36},{"user_id":157,"name":"Feel the bern","steam_id":76561198078824519,"connected_time":4341000000000,"state":"active","ping":49},{"user_id":129,"name":"shoes","steam_id":76561198044104086,"connected_time":6282000000000,"state":"active","ping":47},{"user_id":184,"name":"life","steam_id":76561198142254567,"connected_time":1569000000000,"state":"active","ping":80},{"user_id":181,"name":"gibbonfreak","steam_id":76561198864545608,"connected_time":1706000000000,"state":"active","ping":61},{"user_id":185,"name":"frogmiller","steam_id":76561198396124640,"connected_time":1554000000000,"state":"active","ping":76},{"user_id":130,"name":"gazpacho","steam_id":76561198132903078,"connected_time":6271000000000,"state":"active","ping":52},{"user_id":140,"name":"konkon","steam_id":76561198166827208,"connected_time":5415000000000,"state":"active","ping":74},{"user_id":187,"name":"rez","steam_id":76561198271973658,"connected_time":1520000000000,"state":"active","ping":120},{"user_id":164,"name":"Divine Kitty","steam_id":76561198293490689,"connected_time":4063000000000,"state":"active","ping":99},{"user_id":110,"name":"Nez","steam_id":76561197963109059,"connected_time":8733000000000,"state":"active","ping":48},{"user_id":186,"name":"cunoesse","steam_id":76561198135404020,"connected_time":1534000000000,"state":"active","ping":50},{"user_id":192,"name":"HAT-WEARING‚Ñ¢ Maggot Gamer Cat","steam_id":76561197973992705,"connected_time":201000000000,"state":"active","ping":63},{"user_id":165,"name":"J0hN","steam_id":76561198055972894,"connected_time":3741000000000,"state":"active","ping":74},{"user_id":176,"name":"Zorospo #formerican","steam_id":76561198369967690,"connected_time":2476000000000,"state":"active","ping":103},{"user_id":191,"name":"Yu","steam_id":76561198161656164,"connected_time":342000000000,"state":"active","ping":53},{"user_id":166,"name":"sun sugar","steam_id":76561198385085005,"connected_time":3738000000000,"state":"active","ping":56},{"user_id":172,"name":"Delta","steam_id":76561198021957971,"connected_time":2981000000000,"state":"active","ping":46},{"user_id":168,"name":"mah dood","steam_id":76561198970102360,"connected_time":3155000000000,"state":"active","ping":168},{"user_id":179,"name":"invader","steam_id":76561198044372158,"connected_time":2017000000000,"state":"active","ping":63}]},{"server_id":112,"name":"Uncletopia | Los Angeles | 2 | All Maps","name_short":"lax-2","host":"lax-1.us.uncletopia.com","port":27025,"enabled":true,"region":"us-west","cc":"us","latitude":33.94279,"longitude":-118.41004,"reserved":0,"last_update":"0001-01-01T00:00:00Z","name_a2s":"Uncletopia | Los Angeles | 2 | All Maps","protocol":17,"map":"koth_viaduct","folder":"tf","game":"Team Fortress","app_id":440,"player_count":0,"max_players":24,"Bots":0,"server_type":"Dedicated","server_os":"Linux","password":true,"vac":true,"version":"7708610","steam_id":85568392924469992,"keywords":["cp","nocrits","nodmgspread","uncletopia"],"game_id":440,"stv_port":27026,"stv_name":"Uncletopia | Los Angeles | 2 | All Maps | STV","players":null},{"server_id":324,"name":"Uncletopia | Los Angeles | 3 | All Maps","name_short":"lax-3","host":"lax-1.us.uncletopia.com","port":27035,"enabled":true,"region":"us-west","cc":"us","latitude":33.94279,"longitude":-118.41004,"reserved":0,"last_update":"0001-01-01T00:00:00Z","name_a2s":"Uncletopia | Los Angeles | 3 | All Maps","protocol":17,"map":"cp_mountainlab","folder":"tf","game":"Team Fortress","app_id":440,"player_count":8,"max_players":24,"Bots":0,"server_type":"Dedicated","server_os":"Linux","password":true,"vac":true,"version":"7708610","steam_id":85568392924510198,"keywords":["cp","nocrits","nodmgspread","uncletopia"],"game_id":440,"stv_port":27036,"stv_name":"Uncletopia | Los Angeles | 3 | All Maps | STV","players":[{"user_id":141,"name":"jrmadmallard","steam_id":76561198275994616,"connected_time":3028000000000,"state":"spawning","ping":204},{"user_id":142,"name":"Quacc???","steam_id":76561198844428250,"connected_time":2965000000000,"state":"active","ping":77},{"user_id":147,"name":"Luigiminer8","steam_id":76561198803438732,"connected_time":2279000000000,"state":"spawning","ping":81},{"user_id":148,"name":"üê∫-Iwky-ü¶ä","steam_id":76561198185616311,"connected_time":2002000000000,"state":"spawning","ping":66},{"user_id":150,"name":"Vegasx702s","steam_id":76561198799772874,"connected_time":1940000000000,"state":"spawning","ping":76},{"user_id":165,"name":"sam","steam_id":76561198351145889,"connected_time":234000000000,"state":"spawning","ping":87},{"user_id":166,"name":"JustPaul","steam_id":76561198126901362,"connected_time":220000000000,"state":"spawning","ping":145},{"user_id":167,"name":"Dakka","steam_id":76561198273763277,"connected_time":120000000000,"state":"spawning","ping":117}]},{"server_id":25,"name":"Uncletopia | Los Angeles | 4 | No Payload","name_short":"lax-4","host":"lax-1.us.uncletopia.com","port":27045,"enabled":true,"region":"us-west","cc":"us","latitude":33.94279,"longitude":-118.41004,"reserved":0,"last_update":"0001-01-01T00:00:00Z","name_a2s":"Uncletopia | Los Angeles | 4 | No Payload","protocol":17,"map":"plr_pipeline","folder":"tf","game":"Team Fortress","app_id":440,"player_count":0,"max_players":24,"Bots":0,"server_type":"Dedicated","server_os":"Linux","password":true,"vac":true,"version":"7708610","steam_id":85568392924510199,"keywords":["nocrits","nodmgspread","payload","uncletopia"],"game_id":440,"stv_port":27046,"stv_name":"Uncletopia | Los Angeles | 4 | No Payload | STV","players":null},{"server_id":11,"name":"Uncletopia | London | 1 | All Maps","name_short":"lon-1","host":"lon-1.uk.uncletopia.com","port":27015,"enabled":true,"region":"eu","cc":"gb","latitude":51.509865,"longitude":-0.118092,"reserved":0,"last_update":"0001-01-01T00:00:00Z","name_a2s":"Uncletopia | London | 1 | All Maps","protocol":17,"map":"pl_barnblitz","folder":"tf","game":"Team Fortress","app_id":440,"player_count":24,"max_players":24,"Bots":0,"server_type":"Dedicated","server_os":"Linux","password":true,"vac":true,"version":"7708610","steam_id":85568392924367362,"keywords":["nocrits","nodmgspread","payload","uncletopia"],"game_id":440,"stv_port":27016,"stv_name":"Uncletopia | London | 1 | All Maps | STV","players":[{"user_id":112,"name":"ACEradicator","steam_id":76561199013989602,"connected_time":359000000000,"state":"active","ping":102},{"user_id":114,"name":"clean carp","steam_id":76561198127053294,"connected_time":166000000000,"state":"active","ping":70},{"user_id":100,"name":"IndigoJones","steam_id":76561198050284262,"connected_time":805000000000,"state":"active","ping":45},{"user_id":75,"name":"Tazi","steam_id":76561198133608983,"connected_time":3114000000000,"state":"active","ping":151},{"user_id":115,"name":"Circular","steam_id":76561198001536710,"connected_time":112000000000,"state":"active","ping":43},{"user_id":73,"name":"Nibiru_Agent","steam_id":76561198796404149,"connected_time":3185000000000,"state":"active","ping":106},{"user_id":89,"name":"rupert.jones233@yahoo.com","steam_id":76561198267463398,"connected_time":1632000000000,"state":"active","ping":68},{"user_id":80,"name":"zt1","steam_id":76561197991078804,"connected_time":2330000000000,"state":"active","ping":75},{"user_id":108,"name":"dusty","steam_id":76561199011977567,"connected_time":505000000000,"state":"active","ping":60},{"user_id":94,"name":"King Capybara","steam_id":76561198031573426,"connected_time":923000000000,"state":"active","ping":72},{"user_id":109,"name":"Neghim","steam_id":76561198272001124,"connected_time":499000000000,"state":"active","ping":59},{"user_id":64,"name":"your dads bald spot","steam_id":76561199383437138,"connected_time":3637000000000,"state":"active","ping":120},{"user_id":95,"name":"Reast","steam_id":76561198022796927,"connected_time":921000000000,"state":"active","ping":90},{"user_id":98,"name":"worry about it","steam_id":76561199414716848,"connected_time":837000000000,"state":"active","ping":74},{"user_id":66,"name":"coachnetworkoperared514","steam_id":76561198236015392,"connected_time":3574000000000,"state":"active","ping":120},{"user_id":111,"name":"Hildreth","steam_id":76561197995254867,"connected_time":408000000000,"state":"active","ping":46},{"user_id":110,"name":"scout gaming","steam_id":76561199380974466,"connected_time":495000000000,"state":"active","ping":87},{"user_id":99,"name":"E1s","steam_id":76561198894958917,"connected_time":822000000000,"state":"active","ping":52},{"user_id":103,"name":"Klik","steam_id":76561198891046692,"connected_time":715000000000,"state":"active","ping":75},{"user_id":44,"name":"fregaropa","steam_id":76561198150806166,"connected_time":5553000000000,"state":"active","ping":116},{"user_id":90,"name":"cosmetical","steam_id":76561198444036574,"connected_time":1613000000000,"state":"active","ping":63},{"user_id":92,"name":"üÉî Nugg1t(sme/lly)","steam_id":76561198065652251,"connected_time":1292000000000,"state":"active","ping":50},{"user_id":55,"name":"slifty","steam_id":76561198166682199,"connected_time":4664000000000,"state":"active","ping":53},{"user_id":117,"name":"borz","steam_id":76561198370332895,"connected_time":43000000000,"state":"active","ping":91}]},{"server_id":114,"name":"Uncletopia | London | 2 | All Maps","name_short":"lon-2","host":"lon-1.uk.uncletopia.com","port":27025,"enabled":true,"region":"eu","cc":"gb","latitude":51.509865,"longitude":-0.118092,"reserved":0,"last_update":"0001-01-01T00:00:00Z","name_a2s":"Uncletopia | London | 2 | All Maps","protocol":17,"map":"cp_snakewater_final1","folder":"tf","game":"Team Fortress","app_id":440,"player_count":0,"max_players":24,"Bots":0,"server_type":"Dedicated","server_os":"Linux","password":true,"vac":true,"version":"7708610","steam_id":85568392924470941,"keywords":["cp","nocrits","nodmgspread","uncletopia"],"game_id":440,"stv_port":0,"stv_name":"","players":null},{"server_id":320,"name":"Uncletopia | London | 3 | All Maps","name_short":"lon-3","host":"lon-1.uk.uncletopia.com","port":27035,"enabled":true,"region":"eu","cc":"gb","latitude":51.509865,"longitude":-0.118092,"reserved":0,"last_update":"0001-01-01T00:00:00Z","name_a2s":"Uncletopia | London | 3 | All Maps","protocol":17,"map":"cp_altitude","folder":"tf","game":"Team Fortress","app_id":440,"player_count":0,"max_players":24,"Bots":0,"server_type":"Dedicated","server_os":"Linux","password":true,"vac":true,"version":"7708610","steam_id":85568392924510192,"keywords":["cp","nocrits","nodmgspread","uncletopia"],"game_id":440,"stv_port":0,"stv_name":"","players":null},{"server_id":321,"name":"Uncletopia | London | 4 | All Maps","name_short":"lon-4","host":"lon-1.uk.uncletopia.com","port":27045,"enabled":true,"region":"eu","cc":"gb","latitude":51.509865,"longitude":-0.118092,"reserved":0,"last_update":"0001-01-01T00:00:00Z","name_a2s":"Uncletopia | London | 4 | All Maps","protocol":17,"map":"koth_viaduct","folder":"tf","game":"Team Fortress","app_id":440,"player_count":0,"max_players":24,"Bots":0,"server_type":"Dedicated","server_os":"Linux","password":true,"vac":true,"version":"7708610","steam_id":85568392924510193,"keywords":["cp","nocrits","nodmgspread","uncletopia"],"game_id":440,"stv_port":0,"stv_name":"","players":null},{"server_id":21,"name":"Uncletopia | London | 5 | All Maps","name_short":"lon-5","host":"lon-1.uk.uncletopia.com","port":27055,"enabled":true,"region":"eu","cc":"gb","latitude":51.509865,"longitude":-0.118092,"reserved":0,"last_update":"0001-01-01T00:00:00Z","name_a2s":"Uncletopia | London | 5 | All Maps","protocol":17,"map":"koth_lakeside_final","folder":"tf","game":"Team Fortress","app_id":440,"player_count":0,"max_players":24,"Bots":0,"server_type":"Dedicated","server_os":"Linux","password":true,"vac":true,"version":"7708610","steam_id":85568392924742829,"keywords":["cp","nocrits","nodmgspread","uncletopia"],"game_id":440,"stv_port":0,"stv_name":"","players":null},{"server_id":22,"name":"Uncletopia | London | 6 | All Maps","name_short":"lon-6","host":"lon-1.uk.uncletopia.com","port":27065,"enabled":true,"region":"eu","cc":"gb","latitude":51.509865,"longitude":-0.118092,"reserved":0,"last_update":"0001-01-01T00:00:00Z","name_a2s":"Uncletopia | London | 6 | All Maps","protocol":17,"map":"koth_viaduct","folder":"tf","game":"Team Fortress","app_id":440,"player_count":0,"max_players":24,"Bots":0,"server_type":"Dedicated","server_os":"Linux","password":true,"vac":true,"version":"7708610","steam_id":85568392924742830,"keywords":["cp","nocrits","nodmgspread","uncletopia"],"game_id":440,"stv_port":0,"stv_name":"","players":null},{"server_id":40,"name":"Uncletopia | London | 7 | No Payload","name_short":"lon-7","host":"lon-1.uk.uncletopia.com","port":27075,"enabled":true,"region":"eu","cc":"gb","latitude":51.509865,"longitude":-0.118092,"reserved":0,"last_update":"0001-01-01T00:00:00Z","name_a2s":"Uncletopia | London | 7 | No Payload","protocol":17,"map":"cp_snakewater_final1","folder":"tf","game":"Team Fortress","app_id":440,"player_count":0,"max_players":24,"Bots":0,"server_type":"Dedicated","server_os":"Linux","password":true,"vac":true,"version":"7708610","steam_id":85568392924964314,"keywords":["cp","nocrits","nodmgspread","uncletopia"],"game_id":440,"stv_port":0,"stv_name":"","players":null},{"server_id":41,"name":"Uncletopia | London | 8 | Community","name_short":"lon-8","host":"lon-1.uk.uncletopia.com","port":27085,"enabled":true,"region":"eu","cc":"gb","latitude":51.509865,"longitude":-0.118092,"reserved":0,"last_update":"0001-01-01T00:00:00Z","name_a2s":"Uncletopia | London | 8 | Community","protocol":17,"map":"cp_snakewater_final1","folder":"tf","game":"Team Fortress","app_id":440,"player_count":0,"max_players":24,"Bots":0,"server_type":"Dedicated","server_os":"Linux","password":true,"vac":true,"version":"7708610","steam_id":85568392924964315,"keywords":["cp","nocrits","nodmgspread","uncletopia"],"game_id":440,"stv_port":0,"stv_name":"","players":null},{"server_id":300,"name":"Uncletopia | Montr√©al | 1 | All Maps","name_short":"mtl-1","host":"mtl-1.ca.uncletopia.com","port":27015,"enabled":true,"region":"us-east","cc":"ca","latitude":45.50889,"longitude":-73.56167,"reserved":0,"last_update":"0001-01-01T00:00:00Z","name_a2s":"Uncletopia | Montr√©al | 1 | All Maps","protocol":17,"map":"koth_viaduct","folder":"tf","game":"Team Fortress","app_id":440,"player_count":0,"max_players":24,"Bots":0,"server_type":"Dedicated","server_os":"Linux","password":true,"vac":true,"version":"7708610","steam_id":85568392924500087,"keywords":["cp","nocrits","nodmgspread","uncletopia"],"game_id":440,"stv_port":27016,"stv_name":"Uncletopia | Montr√©al | 1 | All Maps | STV","players":null},{"server_id":301,"name":"Uncletopia | Montr√©al | 2 | All Maps","name_short":"mtl-2","host":"mtl-1.ca.uncletopia.com","port":27025,"enabled":true,"region":"us-east","cc":"ca","latitude":45.50889,"longitude":-73.56167,"reserved":0,"last_update":"0001-01-01T00:00:00Z","name_a2s":"Uncletopia | Montr√©al | 2 | All Maps","protocol":17,"map":"koth_lakeside_final","folder":"tf","game":"Team Fortress","app_id":440,"player_count":0,"max_players":24,"Bots":0,"server_type":"Dedicated","server_os":"Linux","password":true,"vac":true,"version":"7708610","steam_id":85568392924500088,"keywords":["cp","nocrits","nodmgspread","uncletopia"],"game_id":440,"stv_port":27026,"stv_name":"Uncletopia | Montr√©al | 2 | All Maps | STV","players":null},{"server_id":302,"name":"Uncletopia | Montr√©al | 3 | All Maps","name_short":"mtl-3","host":"mtl-1.ca.uncletopia.com","port":27035,"enabled":true,"region":"us-east","cc":"ca","latitude":45.50889,"longitude":-73.56167,"reserved":0,"last_update":"0001-01-01T00:00:00Z","name_a2s":"Uncletopia | Montr√©al | 3 | All Maps","protocol":17,"map":"pl_frontier_final","folder":"tf","game":"Team Fortress","app_id":440,"player_count":0,"max_players":24,"Bots":0,"server_type":"Dedicated","server_os":"Linux","password":true,"vac":true,"version":"7708610","steam_id":85568392924500089,"keywords":["nocrits","nodmgspread","payload","uncletopia"],"game_id":440,"stv_port":27036,"stv_name":"Uncletopia | Montr√©al | 3 | All Maps | STV","players":null},{"server_id":303,"name":"Uncletopia | Montr√©al | 4 | No Payload","name_short":"mtl-4","host":"mtl-1.ca.uncletopia.com","port":27045,"enabled":true,"region":"us-east","cc":"ca","latitude":45.50889,"longitude":-73.56167,"reserved":0,"last_update":"0001-01-01T00:00:00Z","name_a2s":"Uncletopia | Montr√©al | 4 | No Payload","protocol":17,"map":"koth_brazil","folder":"tf","game":"Team Fortress","app_id":440,"player_count":0,"max_players":24,"Bots":0,"server_type":"Dedicated","server_os":"Linux","password":true,"vac":true,"version":"7708610","steam_id":85568392924500090,"keywords":["cp","nocrits","nodmgspread","uncletopia"],"game_id":440,"stv_port":27046,"stv_name":"Uncletopia | Montr√©al | 4 | No Payload | STV","players":null},{"server_id":13,"name":"Uncletopia | New York City | 1 | All Maps","name_short":"nyc-1","host":"nyc-1.us.uncletopia.com","port":27015,"enabled":true,"region":"us-east","cc":"us","latitude":40.73061,"longitude":-73.93524,"reserved":0,"last_update":"0001-01-01T00:00:00Z","name_a2s":"Uncletopia | New York City | 1 | All Maps","protocol":17,"map":"cp_altitude","folder":"tf","game":"Team Fortress","app_id":440,"player_count":0,"max_players":24,"Bots":0,"server_type":"Dedicated","server_os":"Linux","password":true,"vac":true,"version":"7708610","steam_id":85568392924469993,"keywords":["cp","nocrits","nodmgspread","uncletopia"],"game_id":440,"stv_port":27016,"stv_name":"Uncletopia | New York City | 1 | All Maps | STV","players":null},{"server_id":14,"name":"Uncletopia | New York City | 2 | All Maps","name_short":"nyc-2","host":"nyc-1.us.uncletopia.com","port":27025,"enabled":true,"region":"us-east","cc":"us","latitude":40.73061,"longitude":-73.93524,"reserved":0,"last_update":"0001-01-01T00:00:00Z","name_a2s":"Uncletopia | New York City | 2 | All Maps","protocol":17,"map":"koth_viaduct","folder":"tf","game":"Team Fortress","app_id":440,"player_count":0,"max_players":24,"Bots":0,"server_type":"Dedicated","server_os":"Linux","password":true,"vac":true,"version":"7708610","steam_id":85568392924469994,"keywords":["cp","nocrits","nodmgspread","uncletopia"],"game_id":440,"stv_port":27026,"stv_name":"Uncletopia | New York City | 2 | All Maps | STV","players":null},{"server_id":15,"name":"Uncletopia | New York City | 3 | All Maps","name_short":"nyc-3","host":"nyc-1.us.uncletopia.com","port":27035,"enabled":true,"region":"us-east","cc":"us","latitude":40.73061,"longitude":-73.93524,"reserved":0,"last_update":"0001-01-01T00:00:00Z","name_a2s":"Uncletopia | New York City | 3 | All Maps","protocol":17,"map":"pl_swiftwater_final1","folder":"tf","game":"Team Fortress","app_id":440,"player_count":24,"max_players":24,"Bots":0,"server_type":"Dedicated","server_os":"Linux","password":true,"vac":true,"version":"7708610","steam_id":85568392924742820,"keywords":["nocrits","nodmgspread","payload","uncletopia"],"game_id":440,"stv_port":27036,"stv_name":"Uncletopia | New York City | 3 | All Maps | STV","players":[{"user_id":485,"name":"foxtheproto","steam_id":76561199384479863,"connected_time":2954000000000,"state":"active","ping":93},{"user_id":495,"name":"Artic_Ryuu","steam_id":76561198182194918,"connected_time":427000000000,"state":"active","ping":104},{"user_id":413,"name":"Wique","steam_id":76561198071217597,"connected_time":8545000000000,"state":"active","ping":65},{"user_id":415,"name":"Spike","steam_id":76561198141356571,"connected_time":8383000000000,"state":"active","ping":43},{"user_id":490,"name":"gromit","steam_id":76561198037746805,"connected_time":1484000000000,"state":"active","ping":56},{"user_id":477,"name":"cam","steam_id":76561198353950318,"connected_time":3064000000000,"state":"active","ping":82},{"user_id":458,"name":"craf","steam_id":76561198163535075,"connected_time":4388000000000,"state":"active","ping":46},{"user_id":494,"name":"Indigolake","steam_id":76561198202215807,"connected_time":608000000000,"state":"active","ping":54},{"user_id":491,"name":"Frisk","steam_id":76561199074455949,"connected_time":1481000000000,"state":"active","ping":49},{"user_id":405,"name":"Casual Costanza","steam_id":76561198024409325,"connected_time":9552000000000,"state":"active","ping":63},{"user_id":492,"name":"Devoid","steam_id":76561198254039012,"connected_time":1468000000000,"state":"active","ping":34},{"user_id":488,"name":"ShinyOrion (She/Her)","steam_id":76561198408378321,"connected_time":1518000000000,"state":"active","ping":52},{"user_id":478,"name":"Nexus","steam_id":76561198156374282,"connected_time":3061000000000,"state":"active","ping":46},{"user_id":464,"name":"Tay1Qr","steam_id":76561198082809935,"connected_time":4029000000000,"state":"active","ping":55},{"user_id":480,"name":"Frank","steam_id":76561198065331673,"connected_time":3050000000000,"state":"active","ping":92},{"user_id":466,"name":"‚Ä∫ snow","steam_id":76561198109783729,"connected_time":3992000000000,"state":"active","ping":77},{"user_id":468,"name":"Ferioth","steam_id":76561197997993090,"connected_time":3931000000000,"state":"active","ping":67},{"user_id":469,"name":"Rental","steam_id":76561198027786602,"connected_time":3928000000000,"state":"active","ping":73},{"user_id":470,"name":"azure","steam_id":76561198067497459,"connected_time":3913000000000,"state":"active","ping":89},{"user_id":472,"name":"Brendan","steam_id":76561198041079914,"connected_time":3831000000000,"state":"active","ping":54},{"user_id":479,"name":"Divio","steam_id":76561197995200088,"connected_time":3054000000000,"state":"active","ping":60},{"user_id":473,"name":"EagleEye2000","steam_id":76561198233776704,"connected_time":3788000000000,"state":"active","ping":44},{"user_id":474,"name":"Zoodle","steam_id":76561199235878369,"connected_time":3782000000000,"state":"active","ping":52},{"user_id":476,"name":"Shagbark","steam_id":76561198173447342,"connected_time":3753000000000,"state":"active","ping":66}]},{"server_id":16,"name":"Uncletopia | New York City | 4 | Community","name_short":"nyc-4","host":"nyc-1.us.uncletopia.com","port":27045,"enabled":true,"region":"us-east","cc":"us","latitude":40.73061,"longitude":-73.93524,"reserved":0,"last_update":"0001-01-01T00:00:00Z","name_a2s":"Uncletopia | New York City | 4 | Community","protocol":17,"map":"workshop/cp_caldera_rc2.ugc2834196889","folder":"tf","game":"Team Fortress","app_id":440,"player_count":0,"max_players":24,"Bots":0,"server_type":"Dedicated","server_os":"Linux","password":true,"vac":true,"version":"7708610","steam_id":85568392924742821,"keywords":["cp","nocrits","nodmgspread","uncletopia"],"game_id":440,"stv_port":27046,"stv_name":"Uncletopia | New York City | 4 | Community | STV","players":null},{"server_id":142,"name":"Uncletopia | S√£o Paulo | 1 | All Maps","name_short":"sao-1","host":"sao-1.br.uncletopia.com","port":27015,"enabled":true,"region":"sa","cc":"br","latitude":-23.533773,"longitude":-46.62529,"reserved":0,"last_update":"0001-01-01T00:00:00Z","name_a2s":"Uncletopia | S√£o Paulo | 1 | All Maps","protocol":17,"map":"pl_frontier_final","folder":"tf","game":"Team Fortress","app_id":440,"player_count":0,"max_players":24,"Bots":0,"server_type":"Dedicated","server_os":"Linux","password":true,"vac":true,"version":"7708610","steam_id":85568392924469996,"keywords":["nocrits","nodmgspread","payload","uncletopia"],"game_id":440,"stv_port":27016,"stv_name":"Uncletopia | S√£o Paulo | 1 | All Maps | STV","players":null},{"server_id":143,"name":"Uncletopia | S√£o Paulo | 2 | All Maps","name_short":"sao-2","host":"sao-2.br.uncletopia.com","port":27015,"enabled":true,"region":"sa","cc":"br","latitude":-23.533773,"longitude":-46.62529,"reserved":0,"last_update":"0001-01-01T00:00:00Z","name_a2s":"Uncletopia | S√£o Paulo | 2 | All Maps","protocol":17,"map":"koth_cascade","folder":"tf","game":"Team Fortress","app_id":440,"player_count":0,"max_players":24,"Bots":0,"server_type":"Dedicated","server_os":"Linux","password":true,"vac":true,"version":"7708610","steam_id":85568392924485349,"keywords":["cp","nocrits","nodmgspread","uncletopia"],"game_id":440,"stv_port":27016,"stv_name":"Uncletopia | S√£o Paulo | 2 | All Maps | STV","players":null},{"server_id":7,"name":"Uncletopia | Seattle | 1 | All Maps","name_short":"sea-1","host":"sea-1.us.uncletopia.com","port":27015,"enabled":true,"region":"us-west","cc":"us","latitude":47.608013,"longitude":-122.33517,"reserved":0,"last_update":"0001-01-01T00:00:00Z","name_a2s":"Uncletopia | Seattle | 1 | All Maps","protocol":17,"map":"pl_pier","folder":"tf","game":"Team Fortress","app_id":440,"player_count":18,"max_players":24,"Bots":0,"server_type":"Dedicated","server_os":"Linux","password":true,"vac":true,"version":"7708610","steam_id":85568392924469997,"keywords":["nocrits","nodmgspread","payload","uncletopia"],"game_id":440,"stv_port":27016,"stv_name":"Uncletopia | Seattle | 1 | All Maps | STV","players":[{"user_id":69,"name":"fusionharbor302","steam_id":76561198993091253,"connected_time":519000000000,"state":"active","ping":52},{"user_id":4,"name":"mumbles","steam_id":76561197994528974,"connected_time":4218000000000,"state":"active","ping":121},{"user_id":78,"name":"OLE SAINTE NICKE HIMSELVE","steam_id":76561198103331056,"connected_time":28000000000,"state":"active","ping":94},{"user_id":75,"name":"[TrC] Nosy","steam_id":76561197978859310,"connected_time":89000000000,"state":"active","ping":54},{"user_id":41,"name":"mafia is mafia #saveTF2","steam_id":76561198042574722,"connected_time":2223000000000,"state":"active","ping":45},{"user_id":76,"name":"boxy443 (f2p)","steam_id":76561199386363103,"connected_time":58000000000,"state":"active","ping":67},{"user_id":60,"name":"Murk Wahlberg","steam_id":76561198131467867,"connected_time":934000000000,"state":"active","ping":53},{"user_id":70,"name":"„ÉÉ SStickyrice","steam_id":76561198278306483,"connected_time":435000000000,"state":"active","ping":37},{"user_id":71,"name":"„ÄåSpud Wrench„Äç","steam_id":76561198089615706,"connected_time":353000000000,"state":"active","ping":101},{"user_id":35,"name":"cry","steam_id":76561198093845068,"connected_time":3547000000000,"state":"active","ping":93},{"user_id":37,"name":"tosm-AA-","steam_id":76561198130032444,"connected_time":3473000000000,"state":"active","ping":55},{"user_id":65,"name":"Federick Glowhard","steam_id":76561198053865229,"connected_time":616000000000,"state":"spawning","ping":193},{"user_id":72,"name":"[TrC] Dackstrus","steam_id":76561197973518509,"connected_time":297000000000,"state":"active","ping":62},{"user_id":23,"name":"Leidon","steam_id":76561198078386945,"connected_time":4112000000000,"state":"active","ping":70},{"user_id":58,"name":"DSM-IVCE","steam_id":76561199438515797,"connected_time":1001000000000,"state":"spawning","ping":157},{"user_id":73,"name":"LIN‚ô°","steam_id":76561199411560141,"connected_time":280000000000,"state":"spawning","ping":2866},{"user_id":77,"name":"suspiciouslyBee","steam_id":76561198165933984,"connected_time":44000000000,"state":"active","ping":40},{"user_id":31,"name":"The_Pacific_gamer","steam_id":76561198089491446,"connected_time":4041000000000,"state":"active","ping":42}]},{"server_id":119,"name":"Uncletopia | Seattle | 2 | All Maps","name_short":"sea-2","host":"sea-1.us.uncletopia.com","port":27025,"enabled":true,"region":"us-west","cc":"us","latitude":47.608013,"longitude":-122.33517,"reserved":0,"last_update":"0001-01-01T00:00:00Z","name_a2s":"Uncletopia | Seattle | 2 | All Maps","protocol":17,"map":"pl_frontier_final","folder":"tf","game":"Team Fortress","app_id":440,"player_count":0,"max_players":24,"Bots":0,"server_type":"Dedicated","server_os":"Linux","password":true,"vac":true,"version":"7708610","steam_id":85568392924469998,"keywords":["nocrits","nodmgspread","payload","uncletopia"],"game_id":440,"stv_port":27026,"stv_name":"Uncletopia | Seattle | 2 | All Maps | STV","players":null},{"server_id":17,"name":"Uncletopia | San Francisco | 1 | All Maps","name_short":"sfo-1","host":"sfo-1.us.uncletopia.com","port":27015,"enabled":true,"region":"us-west","cc":"us","latitude":37.77397,"longitude":-122.4313,"reserved":0,"last_update":"0001-01-01T00:00:00Z","name_a2s":"Uncletopia | San Francisco | 1 | All Maps","protocol":17,"map":"koth_cascade","folder":"tf","game":"Team Fortress","app_id":440,"player_count":0,"max_players":24,"Bots":0,"server_type":"Dedicated","server_os":"Linux","password":true,"vac":true,"version":"7708610","steam_id":85568392924469999,"keywords":["cp","nocrits","nodmgspread","uncletopia"],"game_id":440,"stv_port":27016,"stv_name":"Uncletopia | San Francisco | 1 | All Maps | STV","players":null},{"server_id":18,"name":"Uncletopia | San Francisco | 2 | All Maps","name_short":"sfo-2","host":"sfo-1.us.uncletopia.com","port":27025,"enabled":true,"region":"us-west","cc":"us","latitude":37.77397,"longitude":-122.4313,"reserved":0,"last_update":"0001-01-01T00:00:00Z","name_a2s":"Uncletopia | San Francisco | 2 | All Maps","protocol":17,"map":"pl_upward","folder":"tf","game":"Team Fortress","app_id":440,"player_count":24,"max_players":24,"Bots":0,"server_type":"Dedicated","server_os":"Linux","password":true,"vac":true,"version":"7708610","steam_id":85568392924470000,"keywords":["nocrits","nodmgspread","payload","uncletopia"],"game_id":440,"stv_port":27026,"stv_name":"Uncletopia | San Francisco | 2 | All Maps | STV","players":[{"user_id":367,"name":"OMG","steam_id":76561198085447264,"connected_time":737000000000,"state":"active","ping":76},{"user_id":300,"name":"DonoC","steam_id":76561198274473338,"connected_time":5370000000000,"state":"active","ping":75},{"user_id":373,"name":"charm quark","steam_id":76561198098770777,"connected_time":284000000000,"state":"active","ping":66},{"user_id":375,"name":"Infentdegree211","steam_id":76561198385234127,"connected_time":153000000000,"state":"active","ping":65},{"user_id":356,"name":"goldhed","steam_id":76561198051751133,"connected_time":1749000000000,"state":"active","ping":76},{"user_id":359,"name":"moe","steam_id":76561198929586245,"connected_time":1678000000000,"state":"active","ping":55},{"user_id":303,"name":"Jacasola","steam_id":76561198055460402,"connected_time":5281000000000,"state":"active","ping":57},{"user_id":370,"name":"PopcornNinja101","steam_id":76561198330680181,"connected_time":363000000000,"state":"active","ping":62},{"user_id":188,"name":"General Fisticuffs","steam_id":76561198255721392,"connected_time":14348000000000,"state":"active","ping":98},{"user_id":372,"name":"Dispenser (Goblin King)","steam_id":76561198157878163,"connected_time":329000000000,"state":"active","ping":79},{"user_id":346,"name":"Alley_YAMBO","steam_id":76561198055651850,"connected_time":2116000000000,"state":"active","ping":48},{"user_id":364,"name":"MA BEETS","steam_id":76561198168981607,"connected_time":1151000000000,"state":"active","ping":57},{"user_id":240,"name":"tweet","steam_id":76561198166515735,"connected_time":10221000000000,"state":"active","ping":43},{"user_id":360,"name":"jordanddean2016","steam_id":76561198323772677,"connected_time":1673000000000,"state":"active","ping":65},{"user_id":337,"name":"KillerHatDude","steam_id":76561198088322912,"connected_time":2382000000000,"state":"active","ping":79},{"user_id":358,"name":"wubber","steam_id":76561198286627157,"connected_time":1710000000000,"state":"active","ping":143},{"user_id":351,"name":"monsta_YAMBO","steam_id":76561198018793342,"connected_time":1811000000000,"state":"active","ping":117},{"user_id":366,"name":"Saggle","steam_id":76561198056075147,"connected_time":794000000000,"state":"active","ping":182},{"user_id":333,"name":"The Squid Gamer‚Ñ¢","steam_id":76561198340621517,"connected_time":2506000000000,"state":"active","ping":83},{"user_id":345,"name":"Amogous Supreme","steam_id":76561198025476774,"connected_time":2204000000000,"state":"active","ping":61},{"user_id":369,"name":"Cute Gatito","steam_id":76561198351147780,"connected_time":378000000000,"state":"active","ping":60},{"user_id":365,"name":"Shiel√ê","steam_id":76561198102884594,"connected_time":989000000000,"state":"active","ping":79},{"user_id":185,"name":"chlo√©","steam_id":76561198858926895,"connected_time":14975000000000,"state":"active","ping":57},{"user_id":316,"name":"Eggnog","steam_id":76561197968179862,"connected_time":4208000000000,"state":"active","ping":65}]},{"server_id":19,"name":"Uncletopia | San Francisco | 3 | No Payload","name_short":"sfo-3","host":"sfo-1.us.uncletopia.com","port":27035,"enabled":true,"region":"us-west","cc":"us","latitude":37.77397,"longitude":-122.4313,"reserved":0,"last_update":"0001-01-01T00:00:00Z","name_a2s":"Uncletopia | San Francisco | 3 | No Payload","protocol":17,"map":"cp_altitude","folder":"tf","game":"Team Fortress","app_id":440,"player_count":0,"max_players":24,"Bots":0,"server_type":"Dedicated","server_os":"Linux","password":true,"vac":true,"version":"7708610","steam_id":85568392924742824,"keywords":["cp","nocrits","nodmgspread","uncletopia"],"game_id":440,"stv_port":27036,"stv_name":"Uncletopia | San Francisco | 3 | No Payload | STV","players":null},{"server_id":20,"name":"Uncletopia | San Francisco | 4 | Community","name_short":"sfo-4","host":"sfo-1.us.uncletopia.com","port":27045,"enabled":true,"region":"us-west","cc":"us","latitude":37.77397,"longitude":-122.4313,"reserved":0,"last_update":"0001-01-01T00:00:00Z","name_a2s":"Uncletopia | San Francisco | 4 | Community","protocol":17,"map":"workshop/koth_ramjam_v2_b2.ugc2865676487","folder":"tf","game":"Team Fortress","app_id":440,"player_count":0,"max_players":24,"Bots":0,"server_type":"Dedicated","server_os":"Linux","password":true,"vac":true,"version":"7708610","steam_id":85568392924742826,"keywords":["cp","nocrits","nodmgspread","uncletopia"],"game_id":440,"stv_port":27046,"stv_name":"Uncletopia | San Francisco | 4 | Community | STV","players":null},{"server_id":141,"name":"Uncletopia | Sydney | 1 | All Maps","name_short":"syd-1","host":"syd-1.au.uncletopia.com","port":27015,"enabled":true,"region":"au","cc":"au","latitude":-33.865143,"longitude":151.2099,"reserved":0,"last_update":"0001-01-01T00:00:00Z","name_a2s":"Uncletopia | Sydney | 1 | All Maps","protocol":17,"map":"cp_steel","folder":"tf","game":"Team Fortress","app_id":440,"player_count":24,"max_players":24,"Bots":0,"server_type":"Dedicated","server_os":"Linux","password":true,"vac":true,"version":"7708610","steam_id":85568392924470001,"keywords":["cp","nocrits","nodmgspread","uncletopia"],"game_id":440,"stv_port":27016,"stv_name":"Uncletopia | Sydney | 1 | All Maps | STV","players":[{"user_id":518,"name":"OPENFIELD","steam_id":76561199254288337,"connected_time":295000000000,"state":"active","ping":179},{"user_id":503,"name":"DelHasMangoes/yt","steam_id":76561198047183797,"connected_time":657000000000,"state":"active","ping":86},{"user_id":509,"name":"deadmoi27","steam_id":76561198157061007,"connected_time":552000000000,"state":"active","ping":67},{"user_id":490,"name":"crab spy","steam_id":76561199409677294,"connected_time":2215000000000,"state":"active","ping":60},{"user_id":510,"name":"gaming","steam_id":76561198267552367,"connected_time":516000000000,"state":"active","ping":50},{"user_id":506,"name":"INTENTIONS","steam_id":76561198241303512,"connected_time":609000000000,"state":"active","ping":59},{"user_id":515,"name":"“ÇStorm","steam_id":76561198073213264,"connected_time":377000000000,"state":"active","ping":47},{"user_id":496,"name":"FriendlyFortressFighter :)","steam_id":76561199417737666,"connected_time":2004000000000,"state":"active","ping":138},{"user_id":516,"name":"covenofbats","steam_id":76561198152117315,"connected_time":356000000000,"state":"active","ping":44},{"user_id":502,"name":"The Goodnight Kiwi","steam_id":76561198866433807,"connected_time":953000000000,"state":"active","ping":64},{"user_id":520,"name":"ttv/svettf","steam_id":76561198152210509,"connected_time":61000000000,"state":"active","ping":43},{"user_id":521,"name":"‡∏∏bifcheg","steam_id":76561198319806610,"connected_time":47000000000,"state":"active","ping":68},{"user_id":478,"name":"i like balls","steam_id":76561199010558927,"connected_time":3036000000000,"state":"active","ping":176},{"user_id":501,"name":"Turni","steam_id":76561198320550948,"connected_time":1322000000000,"state":"active","ping":44},{"user_id":499,"name":"Elves","steam_id":76561198010873624,"connected_time":1621000000000,"state":"active","ping":58},{"user_id":512,"name":"Grime","steam_id":76561198155103030,"connected_time":501000000000,"state":"active","ping":62},{"user_id":460,"name":"JayTheLlamaKing","steam_id":76561198836354249,"connected_time":4546000000000,"state":"active","ping":62},{"user_id":500,"name":"AmethystDragon10","steam_id":76561198412979983,"connected_time":1517000000000,"state":"active","ping":72},{"user_id":451,"name":"bird","steam_id":76561198258514103,"connected_time":5307000000000,"state":"active","ping":80},{"user_id":522,"name":"ree boy","steam_id":76561199024189820,"connected_time":4000000000,"state":"spawning","ping":83},{"user_id":438,"name":"T0vex","steam_id":76561198127222589,"connected_time":6050000000000,"state":"active","ping":64},{"user_id":483,"name":"Pizzaray","steam_id":76561198005075102,"connected_time":2492000000000,"state":"active","ping":44},{"user_id":461,"name":"a loaf of bread","steam_id":76561198206424961,"connected_time":4532000000000,"state":"active","ping":62},{"user_id":498,"name":"RedEyes","steam_id":76561197973698135,"connected_time":1991000000000,"state":"active","ping":67}]},{"server_id":123,"name":"Uncletopia | Sydney | 2 | All Maps","name_short":"syd-2","host":"syd-1.au.uncletopia.com","port":27025,"enabled":true,"region":"au","cc":"au","latitude":-33.865143,"longitude":151.2099,"reserved":0,"last_update":"0001-01-01T00:00:00Z","name_a2s":"Uncletopia | Sydney | 2 | All Maps","protocol":17,"map":"cp_sunshine","folder":"tf","game":"Team Fortress","app_id":440,"player_count":23,"max_players":24,"Bots":0,"server_type":"Dedicated","server_os":"Linux","password":true,"vac":true,"version":"7708610","steam_id":85568392924470002,"keywords":["cp","nocrits","nodmgspread","uncletopia"],"game_id":440,"stv_port":27026,"stv_name":"Uncletopia | Sydney | 2 | All Maps | STV","players":[{"user_id":203,"name":"rastaFROG730","steam_id":76561198058812647,"connected_time":995000000000,"state":"active","ping":45},{"user_id":197,"name":"1000 Ping King","steam_id":76561198797058125,"connected_time":1528000000000,"state":"active","ping":75},{"user_id":214,"name":"adam sir john C sharp","steam_id":76561198133041525,"connected_time":258000000000,"state":"active","ping":97},{"user_id":213,"name":"clueless","steam_id":76561198046239819,"connected_time":324000000000,"state":"active","ping":117},{"user_id":188,"name":"Sherpa","steam_id":76561198018913829,"connected_time":1874000000000,"state":"active","ping":53},{"user_id":138,"name":"Rodman","steam_id":76561198073532116,"connected_time":6812000000000,"state":"active","ping":99},{"user_id":212,"name":"CorporalRegicide","steam_id":76561198050413184,"connected_time":333000000000,"state":"active","ping":60},{"user_id":137,"name":"–êKii","steam_id":76561198073386111,"connected_time":6829000000000,"state":"active","ping":96},{"user_id":191,"name":"Top G","steam_id":76561198001134675,"connected_time":1747000000000,"state":"active","ping":37},{"user_id":211,"name":"Selling Anti-Matter for $543","steam_id":76561198070708382,"connected_time":470000000000,"state":"active","ping":75},{"user_id":206,"name":"tevell","steam_id":76561199429493084,"connected_time":877000000000,"state":"active","ping":83},{"user_id":205,"name":"Rocketmaster","steam_id":76561198291383989,"connected_time":992000000000,"state":"active","ping":138},{"user_id":171,"name":"SaltierThanYou","steam_id":76561198444395188,"connected_time":4387000000000,"state":"active","ping":75},{"user_id":192,"name":"Bin","steam_id":76561199117653318,"connected_time":1687000000000,"state":"active","ping":65},{"user_id":190,"name":"Top Ramen","steam_id":76561198028969833,"connected_time":1773000000000,"state":"active","ping":54},{"user_id":215,"name":"carzone","steam_id":76561198108069818,"connected_time":162000000000,"state":"active","ping":55},{"user_id":177,"name":"Kiwoo","steam_id":76561198097429186,"connected_time":3985000000000,"state":"active","ping":91},{"user_id":198,"name":"Eclipse Mints Muncher","steam_id":76561198972095766,"connected_time":1482000000000,"state":"active","ping":42},{"user_id":201,"name":"pokermaster22","steam_id":76561198042198744,"connected_time":1274000000000,"state":"active","ping":51},{"user_id":202,"name":"makita blower","steam_id":76561198244548614,"connected_time":1260000000000,"state":"active","ping":46},{"user_id":200,"name":"noguchi sensei","steam_id":76561198115314385,"connected_time":1377000000000,"state":"active","ping":172},{"user_id":207,"name":"RBY","steam_id":76561198279663555,"connected_time":754000000000,"state":"active","ping":55},{"user_id":163,"name":"UglyBarnicle","steam_id":76561198075921599,"connected_time":4886000000000,"state":"active","ping":97}]},{"server_id":395,"name":"Uncletopia | Sydney | 3 | All Maps","name_short":"syd-3","host":"syd-1.au.uncletopia.com","port":27035,"enabled":true,"region":"au","cc":"au","latitude":-33.865143,"longitude":151.2099,"reserved":0,"last_update":"0001-01-01T00:00:00Z","name_a2s":"Uncletopia | Sydney | 3 | All Maps","protocol":17,"map":"koth_nucleus","folder":"tf","game":"Team Fortress","app_id":440,"player_count":13,"max_players":24,"Bots":0,"server_type":"Dedicated","server_os":"Linux","password":true,"vac":true,"version":"7708610","steam_id":85568392925194467,"keywords":["cp","nocrits","nodmgspread","uncletopia"],"game_id":440,"stv_port":27036,"stv_name":"Uncletopia | Sydney | 3 | All Maps | STV","players":[{"user_id":230,"name":"Qwerty","steam_id":76561199157092367,"connected_time":2848000000000,"state":"active","ping":73},{"user_id":252,"name":"Tentacle","steam_id":76561197994320010,"connected_time":660000000000,"state":"active","ping":54},{"user_id":231,"name":"The Great Sire","steam_id":76561198364434072,"connected_time":2628000000000,"state":"active","ping":65},{"user_id":255,"name":"Blazey ‰ºäÈÅî ÊîøÂÆó","steam_id":76561197971082275,"connected_time":251000000000,"state":"active","ping":114},{"user_id":256,"name":"SdreaM","steam_id":76561198413052417,"connected_time":232000000000,"state":"active","ping":79},{"user_id":258,"name":"Tricka ‚Ä¢","steam_id":76561197968440123,"connected_time":73000000000,"state":"active","ping":47},{"user_id":236,"name":"DRAKE MADE CHICAGO","steam_id":76561198093828661,"connected_time":1606000000000,"state":"active","ping":80},{"user_id":259,"name":"spud_","steam_id":76561198048354831,"connected_time":72000000000,"state":"active","ping":46},{"user_id":241,"name":"cimpact","steam_id":76561198452258917,"connected_time":1110000000000,"state":"active","ping":163},{"user_id":242,"name":"Lancer","steam_id":76561198122813810,"connected_time":1110000000000,"state":"active","ping":68},{"user_id":247,"name":"highschool audio monster","steam_id":76561198836003115,"connected_time":962000000000,"state":"active","ping":61},{"user_id":251,"name":"pepsb","steam_id":76561198066291166,"connected_time":741000000000,"state":"active","ping":54},{"user_id":254,"name":"Mission","steam_id":76561199218935728,"connected_time":578000000000,"state":"active","ping":64}]},{"server_id":396,"name":"Uncletopia | Sydney | 4 | All Maps","name_short":"syd-4","host":"syd-1.au.uncletopia.com","port":27045,"enabled":true,"region":"au","cc":"au","latitude":-33.865143,"longitude":151.2099,"reserved":0,"last_update":"0001-01-01T00:00:00Z","name_a2s":"Uncletopia | Sydney | 4 | All Maps","protocol":17,"map":"koth_cascade","folder":"tf","game":"Team Fortress","app_id":440,"player_count":0,"max_players":24,"Bots":0,"server_type":"Dedicated","server_os":"Linux","password":true,"vac":true,"version":"7708610","steam_id":85568392925397958,"keywords":["cp","nocrits","nodmgspread","uncletopia"],"game_id":440,"stv_port":27046,"stv_name":"Uncletopia | Sydney | 4 | All Maps | STV","players":null},{"server_id":58,"name":"Uncletopia | Sydney | 5 | No Payload","name_short":"syd-5","host":"syd-1.au.uncletopia.com","port":27055,"enabled":true,"region":"au","cc":"au","latitude":-33.865143,"longitude":151.2099,"reserved":0,"last_update":"0001-01-01T00:00:00Z","name_a2s":"Uncletopia | Sydney | 5 | No Payload","protocol":17,"map":"koth_badlands","folder":"tf","game":"Team Fortress","app_id":440,"player_count":0,"max_players":24,"Bots":0,"server_type":"Dedicated","server_os":"Linux","password":true,"vac":true,"version":"7708610","steam_id":85568392925397959,"keywords":["cp","nocrits","nodmgspread","uncletopia"],"game_id":440,"stv_port":27056,"stv_name":"Uncletopia | Sydney | 5 | No Payload | STV","players":null},{"server_id":59,"name":"Uncletopia | Sydney | 6 | Community","name_short":"syd-6","host":"syd-1.au.uncletopia.com","port":27065,"enabled":true,"region":"au","cc":"au","latitude":-33.865143,"longitude":151.2099,"reserved":0,"last_update":"0001-01-01T00:00:00Z","name_a2s":"Uncletopia | Sydney | 6 | Community","protocol":17,"map":"workshop/pl_cactuscanyon_redux_rc4b.ugc2579644293","folder":"tf","game":"Team Fortress","app_id":440,"player_count":1,"max_players":24,"Bots":0,"server_type":"Dedicated","server_os":"Linux","password":true,"vac":true,"version":"7708610","steam_id":85568392925397960,"keywords":["nocrits","nodmgspread","payload","uncletopia"],"game_id":440,"stv_port":27066,"stv_name":"Uncletopia | Sydney | 6 | Community | STV","players":[{"user_id":12,"name":"CypressFluff (She/Her)","steam_id":76561198174667818,"connected_time":26000000000,"state":"active","ping":50}]},{"server_id":49,"name":"Uncletopia | Warsaw | 1 | All Maps","name_short":"waw-1","host":"waw-1.pl.uncletopia.com","port":27015,"enabled":true,"region":"eu","cc":"pl","latitude":52.2297,"longitude":21.017532,"reserved":0,"last_update":"0001-01-01T00:00:00Z","name_a2s":"Uncletopia | Warsaw | 1 | All Maps","protocol":17,"map":"cp_mountainlab","folder":"tf","game":"Team Fortress","app_id":440,"player_count":0,"max_players":24,"Bots":0,"server_type":"Dedicated","server_os":"Linux","password":true,"vac":true,"version":"7708610","steam_id":85568392925397850,"keywords":["cp","nocrits","nodmgspread","uncletopia"],"game_id":440,"stv_port":0,"stv_name":"","players":null},{"server_id":50,"name":"Uncletopia | Warsaw | 2 | All Maps","name_short":"waw-2","host":"waw-1.pl.uncletopia.com","port":27025,"enabled":true,"region":"eu","cc":"pl","latitude":52.2297,"longitude":21.017532,"reserved":0,"last_update":"0001-01-01T00:00:00Z","name_a2s":"Uncletopia | Warsaw | 2 | All Maps","protocol":17,"map":"pl_badwater","folder":"tf","game":"Team Fortress","app_id":440,"player_count":0,"max_players":24,"Bots":0,"server_type":"Dedicated","server_os":"Linux","password":true,"vac":true,"version":"7708610","steam_id":85568392925397851,"keywords":["nocrits","nodmgspread","payload","uncletopia"],"game_id":440,"stv_port":0,"stv_name":"","players":null},{"server_id":51,"name":"Uncletopia | Warsaw | 3 | All Maps","name_short":"waw-3","host":"waw-1.pl.uncletopia.com","port":27035,"enabled":true,"region":"eu","cc":"pl","latitude":52.2297,"longitude":21.017532,"reserved":0,"last_update":"0001-01-01T00:00:00Z","name_a2s":"Uncletopia | Warsaw | 3 | All Maps","protocol":17,"map":"koth_cascade","folder":"tf","game":"Team Fortress","app_id":440,"player_count":0,"max_players":24,"Bots":0,"server_type":"Dedicated","server_os":"Linux","password":true,"vac":true,"version":"7708610","steam_id":85568392925397852,"keywords":["cp","nocrits","nodmgspread","uncletopia"],"game_id":440,"stv_port":0,"stv_name":"","players":null},{"server_id":52,"name":"Uncletopia | Warsaw | 4 | All Maps","name_short":"waw-4","host":"waw-1.pl.uncletopia.com","port":27045,"enabled":true,"region":"eu","cc":"pl","latitude":52.2297,"longitude":21.017532,"reserved":0,"last_update":"0001-01-01T00:00:00Z","name_a2s":"Uncletopia | Warsaw | 4 | All Maps","protocol":17,"map":"cp_mountainlab","folder":"tf","game":"Team Fortress","app_id":440,"player_count":0,"max_players":24,"Bots":0,"server_type":"Dedicated","server_os":"Linux","password":true,"vac":true,"version":"7708610","steam_id":85568392925397853,"keywords":["cp","nocrits","nodmgspread","uncletopia"],"game_id":440,"stv_port":0,"stv_name":"","players":null},{"server_id":53,"name":"Uncletopia | Warsaw | 5 | No Payload","name_short":"waw-5","host":"waw-1.pl.uncletopia.com","port":27055,"enabled":true,"region":"eu","cc":"pl","latitude":52.2297,"longitude":21.017532,"reserved":0,"last_update":"0001-01-01T00:00:00Z","name_a2s":"Uncletopia | Warsaw | 5 | No Payload","protocol":17,"map":"cp_dustbowl","folder":"tf","game":"Team Fortress","app_id":440,"player_count":0,"max_players":24,"Bots":0,"server_type":"Dedicated","server_os":"Linux","password":true,"vac":true,"version":"7708610","steam_id":85568392925397854,"keywords":["cp","nocrits","nodmgspread","uncletopia"],"game_id":440,"stv_port":0,"stv_name":"","players":null},{"server_id":54,"name":"Uncletopia | Warsaw | 6 | Community","name_short":"waw-6","host":"waw-1.pl.uncletopia.com","port":27065,"enabled":true,"region":"eu","cc":"pl","latitude":52.2297,"longitude":21.017532,"reserved":0,"last_update":"0001-01-01T00:00:00Z","name_a2s":"Uncletopia | Warsaw | 6 | Community","protocol":17,"map":"koth_highpass","folder":"tf","game":"Team Fortress","app_id":440,"player_count":0,"max_players":24,"Bots":0,"server_type":"Dedicated","server_os":"Linux","password":true,"vac":true,"version":"7708610","steam_id":85568392925397856,"keywords":["cp","nocrits","nodmgspread","uncletopia"],"game_id":440,"stv_port":0,"stv_name":"","players":null}]}