{"status":true,"message":"","result":[{"server_id":9,"name":"Uncletopia | Atlanta | 1 | All Maps","name_short":"atl-1","host":"atl-1.us.uncletopia.com","port":27015,"enabled":true,"region":"us-east","cc":"us","latitude":33.753746,"longitude":-84.38633,"reserved":0,"last_update":"0001-01-01T00:00:00Z","name_a2s":"Uncletopia | Atlanta | 1 | All Maps","protocol":17,"map":"pl_thundermountain","folder":"tf","game":"Team Fortress","app_id":440,"player_count":24,"max_players":24,"Bots":0,"server_type":"Dedicated","server_os":"Linux","password":true,"vac":true,"version":"7961495","steam_id":85568392924469982,"keywords":["nocrits","nodmgspread","payload","uncletopia"],"game_id":440,"stv_port":27016,"stv_name":"Uncletopia | Atlanta | 1 | All Maps | STV","players":[{"user_id":473,"name":"Captain Chicken","steam_id":76561198047767530,"connected_time":2182000000000,"state":"active","ping":96},{"user_id":484,"name":"Dr.Coomer PH.D","steam_id":76561198144558937,"connected_time":1217000000000,"state":"active","ping":88},{"user_id":450,"name":"substance","steam_id":76561198050103868,"connected_time":4242000000000,"state":"active","ping":106},{"user_id":470,"name":"jump if you like men","steam_id":76561198983069721,"connected_time":2578000000000,"state":"active","ping":88},{"user_id":469,"name":"joe","steam_id":76561198045781320,"connected_time":2602000000000,"state":"active","ping":63},{"user_id":456,"name":"ninja45","steam_id":76561198150619521,"connected_time":3305000000000,"state":"active","ping":124},{"user_id":474,"name":"Dr.Inkmix(femboy medic!)","steam_id":76561198854070384,"connected_time":1948000000000,"state":"active","ping":108},{"user_id":396,"name":"Heathcliff","steam_id":76561198044288534,"connected_time":8314000000000,"state":"active","ping":73},{"user_id":478,"name":"ATL1 | cola","steam_id":76561198374390458,"connected_time":1755000000000,"state":"active","ping":63},{"user_id":479,"name":"Whompert","steam_id":76561198042939624,"connected_time":1735000000000,"state":"active","ping":79},{"user_id":489,"name":"ThatGirlWithaK","steam_id":76561198317602350,"connected_time":167000000000,"state":"active","ping":101},{"user_id":468,"name":"Snoozey","steam_id":76561198017120466,"connected_time":2991000000000,"state":"active","ping":74},{"user_id":482,"name":"JtsRes","steam_id":76561197994809241,"connected_time":1483000000000,"state":"active","ping":75},{"user_id":444,"name":"Big Daddy's Worst Nightmare","steam_id":76561198087155304,"connected_time":4574000000000,"state":"active","ping":55},{"user_id":487,"name":"Dawnofthebread","steam_id":76561198335113597,"connected_time":856000000000,"state":"active","ping":57},{"user_id":488,"name":"Intro Bonito","steam_id":76561198119478838,"connected_time":405000000000,"state":"active","ping":59},{"user_id":406,"name":"PinkLemonade","steam_id":76561198799286228,"connected_time":7817000000000,"state":"active","ping":73},{"user_id":398,"name":"Sinta","steam_id":76561198098398841,"connected_time":8280000000000,"state":"active","ping":60},{"user_id":486,"name":"Tangerine","steam_id":76561197991738817,"connected_time":999000000000,"state":"active","ping":116},{"user_id":475,"name":"Alphowlet98","steam_id":76561199093985532,"connected_time":1842000000000,"state":"active","ping":135},{"user_id":449,"name":"calm oak","steam_id":76561198092135570,"connected_time":4249000000000,"state":"active","ping":67},{"user_id":485,"name":"ash","steam_id":76561198127890645,"connected_time":1032000000000,"state":"active","ping":73},{"user_id":463,"name":"Shmoopy","steam_id":76561198030459152,"connected_time":3166000000000,"state":"active","ping":68},{"user_id":477,"name":"Microreo","steam_id":76561198006966554,"connected_time":1769000000000,"state":"active","ping":82}]},{"server_id":104,"name":"Uncletopia | Atlanta | 2 | All Maps","name_short":"atl-2","host":"atl-1.us.uncletopia.com","port":27025,"enabled":true,"region":"us-east","cc":"us","latitude":33.753746,"longitude":-84.38633,"reserved":0,"last_update":"0001-01-01T00:00:00Z","name_a2s":"Uncletopia | Atlanta | 2 | All Maps","protocol":17,"map":"pl_enclosure_final","folder":"tf","game":"Team Fortress","app_id":440,"player_count":23,"max_players":24,"Bots":0,"server_type":"Dedicated","server_os":"Linux","password":true,"vac":true,"version":"7961495","steam_id":85568392924469983,"keywords":["nocrits","nodmgspread","payload","uncletopia"],"game_id":440,"stv_port":27026,"stv_name":"Uncletopia | Atlanta | 2 | All Maps | STV","players":[{"user_id":365,"name":"Saul Goodman","steam_id":76561198958881101,"connected_time":775000000000,"state":"active","ping":82},{"user_id":350,"name":"Acuzik","steam_id":76561198045453400,"connected_time":1260000000000,"state":"active","ping":74},{"user_id":261,"name":"RedBaron","steam_id":76561198972426107,"connected_time":7385000000000,"state":"active","ping":56},{"user_id":353,"name":"Fiendish Frog","steam_id":76561198029478821,"connected_time":1158000000000,"state":"active","ping":76},{"user_id":331,"name":"Leaf","steam_id":76561198123549027,"connected_time":2830000000000,"state":"active","ping":68},{"user_id":351,"name":"Braingoo Hex","steam_id":76561198083094783,"connected_time":1258000000000,"state":"active","ping":106},{"user_id":352,"name":"alleeop43","steam_id":76561199029390266,"connected_time":1202000000000,"state":"active","ping":124},{"user_id":354,"name":"üåä‚ôíYAKUZA_TRAP$TAR‚ôíüåä","steam_id":76561198354533463,"connected_time":1154000000000,"state":"active","ping":45},{"user_id":355,"name":"ultralisk52","steam_id":76561198051666604,"connected_time":1137000000000,"state":"active","ping":75},{"user_id":364,"name":"Daisy Le Nerd","steam_id":76561198149350087,"connected_time":792000000000,"state":"active","ping":161},{"user_id":337,"name":"UwU","steam_id":76561198207895249,"connected_time":2590000000000,"state":"active","ping":64},{"user_id":370,"name":"feed lips","steam_id":76561197971152439,"connected_time":353000000000,"state":"active","ping":79},{"user_id":345,"name":"aaaxel","steam_id":76561198137430598,"connected_time":2126000000000,"state":"active","ping":75},{"user_id":367,"name":"Luky Lunt","steam_id":76561199213934145,"connected_time":680000000000,"state":"active","ping":63},{"user_id":311,"name":"Dan","steam_id":76561198058056249,"connected_time":4300000000000,"state":"active","ping":74},{"user_id":328,"name":"FancyMateo","steam_id":76561198162963055,"connected_time":3318000000000,"state":"active","ping":60},{"user_id":330,"name":"spiritual primate","steam_id":76561198049001903,"connected_time":3260000000000,"state":"active","ping":60},{"user_id":371,"name":"Blanke","steam_id":76561198068912412,"connected_time":352000000000,"state":"active","ping":100},{"user_id":369,"name":"Beta Fish","steam_id":76561198073504861,"connected_time":650000000000,"state":"active","ping":45},{"user_id":349,"name":"+","steam_id":76561198262422184,"connected_time":1629000000000,"state":"active","ping":86},{"user_id":335,"name":"sunglasses","steam_id":76561198173747227,"connected_time":2699000000000,"state":"active","ping":83},{"user_id":360,"name":"who ate the cheese","steam_id":76561198275408467,"connected_time":1051000000000,"state":"active","ping":47},{"user_id":361,"name":"NERV","steam_id":76561198111023744,"connected_time":1030000000000,"state":"active","ping":83}]},{"server_id":400,"name":"Uncletopia | Atlanta | 3 | Stopwatch","name_short":"atl-3","host":"atl-1.us.uncletopia.com","port":27035,"enabled":true,"region":"us-east","cc":"us","latitude":33.753746,"longitude":-84.38633,"reserved":0,"last_update":"0001-01-01T00:00:00Z","name_a2s":"Uncletopia | Atlanta | 3 | Stopwatch","protocol":17,"map":"workshop/pl_badwater_pro_v12.ugc2142942074","folder":"tf","game":"Team Fortress","app_id":440,"player_count":0,"max_players":24,"Bots":0,"server_type":"Dedicated","server_os":"Linux","password":true,"vac":true,"version":"7961495","steam_id":85568392924515187,"keywords":["nocrits","nodmgspread","payload","uncletopia"],"game_id":440,"stv_port":27036,"stv_name":"Uncletopia | Atlanta | 3 | Stopwatch | STV","players":null},{"server_id":401,"name":"Uncletopia | Atlanta | 4 | Community","name_short":"atl-4","host":"atl-1.us.uncletopia.com","port":27045,"enabled":true,"region":"us-east","cc":"us","latitude":33.753746,"longitude":-84.38633,"reserved":0,"last_update":"0001-01-01T00:00:00Z","name_a2s":"Uncletopia | Atlanta | 4 | Community","protocol":17,"map":"workshop/pl_corrode_rc2.ugc546577989","folder":"tf","game":"Team Fortress","app_id":440,"player_count":0,"max_players":24,"Bots":0,"server_type":"Dedicated","server_os":"Linux","password":true,"vac":true,"version":"7961495","steam_id":85568392924515188,"keywords":["nocrits","nodmgspread","payload","uncletopia"],"game_id":440,"stv_port":27046,"stv_name":"Uncletopia | Atlanta | 4 | Community | STV","players":null},{"server_id":2,"name":"Uncletopia | Chicago | 1 | All Maps","name_short":"chi-1","host":"chi-1.us.uncletopia.com","port":27015,"enabled":true,"region":"us-central","cc":"us","latitude":41.881832,"longitude":-87.62318,"reserved":0,"last_update":"0001-01-01T00:00:00Z","name_a2s":"Uncletopia | Chicago | 1 | All Maps","protocol":17,"map":"cp_gorge","folder":"tf","game":"Team Fortress","app_id":440,"player_count":24,"max_players":24,"Bots":0,"server_type":"Dedicated","server_os":"Linux","password":true,"vac":true,"version":"7961495","steam_id":85568392924469984,"keywords":["cp","nocrits","nodmgspread","uncletopia"],"game_id":440,"stv_port":27016,"stv_name":"Uncletopia | Chicago | 1 | All Maps | STV","players":[{"user_id":693,"name":"AMistake","steam_id":76561199379196708,"connected_time":3561000000000,"state":"active","ping":65},{"user_id":651,"name":"baedeker","steam_id":76561199081837220,"connected_time":6965000000000,"state":"active","ping":66},{"user_id":741,"name":"Indigolake","steam_id":76561198202215807,"connected_time":362000000000,"state":"active","ping":85},{"user_id":730,"name":"Fraglin","steam_id":76561198124964000,"connected_time":431000000000,"state":"active","ping":91},{"user_id":734,"name":"Toa of Time","steam_id":76561198086867556,"connected_time":411000000000,"state":"active","ping":90},{"user_id":731,"name":"Anstorner","steam_id":76561198274026015,"connected_time":427000000000,"state":"active","ping":98},{"user_id":727,"name":"Tom","steam_id":76561198139202942,"connected_time":791000000000,"state":"active","ping":67},{"user_id":732,"name":"Willy","steam_id":76561198129013079,"connected_time":425000000000,"state":"active","ping":68},{"user_id":700,"name":"Predicta","steam_id":76561198017630616,"connected_time":2313000000000,"state":"active","ping":45},{"user_id":733,"name":"Sledger","steam_id":76561198801675539,"connected_time":424000000000,"state":"active","ping":80},{"user_id":768,"name":"Joe","steam_id":76561198284468330,"connected_time":65000000000,"state":"active","ping":74},{"user_id":767,"name":"AppleTruffle","steam_id":76561198031299571,"connected_time":97000000000,"state":"active","ping":64},{"user_id":736,"name":"ShpinosaurusShtudios","steam_id":76561198079416036,"connected_time":397000000000,"state":"active","ping":43},{"user_id":726,"name":"Monocle Gentlesir","steam_id":76561198163290322,"connected_time":841000000000,"state":"active","ping":72},{"user_id":742,"name":"Give Me Your Huo-Longs","steam_id":76561198255619557,"connected_time":350000000000,"state":"active","ping":45},{"user_id":705,"name":"Chechens Spotted","steam_id":76561199028910893,"connected_time":2111000000000,"state":"active","ping":87},{"user_id":720,"name":"atatro1224","steam_id":76561198179005241,"connected_time":1534000000000,"state":"active","ping":77},{"user_id":706,"name":"Voracious Puma","steam_id":76561197963621649,"connected_time":2093000000000,"state":"active","ping":85},{"user_id":707,"name":"armaghgeddon‚Ñ¢","steam_id":76561198018519640,"connected_time":2058000000000,"state":"active","ping":83},{"user_id":740,"name":"BroBoss64","steam_id":76561198995865904,"connected_time":376000000000,"state":"active","ping":76},{"user_id":722,"name":"Joebobio","steam_id":76561198024442760,"connected_time":1181000000000,"state":"active","ping":71},{"user_id":677,"name":"The Noble Lavender","steam_id":76561198078395639,"connected_time":4767000000000,"state":"active","ping":191},{"user_id":766,"name":"girls kissing","steam_id":76561198249206656,"connected_time":110000000000,"state":"active","ping":72},{"user_id":723,"name":"THELootGoblin","steam_id":76561198251891962,"connected_time":1176000000000,"state":"active","ping":69}]},{"server_id":106,"name":"Uncletopia | Chicago | 2 | All Maps","name_short":"chi-2","host":"chi-1.us.uncletopia.com","port":27025,"enabled":true,"region":"us-central","cc":"us","latitude":41.881832,"longitude":-87.62318,"reserved":0,"last_update":"0001-01-01T00:00:00Z","name_a2s":"Uncletopia | Chicago | 2 | All Maps","protocol":17,"map":"cp_dustbowl","folder":"tf","game":"Team Fortress","app_id":440,"player_count":25,"max_players":24,"Bots":0,"server_type":"Dedicated","server_os":"Linux","password":true,"vac":true,"version":"7961495","steam_id":85568392924469985,"keywords":["cp","nocrits","nodmgspread","uncletopia"],"game_id":440,"stv_port":27026,"stv_name":"Uncletopia | Chicago | 2 | All Maps | STV","players":[{"user_id":556,"name":"Lone_Bacon2","steam_id":76561198067488643,"connected_time":2261000000000,"state":"active","ping":103},{"user_id":549,"name":"the keebler","steam_id":76561199486326945,"connected_time":2299000000000,"state":"active","ping":76},{"user_id":576,"name":"Bookmark","steam_id":76561198210918443,"connected_time":244000000000,"state":"active","ping":108},{"user_id":559,"name":"Catfish","steam_id":76561198088009583,"connected_time":2185000000000,"state":"active","ping":69},{"user_id":530,"name":"Miss Star","steam_id":76561199106587693,"connected_time":4469000000000,"state":"active","ping":76},{"user_id":567,"name":"Lots0","steam_id":76561198043143145,"connected_time":2042000000000,"state":"active","ping":86},{"user_id":541,"name":"Propaniac Gaming ‚òë","steam_id":76561198133963270,"connected_time":3328000000000,"state":"active","ping":60},{"user_id":552,"name":"0","steam_id":76561198046065237,"connected_time":2273000000000,"state":"active","ping":75},{"user_id":573,"name":"Snivy64","steam_id":76561198423445376,"connected_time":863000000000,"state":"active","ping":111},{"user_id":494,"name":"milk then cereal","steam_id":76561198047168548,"connected_time":7579000000000,"state":"active","ping":98},{"user_id":553,"name":"afk on my second monitor","steam_id":76561197992498834,"connected_time":2273000000000,"state":"active","ping":71},{"user_id":520,"name":"smetc","steam_id":76561198240696986,"connected_time":5176000000000,"state":"active","ping":57},{"user_id":253,"name":"Sonic Mania 2 [100 Real Leaked","steam_id":76561198062764039,"connected_time":24350000000000,"state":"active","ping":162},{"user_id":560,"name":"Generic Name","steam_id":76561198094225684,"connected_time":2184000000000,"state":"active","ping":77},{"user_id":580,"name":"V_","steam_id":76561198147577835,"connected_time":79000000000,"state":"active","ping":80},{"user_id":568,"name":"Aldatzailea Egitura","steam_id":76561199240547667,"connected_time":1602000000000,"state":"active","ping":101},{"user_id":504,"name":"james_bondage","steam_id":76561199476062624,"connected_time":6387000000000,"state":"active","ping":88},{"user_id":533,"name":"CHAIRMAN MAO GAMING","steam_id":76561198066018972,"connected_time":4448000000000,"state":"active","ping":78},{"user_id":578,"name":"epic_corndog","steam_id":76561198061530137,"connected_time":209000000000,"state":"active","ping":33},{"user_id":570,"name":"Hyper2faceman","steam_id":76561197967225269,"connected_time":1413000000000,"state":"active","ping":95},{"user_id":561,"name":"walu","steam_id":76561198085338365,"connected_time":2157000000000,"state":"active","ping":54},{"user_id":571,"name":"Tideflat","steam_id":76561198179850851,"connected_time":1390000000000,"state":"active","ping":106},{"user_id":565,"name":"Shitty Pilot","steam_id":76561198042723469,"connected_time":2105000000000,"state":"active","ping":80},{"user_id":572,"name":"Herdez Hot Salsa","steam_id":76561197991740906,"connected_time":1068000000000,"state":"active","ping":69},{"user_id":577,"name":"plutonium isotope","steam_id":76561198319442494,"connected_time":244000000000,"state":"connecting","ping":0}]},{"server_id":402,"name":"Uncletopia | Chicago | 3 | All Maps","name_short":"chi-3","host":"chi-1.us.uncletopia.com","port":27035,"enabled":true,"region":"us-central","cc":"us","latitude":41.881832,"longitude":-87.62318,"reserved":0,"last_update":"0001-01-01T00:00:00Z","name_a2s":"Uncletopia | Chicago | 3 | All Maps","protocol":17,"map":"pl_upward","folder":"tf","game":"Team Fortress","app_id":440,"player_count":25,"max_players":24,"Bots":0,"server_type":"Dedicated","server_os":"Linux","password":true,"vac":true,"version":"7961495","steam_id":85568392924515191,"keywords":["nocrits","nodmgspread","payload","uncletopia"],"game_id":440,"stv_port":27036,"stv_name":"Uncletopia | Chicago | 3 | All Maps | STV","players":[{"user_id":395,"name":"The Goose","steam_id":76561199006093549,"connected_time":3174000000000,"state":"active","ping":68},{"user_id":413,"name":"Lifial","steam_id":76561198271885819,"connected_time":1490000000000,"state":"active","ping":70},{"user_id":406,"name":"GardenOfStone","steam_id":76561199069870534,"connected_time":1896000000000,"state":"active","ping":78},{"user_id":423,"name":"garfield","steam_id":76561198114119308,"connected_time":94000000000,"state":"active","ping":66},{"user_id":422,"name":"vcx","steam_id":76561198139371143,"connected_time":99000000000,"state":"active","ping":72},{"user_id":417,"name":"Vaudeville Villain","steam_id":76561197991063996,"connected_time":838000000000,"state":"active","ping":55},{"user_id":424,"name":"(TPT) Ghost","steam_id":76561198123262873,"connected_time":88000000000,"state":"active","ping":114},{"user_id":408,"name":"bengineer","steam_id":76561198171912174,"connected_time":1837000000000,"state":"active","ping":99},{"user_id":425,"name":"captainskullet","steam_id":76561198314597170,"connected_time":72000000000,"state":"active","ping":93},{"user_id":420,"name":"dunk","steam_id":76561198132476501,"connected_time":129000000000,"state":"active","ping":48},{"user_id":404,"name":"PEPSIMAN","steam_id":76561198045143630,"connected_time":2450000000000,"state":"active","ping":89},{"user_id":387,"name":"Classic","steam_id":76561198215293509,"connected_time":3486000000000,"state":"active","ping":72},{"user_id":418,"name":"dark108","steam_id":76561198030052475,"connected_time":475000000000,"state":"active","ping":84},{"user_id":370,"name":"aphexjh","steam_id":76561197985854658,"connected_time":4959000000000,"state":"active","ping":57},{"user_id":353,"name":"Servaos","steam_id":76561198113244990,"connected_time":5779000000000,"state":"active","ping":69},{"user_id":416,"name":"Fudge_Cake","steam_id":76561198059218167,"connected_time":876000000000,"state":"active","ping":74},{"user_id":415,"name":"CherriKat","steam_id":76561198821297512,"connected_time":1465000000000,"state":"active","ping":97},{"user_id":390,"name":"Blade Racer","steam_id":76561198155896703,"connected_time":3452000000000,"state":"active","ping":83},{"user_id":297,"name":"bee","steam_id":76561198178015361,"connected_time":9346000000000,"state":"active","ping":45},{"user_id":419,"name":"dolph","steam_id":76561198341304816,"connected_time":196000000000,"state":"active","ping":93},{"user_id":421,"name":"cotton candy ghooost","steam_id":76561198058998371,"connected_time":106000000000,"state":"active","ping":70},{"user_id":392,"name":"BoopBerry","steam_id":76561198871571711,"connected_time":3446000000000,"state":"active","ping":60},{"user_id":427,"name":"Carpet enthusiast","steam_id":76561198024040142,"connected_time":25000000000,"state":"connecting","ping":0},{"user_id":426,"name":"Joe Camel","steam_id":76561198205531739,"connected_time":69000000000,"state":"active","ping":133},{"user_id":428,"name":"CumBoy","steam_id":76561198121411970,"connected_time":2000000000,"state":"spawning","ping":46}]},{"server_id":403,"name":"Uncletopia | Chicago | 4 | All Maps","name_short":"chi-4","host":"chi-1.us.uncletopia.com","port":27045,"enabled":true,"region":"us-central","cc":"us","latitude":41.881832,"longitude":-87.62318,"reserved":0,"last_update":"0001-01-01T00:00:00Z","name_a2s":"Uncletopia | Chicago | 4 | All Maps","protocol":17,"map":"pl_snowycoast","folder":"tf","game":"Team Fortress","app_id":440,"player_count":24,"max_players":24,"Bots":0,"server_type":"Dedicated","server_os":"Linux","password":true,"vac":true,"version":"7961495","steam_id":85568392924515193,"keywords":["nocrits","nodmgspread","payload","uncletopia"],"game_id":440,"stv_port":27046,"stv_name":"Uncletopia | Chicago | 4 | All Maps | STV","players":[{"user_id":215,"name":"The Collective(Hypnotist)","steam_id":76561198170423483,"connected_time":845000000000,"state":"active","ping":66},{"user_id":95,"name":"mach5","steam_id":76561198014094290,"connected_time":9893000000000,"state":"active","ping":75},{"user_id":202,"name":"Mudrock","steam_id":76561198348354629,"connected_time":2487000000000,"state":"active","ping":104},{"user_id":216,"name":"marx","steam_id":76561198253336546,"connected_time":835000000000,"state":"active","ping":87},{"user_id":223,"name":"Psychosis","steam_id":76561198078659070,"connected_time":228000000000,"state":"active","ping":84},{"user_id":204,"name":"Sprit ‚ô•","steam_id":76561198268780781,"connected_time":2281000000000,"state":"active","ping":48},{"user_id":111,"name":"Venat","steam_id":76561197997052326,"connected_time":9484000000000,"state":"active","ping":100},{"user_id":217,"name":"Rainbeon","steam_id":76561198046150531,"connected_time":817000000000,"state":"active","ping":49},{"user_id":211,"name":"clavin","steam_id":76561198069380992,"connected_time":1226000000000,"state":"active","ping":78},{"user_id":193,"name":"Dr. Richard Pounder M.D.","steam_id":76561198124733688,"connected_time":3037000000000,"state":"active","ping":129},{"user_id":194,"name":"NvAka","steam_id":76561199044781490,"connected_time":2961000000000,"state":"active","ping":62},{"user_id":210,"name":"Arthur SSJ2","steam_id":76561198043678479,"connected_time":1245000000000,"state":"active","ping":46},{"user_id":218,"name":"ms. capgras","steam_id":76561199080209996,"connected_time":800000000000,"state":"active","ping":54},{"user_id":213,"name":"OHGODBEES!","steam_id":76561198000653374,"connected_time":1110000000000,"state":"active","ping":127},{"user_id":189,"name":"Nobody","steam_id":76561198286486517,"connected_time":3509000000000,"state":"active","ping":74},{"user_id":219,"name":"AVY","steam_id":76561197964252106,"connected_time":795000000000,"state":"active","ping":53},{"user_id":224,"name":"[NAME-REDACTED]","steam_id":76561198035682975,"connected_time":177000000000,"state":"active","ping":71},{"user_id":221,"name":"Divinitas","steam_id":76561199079034911,"connected_time":777000000000,"state":"active","ping":51},{"user_id":104,"name":"TommyBoi","steam_id":76561198025528637,"connected_time":9730000000000,"state":"active","ping":109},{"user_id":225,"name":"toasty weber","steam_id":76561198037746805,"connected_time":168000000000,"state":"active","ping":75},{"user_id":200,"name":"Goldensliv","steam_id":76561198161673891,"connected_time":2551000000000,"state":"active","ping":100},{"user_id":214,"name":"IcyScrumpy","steam_id":76561198084605065,"connected_time":1056000000000,"state":"active","ping":62},{"user_id":170,"name":"corntent","steam_id":76561198824847948,"connected_time":4876000000000,"state":"active","ping":64},{"user_id":201,"name":"WillieMakit","steam_id":76561197985391684,"connected_time":2522000000000,"state":"active","ping":122}]},{"server_id":36,"name":"Uncletopia | Chicago | 5 | All Maps","name_short":"chi-5","host":"chi-2.us.uncletopia.com","port":27015,"enabled":true,"region":"us-central","cc":"us","latitude":41.881832,"longitude":-87.62318,"reserved":0,"last_update":"0001-01-01T00:00:00Z","name_a2s":"Uncletopia | Chicago | 5 | All Maps","protocol":17,"map":"pl_upward","folder":"tf","game":"Team Fortress","app_id":440,"player_count":20,"max_players":24,"Bots":0,"server_type":"Dedicated","server_os":"Linux","password":true,"vac":true,"version":"7961495","steam_id":85568392924866362,"keywords":["nocrits","nodmgspread","payload","uncletopia"],"game_id":440,"stv_port":27016,"stv_name":"Uncletopia | Chicago | 5 | All Maps | STV","players":[{"user_id":188,"name":"Rat God","steam_id":76561198066161598,"connected_time":4132000000000,"state":"spawning","ping":219},{"user_id":206,"name":"Mr.Steesher","steam_id":76561198122110713,"connected_time":2281000000000,"state":"active","ping":171},{"user_id":170,"name":"Owls = Government Drones","steam_id":76561198439793697,"connected_time":5248000000000,"state":"active","ping":97},{"user_id":171,"name":"gohello123","steam_id":76561198027962352,"connected_time":5211000000000,"state":"active","ping":109},{"user_id":213,"name":"might be natsu","steam_id":76561198066566813,"connected_time":1321000000000,"state":"active","ping":150},{"user_id":219,"name":"Wet Deer","steam_id":76561198145045927,"connected_time":928000000000,"state":"active","ping":50},{"user_id":174,"name":"Nannerpuss","steam_id":76561198027625527,"connected_time":5160000000000,"state":"active","ping":73},{"user_id":173,"name":"Snowflake the Gorilla","steam_id":76561197987490887,"connected_time":5181000000000,"state":"active","ping":114},{"user_id":214,"name":"Jpxfred","steam_id":76561199414783749,"connected_time":1320000000000,"state":"spawning","ping":97},{"user_id":175,"name":"MR SKELTAL","steam_id":76561198031089598,"connected_time":5134000000000,"state":"active","ping":68},{"user_id":200,"name":"tt","steam_id":76561198367170145,"connected_time":3242000000000,"state":"active","ping":98},{"user_id":187,"name":"Kantamoe","steam_id":76561198046661611,"connected_time":4134000000000,"state":"active","ping":87},{"user_id":177,"name":"Reeeeeeech","steam_id":76561197979913480,"connected_time":5114000000000,"state":"active","ping":105},{"user_id":209,"name":"Ayylmao","steam_id":76561198104780147,"connected_time":2009000000000,"state":"active","ping":44},{"user_id":207,"name":"Manny Heffley","steam_id":76561198135137213,"connected_time":2185000000000,"state":"active","ping":54},{"user_id":216,"name":"DruvaDan","steam_id":76561197995506910,"connected_time":1231000000000,"state":"active","ping":108},{"user_id":181,"name":"JayBro","steam_id":76561198012252068,"connected_time":5051000000000,"state":"active","ping":113},{"user_id":211,"name":"gaming gerald","steam_id":76561198011707083,"connected_time":1436000000000,"state":"active","ping":60},{"user_id":220,"name":"Buffilm","steam_id":76561197999391299,"connected_time":627000000000,"state":"active","ping":129},{"user_id":218,"name":"Jar Jar Kinks","steam_id":76561199087748803,"connected_time":1147000000000,"state":"active","ping":66}]},{"server_id":37,"name":"Uncletopia | Chicago | 6 | All Maps","name_short":"chi-6","host":"chi-2.us.uncletopia.com","port":27025,"enabled":true,"region":"us-central","cc":"us","latitude":41.881832,"longitude":-87.62318,"reserved":0,"last_update":"0001-01-01T00:00:00Z","name_a2s":"Uncletopia | Chicago | 6 | All Maps","protocol":17,"map":"pl_barnblitz","folder":"tf","game":"Team Fortress","app_id":440,"player_count":20,"max_players":24,"Bots":0,"server_type":"Dedicated","server_os":"Linux","password":true,"vac":true,"version":"7961495","steam_id":85568392924866363,"keywords":["nocrits","nodmgspread","payload","uncletopia"],"game_id":440,"stv_port":27026,"stv_name":"Uncletopia | Chicago | 6 | All Maps | STV","players":[{"user_id":186,"name":"twix #IMSORRYGRAPEJUCE","steam_id":76561198040912048,"connected_time":7710000000000,"state":"active","ping":45},{"user_id":215,"name":"StudioMania (#SAVETF2)","steam_id":76561198211315795,"connected_time":4632000000000,"state":"active","ping":67},{"user_id":271,"name":"Kenn","steam_id":76561198061505015,"connected_time":709000000000,"state":"active","ping":82},{"user_id":275,"name":"DREW PEACOCK","steam_id":76561198065057392,"connected_time":183000000000,"state":"active","ping":71},{"user_id":260,"name":"I love ham","steam_id":76561199115763976,"connected_time":1286000000000,"state":"active","ping":83},{"user_id":193,"name":"bologna forklift 2012","steam_id":76561198199061206,"connected_time":6847000000000,"state":"active","ping":37},{"user_id":263,"name":"ashelin praxis nude mod","steam_id":76561198167907089,"connected_time":1238000000000,"state":"active","ping":66},{"user_id":277,"name":"Rebel","steam_id":76561198056377621,"connected_time":97000000000,"state":"active","ping":60},{"user_id":264,"name":"Ceiling Man","steam_id":76561198003959902,"connected_time":1226000000000,"state":"active","ping":58},{"user_id":240,"name":"NerdyEnforcement","steam_id":76561198437710820,"connected_time":3120000000000,"state":"active","ping":57},{"user_id":278,"name":"Sicko Mode (Chris Pratt Cover)","steam_id":76561198315786174,"connected_time":96000000000,"state":"active","ping":72},{"user_id":241,"name":"pathways","steam_id":76561198054832333,"connected_time":3075000000000,"state":"active","ping":48},{"user_id":256,"name":"Cadaver","steam_id":76561199138107967,"connected_time":1532000000000,"state":"active","ping":68},{"user_id":281,"name":"monsterkill4567","steam_id":76561198272986367,"connected_time":50000000000,"state":"active","ping":111},{"user_id":266,"name":"Ask Nicely For Heals","steam_id":76561198138478907,"connected_time":1189000000000,"state":"active","ping":76},{"user_id":279,"name":"fruitlogic","steam_id":76561198071251588,"connected_time":94000000000,"state":"active","ping":64},{"user_id":282,"name":"tap to collect gold","steam_id":76561198822328368,"connected_time":40000000000,"state":"active","ping":121},{"user_id":270,"name":"wheat","steam_id":76561197971158435,"connected_time":720000000000,"state":"active","ping":59},{"user_id":269,"name":"IEatCrayons","steam_id":76561198361029815,"connected_time":1177000000000,"state":"active","ping":56},{"user_id":272,"name":"Engineer2650","steam_id":76561198121410799,"connected_time":407000000000,"state":"active","ping":73}]},{"server_id":38,"name":"Uncletopia | Chicago | 7 | Stopwatch","name_short":"chi-7","host":"chi-2.us.uncletopia.com","port":27035,"enabled":true,"region":"us-central","cc":"us","latitude":41.881832,"longitude":-87.62318,"reserved":0,"last_update":"0001-01-01T00:00:00Z","name_a2s":"Uncletopia | Chicago | 7 | Stopwatch","protocol":17,"map":"workshop/koth_clearcut_b15.ugc2107050255","folder":"tf","game":"Team Fortress","app_id":440,"player_count":23,"max_players":24,"Bots":0,"server_type":"Dedicated","server_os":"Linux","password":true,"vac":true,"version":"7961495","steam_id":85568392924866364,"keywords":["cp","nocrits","nodmgspread","uncletopia"],"game_id":440,"stv_port":27036,"stv_name":"Uncletopia | Chicago | 7 | Stopwatch | STV","players":[{"user_id":603,"name":"Jurls","steam_id":76561198138077990,"connected_time":10689000000000,"state":"active","ping":77},{"user_id":771,"name":"Vordt","steam_id":76561198040942866,"connected_time":1502000000000,"state":"active","ping":59},{"user_id":735,"name":"bleach65","steam_id":76561198115270571,"connected_time":4190000000000,"state":"active","ping":91},{"user_id":784,"name":"Shoes [Gaming]","steam_id":76561198836436110,"connected_time":552000000000,"state":"active","ping":60},{"user_id":787,"name":"FemBoy _Bluster_","steam_id":76561199031612530,"connected_time":301000000000,"state":"active","ping":68},{"user_id":767,"name":"Andy","steam_id":76561198043115724,"connected_time":1561000000000,"state":"active","ping":101},{"user_id":781,"name":"Galactamarx","steam_id":76561198028065755,"connected_time":669000000000,"state":"active","ping":96},{"user_id":760,"name":"big tim","steam_id":76561198075510786,"connected_time":2426000000000,"state":"active","ping":68},{"user_id":773,"name":"raduski","steam_id":76561198795699119,"connected_time":1426000000000,"state":"active","ping":86},{"user_id":701,"name":"Some_Arse","steam_id":76561198039095394,"connected_time":5467000000000,"state":"active","ping":62},{"user_id":786,"name":"moonboy","steam_id":76561198172113657,"connected_time":322000000000,"state":"active","ping":86},{"user_id":776,"name":"Brastion","steam_id":76561198257707303,"connected_time":1033000000000,"state":"active","ping":87},{"user_id":779,"name":"GeneralTso","steam_id":76561197976173093,"connected_time":819000000000,"state":"active","ping":73},{"user_id":753,"name":"Sckuish","steam_id":76561198297216345,"connected_time":3044000000000,"state":"active","ping":68},{"user_id":788,"name":"Vision Spire","steam_id":76561198095923905,"connected_time":293000000000,"state":"active","ping":59},{"user_id":780,"name":"kicks","steam_id":76561199228854923,"connected_time":705000000000,"state":"active","ping":60},{"user_id":785,"name":"do you like beans?","steam_id":76561199184000745,"connected_time":405000000000,"state":"active","ping":118},{"user_id":789,"name":"Gruncle PUXXY's Menstrual Shows","steam_id":76561197995465137,"connected_time":228000000000,"state":"active","ping":72},{"user_id":726,"name":"tesa","steam_id":76561198154546773,"connected_time":4621000000000,"state":"active","ping":75},{"user_id":743,"name":"Acidasaur","steam_id":76561198424179969,"connected_time":4036000000000,"state":"active","ping":60},{"user_id":790,"name":"Lv3 Kobold Shadow Sorcerer","steam_id":76561198042068995,"connected_time":173000000000,"state":"active","ping":107},{"user_id":792,"name":"BB Lorexav","steam_id":76561198207565988,"connected_time":22000000000,"state":"active","ping":77},{"user_id":783,"name":"BunnyBlitz","steam_id":76561198165881112,"connected_time":606000000000,"state":"active","ping":86}]},{"server_id":39,"name":"Uncletopia | Chicago | 8 | Community","name_short":"chi-8","host":"chi-2.us.uncletopia.com","port":27045,"enabled":true,"region":"us-central","cc":"us","latitude":41.881832,"longitude":-87.62318,"reserved":0,"last_update":"0001-01-01T00:00:00Z","name_a2s":"Uncletopia | Chicago | 8 | Community","protocol":17,"map":"workshop/pl_fifthcurve_rc1.ugc648227046","folder":"tf","game":"Team Fortress","app_id":440,"player_count":0,"max_players":24,"Bots":0,"server_type":"Dedicated","server_os":"Linux","password":true,"vac":true,"version":"7961495","steam_id":85568392924866365,"keywords":["nocrits","nodmgspread","payload","uncletopia"],"game_id":440,"stv_port":27046,"stv_name":"Uncletopia | Chicago | 8 | Community | STV","players":null},{"server_id":8,"name":"Uncletopia | Dallas | 1 | All Maps","name_short":"dal-1","host":"dal-1.us.uncletopia.com","port":27015,"enabled":true,"region":"us-central","cc":"us","latitude":32.779167,"longitude":-96.80889,"reserved":0,"last_update":"0001-01-01T00:00:00Z","name_a2s":"Uncletopia | Dallas | 1 | All Maps","protocol":17,"map":"cp_mountainlab","folder":"tf","game":"Team Fortress","app_id":440,"player_count":24,"max_players":24,"Bots":0,"server_type":"Dedicated","server_os":"Linux","password":true,"vac":true,"version":"7961495","steam_id":85568392924469986,"keywords":["cp","nocrits","nodmgspread","uncletopia"],"game_id":440,"stv_port":27016,"stv_name":"Uncletopia | Dallas | 1 | All Maps | STV","players":[{"user_id":600,"name":"Bombsgamer","steam_id":76561198350009050,"connected_time":1425000000000,"state":"active","ping":90},{"user_id":587,"name":"Major Woody","steam_id":76561198835541533,"connected_time":1987000000000,"state":"active","ping":61},{"user_id":550,"name":"TheGFG","steam_id":76561198166150556,"connected_time":6523000000000,"state":"active","ping":64},{"user_id":619,"name":"Glaceon","steam_id":76561198177715869,"connected_time":271000000000,"state":"active","ping":61},{"user_id":609,"name":"Girthworm Jim","steam_id":76561198007433376,"connected_time":1067000000000,"state":"active","ping":97},{"user_id":585,"name":"Gerard","steam_id":76561198053456194,"connected_time":2166000000000,"state":"active","ping":49},{"user_id":614,"name":"Socialist Warrior","steam_id":76561198085664421,"connected_time":720000000000,"state":"active","ping":77},{"user_id":598,"name":"Not A Rapper","steam_id":76561198077523537,"connected_time":1577000000000,"state":"active","ping":94},{"user_id":570,"name":"awawa oyoyo awawa oyoyo","steam_id":76561198062263639,"connected_time":4004000000000,"state":"active","ping":51},{"user_id":584,"name":"GROOMER KILLER","steam_id":76561198059500571,"connected_time":2320000000000,"state":"active","ping":66},{"user_id":618,"name":"iluvtoust","steam_id":76561198869269207,"connected_time":583000000000,"state":"active","ping":45},{"user_id":607,"name":"Year Old Bong Water","steam_id":76561198323298672,"connected_time":1115000000000,"state":"active","ping":103},{"user_id":580,"name":"dave","steam_id":76561198135961731,"connected_time":3268000000000,"state":"active","ping":59},{"user_id":611,"name":"Jack \"Hee Ho\" Frost","steam_id":76561198353395198,"connected_time":981000000000,"state":"active","ping":79},{"user_id":599,"name":"aisu","steam_id":76561198043768507,"connected_time":1449000000000,"state":"active","ping":85},{"user_id":615,"name":"elephant thumb","steam_id":76561198118859752,"connected_time":715000000000,"state":"active","ping":75},{"user_id":602,"name":"Booryn","steam_id":76561198233567772,"connected_time":1423000000000,"state":"active","ping":80},{"user_id":590,"name":"Hamuktakali","steam_id":76561198039625579,"connected_time":1905000000000,"state":"active","ping":62},{"user_id":569,"name":"TrashPanda (she/her)","steam_id":76561198447864095,"connected_time":4030000000000,"state":"active","ping":62},{"user_id":591,"name":"ZILICON","steam_id":76561199044705592,"connected_time":1904000000000,"state":"active","ping":104},{"user_id":612,"name":"Lunar Lesbians","steam_id":76561198010142856,"connected_time":935000000000,"state":"active","ping":77},{"user_id":616,"name":"BiggestHistoryNerd","steam_id":76561198027677672,"connected_time":715000000000,"state":"active","ping":83},{"user_id":613,"name":"Imrgrim","steam_id":76561198135866481,"connected_time":905000000000,"state":"active","ping":65},{"user_id":593,"name":"Goat","steam_id":76561198068447650,"connected_time":1889000000000,"state":"active","ping":65}]},{"server_id":108,"name":"Uncletopia | Dallas | 2 | All Maps","name_short":"dal-2","host":"dal-1.us.uncletopia.com","port":27025,"enabled":true,"region":"us-central","cc":"us","latitude":32.779167,"longitude":-96.80889,"reserved":0,"last_update":"0001-01-01T00:00:00Z","name_a2s":"Uncletopia | Dallas | 2 | All Maps","protocol":17,"map":"koth_viaduct","folder":"tf","game":"Team Fortress","app_id":440,"player_count":15,"max_players":24,"Bots":0,"server_type":"Dedicated","server_os":"Linux","password":true,"vac":true,"version":"7961495","steam_id":85568392924469988,"keywords":["cp","nocrits","nodmgspread","uncletopia"],"game_id":440,"stv_port":27026,"stv_name":"Uncletopia | Dallas | 2 | All Maps | STV","players":[{"user_id":337,"name":"KhorneBread Ô∏ª„Éá ‰∏Ä","steam_id":76561198097069958,"connected_time":214000000000,"state":"active","ping":100},{"user_id":326,"name":"Keyboardbreaker","steam_id":76561198372836132,"connected_time":642000000000,"state":"active","ping":98},{"user_id":332,"name":"nuts swangin in da wind","steam_id":76561198125947844,"connected_time":401000000000,"state":"active","ping":88},{"user_id":338,"name":"Goblin","steam_id":76561199384665653,"connected_time":178000000000,"state":"active","ping":73},{"user_id":334,"name":"FliturbiousRex","steam_id":76561199217583334,"connected_time":299000000000,"state":"active","ping":79},{"user_id":336,"name":"Liver stealer","steam_id":76561199029954287,"connected_time":228000000000,"state":"active","ping":149},{"user_id":313,"name":"Anor","steam_id":76561198356139775,"connected_time":2173000000000,"state":"active","ping":70},{"user_id":323,"name":"Coolcat","steam_id":76561198180933957,"connected_time":1223000000000,"state":"active","ping":54},{"user_id":339,"name":"Yummy Kabobz","steam_id":76561198067661705,"connected_time":144000000000,"state":"active","ping":72},{"user_id":329,"name":"alfredodan","steam_id":76561198025011044,"connected_time":525000000000,"state":"active","ping":76},{"user_id":340,"name":"femboy spy","steam_id":76561199338554815,"connected_time":82000000000,"state":"active","ping":77},{"user_id":341,"name":"dark souls boss","steam_id":76561198316610724,"connected_time":81000000000,"state":"active","ping":87},{"user_id":342,"name":"sourboyd","steam_id":76561199077248152,"connected_time":52000000000,"state":"active","ping":184},{"user_id":325,"name":"Blitzoetic","steam_id":76561198053239412,"connected_time":805000000000,"state":"active","ping":110},{"user_id":318,"name":"artichoke","steam_id":76561198980994364,"connected_time":2112000000000,"state":"active","ping":97}]},{"server_id":404,"name":"Uncletopia | Dallas | 3 | All Maps","name_short":"dal-3","host":"dal-1.us.uncletopia.com","port":27035,"enabled":true,"region":"us-central","cc":"us","latitude":32.779167,"longitude":-96.80889,"reserved":0,"last_update":"0001-01-01T00:00:00Z","name_a2s":"Uncletopia | Dallas | 3 | All Maps","protocol":17,"map":"pl_upward","folder":"tf","game":"Team Fortress","app_id":440,"player_count":24,"max_players":24,"Bots":0,"server_type":"Dedicated","server_os":"Linux","password":true,"vac":true,"version":"7961495","steam_id":85568392924515219,"keywords":["nocrits","nodmgspread","payload","uncletopia"],"game_id":440,"stv_port":27036,"stv_name":"Uncletopia | Dallas | 3 | All Maps | STV","players":[{"user_id":268,"name":"B R O W N","steam_id":76561198047340813,"connected_time":1696000000000,"state":"active","ping":75},{"user_id":275,"name":"smugmirk","steam_id":76561198880748680,"connected_time":1066000000000,"state":"active","ping":80},{"user_id":269,"name":"Green eggs and ham","steam_id":76561198043507340,"connected_time":1499000000000,"state":"active","ping":117},{"user_id":276,"name":"mollusk_obliteration","steam_id":76561198085388962,"connected_time":1057000000000,"state":"active","ping":70},{"user_id":277,"name":"Sarbanes-Oxley","steam_id":76561197975898479,"connected_time":1049000000000,"state":"active","ping":53},{"user_id":264,"name":"steady","steam_id":76561198210433363,"connected_time":2674000000000,"state":"active","ping":67},{"user_id":249,"name":"Decapitation Station","steam_id":76561198201796098,"connected_time":3856000000000,"state":"active","ping":92},{"user_id":282,"name":"supcupman","steam_id":76561198051513866,"connected_time":733000000000,"state":"active","ping":106},{"user_id":253,"name":"The Rat Bastard","steam_id":76561198112705880,"connected_time":3102000000000,"state":"active","ping":82},{"user_id":279,"name":"Skipiste","steam_id":76561198125735622,"connected_time":982000000000,"state":"active","ping":78},{"user_id":257,"name":"Sizenberg","steam_id":76561198115842661,"connected_time":2753000000000,"state":"active","ping":94},{"user_id":280,"name":"‚ù§ Ashley ‚ù§","steam_id":76561198056428303,"connected_time":959000000000,"state":"active","ping":87},{"user_id":214,"name":"Scrum","steam_id":76561198055422081,"connected_time":6040000000000,"state":"active","ping":65},{"user_id":273,"name":"guappodiablo2","steam_id":76561198132087785,"connected_time":1147000000000,"state":"active","ping":58},{"user_id":283,"name":"self sufficient kitten","steam_id":76561197960592612,"connected_time":579000000000,"state":"active","ping":106},{"user_id":259,"name":"hart","steam_id":76561198094780633,"connected_time":2736000000000,"state":"active","ping":70},{"user_id":284,"name":"millennial on cell phone","steam_id":76561198972619900,"connected_time":179000000000,"state":"active","ping":56},{"user_id":227,"name":"heavy weapons \"guy\"","steam_id":76561198151135298,"connected_time":5554000000000,"state":"active","ping":65},{"user_id":260,"name":"Gold Val Player","steam_id":76561198123261072,"connected_time":2733000000000,"state":"active","ping":83},{"user_id":261,"name":"We Go Crazy","steam_id":76561198209641359,"connected_time":2730000000000,"state":"active","ping":72},{"user_id":262,"name":"dumbledore, the head master","steam_id":76561198424954118,"connected_time":2727000000000,"state":"active","ping":60},{"user_id":201,"name":"Stiffy Magnum","steam_id":76561198000036722,"connected_time":7320000000000,"state":"active","ping":96},{"user_id":281,"name":"THICCBEEF GRANDPA","steam_id":76561197993550572,"connected_time":956000000000,"state":"active","ping":88},{"user_id":265,"name":"Spank McDugan","steam_id":76561198046401833,"connected_time":2659000000000,"state":"active","ping":81}]},{"server_id":405,"name":"Uncletopia | Dallas | 4 | Community","name_short":"dal-4","host":"dal-1.us.uncletopia.com","port":27045,"enabled":true,"region":"us-central","cc":"us","latitude":32.779167,"longitude":-96.80889,"reserved":0,"last_update":"0001-01-01T00:00:00Z","name_a2s":"Uncletopia | Dallas | 4 | Community","protocol":17,"map":"workshop/pl_cashworks_final1.ugc2904065412","folder":"tf","game":"Team Fortress","app_id":440,"player_count":0,"max_players":24,"Bots":0,"server_type":"Dedicated","server_os":"Linux","password":true,"vac":true,"version":"7961495","steam_id":85568392924515220,"keywords":["nocrits","nodmgspread","payload","uncletopia"],"game_id":440,"stv_port":27046,"stv_name":"Uncletopia | Dallas | 4 | Community | STV","players":null},{"server_id":5,"name":"Uncletopia | Frankfurt | 1 | All Maps","name_short":"frk-1","host":"frk-1.de.uncletopia.com","port":27015,"enabled":true,"region":"eu","cc":"de","latitude":50.110924,"longitude":8.682127,"reserved":0,"last_update":"0001-01-01T00:00:00Z","name_a2s":"Uncletopia | Frankfurt | 1 | All Maps","protocol":17,"map":"pl_frontier_final","folder":"tf","game":"Team Fortress","app_id":440,"player_count":0,"max_players":24,"Bots":0,"server_type":"Dedicated","server_os":"Linux","password":true,"vac":true,"version":"7961495","steam_id":85568392924469989,"keywords":["nocrits","nodmgspread","payload","uncletopia"],"game_id":440,"stv_port":27016,"stv_name":"Uncletopia | Frankfurt | 1 | All Maps | STV","players":null},{"server_id":110,"name":"Uncletopia | Frankfurt | 2 | All Maps","name_short":"frk-2","host":"frk-1.de.uncletopia.com","port":27025,"enabled":true,"region":"eu","cc":"de","latitude":50.110924,"longitude":8.682127,"reserved":0,"last_update":"0001-01-01T00:00:00Z","name_a2s":"Uncletopia | Frankfurt | 2 | All Maps","protocol":17,"map":"pl_upward","folder":"tf","game":"Team Fortress","app_id":440,"player_count":0,"max_players":24,"Bots":0,"server_type":"Dedicated","server_os":"Linux","password":true,"vac":true,"version":"7961495","steam_id":85568392924469990,"keywords":["nocrits","nodmgspread","payload","uncletopia"],"game_id":440,"stv_port":27026,"stv_name":"Uncletopia | Frankfurt | 2 | All Maps | STV","players":null},{"server_id":308,"name":"Uncletopia | Frankfurt | 3 | All Maps","name_short":"frk-3","host":"frk-1.de.uncletopia.com","port":27035,"enabled":true,"region":"eu","cc":"de","latitude":50.110924,"longitude":8.682127,"reserved":0,"last_update":"0001-01-01T00:00:00Z","name_a2s":"Uncletopia | Frankfurt | 3 | All Maps","protocol":17,"map":"pl_pier","folder":"tf","game":"Team Fortress","app_id":440,"player_count":0,"max_players":24,"Bots":0,"server_type":"Dedicated","server_os":"Linux","password":true,"vac":true,"version":"7961495","steam_id":85568392924504274,"keywords":["nocrits","nodmgspread","payload","uncletopia"],"game_id":440,"stv_port":27036,"stv_name":"Uncletopia | Frankfurt | 3 | All Maps | STV","players":null},{"server_id":309,"name":"Uncletopia | Frankfurt | 4 | All Maps","name_short":"frk-4","host":"frk-1.de.uncletopia.com","port":27045,"enabled":true,"region":"eu","cc":"de","latitude":50.110924,"longitude":8.682127,"reserved":0,"last_update":"0001-01-01T00:00:00Z","name_a2s":"Uncletopia | Frankfurt | 4 | All Maps","protocol":17,"map":"pl_frontier_final","folder":"tf","game":"Team Fortress","app_id":440,"player_count":0,"max_players":24,"Bots":0,"server_type":"Dedicated","server_os":"Linux","password":true,"vac":true,"version":"7961495","steam_id":85568392924504275,"keywords":["nocrits","nodmgspread","payload","uncletopia"],"game_id":440,"stv_port":27046,"stv_name":"Uncletopia | Frankfurt | 4 | All Maps | STV","players":null},{"server_id":310,"name":"Uncletopia | Frankfurt | 5 | All Maps","name_short":"frk-5","host":"frk-1.de.uncletopia.com","port":27055,"enabled":true,"region":"eu","cc":"de","latitude":50.110924,"longitude":8.682127,"reserved":0,"last_update":"0001-01-01T00:00:00Z","name_a2s":"Uncletopia | Frankfurt | 5 | All Maps","protocol":17,"map":"koth_lakeside_final","folder":"tf","game":"Team Fortress","app_id":440,"player_count":0,"max_players":24,"Bots":0,"server_type":"Dedicated","server_os":"Linux","password":true,"vac":true,"version":"7961495","steam_id":85568392924504277,"keywords":["cp","nocrits","nodmgspread","uncletopia"],"game_id":440,"stv_port":27056,"stv_name":"Uncletopia | Frankfurt | 5 | All Maps | STV","players":null},{"server_id":311,"name":"Uncletopia | Frankfurt | 6 | All Maps","name_short":"frk-6","host":"frk-1.de.uncletopia.com","port":27065,"enabled":true,"region":"eu","cc":"de","latitude":50.110924,"longitude":8.682127,"reserved":0,"last_update":"0001-01-01T00:00:00Z","name_a2s":"Uncletopia | Frankfurt | 6 | All Maps","protocol":17,"map":"koth_cascade","folder":"tf","game":"Team Fortress","app_id":440,"player_count":0,"max_players":24,"Bots":0,"server_type":"Dedicated","server_os":"Linux","password":true,"vac":true,"version":"7961495","steam_id":85568392924504278,"keywords":["cp","nocrits","nodmgspread","uncletopia"],"game_id":440,"stv_port":27066,"stv_name":"Uncletopia | Frankfurt | 6 | All Maps | STV","players":null},{"server_id":23,"name":"Uncletopia | Frankfurt | 7 | Stopwatch","name_short":"frk-7","host":"frk-1.de.uncletopia.com","port":27075,"enabled":true,"region":"eu","cc":"de","latitude":50.110924,"longitude":8.682127,"reserved":0,"last_update":"0001-01-01T00:00:00Z","name_a2s":"Uncletopia | Frankfurt | 7 | Stopwatch","protocol":17,"map":"workshop/koth_ashville_final.ugc2130459942","folder":"tf","game":"Team Fortress","app_id":440,"player_count":0,"max_players":24,"Bots":0,"server_type":"Dedicated","server_os":"Linux","password":true,"vac":true,"version":"7961495","steam_id":85568392924742827,"keywords":["cp","nocrits","nodmgspread","uncletopia"],"game_id":440,"stv_port":27076,"stv_name":"Uncletopia | Frankfurt | 7 | Stopwatch | STV","players":null},{"server_id":24,"name":"Uncletopia | Frankfurt | 8 | Community","name_short":"frk-8","host":"frk-1.de.uncletopia.com","port":27085,"enabled":true,"region":"eu","cc":"de","latitude":50.110924,"longitude":8.682127,"reserved":0,"last_update":"0001-01-01T00:00:00Z","name_a2s":"Uncletopia | Frankfurt | 8 | Community","protocol":17,"map":"workshop/pl_shoreleave_rc2.ugc1238849347","folder":"tf","game":"Team Fortress","app_id":440,"player_count":0,"max_players":24,"Bots":0,"server_type":"Dedicated","server_os":"Linux","password":true,"vac":true,"version":"7961495","steam_id":85568392924742828,"keywords":["nocrits","nodmgspread","payload","uncletopia"],"game_id":440,"stv_port":27086,"stv_name":"Uncletopia | Frankfurt | 8 | Community | STV","players":null},{"server_id":202,"name":"Uncletopia | Hong Kong | 1 | All Maps","name_short":"hgk-1","host":"hgk-1.hk.uncletopia.com","port":27015,"enabled":true,"region":"asia","cc":"hk","latitude":22.302711,"longitude":114.177216,"reserved":0,"last_update":"0001-01-01T00:00:00Z","name_a2s":"Uncletopia | Hong Kong | 1 | All Maps","protocol":17,"map":"pl_badwater","folder":"tf","game":"Team Fortress","app_id":440,"player_count":3,"max_players":24,"Bots":0,"server_type":"Dedicated","server_os":"Linux","password":true,"vac":true,"version":"7961495","steam_id":85568392924494504,"keywords":["nocrits","nodmgspread","payload","uncletopia"],"game_id":440,"stv_port":27016,"stv_name":"Uncletopia | Hong Kong | 1 | All Maps | STV","players":[{"user_id":26,"name":"marisaloses","steam_id":76561199033032870,"connected_time":58000000000,"state":"active","ping":103},{"user_id":24,"name":"[Sicky] I twin-charged your kid","steam_id":76561198228084940,"connected_time":219000000000,"state":"active","ping":44},{"user_id":27,"name":"fred","steam_id":76561199496222946,"connected_time":54000000000,"state":"active","ping":122}]},{"server_id":1,"name":"Uncletopia | Los Angeles | 1 | All Maps","name_short":"lax-1","host":"lax-1.us.uncletopia.com","port":27015,"enabled":true,"region":"us-west","cc":"us","latitude":33.94279,"longitude":-118.41004,"reserved":0,"last_update":"0001-01-01T00:00:00Z","name_a2s":"Uncletopia | Los Angeles | 1 | All Maps","protocol":17,"map":"cp_dustbowl","folder":"tf","game":"Team Fortress","app_id":440,"player_count":24,"max_players":24,"Bots":0,"server_type":"Dedicated","server_os":"Linux","password":true,"vac":true,"version":"7961495","steam_id":85568392924469991,"keywords":["cp","nocrits","nodmgspread","uncletopia"],"game_id":440,"stv_port":27016,"stv_name":"Uncletopia | Los Angeles | 1 | All Maps | STV","players":[{"user_id":57,"name":"Candy Medusa","steam_id":76561198017790299,"connected_time":2865000000000,"state":"active","ping":106},{"user_id":63,"name":"HumbDoe","steam_id":76561198065556553,"connected_time":2161000000000,"state":"active","ping":65},{"user_id":35,"name":"Mongoose","steam_id":76561198020361641,"connected_time":3902000000000,"state":"active","ping":71},{"user_id":31,"name":"laaghice","steam_id":76561198274021552,"connected_time":4038000000000,"state":"active","ping":85},{"user_id":62,"name":"Schmupp","steam_id":76561198150928115,"connected_time":2308000000000,"state":"active","ping":42},{"user_id":136,"name":"Ralph Kramden (Slim Charles)","steam_id":76561197981687895,"connected_time":359000000000,"state":"active","ping":61},{"user_id":108,"name":"darren","steam_id":76561199050155136,"connected_time":922000000000,"state":"active","ping":48},{"user_id":98,"name":"Nightwatcher553","steam_id":76561198991570204,"connected_time":1104000000000,"state":"active","ping":94},{"user_id":59,"name":"canakblasteran","steam_id":76561199472518822,"connected_time":2621000000000,"state":"active","ping":69},{"user_id":137,"name":"plutonium isotope","steam_id":76561198319442494,"connected_time":27000000000,"state":"active","ping":69},{"user_id":33,"name":"nezzy","steam_id":76561198127115509,"connected_time":4012000000000,"state":"active","ping":112},{"user_id":36,"name":"5oc","steam_id":76561199196300397,"connected_time":3875000000000,"state":"active","ping":66},{"user_id":40,"name":"Ultrablast275","steam_id":76561199013233099,"connected_time":3550000000000,"state":"active","ping":119},{"user_id":65,"name":"Flavortown Thanos","steam_id":76561198004853966,"connected_time":1917000000000,"state":"active","ping":84},{"user_id":42,"name":"RC","steam_id":76561198048127881,"connected_time":3369000000000,"state":"active","ping":45},{"user_id":48,"name":"Salad and Absinthe","steam_id":76561198169915227,"connected_time":3139000000000,"state":"active","ping":57},{"user_id":49,"name":"Quack","steam_id":76561199086339263,"connected_time":3128000000000,"state":"active","ping":89},{"user_id":50,"name":"jdm","steam_id":76561199497603020,"connected_time":3110000000000,"state":"active","ping":53},{"user_id":52,"name":"Thunder","steam_id":76561198097721532,"connected_time":3058000000000,"state":"active","ping":49},{"user_id":53,"name":"Creature","steam_id":76561198194585781,"connected_time":3049000000000,"state":"active","ping":54},{"user_id":54,"name":"Weed Dealer","steam_id":76561198418604400,"connected_time":3047000000000,"state":"active","ping":78},{"user_id":55,"name":"Squatter1","steam_id":76561198078987734,"connected_time":3012000000000,"state":"active","ping":80},{"user_id":66,"name":"Giddy","steam_id":76561198271951969,"connected_time":1905000000000,"state":"active","ping":64},{"user_id":135,"name":"GarbbCan","steam_id":76561198927509821,"connected_time":401000000000,"state":"active","ping":70}]},{"server_id":112,"name":"Uncletopia | Los Angeles | 2 | All Maps","name_short":"lax-2","host":"lax-1.us.uncletopia.com","port":27025,"enabled":true,"region":"us-west","cc":"us","latitude":33.94279,"longitude":-118.41004,"reserved":0,"last_update":"0001-01-01T00:00:00Z","name_a2s":"Uncletopia | Los Angeles | 2 | All Maps","protocol":17,"map":"pl_upward","folder":"tf","game":"Team Fortress","app_id":440,"player_count":24,"max_players":24,"Bots":0,"server_type":"Dedicated","server_os":"Linux","password":true,"vac":true,"version":"7961495","steam_id":85568392924469992,"keywords":["nocrits","nodmgspread","payload","uncletopia"],"game_id":440,"stv_port":27026,"stv_name":"Uncletopia | Los Angeles | 2 | All Maps | STV","players":[{"user_id":511,"name":"Ronnie Pickering!","steam_id":76561198041842118,"connected_time":843000000000,"state":"active","ping":56},{"user_id":512,"name":"SAVECASEY","steam_id":76561198857896847,"connected_time":841000000000,"state":"active","ping":46},{"user_id":487,"name":"Neil Armstrong Gaming","steam_id":76561198173987090,"connected_time":3007000000000,"state":"active","ping":100},{"user_id":515,"name":"oog","steam_id":76561199089730744,"connected_time":820000000000,"state":"active","ping":57},{"user_id":535,"name":"Tam Honks","steam_id":76561198044347961,"connected_time":12000000000,"state":"spawning","ping":59},{"user_id":529,"name":"i cant aim","steam_id":76561198065873462,"connected_time":305000000000,"state":"active","ping":44},{"user_id":517,"name":"stubowden","steam_id":76561198421175184,"connected_time":810000000000,"state":"active","ping":66},{"user_id":531,"name":"NOBODY","steam_id":76561198094578887,"connected_time":252000000000,"state":"active","ping":96},{"user_id":503,"name":"Cave Dweller","steam_id":76561198374825685,"connected_time":2455000000000,"state":"active","ping":73},{"user_id":489,"name":"Lightning Dust","steam_id":76561198026554788,"connected_time":2965000000000,"state":"active","ping":109},{"user_id":510,"name":"NuttyCornFlakes","steam_id":76561198149886873,"connected_time":1220000000000,"state":"active","ping":90},{"user_id":528,"name":"Claybae","steam_id":76561198064290179,"connected_time":331000000000,"state":"active","ping":94},{"user_id":493,"name":"Firestorm4594","steam_id":76561198048060619,"connected_time":2904000000000,"state":"active","ping":120},{"user_id":520,"name":"heck","steam_id":76561198315694520,"connected_time":725000000000,"state":"active","ping":46},{"user_id":507,"name":"‚õßAlkahestry","steam_id":76561198109641497,"connected_time":2055000000000,"state":"active","ping":45},{"user_id":522,"name":"Satori Komeiji","steam_id":76561198158211423,"connected_time":698000000000,"state":"active","ping":46},{"user_id":481,"name":"jizz gaming","steam_id":76561198984762462,"connected_time":3274000000000,"state":"active","ping":60},{"user_id":523,"name":"Nurew","steam_id":76561198052589498,"connected_time":695000000000,"state":"active","ping":67},{"user_id":532,"name":"Extraterrestrial","steam_id":76561198069948353,"connected_time":250000000000,"state":"active","ping":93},{"user_id":534,"name":"Eric4bz","steam_id":76561198054439606,"connected_time":72000000000,"state":"active","ping":94},{"user_id":533,"name":"A loaf of bread","steam_id":76561198152372219,"connected_time":218000000000,"state":"active","ping":73},{"user_id":505,"name":"BTB41","steam_id":76561198079621654,"connected_time":2068000000000,"state":"active","ping":99},{"user_id":499,"name":"Flabbergonger Shwibbledangler","steam_id":76561198145957686,"connected_time":2850000000000,"state":"active","ping":135},{"user_id":513,"name":"Babushka Lady","steam_id":76561198153280053,"connected_time":841000000000,"state":"active","ping":94}]},{"server_id":324,"name":"Uncletopia | Los Angeles | 3 | All Maps","name_short":"lax-3","host":"lax-1.us.uncletopia.com","port":27035,"enabled":true,"region":"us-west","cc":"us","latitude":33.94279,"longitude":-118.41004,"reserved":0,"last_update":"0001-01-01T00:00:00Z","name_a2s":"Uncletopia | Los Angeles | 3 | All Maps","protocol":17,"map":"koth_viaduct","folder":"tf","game":"Team Fortress","app_id":440,"player_count":0,"max_players":24,"Bots":0,"server_type":"Dedicated","server_os":"Linux","password":true,"vac":true,"version":"7961495","steam_id":85568392924510198,"keywords":["cp","nocrits","nodmgspread","uncletopia"],"game_id":440,"stv_port":27036,"stv_name":"Uncletopia | Los Angeles | 3 | All Maps | STV","players":null},{"server_id":25,"name":"Uncletopia | Los Angeles | 4 | Stopwatch","name_short":"lax-4","host":"lax-1.us.uncletopia.com","port":27045,"enabled":true,"region":"us-west","cc":"us","latitude":33.94279,"longitude":-118.41004,"reserved":0,"last_update":"0001-01-01T00:00:00Z","name_a2s":"Uncletopia | Los Angeles | 4 | Stopwatch","protocol":17,"map":"workshop/koth_bagel_rc6.ugc2514036946","folder":"tf","game":"Team Fortress","app_id":440,"player_count":0,"max_players":24,"Bots":0,"server_type":"Dedicated","server_os":"Linux","password":true,"vac":true,"version":"7961495","steam_id":85568392924510199,"keywords":["cp","nocrits","nodmgspread","uncletopia"],"game_id":440,"stv_port":27046,"stv_name":"Uncletopia | Los Angeles | 4 | Stopwatch | STV","players":null},{"server_id":11,"name":"Uncletopia | London | 1 | All Maps","name_short":"lon-1","host":"lon-1.uk.uncletopia.com","port":27015,"enabled":true,"region":"eu","cc":"gb","latitude":51.509865,"longitude":-0.118092,"reserved":0,"last_update":"0001-01-01T00:00:00Z","name_a2s":"Uncletopia | London | 1 | All Maps","protocol":17,"map":"pl_badwater","folder":"tf","game":"Team Fortress","app_id":440,"player_count":19,"max_players":24,"Bots":0,"server_type":"Dedicated","server_os":"Linux","password":true,"vac":true,"version":"7961495","steam_id":85568392924367362,"keywords":["nocrits","nodmgspread","payload","uncletopia"],"game_id":440,"stv_port":27016,"stv_name":"Uncletopia | London | 1 | All Maps | STV","players":[{"user_id":756,"name":"lawn","steam_id":76561198001243486,"connected_time":3102000000000,"state":"active","ping":44},{"user_id":587,"name":"chestnutflea","steam_id":76561198144268690,"connected_time":15949000000000,"state":"active","ping":57},{"user_id":728,"name":"Nyhde","steam_id":76561198012771416,"connected_time":4850000000000,"state":"active","ping":96},{"user_id":776,"name":"Mamaki","steam_id":76561198799617313,"connected_time":679000000000,"state":"active","ping":87},{"user_id":767,"name":"‚ú™ Danny","steam_id":76561198104483241,"connected_time":1992000000000,"state":"active","ping":48},{"user_id":783,"name":"W","steam_id":76561199501358967,"connected_time":263000000000,"state":"active","ping":74},{"user_id":763,"name":"Brian","steam_id":76561198077756206,"connected_time":2106000000000,"state":"active","ping":36},{"user_id":762,"name":"ion luca caragiale","steam_id":76561198132025408,"connected_time":2112000000000,"state":"active","ping":59},{"user_id":765,"name":"Chippo","steam_id":76561198343198306,"connected_time":2056000000000,"state":"active","ping":61},{"user_id":786,"name":"jjkun786","steam_id":76561199438517484,"connected_time":67000000000,"state":"active","ping":70},{"user_id":770,"name":"jmp","steam_id":76561198168283286,"connected_time":1285000000000,"state":"active","ping":76},{"user_id":753,"name":"yuno appreciator","steam_id":76561198083286511,"connected_time":3199000000000,"state":"active","ping":45},{"user_id":754,"name":"‚úßTori Roach","steam_id":76561198170599306,"connected_time":3187000000000,"state":"active","ping":120},{"user_id":744,"name":"beebo","steam_id":76561199120277007,"connected_time":3346000000000,"state":"active","ping":45},{"user_id":745,"name":"Bobirulez","steam_id":76561198009125458,"connected_time":3320000000000,"state":"active","ping":75},{"user_id":775,"name":"–õ–æ—Å—è—à","steam_id":76561199106669309,"connected_time":776000000000,"state":"active","ping":140},{"user_id":747,"name":"charlotte","steam_id":76561198075129898,"connected_time":3317000000000,"state":"active","ping":30},{"user_id":748,"name":"Minimi","steam_id":76561198873850443,"connected_time":3315000000000,"state":"active","ping":45},{"user_id":750,"name":"Borat","steam_id":76561198122226417,"connected_time":3297000000000,"state":"active","ping":39}]},{"server_id":114,"name":"Uncletopia | London | 2 | All Maps","name_short":"lon-2","host":"lon-1.uk.uncletopia.com","port":27025,"enabled":true,"region":"eu","cc":"gb","latitude":51.509865,"longitude":-0.118092,"reserved":0,"last_update":"0001-01-01T00:00:00Z","name_a2s":"Uncletopia | London | 2 | All Maps","protocol":17,"map":"cp_dustbowl","folder":"tf","game":"Team Fortress","app_id":440,"player_count":0,"max_players":24,"Bots":0,"server_type":"Dedicated","server_os":"Linux","password":true,"vac":true,"version":"7961495","steam_id":85568392924470941,"keywords":["cp","nocrits","nodmgspread","uncletopia"],"game_id":440,"stv_port":27026,"stv_name":"Uncletopia | London | 2 | All Maps | STV","players":null},{"server_id":320,"name":"Uncletopia | London | 3 | All Maps","name_short":"lon-3","host":"lon-1.uk.uncletopia.com","port":27035,"enabled":true,"region":"eu","cc":"gb","latitude":51.509865,"longitude":-0.118092,"reserved":0,"last_update":"0001-01-01T00:00:00Z","name_a2s":"Uncletopia | London | 3 | All Maps","protocol":17,"map":"koth_viaduct","folder":"tf","game":"Team Fortress","app_id":440,"player_count":0,"max_players":24,"Bots":0,"server_type":"Dedicated","server_os":"Linux","password":true,"vac":true,"version":"7961495","steam_id":85568392924510192,"keywords":["cp","nocrits","nodmgspread","uncletopia"],"game_id":440,"stv_port":27036,"stv_name":"Uncletopia | London | 3 | All Maps | STV","players":null},{"server_id":321,"name":"Uncletopia | London | 4 | All Maps","name_short":"lon-4","host":"lon-1.uk.uncletopia.com","port":27045,"enabled":true,"region":"eu","cc":"gb","latitude":51.509865,"longitude":-0.118092,"reserved":0,"last_update":"0001-01-01T00:00:00Z","name_a2s":"Uncletopia | London | 4 | All Maps","protocol":17,"map":"koth_viaduct","folder":"tf","game":"Team Fortress","app_id":440,"player_count":0,"max_players":24,"Bots":0,"server_type":"Dedicated","server_os":"Linux","password":true,"vac":true,"version":"7961495","steam_id":85568392924510193,"keywords":["cp","nocrits","nodmgspread","uncletopia"],"game_id":440,"stv_port":27046,"stv_name":"Uncletopia | London | 4 | All Maps | STV","players":null},{"server_id":21,"name":"Uncletopia | London | 5 | All Maps","name_short":"lon-5","host":"lon-1.uk.uncletopia.com","port":27055,"enabled":true,"region":"eu","cc":"gb","latitude":51.509865,"longitude":-0.118092,"reserved":0,"last_update":"0001-01-01T00:00:00Z","name_a2s":"Uncletopia | London | 5 | All Maps","protocol":17,"map":"koth_viaduct","folder":"tf","game":"Team Fortress","app_id":440,"player_count":0,"max_players":24,"Bots":0,"server_type":"Dedicated","server_os":"Linux","password":true,"vac":true,"version":"7961495","steam_id":85568392924742829,"keywords":["cp","nocrits","nodmgspread","uncletopia"],"game_id":440,"stv_port":27056,"stv_name":"Uncletopia | London | 5 | All Maps | STV","players":null},{"server_id":22,"name":"Uncletopia | London | 6 | All Maps","name_short":"lon-6","host":"lon-1.uk.uncletopia.com","port":27065,"enabled":true,"region":"eu","cc":"gb","latitude":51.509865,"longitude":-0.118092,"reserved":0,"last_update":"0001-01-01T00:00:00Z","name_a2s":"Uncletopia | London | 6 | All Maps","protocol":17,"map":"cp_mountainlab","folder":"tf","game":"Team Fortress","app_id":440,"player_count":0,"max_players":24,"Bots":0,"server_type":"Dedicated","server_os":"Linux","password":true,"vac":true,"version":"7961495","steam_id":85568392924742830,"keywords":["cp","nocrits","nodmgspread","uncletopia"],"game_id":440,"stv_port":27066,"stv_name":"Uncletopia | London | 6 | All Maps | STV","players":null},{"server_id":40,"name":"Uncletopia | London | 7 | Stopwatch","name_short":"lon-7","host":"lon-1.uk.uncletopia.com","port":27075,"enabled":true,"region":"eu","cc":"gb","latitude":51.509865,"longitude":-0.118092,"reserved":0,"last_update":"0001-01-01T00:00:00Z","name_a2s":"Uncletopia | London | 7 | Stopwatch","protocol":17,"map":"workshop/koth_clearcut_b15.ugc2107050255","folder":"tf","game":"Team Fortress","app_id":440,"player_count":0,"max_players":24,"Bots":0,"server_type":"Dedicated","server_os":"Linux","password":true,"vac":true,"version":"7961495","steam_id":85568392924964314,"keywords":["cp","nocrits","nodmgspread","uncletopia"],"game_id":440,"stv_port":27076,"stv_name":"Uncletopia | London | 7 | Stopwatch | STV","players":null},{"server_id":41,"name":"Uncletopia | London | 8 | Community","name_short":"lon-8","host":"lon-1.uk.uncletopia.com","port":27085,"enabled":true,"region":"eu","cc":"gb","latitude":51.509865,"longitude":-0.118092,"reserved":0,"last_update":"0001-01-01T00:00:00Z","name_a2s":"Uncletopia | London | 8 | Community","protocol":17,"map":"workshop/koth_product_final.ugc454272353","folder":"tf","game":"Team Fortress","app_id":440,"player_count":0,"max_players":24,"Bots":0,"server_type":"Dedicated","server_os":"Linux","password":true,"vac":true,"version":"7961495","steam_id":85568392924964315,"keywords":["cp","nocrits","nodmgspread","uncletopia"],"game_id":440,"stv_port":27086,"stv_name":"Uncletopia | London | 8 | Community | STV","players":null},{"server_id":300,"name":"Uncletopia | Montr√©al | 1 | One Thousand Uncles","name_short":"mtl-1","host":"mtl-1.ca.uncletopia.com","port":27015,"enabled":true,"region":"us-east","cc":"ca","latitude":45.50889,"longitude":-73.56167,"reserved":0,"last_update":"0001-01-01T00:00:00Z","name_a2s":"","protocol":0,"map":"","folder":"","game":"","app_id":0,"player_count":0,"max_players":0,"Bots":0,"server_type":"","server_os":"","password":false,"vac":false,"version":"","steam_id":0,"keywords":null,"game_id":0,"stv_port":0,"stv_name":"","players":null},{"server_id":301,"name":"Uncletopia | Montr√©al | 2 | One Thousand Uncles","name_short":"mtl-2","host":"mtl-1.ca.uncletopia.com","port":27025,"enabled":true,"region":"us-east","cc":"ca","latitude":45.50889,"longitude":-73.56167,"reserved":0,"last_update":"0001-01-01T00:00:00Z","name_a2s":"","protocol":0,"map":"","folder":"","game":"","app_id":0,"player_count":8,"max_players":0,"Bots":0,"server_type":"","server_os":"","password":false,"vac":false,"version":"","steam_id":0,"keywords":null,"game_id":0,"stv_port":0,"stv_name":"","players":[{"user_id":244,"name":"sloppymcfloppy","steam_id":76561198197655439,"connected_time":10485000000000,"state":"active","ping":70},{"user_id":374,"name":"lord_byron_kinnie","steam_id":76561198161899371,"connected_time":1697000000000,"state":"active","ping":56},{"user_id":343,"name":"Biden Gaming","steam_id":76561198146400713,"connected_time":4885000000000,"state":"active","ping":61},{"user_id":278,"name":"GamingJuice42","steam_id":76561198110469437,"connected_time":7808000000000,"state":"active","ping":73},{"user_id":372,"name":"FoxHound","steam_id":76561198019029467,"connected_time":2069000000000,"state":"active","ping":117},{"user_id":370,"name":"Ren Amamiya","steam_id":76561198151927057,"connected_time":2540000000000,"state":"active","ping":90},{"user_id":367,"name":"Delta","steam_id":76561198158985472,"connected_time":2645000000000,"state":"active","ping":125},{"user_id":376,"name":"WM1 PYRO","steam_id":76561198045893896,"connected_time":1440000000000,"state":"active","ping":94}]},{"server_id":302,"name":"Uncletopia | Montr√©al | 3 | One Thousand Uncles","name_short":"mtl-3","host":"mtl-1.ca.uncletopia.com","port":27035,"enabled":true,"region":"us-east","cc":"ca","latitude":45.50889,"longitude":-73.56167,"reserved":0,"last_update":"0001-01-01T00:00:00Z","name_a2s":"","protocol":0,"map":"","folder":"","game":"","app_id":0,"player_count":0,"max_players":0,"Bots":0,"server_type":"","server_os":"","password":false,"vac":false,"version":"","steam_id":0,"keywords":null,"game_id":0,"stv_port":0,"stv_name":"","players":null},{"server_id":13,"name":"Uncletopia | New York City | 1 | All Maps","name_short":"nyc-1","host":"nyc-1.us.uncletopia.com","port":27015,"enabled":true,"region":"us-east","cc":"us","latitude":40.73061,"longitude":-73.93524,"reserved":0,"last_update":"0001-01-01T00:00:00Z","name_a2s":"Uncletopia | New York City | 1 | All Maps","protocol":17,"map":"cp_sunshine","folder":"tf","game":"Team Fortress","app_id":440,"player_count":24,"max_players":24,"Bots":0,"server_type":"Dedicated","server_os":"Linux","password":true,"vac":true,"version":"7961495","steam_id":85568392924469993,"keywords":["cp","nocrits","nodmgspread","uncletopia"],"game_id":440,"stv_port":27016,"stv_name":"Uncletopia | New York City | 1 | All Maps | STV","players":[{"user_id":633,"name":"Morallusionist","steam_id":76561199480240111,"connected_time":938000000000,"state":"active","ping":76},{"user_id":634,"name":"Phillip Jeffries","steam_id":76561198064052174,"connected_time":895000000000,"state":"active","ping":57},{"user_id":588,"name":"John Fortnite","steam_id":76561198076608253,"connected_time":4171000000000,"state":"active","ping":58},{"user_id":615,"name":"Scoob","steam_id":76561198078633301,"connected_time":1853000000000,"state":"active","ping":48},{"user_id":627,"name":"Naffu","steam_id":76561198036945403,"connected_time":1101000000000,"state":"active","ping":53},{"user_id":589,"name":"swagmessiah0","steam_id":76561198979823647,"connected_time":4159000000000,"state":"active","ping":80},{"user_id":510,"name":"Yuzu","steam_id":76561198417913035,"connected_time":10204000000000,"state":"active","ping":73},{"user_id":620,"name":"sud","steam_id":76561198014929529,"connected_time":1630000000000,"state":"active","ping":67},{"user_id":621,"name":"Lumpy the Illegally Blind","steam_id":76561198053125768,"connected_time":1623000000000,"state":"active","ping":139},{"user_id":609,"name":"googa","steam_id":76561198133130452,"connected_time":2452000000000,"state":"active","ping":44},{"user_id":628,"name":"peace dog","steam_id":76561198267988522,"connected_time":1092000000000,"state":"active","ping":68},{"user_id":630,"name":"Post nut clarity","steam_id":76561198060246831,"connected_time":1020000000000,"state":"active","ping":78},{"user_id":585,"name":"ndvr","steam_id":76561199379200102,"connected_time":4264000000000,"state":"active","ping":54},{"user_id":636,"name":"ŒòŒøœÖŒΩœÑœÅŒøœÖœÇ","steam_id":76561198192752793,"connected_time":637000000000,"state":"active","ping":57},{"user_id":583,"name":"space man","steam_id":76561198066333670,"connected_time":4825000000000,"state":"active","ping":63},{"user_id":549,"name":"White","steam_id":76561198305863331,"connected_time":8192000000000,"state":"active","ping":60},{"user_id":624,"name":"Venumb Bengal","steam_id":76561198156498290,"connected_time":1256000000000,"state":"active","ping":75},{"user_id":570,"name":"ùëëùëúùëôùëù‚Ñéùëñùëõ.","steam_id":76561198294013916,"connected_time":5822000000000,"state":"active","ping":45},{"user_id":599,"name":"DYGIILYIAHSPJTOS (she/her)","steam_id":76561198042177809,"connected_time":3720000000000,"state":"active","ping":78},{"user_id":606,"name":"Marrow \u003c3","steam_id":76561198930350337,"connected_time":2487000000000,"state":"active","ping":54},{"user_id":639,"name":"isaiah","steam_id":76561197962607364,"connected_time":123000000000,"state":"active","ping":74},{"user_id":635,"name":"Bunny","steam_id":76561198822773578,"connected_time":734000000000,"state":"active","ping":115},{"user_id":579,"name":"mostly ham","steam_id":76561199479937232,"connected_time":5316000000000,"state":"active","ping":69},{"user_id":608,"name":"SpaceSanctum","steam_id":76561198805242305,"connected_time":2469000000000,"state":"active","ping":45}]},{"server_id":14,"name":"Uncletopia | New York City | 2 | All Maps","name_short":"nyc-2","host":"nyc-1.us.uncletopia.com","port":27025,"enabled":true,"region":"us-east","cc":"us","latitude":40.73061,"longitude":-73.93524,"reserved":0,"last_update":"0001-01-01T00:00:00Z","name_a2s":"Uncletopia | New York City | 2 | All Maps","protocol":17,"map":"pl_frontier_final","folder":"tf","game":"Team Fortress","app_id":440,"player_count":24,"max_players":24,"Bots":0,"server_type":"Dedicated","server_os":"Linux","password":true,"vac":true,"version":"7961495","steam_id":85568392924469994,"keywords":["nocrits","nodmgspread","payload","uncletopia"],"game_id":440,"stv_port":27026,"stv_name":"Uncletopia | New York City | 2 | All Maps | STV","players":[{"user_id":367,"name":"Fish Fisherman","steam_id":76561198018656022,"connected_time":2031000000000,"state":"active","ping":60},{"user_id":386,"name":"Wyatt","steam_id":76561199068781227,"connected_time":652000000000,"state":"active","ping":139},{"user_id":381,"name":"mootier","steam_id":76561198030365192,"connected_time":1336000000000,"state":"active","ping":59},{"user_id":368,"name":"PurPle","steam_id":76561198050393396,"connected_time":2021000000000,"state":"active","ping":65},{"user_id":387,"name":"rudy","steam_id":76561198088712799,"connected_time":642000000000,"state":"active","ping":86},{"user_id":370,"name":"Gen-E","steam_id":76561199497800989,"connected_time":2001000000000,"state":"active","ping":78},{"user_id":369,"name":"Slippin Jimmy","steam_id":76561198119556082,"connected_time":2017000000000,"state":"active","ping":82},{"user_id":390,"name":"Voodo133","steam_id":76561198042670351,"connected_time":578000000000,"state":"active","ping":81},{"user_id":371,"name":"Hertz","steam_id":76561198245322982,"connected_time":1997000000000,"state":"active","ping":60},{"user_id":354,"name":"bhop","steam_id":76561198064885639,"connected_time":3014000000000,"state":"active","ping":67},{"user_id":383,"name":"BOB","steam_id":76561198000787196,"connected_time":1127000000000,"state":"active","ping":133},{"user_id":389,"name":"Leroy","steam_id":76561199013064727,"connected_time":580000000000,"state":"active","ping":110},{"user_id":382,"name":"orcluvr69","steam_id":76561198068712028,"connected_time":1208000000000,"state":"active","ping":86},{"user_id":364,"name":"Pomegranate88","steam_id":76561198056385456,"connected_time":2039000000000,"state":"active","ping":64},{"user_id":365,"name":"chesterwnimitz","steam_id":76561198062664377,"connected_time":2039000000000,"state":"active","ping":100},{"user_id":391,"name":"Random","steam_id":76561198318879454,"connected_time":572000000000,"state":"active","ping":68},{"user_id":392,"name":"Under an Unquiet Skull","steam_id":76561198164782653,"connected_time":570000000000,"state":"active","ping":46},{"user_id":349,"name":"Meat Dragon","steam_id":76561198120319256,"connected_time":3410000000000,"state":"active","ping":66},{"user_id":393,"name":"gerg","steam_id":76561197997127387,"connected_time":570000000000,"state":"active","ping":116},{"user_id":375,"name":"Fermule","steam_id":76561198044060179,"connected_time":1935000000000,"state":"active","ping":57},{"user_id":380,"name":"rude boi","steam_id":76561198006783260,"connected_time":1448000000000,"state":"active","ping":49},{"user_id":394,"name":"Sgt. Pepper","steam_id":76561198063674627,"connected_time":565000000000,"state":"active","ping":85},{"user_id":395,"name":"Lee?","steam_id":76561199060892634,"connected_time":511000000000,"state":"active","ping":93},{"user_id":355,"name":"gerf.","steam_id":76561198811706201,"connected_time":2963000000000,"state":"active","ping":58}]},{"server_id":15,"name":"Uncletopia | New York City | 3 | Stopwatch","name_short":"nyc-3","host":"nyc-1.us.uncletopia.com","port":27035,"enabled":true,"region":"us-east","cc":"us","latitude":40.73061,"longitude":-73.93524,"reserved":0,"last_update":"0001-01-01T00:00:00Z","name_a2s":"Uncletopia | New York City | 3 | Stopwatch","protocol":17,"map":"cp_gullywash_final1","folder":"tf","game":"Team Fortress","app_id":440,"player_count":0,"max_players":24,"Bots":0,"server_type":"Dedicated","server_os":"Linux","password":true,"vac":true,"version":"7961495","steam_id":85568392924742820,"keywords":["cp","nocrits","nodmgspread","uncletopia"],"game_id":440,"stv_port":27036,"stv_name":"Uncletopia | New York City | 3 | Stopwatch | STV","players":null},{"server_id":16,"name":"Uncletopia | New York City | 4 | Community","name_short":"nyc-4","host":"nyc-1.us.uncletopia.com","port":27045,"enabled":true,"region":"us-east","cc":"us","latitude":40.73061,"longitude":-73.93524,"reserved":0,"last_update":"0001-01-01T00:00:00Z","name_a2s":"Uncletopia | New York City | 4 | Community","protocol":17,"map":"workshop/pl_boundary_final1.ugc456799153","folder":"tf","game":"Team Fortress","app_id":440,"player_count":0,"max_players":24,"Bots":0,"server_type":"Dedicated","server_os":"Linux","password":true,"vac":true,"version":"7961495","steam_id":85568392924742821,"keywords":["nocrits","nodmgspread","payload","uncletopia"],"game_id":440,"stv_port":27046,"stv_name":"Uncletopia | New York City | 4 | Community | STV","players":null},{"server_id":142,"name":"Uncletopia | S√£o Paulo | 1 | All Maps","name_short":"sao-1","host":"sao-1.br.uncletopia.com","port":27015,"enabled":true,"region":"sa","cc":"br","latitude":-23.533773,"longitude":-46.62529,"reserved":0,"last_update":"0001-01-01T00:00:00Z","name_a2s":"Uncletopia | S√£o Paulo | 1 | All Maps","protocol":17,"map":"koth_viaduct","folder":"tf","game":"Team Fortress","app_id":440,"player_count":0,"max_players":24,"Bots":0,"server_type":"Dedicated","server_os":"Linux","password":true,"vac":true,"version":"7961495","steam_id":85568392924469996,"keywords":["cp","nocrits","nodmgspread","uncletopia"],"game_id":440,"stv_port":27016,"stv_name":"Uncletopia | S√£o Paulo | 1 | All Maps | STV","players":null},{"server_id":143,"name":"Uncletopia | S√£o Paulo | 2 | Community","name_short":"sao-2","host":"sao-2.br.uncletopia.com","port":27015,"enabled":true,"region":"sa","cc":"br","latitude":-23.533773,"longitude":-46.62529,"reserved":0,"last_update":"0001-01-01T00:00:00Z","name_a2s":"Uncletopia | S√£o Paulo | 2 | Community","protocol":17,"map":"workshop/koth_slaughter_rc1.ugc1712845210","folder":"tf","game":"Team Fortress","app_id":440,"player_count":0,"max_players":24,"Bots":0,"server_type":"Dedicated","server_os":"Linux","password":true,"vac":true,"version":"7961495","steam_id":85568392924485349,"keywords":["cp","nocrits","nodmgspread","uncletopia"],"game_id":440,"stv_port":27016,"stv_name":"Uncletopia | S√£o Paulo | 2 | Community | STV","players":null},{"server_id":7,"name":"Uncletopia | Seattle | 1 | All Maps","name_short":"sea-1","host":"sea-1.us.uncletopia.com","port":27015,"enabled":true,"region":"us-west","cc":"us","latitude":47.608013,"longitude":-122.33517,"reserved":0,"last_update":"0001-01-01T00:00:00Z","name_a2s":"Uncletopia | Seattle | 1 | All Maps","protocol":17,"map":"cp_dustbowl","folder":"tf","game":"Team Fortress","app_id":440,"player_count":24,"max_players":24,"Bots":0,"server_type":"Dedicated","server_os":"Linux","password":true,"vac":true,"version":"7961495","steam_id":85568392924469997,"keywords":["cp","nocrits","nodmgspread","uncletopia"],"game_id":440,"stv_port":27016,"stv_name":"Uncletopia | Seattle | 1 | All Maps | STV","players":[{"user_id":435,"name":"fwoov","steam_id":76561198129166260,"connected_time":9551000000000,"state":"active","ping":75},{"user_id":513,"name":"bbbbb","steam_id":76561198095480838,"connected_time":1072000000000,"state":"active","ping":47},{"user_id":522,"name":"austinsmith","steam_id":76561198167838540,"connected_time":61000000000,"state":"active","ping":108},{"user_id":520,"name":"Cheezbeargur","steam_id":76561198164702899,"connected_time":77000000000,"state":"active","ping":67},{"user_id":472,"name":"toes","steam_id":76561198221151676,"connected_time":5394000000000,"state":"active","ping":53},{"user_id":484,"name":"Jeramosa","steam_id":76561198811000094,"connected_time":4288000000000,"state":"active","ping":83},{"user_id":504,"name":"Attrition","steam_id":76561197969881916,"connected_time":2058000000000,"state":"active","ping":46},{"user_id":468,"name":"camp3r","steam_id":76561197992870439,"connected_time":6127000000000,"state":"active","ping":34},{"user_id":523,"name":"Quaalude","steam_id":76561198100177449,"connected_time":58000000000,"state":"active","ping":89},{"user_id":514,"name":"Squigzy_","steam_id":76561198061696667,"connected_time":913000000000,"state":"active","ping":89},{"user_id":516,"name":"skao","steam_id":76561198133360797,"connected_time":285000000000,"state":"active","ping":89},{"user_id":432,"name":"Daz","steam_id":76561198041431938,"connected_time":9984000000000,"state":"active","ping":50},{"user_id":517,"name":"in_a_soupcan","steam_id":76561198106282969,"connected_time":276000000000,"state":"connecting","ping":44},{"user_id":518,"name":"Pneumo.","steam_id":76561197987911883,"connected_time":86000000000,"state":"active","ping":45},{"user_id":498,"name":"Chili","steam_id":76561198042942046,"connected_time":3124000000000,"state":"active","ping":98},{"user_id":505,"name":"James The Juicer","steam_id":76561198153248257,"connected_time":1889000000000,"state":"active","ping":45},{"user_id":480,"name":"Subaru Outback","steam_id":76561197992007399,"connected_time":4593000000000,"state":"active","ping":46},{"user_id":524,"name":"Rikkore","steam_id":76561198060105857,"connected_time":52000000000,"state":"active","ping":111},{"user_id":506,"name":"raspy","steam_id":76561198027298961,"connected_time":1801000000000,"state":"active","ping":104},{"user_id":502,"name":"Anthid","steam_id":76561198074493797,"connected_time":2702000000000,"state":"active","ping":71},{"user_id":470,"name":"Dog","steam_id":76561198041841128,"connected_time":5986000000000,"state":"active","ping":83},{"user_id":493,"name":"Eraser cat","steam_id":76561199045570463,"connected_time":3298000000000,"state":"active","ping":47},{"user_id":512,"name":"Can of Oranges","steam_id":76561199121813529,"connected_time":1160000000000,"state":"active","ping":61},{"user_id":501,"name":"Aloafofbread","steam_id":76561198160526290,"connected_time":3107000000000,"state":"active","ping":45}]},{"server_id":119,"name":"Uncletopia | Seattle | 2 | All Maps","name_short":"sea-2","host":"sea-1.us.uncletopia.com","port":27025,"enabled":true,"region":"us-west","cc":"us","latitude":47.608013,"longitude":-122.33517,"reserved":0,"last_update":"0001-01-01T00:00:00Z","name_a2s":"Uncletopia | Seattle | 2 | All Maps","protocol":17,"map":"pl_upward","folder":"tf","game":"Team Fortress","app_id":440,"player_count":22,"max_players":24,"Bots":0,"server_type":"Dedicated","server_os":"Linux","password":true,"vac":true,"version":"7961495","steam_id":85568392924469998,"keywords":["nocrits","nodmgspread","payload","uncletopia"],"game_id":440,"stv_port":27026,"stv_name":"Uncletopia | Seattle | 2 | All Maps | STV","players":[{"user_id":258,"name":"duddlee","steam_id":76561198030052564,"connected_time":3766000000000,"state":"active","ping":60},{"user_id":235,"name":"Moostic","steam_id":76561198076455139,"connected_time":4751000000000,"state":"active","ping":78},{"user_id":264,"name":"how do i control my guy?","steam_id":76561198158855211,"connected_time":3084000000000,"state":"active","ping":44},{"user_id":299,"name":"Greskrendtregk","steam_id":76561197969553142,"connected_time":544000000000,"state":"active","ping":60},{"user_id":270,"name":"FireQuiz","steam_id":76561198107357249,"connected_time":2988000000000,"state":"active","ping":44},{"user_id":226,"name":"Pleasant Failure","steam_id":76561198196669161,"connected_time":5231000000000,"state":"active","ping":64},{"user_id":295,"name":"Petrivus","steam_id":76561198202152453,"connected_time":630000000000,"state":"active","ping":45},{"user_id":301,"name":"DV","steam_id":76561198295570806,"connected_time":423000000000,"state":"active","ping":85},{"user_id":278,"name":"master_minion","steam_id":76561198170693990,"connected_time":2369000000000,"state":"active","ping":82},{"user_id":296,"name":"Keamy","steam_id":76561199471434875,"connected_time":628000000000,"state":"active","ping":45},{"user_id":294,"name":"CashGordon","steam_id":76561197975594096,"connected_time":726000000000,"state":"active","ping":44},{"user_id":297,"name":"Dank Hill","steam_id":76561198081194839,"connected_time":597000000000,"state":"active","ping":53},{"user_id":272,"name":"jayeskae","steam_id":76561198144220801,"connected_time":2849000000000,"state":"active","ping":49},{"user_id":289,"name":"Astolfo_Lover","steam_id":76561198001963556,"connected_time":1341000000000,"state":"active","ping":55},{"user_id":287,"name":"PLATNUMHANNYA","steam_id":76561198451426311,"connected_time":1625000000000,"state":"active","ping":53},{"user_id":196,"name":"woodpigeon","steam_id":76561199488457138,"connected_time":6720000000000,"state":"active","ping":55},{"user_id":288,"name":"Mr Happy","steam_id":76561198067689328,"connected_time":1470000000000,"state":"active","ping":90},{"user_id":298,"name":"Jared","steam_id":76561198027210228,"connected_time":590000000000,"state":"active","ping":113},{"user_id":284,"name":"McSpazatron","steam_id":76561198955942148,"connected_time":1906000000000,"state":"active","ping":59},{"user_id":259,"name":"roody","steam_id":76561198066260405,"connected_time":3484000000000,"state":"active","ping":49},{"user_id":275,"name":"type \"bad med\" to kick","steam_id":76561198076402476,"connected_time":2662000000000,"state":"active","ping":79},{"user_id":273,"name":"Divergence Test","steam_id":76561198103653795,"connected_time":2769000000000,"state":"active","ping":90}]},{"server_id":406,"name":"Uncletopia | Seattle | 3 | Stopwatch","name_short":"sea-3","host":"sea-1.us.uncletopia.com","port":27035,"enabled":true,"region":"us-west","cc":"us","latitude":47.608013,"longitude":-122.33517,"reserved":0,"last_update":"0001-01-01T00:00:00Z","name_a2s":"Uncletopia | Seattle | 3 | Stopwatch","protocol":17,"map":"pl_pier","folder":"tf","game":"Team Fortress","app_id":440,"player_count":2,"max_players":24,"Bots":0,"server_type":"Dedicated","server_os":"Linux","password":true,"vac":true,"version":"7961495","steam_id":85568392924515217,"keywords":["nocrits","nodmgspread","payload","uncletopia"],"game_id":440,"stv_port":27036,"stv_name":"Uncletopia | Seattle | 3 | Stopwatch | STV","players":[{"user_id":13,"name":"D.A.V.I.D","steam_id":76561199443570634,"connected_time":303000000000,"state":"active","ping":65},{"user_id":12,"name":"sleePI","steam_id":76561198450073779,"connected_time":562000000000,"state":"active","ping":46}]},{"server_id":17,"name":"Uncletopia | San Francisco | 1 | All Maps","name_short":"sfo-1","host":"sfo-1.us.uncletopia.com","port":27015,"enabled":true,"region":"us-west","cc":"us","latitude":37.77397,"longitude":-122.4313,"reserved":0,"last_update":"0001-01-01T00:00:00Z","name_a2s":"Uncletopia | San Francisco | 1 | All Maps","protocol":17,"map":"cp_dustbowl","folder":"tf","game":"Team Fortress","app_id":440,"player_count":23,"max_players":24,"Bots":0,"server_type":"Dedicated","server_os":"Linux","password":true,"vac":true,"version":"7961495","steam_id":85568392924469999,"keywords":["cp","nocrits","nodmgspread","uncletopia"],"game_id":440,"stv_port":27016,"stv_name":"Uncletopia | San Francisco | 1 | All Maps | STV","players":[{"user_id":128,"name":"poop","steam_id":76561198105374054,"connected_time":6369000000000,"state":"active","ping":66},{"user_id":194,"name":"My_Movie.mp4","steam_id":76561198047002366,"connected_time":528000000000,"state":"active","ping":62},{"user_id":195,"name":"Blind","steam_id":76561198986055111,"connected_time":502000000000,"state":"active","ping":71},{"user_id":192,"name":"Choctoling","steam_id":76561198351622498,"connected_time":646000000000,"state":"active","ping":46},{"user_id":31,"name":"[D3RP] Meserion","steam_id":76561198038471890,"connected_time":10531000000000,"state":"active","ping":119},{"user_id":152,"name":"Celeritas","steam_id":76561198133414847,"connected_time":4851000000000,"state":"active","ping":59},{"user_id":198,"name":"Linus","steam_id":76561198084279797,"connected_time":404000000000,"state":"active","ping":87},{"user_id":134,"name":"Overmeme","steam_id":76561199455124144,"connected_time":6269000000000,"state":"active","ping":79},{"user_id":193,"name":"grape","steam_id":76561197993980328,"connected_time":605000000000,"state":"active","ping":79},{"user_id":199,"name":"OniSlays","steam_id":76561198043875292,"connected_time":378000000000,"state":"active","ping":85},{"user_id":208,"name":"YoteDab McFapDab.jpg","steam_id":76561197984870380,"connected_time":38000000000,"state":"active","ping":120},{"user_id":196,"name":"Taco+Taco=Burrito","steam_id":76561198063128663,"connected_time":465000000000,"state":"active","ping":54},{"user_id":201,"name":"Drilly22","steam_id":76561198068838338,"connected_time":194000000000,"state":"active","ping":103},{"user_id":169,"name":"DO HARM","steam_id":76561199264073138,"connected_time":3683000000000,"state":"active","ping":38},{"user_id":186,"name":"The Comedian","steam_id":76561198037780226,"connected_time":1727000000000,"state":"active","ping":49},{"user_id":197,"name":"Super Saiyan Bear","steam_id":76561198063118280,"connected_time":452000000000,"state":"active","ping":67},{"user_id":202,"name":"Pixel Nova","steam_id":76561198122584082,"connected_time":193000000000,"state":"active","ping":70},{"user_id":203,"name":"Chalky","steam_id":76561199224370873,"connected_time":128000000000,"state":"active","ping":60},{"user_id":205,"name":"Locke","steam_id":76561197988245513,"connected_time":95000000000,"state":"active","ping":87},{"user_id":181,"name":"astaat28","steam_id":76561199080832319,"connected_time":1961000000000,"state":"active","ping":67},{"user_id":206,"name":"Coach Twig","steam_id":76561198058831591,"connected_time":70000000000,"state":"active","ping":91},{"user_id":207,"name":"yingyistar","steam_id":76561198336388843,"connected_time":53000000000,"state":"active","ping":140},{"user_id":188,"name":"Zanzi","steam_id":76561198210915428,"connected_time":928000000000,"state":"active","ping":64}]},{"server_id":18,"name":"Uncletopia | San Francisco | 2 | All Maps","name_short":"sfo-2","host":"sfo-1.us.uncletopia.com","port":27025,"enabled":true,"region":"us-west","cc":"us","latitude":37.77397,"longitude":-122.4313,"reserved":0,"last_update":"0001-01-01T00:00:00Z","name_a2s":"Uncletopia | San Francisco | 2 | All Maps","protocol":17,"map":"koth_lakeside_final","folder":"tf","game":"Team Fortress","app_id":440,"player_count":5,"max_players":24,"Bots":0,"server_type":"Dedicated","server_os":"Linux","password":true,"vac":true,"version":"7961495","steam_id":85568392924470000,"keywords":["cp","nocrits","nodmgspread","uncletopia"],"game_id":440,"stv_port":27026,"stv_name":"Uncletopia | San Francisco | 2 | All Maps | STV","players":[{"user_id":19,"name":"Blake","steam_id":76561198884871311,"connected_time":1637000000000,"state":"active","ping":84},{"user_id":23,"name":"NotAToaster","steam_id":76561198349938357,"connected_time":539000000000,"state":"active","ping":103},{"user_id":21,"name":"spooky","steam_id":76561198426544379,"connected_time":1564000000000,"state":"active","ping":100},{"user_id":22,"name":"76561199499707275","steam_id":76561199499707275,"connected_time":613000000000,"state":"active","ping":239},{"user_id":25,"name":"Imabox","steam_id":76561199206177858,"connected_time":42000000000,"state":"active","ping":63}]},{"server_id":19,"name":"Uncletopia | San Francisco | 3 | Stopwatch","name_short":"sfo-3","host":"sfo-1.us.uncletopia.com","port":27035,"enabled":true,"region":"us-west","cc":"us","latitude":37.77397,"longitude":-122.4313,"reserved":0,"last_update":"0001-01-01T00:00:00Z","name_a2s":"Uncletopia | San Francisco | 3 | Stopwatch","protocol":17,"map":"workshop/koth_ramjam_rc1.ugc459778887","folder":"tf","game":"Team Fortress","app_id":440,"player_count":0,"max_players":24,"Bots":0,"server_type":"Dedicated","server_os":"Linux","password":true,"vac":true,"version":"7961495","steam_id":85568392924742824,"keywords":["cp","nocrits","nodmgspread","uncletopia"],"game_id":440,"stv_port":27036,"stv_name":"Uncletopia | San Francisco | 3 | Stopwatch | STV","players":null},{"server_id":20,"name":"Uncletopia | San Francisco | 4 | Community","name_short":"sfo-4","host":"sfo-1.us.uncletopia.com","port":27045,"enabled":true,"region":"us-west","cc":"us","latitude":37.77397,"longitude":-122.4313,"reserved":0,"last_update":"0001-01-01T00:00:00Z","name_a2s":"Uncletopia | San Francisco | 4 | Community","protocol":17,"map":"workshop/cp_villa_b19.ugc2113052569","folder":"tf","game":"Team Fortress","app_id":440,"player_count":0,"max_players":24,"Bots":0,"server_type":"Dedicated","server_os":"Linux","password":true,"vac":true,"version":"7961495","steam_id":85568392924742826,"keywords":["cp","nocrits","nodmgspread","uncletopia"],"game_id":440,"stv_port":27046,"stv_name":"Uncletopia | San Francisco | 4 | Community | STV","players":null},{"server_id":141,"name":"Uncletopia | Sydney | 1 | All Maps","name_short":"syd-1","host":"syd-1.au.uncletopia.com","port":27015,"enabled":true,"region":"au","cc":"au","latitude":-33.865143,"longitude":151.2099,"reserved":0,"last_update":"0001-01-01T00:00:00Z","name_a2s":"Uncletopia | Sydney | 1 | All Maps","protocol":17,"map":"koth_viaduct","folder":"tf","game":"Team Fortress","app_id":440,"player_count":0,"max_players":24,"Bots":0,"server_type":"Dedicated","server_os":"Linux","password":true,"vac":true,"version":"7961495","steam_id":85568392924470001,"keywords":["cp","nocrits","nodmgspread","uncletopia"],"game_id":440,"stv_port":27016,"stv_name":"Uncletopia | Sydney | 1 | All Maps | STV","players":null},{"server_id":123,"name":"Uncletopia | Sydney | 2 | All Maps","name_short":"syd-2","host":"syd-1.au.uncletopia.com","port":27025,"enabled":true,"region":"au","cc":"au","latitude":-33.865143,"longitude":151.2099,"reserved":0,"last_update":"0001-01-01T00:00:00Z","name_a2s":"Uncletopia | Sydney | 2 | All Maps","protocol":17,"map":"koth_highpass","folder":"tf","game":"Team Fortress","app_id":440,"player_count":0,"max_players":24,"Bots":0,"server_type":"Dedicated","server_os":"Linux","password":true,"vac":true,"version":"7961495","steam_id":85568392924470002,"keywords":["cp","nocrits","nodmgspread","uncletopia"],"game_id":440,"stv_port":27026,"stv_name":"Uncletopia | Sydney | 2 | All Maps | STV","players":null},{"server_id":395,"name":"Uncletopia | Sydney | 3 | All Maps","name_short":"syd-3","host":"syd-1.au.uncletopia.com","port":27035,"enabled":true,"region":"au","cc":"au","latitude":-33.865143,"longitude":151.2099,"reserved":0,"last_update":"0001-01-01T00:00:00Z","name_a2s":"Uncletopia | Sydney | 3 | All Maps","protocol":17,"map":"pl_frontier_final","folder":"tf","game":"Team Fortress","app_id":440,"player_count":0,"max_players":24,"Bots":0,"server_type":"Dedicated","server_os":"Linux","password":true,"vac":true,"version":"7961495","steam_id":85568392925194467,"keywords":["nocrits","nodmgspread","payload","uncletopia"],"game_id":440,"stv_port":27036,"stv_name":"Uncletopia | Sydney | 3 | All Maps | STV","players":null},{"server_id":396,"name":"Uncletopia | Sydney | 4 | All Maps","name_short":"syd-4","host":"syd-1.au.uncletopia.com","port":27045,"enabled":true,"region":"au","cc":"au","latitude":-33.865143,"longitude":151.2099,"reserved":0,"last_update":"0001-01-01T00:00:00Z","name_a2s":"Uncletopia | Sydney | 4 | All Maps","protocol":17,"map":"koth_lakeside_final","folder":"tf","game":"Team Fortress","app_id":440,"player_count":0,"max_players":24,"Bots":0,"server_type":"Dedicated","server_os":"Linux","password":true,"vac":true,"version":"7961495","steam_id":85568392925397958,"keywords":["cp","nocrits","nodmgspread","uncletopia"],"game_id":440,"stv_port":27046,"stv_name":"Uncletopia | Sydney | 4 | All Maps | STV","players":null},{"server_id":58,"name":"Uncletopia | Sydney | 5 | Stopwatch","name_short":"syd-5","host":"syd-1.au.uncletopia.com","port":27055,"enabled":true,"region":"au","cc":"au","latitude":-33.865143,"longitude":151.2099,"reserved":0,"last_update":"0001-01-01T00:00:00Z","name_a2s":"Uncletopia | Sydney | 5 | Stopwatch","protocol":17,"map":"pl_frontier_final","folder":"tf","game":"Team Fortress","app_id":440,"player_count":0,"max_players":24,"Bots":0,"server_type":"Dedicated","server_os":"Linux","password":true,"vac":true,"version":"7961495","steam_id":85568392925397959,"keywords":["nocrits","nodmgspread","payload","uncletopia"],"game_id":440,"stv_port":27056,"stv_name":"Uncletopia | Sydney | 5 | Stopwatch | STV","players":null},{"server_id":59,"name":"Uncletopia | Sydney | 6 | Community","name_short":"syd-6","host":"syd-1.au.uncletopia.com","port":27065,"enabled":true,"region":"au","cc":"au","latitude":-33.865143,"longitude":151.2099,"reserved":0,"last_update":"0001-01-01T00:00:00Z","name_a2s":"Uncletopia | Sydney | 6 | Community","protocol":17,"map":"cp_sunshine","folder":"tf","game":"Team Fortress","app_id":440,"player_count":0,"max_players":24,"Bots":0,"server_type":"Dedicated","server_os":"Linux","password":true,"vac":true,"version":"7961495","steam_id":85568392925397960,"keywords":["cp","nocrits","nodmgspread","uncletopia"],"game_id":440,"stv_port":27066,"stv_name":"Uncletopia | Sydney | 6 | Community | STV","players":null},{"server_id":49,"name":"Uncletopia | Warsaw | 1 | One Thousand Uncles","name_short":"waw-1","host":"waw-1.pl.uncletopia.com","port":27015,"enabled":true,"region":"eu","cc":"pl","latitude":52.2297,"longitude":21.017532,"reserved":0,"last_update":"0001-01-01T00:00:00Z","name_a2s":"Uncletopia | Warsaw | 1 | One Thousand Uncles","protocol":17,"map":"pl_thundermountain","folder":"tf","game":"Team Fortress","app_id":440,"player_count":0,"max_players":32,"Bots":0,"server_type":"Dedicated","server_os":"Linux","password":true,"vac":true,"version":"7961495","steam_id":85568392925397850,"keywords":["alltalk","danepve","increased_maxplayers","nocrits","norespawntime","payload","uncletopia"],"game_id":440,"stv_port":0,"stv_name":"","players":null},{"server_id":50,"name":"Uncletopia | Warsaw | 2 | One Thousand Uncles","name_short":"waw-2","host":"waw-1.pl.uncletopia.com","port":27025,"enabled":true,"region":"eu","cc":"pl","latitude":52.2297,"longitude":21.017532,"reserved":0,"last_update":"0001-01-01T00:00:00Z","name_a2s":"Uncletopia | Warsaw | 2 | One Thousand Uncles","protocol":17,"map":"pl_badwater","folder":"tf","game":"Team Fortress","app_id":440,"player_count":0,"max_players":32,"Bots":0,"server_type":"Dedicated","server_os":"Linux","password":true,"vac":true,"version":"7961495","steam_id":85568392925397851,"keywords":["alltalk","danepve","increased_maxplayers","nocrits","norespawntime","payload","uncletopia"],"game_id":440,"stv_port":0,"stv_name":"","players":null},{"server_id":51,"name":"Uncletopia | Warsaw | 3 | All Maps","name_short":"waw-3","host":"waw-1.pl.uncletopia.com","port":27035,"enabled":true,"region":"eu","cc":"pl","latitude":52.2297,"longitude":21.017532,"reserved":0,"last_update":"0001-01-01T00:00:00Z","name_a2s":"Uncletopia | Warsaw | 3 | All Maps","protocol":17,"map":"cp_process_final","folder":"tf","game":"Team Fortress","app_id":440,"player_count":0,"max_players":24,"Bots":0,"server_type":"Dedicated","server_os":"Linux","password":true,"vac":true,"version":"7961495","steam_id":85568392925397852,"keywords":["cp","nocrits","nodmgspread","uncletopia"],"game_id":440,"stv_port":27036,"stv_name":"Uncletopia | Warsaw | 3 | All Maps | STV","players":null},{"server_id":52,"name":"Uncletopia | Warsaw | 4 | All Maps","name_short":"waw-4","host":"waw-1.pl.uncletopia.com","port":27045,"enabled":true,"region":"eu","cc":"pl","latitude":52.2297,"longitude":21.017532,"reserved":0,"last_update":"0001-01-01T00:00:00Z","name_a2s":"Uncletopia | Warsaw | 4 | All Maps","protocol":17,"map":"koth_cascade","folder":"tf","game":"Team Fortress","app_id":440,"player_count":0,"max_players":24,"Bots":0,"server_type":"Dedicated","server_os":"Linux","password":true,"vac":true,"version":"7961495","steam_id":85568392925397853,"keywords":["cp","nocrits","nodmgspread","uncletopia"],"game_id":440,"stv_port":27046,"stv_name":"Uncletopia | Warsaw | 4 | All Maps | STV","players":null},{"server_id":53,"name":"Uncletopia | Warsaw | 5 | Stopwatch","name_short":"waw-5","host":"waw-1.pl.uncletopia.com","port":27055,"enabled":true,"region":"eu","cc":"pl","latitude":52.2297,"longitude":21.017532,"reserved":0,"last_update":"0001-01-01T00:00:00Z","name_a2s":"Uncletopia | Warsaw | 5 | Stopwatch","protocol":17,"map":"workshop/koth_bagel_rc6.ugc2514036946","folder":"tf","game":"Team Fortress","app_id":440,"player_count":0,"max_players":24,"Bots":0,"server_type":"Dedicated","server_os":"Linux","password":true,"vac":true,"version":"7961495","steam_id":85568392925397854,"keywords":["cp","nocrits","nodmgspread","uncletopia"],"game_id":440,"stv_port":27056,"stv_name":"Uncletopia | Warsaw | 5 | Stopwatch | STV","players":null},{"server_id":54,"name":"Uncletopia | Warsaw | 6 | Community","name_short":"waw-6","host":"waw-1.pl.uncletopia.com","port":27065,"enabled":true,"region":"eu","cc":"pl","latitude":52.2297,"longitude":21.017532,"reserved":0,"last_update":"0001-01-01T00:00:00Z","name_a2s":"Uncletopia | Warsaw | 6 | Community","protocol":17,"map":"workshop/koth_trenchfoot_ab1.ugc731436616","folder":"tf","game":"Team Fortress","app_id":440,"player_count":0,"max_players":24,"Bots":0,"server_type":"Dedicated","server_os":"Linux","password":true,"vac":true,"version":"7961495","steam_id":85568392925397856,"keywords":["cp","nocrits","nodmgspread","uncletopia"],"game_id":440,"stv_port":27066,"stv_name":"Uncletopia | Warsaw | 6 | Community | STV","players":null}]}