{"status":true,"message":"","result":[{"server_id":9,"name":"Uncletopia | Atlanta | 1 | All Maps","name_short":"atl-1","host":"atl-1.us.uncletopia.com","port":27015,"enabled":true,"region":"us-east","cc":"us","latitude":33.753746,"longitude":-84.38633,"reserved":0,"last_update":"0001-01-01T00:00:00Z","name_a2s":"Uncletopia | Atlanta | 1 | All Maps","protocol":17,"map":"koth_cascade","folder":"tf","game":"Team Fortress","app_id":440,"player_count":0,"max_players":24,"Bots":0,"server_type":"Dedicated","server_os":"Linux","password":true,"vac":true,"version":"7695204","steam_id":85568392924469982,"keywords":["cp","nocrits","nodmgspread","uncletopia"],"game_id":440,"stv_port":0,"stv_name":"","players":null},{"server_id":400,"name":"Uncletopia | Atlanta | 3 | All Maps","name_short":"atl-3","host":"atl-1.us.uncletopia.com","port":27035,"enabled":true,"region":"us-east","cc":"us","latitude":33.753746,"longitude":-84.38633,"reserved":0,"last_update":"0001-01-01T00:00:00Z","name_a2s":"Uncletopia | Atlanta | 3 | All Maps","protocol":17,"map":"pl_frontier_final","folder":"tf","game":"Team Fortress","app_id":440,"player_count":0,"max_players":24,"Bots":0,"server_type":"Dedicated","server_os":"Linux","password":true,"vac":true,"version":"7695204","steam_id":85568392924515187,"keywords":["nocrits","nodmgspread","payload","uncletopia"],"game_id":440,"stv_port":0,"stv_name":"","players":null},{"server_id":401,"name":"Uncletopia | Atlanta | 4 | No Payload","name_short":"atl-4","host":"atl-1.us.uncletopia.com","port":27045,"enabled":true,"region":"us-east","cc":"us","latitude":33.753746,"longitude":-84.38633,"reserved":0,"last_update":"0001-01-01T00:00:00Z","name_a2s":"Uncletopia | Atlanta | 4 | No Payload","protocol":17,"map":"ctf_well","folder":"tf","game":"Team Fortress","app_id":440,"player_count":0,"max_players":24,"Bots":0,"server_type":"Dedicated","server_os":"Linux","password":true,"vac":true,"version":"7695204","steam_id":85568392924515188,"keywords":["ctf","nocrits","nodmgspread","uncletopia"],"game_id":440,"stv_port":27046,"stv_name":"Uncletopia | Atlanta | 4 | No Payload | STV","players":null},{"server_id":2,"name":"Uncletopia | Chicago | 1 | All Maps","name_short":"chi-1","host":"chi-1.us.uncletopia.com","port":27015,"enabled":true,"region":"us-central","cc":"us","latitude":41.881832,"longitude":-87.62318,"reserved":0,"last_update":"0001-01-01T00:00:00Z","name_a2s":"Uncletopia | Chicago | 1 | All Maps","protocol":17,"map":"pl_badwater","folder":"tf","game":"Team Fortress","app_id":440,"player_count":25,"max_players":24,"Bots":0,"server_type":"Dedicated","server_os":"Linux","password":true,"vac":true,"version":"7695204","steam_id":85568392924469984,"keywords":["nocrits","nodmgspread","payload","uncletopia"],"game_id":440,"stv_port":27016,"stv_name":"Uncletopia | Chicago | 1 | All Maps | STV","players":[{"user_id":44,"name":"rat gets the cheese","steam_id":76561198031234032,"connected_time":8511000000000,"state":"active","ping":62},{"user_id":145,"name":"TwistedCamel","steam_id":76561198011396500,"connected_time":1324000000000,"state":"active","ping":58},{"user_id":156,"name":"lostos","steam_id":76561197983869145,"connected_time":756000000000,"state":"active","ping":116},{"user_id":160,"name":"Dad 2","steam_id":76561198138546187,"connected_time":546000000000,"state":"active","ping":99},{"user_id":148,"name":"Pixeled","steam_id":76561198088917077,"connected_time":1321000000000,"state":"active","ping":81},{"user_id":153,"name":"Millipeter","steam_id":76561198271576579,"connected_time":1081000000000,"state":"active","ping":86},{"user_id":161,"name":"LukeLeal","steam_id":76561198049822995,"connected_time":523000000000,"state":"active","ping":167},{"user_id":132,"name":"Braixen","steam_id":76561198354314389,"connected_time":2942000000000,"state":"active","ping":75},{"user_id":159,"name":"hierodule","steam_id":76561198023229665,"connected_time":692000000000,"state":"active","ping":70},{"user_id":123,"name":"vλughn","steam_id":76561198144165856,"connected_time":3493000000000,"state":"active","ping":77},{"user_id":155,"name":"Inpecular (Travis)","steam_id":76561198096571237,"connected_time":770000000000,"state":"active","ping":82},{"user_id":157,"name":"beta central","steam_id":76561198301876831,"connected_time":752000000000,"state":"active","ping":60},{"user_id":137,"name":"i should go","steam_id":76561198194614289,"connected_time":2128000000000,"state":"active","ping":59},{"user_id":113,"name":"Odin","steam_id":76561199417970238,"connected_time":4341000000000,"state":"active","ping":151},{"user_id":169,"name":"carter","steam_id":76561198285295764,"connected_time":179000000000,"state":"connecting","ping":0},{"user_id":170,"name":"Gordan Timlothle","steam_id":76561198272013678,"connected_time":164000000000,"state":"active","ping":67},{"user_id":152,"name":"Elantine","steam_id":76561199016472986,"connected_time":1255000000000,"state":"active","ping":77},{"user_id":158,"name":"Tommy Pickles (Very Cool)","steam_id":76561198391261463,"connected_time":729000000000,"state":"active","ping":71},{"user_id":143,"name":"richard clock","steam_id":76561198048455671,"connected_time":1943000000000,"state":"active","ping":60},{"user_id":117,"name":"NotFionn","steam_id":76561198890525176,"connected_time":4180000000000,"state":"active","ping":158},{"user_id":163,"name":"Tyler\u0026Fingers","steam_id":76561198085154485,"connected_time":410000000000,"state":"active","ping":82},{"user_id":122,"name":"blobb","steam_id":76561198950448488,"connected_time":3569000000000,"state":"active","ping":52},{"user_id":172,"name":"Goober","steam_id":76561198825837058,"connected_time":40000000000,"state":"active","ping":43},{"user_id":126,"name":"hidden_games","steam_id":76561198149683392,"connected_time":2979000000000,"state":"active","ping":62},{"user_id":166,"name":"Cinnabun","steam_id":76561198155346702,"connected_time":349000000000,"state":"active","ping":126}]},{"server_id":106,"name":"Uncletopia | Chicago | 2 | All Maps","name_short":"chi-2","host":"chi-1.us.uncletopia.com","port":27025,"enabled":true,"region":"us-central","cc":"us","latitude":41.881832,"longitude":-87.62318,"reserved":0,"last_update":"0001-01-01T00:00:00Z","name_a2s":"Uncletopia | Chicago | 2 | All Maps","protocol":17,"map":"cp_process_final","folder":"tf","game":"Team Fortress","app_id":440,"player_count":0,"max_players":24,"Bots":0,"server_type":"Dedicated","server_os":"Linux","password":true,"vac":true,"version":"7695204","steam_id":85568392924469985,"keywords":["cp","nocrits","nodmgspread","uncletopia"],"game_id":440,"stv_port":0,"stv_name":"","players":null},{"server_id":402,"name":"Uncletopia | Chicago | 3 | All Maps","name_short":"chi-3","host":"chi-1.us.uncletopia.com","port":27035,"enabled":true,"region":"us-central","cc":"us","latitude":41.881832,"longitude":-87.62318,"reserved":0,"last_update":"0001-01-01T00:00:00Z","name_a2s":"Uncletopia | Chicago | 3 | All Maps","protocol":17,"map":"pl_badwater","folder":"tf","game":"Team Fortress","app_id":440,"player_count":24,"max_players":24,"Bots":0,"server_type":"Dedicated","server_os":"Linux","password":true,"vac":true,"version":"7695204","steam_id":85568392924515191,"keywords":["nocrits","nodmgspread","payload","uncletopia"],"game_id":440,"stv_port":27036,"stv_name":"Uncletopia | Chicago | 3 | All Maps | STV","players":[{"user_id":9,"name":"Questking1","steam_id":76561198328107634,"connected_time":2373000000000,"state":"active","ping":40},{"user_id":8,"name":"ultrax.extremex","steam_id":76561199201770653,"connected_time":2585000000000,"state":"active","ping":61},{"user_id":54,"name":"MamaLuigi","steam_id":76561199054368008,"connected_time":201000000000,"state":"active","ping":59},{"user_id":11,"name":"le fromage","steam_id":76561198084230569,"connected_time":2208000000000,"state":"active","ping":47},{"user_id":37,"name":"Jerry","steam_id":76561198320897424,"connected_time":1634000000000,"state":"active","ping":159},{"user_id":33,"name":"HK | KitKat |","steam_id":76561198196793415,"connected_time":1664000000000,"state":"active","ping":105},{"user_id":18,"name":"Guido Mista","steam_id":76561198990699576,"connected_time":1989000000000,"state":"active","ping":76},{"user_id":40,"name":"Loyal Goon","steam_id":76561198056343341,"connected_time":1579000000000,"state":"active","ping":78},{"user_id":20,"name":"duneblaster0","steam_id":76561198040364680,"connected_time":1967000000000,"state":"active","ping":45},{"user_id":27,"name":"s4int_","steam_id":76561198201919804,"connected_time":1791000000000,"state":"active","ping":73},{"user_id":47,"name":"God of bread","steam_id":76561198373688035,"connected_time":804000000000,"state":"active","ping":60},{"user_id":52,"name":"yitz","steam_id":76561198375575841,"connected_time":454000000000,"state":"active","ping":57},{"user_id":24,"name":"Fireman pyro","steam_id":76561199101808144,"connected_time":1893000000000,"state":"active","ping":87},{"user_id":25,"name":"lurking enthusiast","steam_id":76561198396326793,"connected_time":1888000000000,"state":"active","ping":81},{"user_id":51,"name":"weeb_whacker #Jenius","steam_id":76561198187098041,"connected_time":472000000000,"state":"active","ping":52},{"user_id":28,"name":"upside down cat","steam_id":76561198028288349,"connected_time":1755000000000,"state":"active","ping":88},{"user_id":56,"name":"carter","steam_id":76561198285295764,"connected_time":91000000000,"state":"active","ping":73},{"user_id":31,"name":"dumbass","steam_id":76561198410957728,"connected_time":1740000000000,"state":"active","ping":44},{"user_id":32,"name":"passa passa","steam_id":76561199238923581,"connected_time":1728000000000,"state":"active","ping":115},{"user_id":34,"name":"Recarsonated","steam_id":76561198171454785,"connected_time":1657000000000,"state":"active","ping":75},{"user_id":35,"name":"Sgt","steam_id":76561198139818111,"connected_time":1656000000000,"state":"active","ping":57},{"user_id":44,"name":"Pawn Cushman","steam_id":76561198221635676,"connected_time":981000000000,"state":"active","ping":63},{"user_id":53,"name":"The Great Eagle Scourge of 1822","steam_id":76561198325086209,"connected_time":220000000000,"state":"active","ping":107}]},{"server_id":403,"name":"Uncletopia | Chicago | 4 | All Maps","name_short":"chi-4","host":"chi-1.us.uncletopia.com","port":27045,"enabled":true,"region":"us-central","cc":"us","latitude":41.881832,"longitude":-87.62318,"reserved":0,"last_update":"0001-01-01T00:00:00Z","name_a2s":"Uncletopia | Chicago | 4 | All Maps","protocol":17,"map":"koth_highpass","folder":"tf","game":"Team Fortress","app_id":440,"player_count":0,"max_players":24,"Bots":0,"server_type":"Dedicated","server_os":"Linux","password":true,"vac":true,"version":"7695204","steam_id":85568392924515193,"keywords":["cp","nocrits","nodmgspread","uncletopia"],"game_id":440,"stv_port":0,"stv_name":"","players":null},{"server_id":36,"name":"Uncletopia | Chicago | 5 | All Maps","name_short":"chi-5","host":"chi-2.us.uncletopia.com","port":27015,"enabled":true,"region":"us-central","cc":"us","latitude":41.881832,"longitude":-87.62318,"reserved":0,"last_update":"0001-01-01T00:00:00Z","name_a2s":"Uncletopia | Chicago | 5 | All Maps","protocol":17,"map":"cp_altitude","folder":"tf","game":"Team Fortress","app_id":440,"player_count":0,"max_players":24,"Bots":0,"server_type":"Dedicated","server_os":"Linux","password":true,"vac":true,"version":"7695204","steam_id":85568392924866362,"keywords":["cp","nocrits","nodmgspread","uncletopia"],"game_id":440,"stv_port":0,"stv_name":"","players":null},{"server_id":37,"name":"Uncletopia | Chicago | 6 | All Maps","name_short":"chi-6","host":"chi-2.us.uncletopia.com","port":27025,"enabled":true,"region":"us-central","cc":"us","latitude":41.881832,"longitude":-87.62318,"reserved":0,"last_update":"0001-01-01T00:00:00Z","name_a2s":"Uncletopia | Chicago | 6 | All Maps","protocol":17,"map":"cp_snakewater_final1","folder":"tf","game":"Team Fortress","app_id":440,"player_count":0,"max_players":24,"Bots":0,"server_type":"Dedicated","server_os":"Linux","password":true,"vac":true,"version":"7695204","steam_id":85568392924866363,"keywords":["cp","nocrits","nodmgspread","uncletopia"],"game_id":440,"stv_port":0,"stv_name":"","players":null},{"server_id":38,"name":"Uncletopia | Chicago | 7 | No Payload","name_short":"chi-7","host":"chi-2.us.uncletopia.com","port":27035,"enabled":true,"region":"us-central","cc":"us","latitude":41.881832,"longitude":-87.62318,"reserved":0,"last_update":"0001-01-01T00:00:00Z","name_a2s":"Uncletopia | Chicago | 7 | No Payload","protocol":17,"map":"cp_metalworks","folder":"tf","game":"Team Fortress","app_id":440,"player_count":0,"max_players":24,"Bots":0,"server_type":"Dedicated","server_os":"Linux","password":true,"vac":true,"version":"7695204","steam_id":85568392924866364,"keywords":["cp","nocrits","nodmgspread","uncletopia"],"game_id":440,"stv_port":27036,"stv_name":"Uncletopia | Chicago | 7 | No Payload | STV","players":null},{"server_id":39,"name":"Uncletopia | Chicago | 8 | Community","name_short":"chi-8","host":"chi-2.us.uncletopia.com","port":27045,"enabled":true,"region":"us-central","cc":"us","latitude":41.881832,"longitude":-87.62318,"reserved":0,"last_update":"0001-01-01T00:00:00Z","name_a2s":"Uncletopia | Chicago | 8 | Community","protocol":17,"map":"cp_altitude","folder":"tf","game":"Team Fortress","app_id":440,"player_count":0,"max_players":24,"Bots":0,"server_type":"Dedicated","server_os":"Linux","password":true,"vac":true,"version":"7695204","steam_id":85568392924866365,"keywords":["cp","nocrits","nodmgspread","uncletopia"],"game_id":440,"stv_port":0,"stv_name":"","players":null},{"server_id":8,"name":"Uncletopia | Dallas | 1 | All Maps","name_short":"dal-1","host":"dal-1.us.uncletopia.com","port":27015,"enabled":true,"region":"us-central","cc":"us","latitude":32.779167,"longitude":-96.80889,"reserved":0,"last_update":"0001-01-01T00:00:00Z","name_a2s":"Uncletopia | Dallas | 1 | All Maps","protocol":17,"map":"pl_snowycoast","folder":"tf","game":"Team Fortress","app_id":440,"player_count":0,"max_players":24,"Bots":0,"server_type":"Dedicated","server_os":"Linux","password":true,"vac":true,"version":"7695204","steam_id":85568392924469986,"keywords":["nocrits","nodmgspread","payload","uncletopia"],"game_id":440,"stv_port":0,"stv_name":"","players":null},{"server_id":108,"name":"Uncletopia | Dallas | 2 | All Maps","name_short":"dal-2","host":"dal-1.us.uncletopia.com","port":27025,"enabled":true,"region":"us-central","cc":"us","latitude":32.779167,"longitude":-96.80889,"reserved":0,"last_update":"0001-01-01T00:00:00Z","name_a2s":"Uncletopia | Dallas | 2 | All Maps","protocol":17,"map":"cp_mountainlab","folder":"tf","game":"Team Fortress","app_id":440,"player_count":0,"max_players":24,"Bots":0,"server_type":"Dedicated","server_os":"Linux","password":true,"vac":true,"version":"7695204","steam_id":85568392924469988,"keywords":["cp","nocrits","nodmgspread","uncletopia"],"game_id":440,"stv_port":0,"stv_name":"","players":null},{"server_id":5,"name":"Uncletopia | Frankfurt | 1 | All Maps","name_short":"frk-1","host":"frk-1.de.uncletopia.com","port":27015,"enabled":true,"region":"eu","cc":"de","latitude":50.110924,"longitude":8.682127,"reserved":0,"last_update":"0001-01-01T00:00:00Z","name_a2s":"Uncletopia | Frankfurt | 1 | All Maps","protocol":17,"map":"pl_coal_event","folder":"tf","game":"Team Fortress","app_id":440,"player_count":23,"max_players":24,"Bots":0,"server_type":"Dedicated","server_os":"Linux","password":true,"vac":true,"version":"7695204","steam_id":85568392924469989,"keywords":["nocrits","nodmgspread","payload","uncletopia"],"game_id":440,"stv_port":27016,"stv_name":"Uncletopia | Frankfurt | 1 | All Maps | STV","players":[{"user_id":375,"name":"where is my egg?","steam_id":76561198172542535,"connected_time":73000000000,"state":"active","ping":65},{"user_id":345,"name":"Kalosz","steam_id":76561198152153729,"connected_time":2024000000000,"state":"active","ping":63},{"user_id":372,"name":"sexbom","steam_id":76561198917309036,"connected_time":290000000000,"state":"active","ping":163},{"user_id":361,"name":"Vertically Challenged","steam_id":76561198257158275,"connected_time":1055000000000,"state":"active","ping":133},{"user_id":376,"name":"pandeux","steam_id":76561198343527617,"connected_time":55000000000,"state":"active","ping":52},{"user_id":336,"name":"Sodemo","steam_id":76561198074987146,"connected_time":2696000000000,"state":"active","ping":47},{"user_id":362,"name":"Eing","steam_id":76561198253125820,"connected_time":1046000000000,"state":"active","ping":84},{"user_id":319,"name":"Caskye","steam_id":76561198165430888,"connected_time":3453000000000,"state":"active","ping":79},{"user_id":337,"name":"Rin-Nakaret","steam_id":76561197971051188,"connected_time":2680000000000,"state":"active","ping":81},{"user_id":320,"name":"Diogenes Aghori","steam_id":76561198061625751,"connected_time":3451000000000,"state":"active","ping":72},{"user_id":343,"name":"anairat","steam_id":76561198863788240,"connected_time":2224000000000,"state":"active","ping":82},{"user_id":364,"name":"ck","steam_id":76561197984084920,"connected_time":985000000000,"state":"active","ping":61},{"user_id":310,"name":"Nomad994","steam_id":76561198051908201,"connected_time":3969000000000,"state":"active","ping":91},{"user_id":323,"name":"Umbro","steam_id":76561198087930438,"connected_time":3217000000000,"state":"active","ping":73},{"user_id":322,"name":"ambatukam!!!","steam_id":76561198197304886,"connected_time":3269000000000,"state":"active","ping":118},{"user_id":317,"name":"joe (real)","steam_id":76561198875409640,"connected_time":3557000000000,"state":"active","ping":60},{"user_id":365,"name":"Irobert1115HD","steam_id":76561198085104916,"connected_time":971000000000,"state":"active","ping":50},{"user_id":198,"name":"jorj3821","steam_id":76561198844794367,"connected_time":13229000000000,"state":"active","ping":63},{"user_id":374,"name":"Jouppi","steam_id":76561198063725468,"connected_time":149000000000,"state":"active","ping":79},{"user_id":352,"name":"Hey, I´m Andy!","steam_id":76561198060337777,"connected_time":1448000000000,"state":"active","ping":65},{"user_id":349,"name":"generic alias","steam_id":76561198271607226,"connected_time":1914000000000,"state":"active","ping":94},{"user_id":378,"name":"Thors","steam_id":76561197968739075,"connected_time":5000000000,"state":"spawning","ping":60},{"user_id":370,"name":"ROB_Boom","steam_id":76561198982164150,"connected_time":378000000000,"state":"active","ping":74}]},{"server_id":110,"name":"Uncletopia | Frankfurt | 2 | All Maps","name_short":"frk-2","host":"frk-1.de.uncletopia.com","port":27025,"enabled":true,"region":"eu","cc":"de","latitude":50.110924,"longitude":8.682127,"reserved":0,"last_update":"0001-01-01T00:00:00Z","name_a2s":"Uncletopia | Frankfurt | 2 | All Maps","protocol":17,"map":"pl_barnblitz","folder":"tf","game":"Team Fortress","app_id":440,"player_count":24,"max_players":24,"Bots":0,"server_type":"Dedicated","server_os":"Linux","password":true,"vac":true,"version":"7695204","steam_id":85568392924469990,"keywords":["nocrits","nodmgspread","payload","uncletopia"],"game_id":440,"stv_port":27026,"stv_name":"Uncletopia | Frankfurt | 2 | All Maps | STV","players":[{"user_id":151,"name":"Clumsy ♥","steam_id":76561199049413586,"connected_time":1751000000000,"state":"active","ping":72},{"user_id":139,"name":"Milk","steam_id":76561198219146857,"connected_time":2598000000000,"state":"active","ping":84},{"user_id":161,"name":"Kurage","steam_id":76561198021221288,"connected_time":1136000000000,"state":"active","ping":58},{"user_id":170,"name":"Hexagon","steam_id":76561198151205758,"connected_time":600000000000,"state":"active","ping":53},{"user_id":179,"name":"Koli","steam_id":76561197992428783,"connected_time":133000000000,"state":"active","ping":45},{"user_id":163,"name":"uncle dane (real)","steam_id":76561198281703666,"connected_time":1006000000000,"state":"active","ping":70},{"user_id":157,"name":"Mogwai","steam_id":76561198078832314,"connected_time":1367000000000,"state":"active","ping":84},{"user_id":153,"name":"YourDoom","steam_id":76561198080790857,"connected_time":1578000000000,"state":"active","ping":45},{"user_id":178,"name":"outlaw","steam_id":76561198323805289,"connected_time":346000000000,"state":"active","ping":45},{"user_id":143,"name":"Jonkheervanflep","steam_id":76561198006853101,"connected_time":2500000000000,"state":"active","ping":82},{"user_id":133,"name":"Mr. Mundy","steam_id":76561198132008918,"connected_time":3293000000000,"state":"active","ping":71},{"user_id":137,"name":"Big Benn","steam_id":76561199024168373,"connected_time":2720000000000,"state":"active","ping":85},{"user_id":172,"name":"Redmailbox","steam_id":76561198042930322,"connected_time":553000000000,"state":"active","ping":63},{"user_id":152,"name":"PanPatrik","steam_id":76561198293331527,"connected_time":1662000000000,"state":"active","ping":52},{"user_id":177,"name":"Swagmarck","steam_id":76561198212326185,"connected_time":435000000000,"state":"active","ping":40},{"user_id":180,"name":"Grønkjær","steam_id":76561198041075280,"connected_time":119000000000,"state":"active","ping":75},{"user_id":164,"name":"dude","steam_id":76561198299412035,"connected_time":998000000000,"state":"active","ping":70},{"user_id":162,"name":"The brown part of the banana","steam_id":76561198323425034,"connected_time":1077000000000,"state":"active","ping":63},{"user_id":173,"name":"brtaba","steam_id":76561198796334790,"connected_time":527000000000,"state":"active","ping":54},{"user_id":168,"name":"heykikidom","steam_id":76561198267574417,"connected_time":697000000000,"state":"active","ping":91},{"user_id":159,"name":"Nick","steam_id":76561198036109469,"connected_time":1343000000000,"state":"active","ping":85},{"user_id":174,"name":"Dapper","steam_id":76561198081694974,"connected_time":518000000000,"state":"active","ping":57},{"user_id":135,"name":"gamer_","steam_id":76561198094125769,"connected_time":3236000000000,"state":"active","ping":77},{"user_id":176,"name":"SCRAMMMBLED","steam_id":76561197998307746,"connected_time":449000000000,"state":"active","ping":61}]},{"server_id":308,"name":"Uncletopia | Frankfurt | 3 | All Maps","name_short":"frk-3","host":"frk-1.de.uncletopia.com","port":27035,"enabled":true,"region":"eu","cc":"de","latitude":50.110924,"longitude":8.682127,"reserved":0,"last_update":"0001-01-01T00:00:00Z","name_a2s":"Uncletopia | Frankfurt | 3 | All Maps","protocol":17,"map":"pl_goldrush","folder":"tf","game":"Team Fortress","app_id":440,"player_count":23,"max_players":24,"Bots":0,"server_type":"Dedicated","server_os":"Linux","password":true,"vac":true,"version":"7695204","steam_id":85568392924504274,"keywords":["nocrits","nodmgspread","payload","uncletopia"],"game_id":440,"stv_port":27036,"stv_name":"Uncletopia | Frankfurt | 3 | All Maps | STV","players":[{"user_id":226,"name":"todesfluse","steam_id":76561198043104695,"connected_time":51000000000,"state":"active","ping":54},{"user_id":225,"name":"Dolcelatte","steam_id":76561198038501770,"connected_time":118000000000,"state":"active","ping":51},{"user_id":193,"name":"Radegast the Brown","steam_id":76561198075489505,"connected_time":2301000000000,"state":"active","ping":51},{"user_id":217,"name":"Mane wth mane","steam_id":76561198156682977,"connected_time":642000000000,"state":"active","ping":46},{"user_id":218,"name":"Laxslow","steam_id":76561198065361846,"connected_time":626000000000,"state":"active","ping":59},{"user_id":227,"name":"_3tHeR_","steam_id":76561199109870743,"connected_time":18000000000,"state":"active","ping":65},{"user_id":212,"name":"Darky","steam_id":76561198004733239,"connected_time":876000000000,"state":"active","ping":45},{"user_id":222,"name":"ZAZA expert","steam_id":76561198369335263,"connected_time":471000000000,"state":"active","ping":46},{"user_id":204,"name":"bananen pizza","steam_id":76561199212990079,"connected_time":1262000000000,"state":"active","ping":61},{"user_id":228,"name":"Senator Armstrong","steam_id":76561198984346408,"connected_time":13000000000,"state":"active","ping":98},{"user_id":198,"name":"Reddly","steam_id":76561198194985158,"connected_time":1669000000000,"state":"active","ping":67},{"user_id":202,"name":"Darkman","steam_id":76561198014330738,"connected_time":1326000000000,"state":"active","ping":76},{"user_id":221,"name":"Paulie Walnuts","steam_id":76561198146194820,"connected_time":487000000000,"state":"active","ping":49},{"user_id":219,"name":"shoras","steam_id":76561198019680159,"connected_time":615000000000,"state":"active","ping":87},{"user_id":213,"name":"Snips","steam_id":76561198085425653,"connected_time":871000000000,"state":"active","ping":45},{"user_id":216,"name":"Alin","steam_id":76561198059679991,"connected_time":697000000000,"state":"active","ping":98},{"user_id":197,"name":"Thomas","steam_id":76561198147577341,"connected_time":1835000000000,"state":"active","ping":60},{"user_id":146,"name":"Untermenshh","steam_id":76561198284636705,"connected_time":6462000000000,"state":"active","ping":83},{"user_id":167,"name":"Mapus Lepoldus","steam_id":76561198067705233,"connected_time":4836000000000,"state":"active","ping":59},{"user_id":214,"name":"LuCroGi","steam_id":76561198057283891,"connected_time":827000000000,"state":"active","ping":58},{"user_id":192,"name":"Alice can't hit pipes","steam_id":76561198052410860,"connected_time":2610000000000,"state":"active","ping":134},{"user_id":151,"name":"night.s","steam_id":76561198326287823,"connected_time":6409000000000,"state":"active","ping":79},{"user_id":224,"name":"breedable","steam_id":76561198010300032,"connected_time":211000000000,"state":"active","ping":73}]},{"server_id":309,"name":"Uncletopia | Frankfurt | 4 | All Maps","name_short":"frk-4","host":"frk-1.de.uncletopia.com","port":27045,"enabled":true,"region":"eu","cc":"de","latitude":50.110924,"longitude":8.682127,"reserved":0,"last_update":"0001-01-01T00:00:00Z","name_a2s":"Uncletopia | Frankfurt | 4 | All Maps","protocol":17,"map":"koth_highpass","folder":"tf","game":"Team Fortress","app_id":440,"player_count":0,"max_players":24,"Bots":0,"server_type":"Dedicated","server_os":"Linux","password":true,"vac":true,"version":"7695204","steam_id":85568392924504275,"keywords":["cp","nocrits","nodmgspread","uncletopia"],"game_id":440,"stv_port":0,"stv_name":"","players":null},{"server_id":310,"name":"Uncletopia | Frankfurt | 5 | All Maps","name_short":"frk-5","host":"frk-1.de.uncletopia.com","port":27055,"enabled":true,"region":"eu","cc":"de","latitude":50.110924,"longitude":8.682127,"reserved":0,"last_update":"0001-01-01T00:00:00Z","name_a2s":"Uncletopia | Frankfurt | 5 | All Maps","protocol":17,"map":"cp_sunshine","folder":"tf","game":"Team Fortress","app_id":440,"player_count":0,"max_players":24,"Bots":0,"server_type":"Dedicated","server_os":"Linux","password":true,"vac":true,"version":"7695204","steam_id":85568392924504277,"keywords":["cp","nocrits","nodmgspread","uncletopia"],"game_id":440,"stv_port":27056,"stv_name":"Uncletopia | Frankfurt | 5 | All Maps | STV","players":null},{"server_id":311,"name":"Uncletopia | Frankfurt | 6 | All Maps","name_short":"frk-6","host":"frk-1.de.uncletopia.com","port":27065,"enabled":true,"region":"eu","cc":"de","latitude":50.110924,"longitude":8.682127,"reserved":0,"last_update":"0001-01-01T00:00:00Z","name_a2s":"Uncletopia | Frankfurt | 6 | All Maps","protocol":17,"map":"pl_enclosure_final","folder":"tf","game":"Team Fortress","app_id":440,"player_count":21,"max_players":24,"Bots":0,"server_type":"Dedicated","server_os":"Linux","password":true,"vac":true,"version":"7695204","steam_id":85568392924504278,"keywords":["nocrits","nodmgspread","payload","uncletopia"],"game_id":440,"stv_port":27066,"stv_name":"Uncletopia | Frankfurt | 6 | All Maps | STV","players":[{"user_id":274,"name":"galaxy","steam_id":76561198164819022,"connected_time":691000000000,"state":"active","ping":59},{"user_id":263,"name":"Dzan50","steam_id":76561198059758591,"connected_time":1074000000000,"state":"active","ping":75},{"user_id":264,"name":"L0g1c","steam_id":76561198134085329,"connected_time":1071000000000,"state":"active","ping":82},{"user_id":261,"name":"Wüstenfuchs","steam_id":76561198453885708,"connected_time":1429000000000,"state":"active","ping":65},{"user_id":265,"name":"Deeber","steam_id":76561198043957106,"connected_time":1009000000000,"state":"active","ping":75},{"user_id":266,"name":"henoadam","steam_id":76561198151350377,"connected_time":1007000000000,"state":"active","ping":57},{"user_id":76,"name":"XfarisGamerX","steam_id":76561198367579380,"connected_time":17038000000000,"state":"active","ping":124},{"user_id":267,"name":"R!not","steam_id":76561197986328786,"connected_time":990000000000,"state":"active","ping":56},{"user_id":283,"name":"Animatic","steam_id":76561198186421601,"connected_time":104000000000,"state":"active","ping":174},{"user_id":284,"name":"cat (they/them)","steam_id":76561198416657815,"connected_time":37000000000,"state":"spawning","ping":85},{"user_id":269,"name":"Stepoface","steam_id":76561198091569863,"connected_time":880000000000,"state":"active","ping":59},{"user_id":245,"name":"Decius","steam_id":76561197973577324,"connected_time":2363000000000,"state":"active","ping":57},{"user_id":251,"name":"Roboolet","steam_id":76561198107353953,"connected_time":1833000000000,"state":"active","ping":55},{"user_id":272,"name":"Dararess","steam_id":76561198132427058,"connected_time":758000000000,"state":"active","ping":61},{"user_id":257,"name":"Thisisthecat","steam_id":76561198403314907,"connected_time":1530000000000,"state":"active","ping":67},{"user_id":275,"name":"lord-carlos","steam_id":76561198025150761,"connected_time":665000000000,"state":"active","ping":53},{"user_id":282,"name":"tealoverr.190","steam_id":76561199028497703,"connected_time":163000000000,"state":"active","ping":103},{"user_id":277,"name":"Rhino.","steam_id":76561198065951617,"connected_time":584000000000,"state":"active","ping":70},{"user_id":281,"name":"Tj0ckis","steam_id":76561198108854226,"connected_time":222000000000,"state":"active","ping":76},{"user_id":279,"name":"KillerPotato!","steam_id":76561198071283721,"connected_time":535000000000,"state":"active","ping":85},{"user_id":260,"name":"Salamdar","steam_id":76561198061910407,"connected_time":1458000000000,"state":"active","ping":52}]},{"server_id":23,"name":"Uncletopia | Frankfurt | 7 | No Payload","name_short":"frk-7","host":"frk-1.de.uncletopia.com","port":27075,"enabled":true,"region":"eu","cc":"de","latitude":50.110924,"longitude":8.682127,"reserved":0,"last_update":"0001-01-01T00:00:00Z","name_a2s":"Uncletopia | Frankfurt | 7 | No Payload","protocol":17,"map":"cp_steel","folder":"tf","game":"Team Fortress","app_id":440,"player_count":24,"max_players":24,"Bots":0,"server_type":"Dedicated","server_os":"Linux","password":true,"vac":true,"version":"7695204","steam_id":85568392924742827,"keywords":["cp","nocrits","nodmgspread","uncletopia"],"game_id":440,"stv_port":27076,"stv_name":"Uncletopia | Frankfurt | 7 | No Payload | STV","players":[{"user_id":308,"name":"alvinulv","steam_id":76561198024487177,"connected_time":2020000000000,"state":"active","ping":60},{"user_id":335,"name":"Maken","steam_id":76561197995777078,"connected_time":198000000000,"state":"active","ping":77},{"user_id":338,"name":"Taben","steam_id":76561198382787045,"connected_time":177000000000,"state":"active","ping":105},{"user_id":307,"name":"altertaken","steam_id":76561199016050401,"connected_time":2101000000000,"state":"active","ping":129},{"user_id":341,"name":"Alien","steam_id":76561198984102084,"connected_time":73000000000,"state":"active","ping":111},{"user_id":319,"name":"CouT1nho","steam_id":76561198203926376,"connected_time":1438000000000,"state":"active","ping":45},{"user_id":305,"name":"DerEinzigeKzH","steam_id":76561199439225700,"connected_time":2200000000000,"state":"active","ping":60},{"user_id":304,"name":"CODSWOLOP","steam_id":76561199114598660,"connected_time":2259000000000,"state":"active","ping":130},{"user_id":332,"name":"[UiF] BafTac r/f*ckcars","steam_id":76561198060547050,"connected_time":528000000000,"state":"active","ping":48},{"user_id":267,"name":"Dzieciol","steam_id":76561198160237556,"connected_time":3875000000000,"state":"active","ping":61},{"user_id":325,"name":"Křest in the chest","steam_id":76561198981766281,"connected_time":882000000000,"state":"active","ping":99},{"user_id":311,"name":"Dante Alighieri","steam_id":76561198217070968,"connected_time":1935000000000,"state":"active","ping":90},{"user_id":210,"name":"John Daly","steam_id":76561197993849325,"connected_time":8003000000000,"state":"active","ping":73},{"user_id":320,"name":"padillacampos","steam_id":76561198161923970,"connected_time":1409000000000,"state":"active","ping":66},{"user_id":326,"name":"pojky863","steam_id":76561199068262570,"connected_time":875000000000,"state":"active","ping":62},{"user_id":313,"name":"The First Primaris Cato Sicariu","steam_id":76561198208133335,"connected_time":1881000000000,"state":"active","ping":68},{"user_id":251,"name":"M2rtRa","steam_id":76561198111036466,"connected_time":5345000000000,"state":"active","ping":68},{"user_id":327,"name":"Bart simpson","steam_id":76561198380666998,"connected_time":874000000000,"state":"active","ping":169},{"user_id":242,"name":"noob_with_source","steam_id":76561198870362103,"connected_time":6019000000000,"state":"active","ping":62},{"user_id":340,"name":"Bones","steam_id":76561198065081225,"connected_time":156000000000,"state":"active","ping":56},{"user_id":331,"name":"NikodemosPL","steam_id":76561198271226975,"connected_time":685000000000,"state":"active","ping":95},{"user_id":315,"name":"Lena ^^","steam_id":76561199435586696,"connected_time":1734000000000,"state":"active","ping":164},{"user_id":317,"name":"SvbK","steam_id":76561198201478866,"connected_time":1639000000000,"state":"active","ping":84},{"user_id":337,"name":"Velarowo","steam_id":76561198349373445,"connected_time":196000000000,"state":"active","ping":65}]},{"server_id":24,"name":"Uncletopia | Frankfurt | 8 | Community","name_short":"frk-8","host":"frk-1.de.uncletopia.com","port":27085,"enabled":true,"region":"eu","cc":"de","latitude":50.110924,"longitude":8.682127,"reserved":0,"last_update":"0001-01-01T00:00:00Z","name_a2s":"Uncletopia | Frankfurt | 8 | Community","protocol":17,"map":"koth_lakeside_final","folder":"tf","game":"Team Fortress","app_id":440,"player_count":0,"max_players":24,"Bots":0,"server_type":"Dedicated","server_os":"Linux","password":true,"vac":true,"version":"7695204","steam_id":85568392924742828,"keywords":["cp","nocrits","nodmgspread","uncletopia"],"game_id":440,"stv_port":0,"stv_name":"","players":null},{"server_id":202,"name":"Uncletopia | Hong Kong | 1 | All Maps","name_short":"hgk-1","host":"hgk-1.hk.uncletopia.com","port":27015,"enabled":true,"region":"asia","cc":"hk","latitude":22.302711,"longitude":114.177216,"reserved":0,"last_update":"0001-01-01T00:00:00Z","name_a2s":"Uncletopia | Hong Kong | 1 | All Maps","protocol":17,"map":"cp_dustbowl","folder":"tf","game":"Team Fortress","app_id":440,"player_count":23,"max_players":24,"Bots":0,"server_type":"Dedicated","server_os":"Linux","password":true,"vac":true,"version":"7695204","steam_id":85568392924494504,"keywords":["cp","nocrits","nodmgspread","uncletopia"],"game_id":440,"stv_port":27016,"stv_name":"Uncletopia | Hong Kong | 1 | All Maps | STV","players":[{"user_id":849,"name":"Matorolight","steam_id":76561198164895078,"connected_time":90000000000,"state":"active","ping":81},{"user_id":822,"name":"haruki","steam_id":76561198031621342,"connected_time":1934000000000,"state":"active","ping":80},{"user_id":835,"name":"TomProPlayer","steam_id":76561199223292521,"connected_time":658000000000,"state":"active","ping":69},{"user_id":830,"name":"slide","steam_id":76561199022513684,"connected_time":1048000000000,"state":"active","ping":95},{"user_id":823,"name":"(ART COMMS OPEN)Plumsy","steam_id":76561198831812465,"connected_time":1913000000000,"state":"active","ping":75},{"user_id":831,"name":"Cartoon","steam_id":76561199215858531,"connected_time":788000000000,"state":"active","ping":90},{"user_id":827,"name":"Luye","steam_id":76561198811403379,"connected_time":1505000000000,"state":"active","ping":95},{"user_id":833,"name":"Kumaz","steam_id":76561199062190085,"connected_time":696000000000,"state":"active","ping":77},{"user_id":808,"name":"Jesse TF2EASY.COM","steam_id":76561199153474215,"connected_time":2785000000000,"state":"active","ping":72},{"user_id":842,"name":"瑛祺寶寶","steam_id":76561198048928746,"connected_time":257000000000,"state":"active","ping":43},{"user_id":843,"name":"RainnFoxer","steam_id":76561198973884159,"connected_time":236000000000,"state":"active","ping":125},{"user_id":838,"name":"spy main wannabe","steam_id":76561198096451072,"connected_time":483000000000,"state":"active","ping":102},{"user_id":839,"name":"ren","steam_id":76561198100397880,"connected_time":445000000000,"state":"active","ping":83},{"user_id":840,"name":"8091573212","steam_id":76561198968776439,"connected_time":414000000000,"state":"active","ping":74},{"user_id":844,"name":"FuzeeBoy","steam_id":76561198158958336,"connected_time":226000000000,"state":"active","ping":69},{"user_id":773,"name":"母の肉団子","steam_id":76561198069561896,"connected_time":5008000000000,"state":"active","ping":46},{"user_id":765,"name":"lk❆","steam_id":76561199077602424,"connected_time":5963000000000,"state":"active","ping":58},{"user_id":785,"name":"Asuka Sohryu Langley","steam_id":76561198895193247,"connected_time":4719000000000,"state":"active","ping":94},{"user_id":847,"name":"grilledcheese","steam_id":76561199222702972,"connected_time":172000000000,"state":"active","ping":68},{"user_id":848,"name":"RABADINÂÂ","steam_id":76561199108127796,"connected_time":160000000000,"state":"active","ping":156},{"user_id":851,"name":"rome","steam_id":76561198964963117,"connected_time":51000000000,"state":"active","ping":98},{"user_id":852,"name":"Nimbus","steam_id":76561198877713016,"connected_time":21000000000,"state":"active","ping":101}]},{"server_id":1,"name":"Uncletopia | Los Angeles | 1 | All Maps","name_short":"lax-1","host":"lax-1.us.uncletopia.com","port":27015,"enabled":true,"region":"us-west","cc":"us","latitude":33.94279,"longitude":-118.41004,"reserved":0,"last_update":"0001-01-01T00:00:00Z","name_a2s":"Uncletopia | Los Angeles | 1 | All Maps","protocol":17,"map":"cp_sunshine","folder":"tf","game":"Team Fortress","app_id":440,"player_count":0,"max_players":24,"Bots":0,"server_type":"Dedicated","server_os":"Linux","password":true,"vac":true,"version":"7695204","steam_id":85568392924469991,"keywords":["cp","nocrits","nodmgspread","uncletopia"],"game_id":440,"stv_port":0,"stv_name":"","players":null},{"server_id":112,"name":"Uncletopia | Los Angeles | 2 | All Maps","name_short":"lax-2","host":"lax-1.us.uncletopia.com","port":27025,"enabled":true,"region":"us-west","cc":"us","latitude":33.94279,"longitude":-118.41004,"reserved":0,"last_update":"0001-01-01T00:00:00Z","name_a2s":"Uncletopia | Los Angeles | 2 | All Maps","protocol":17,"map":"cp_dustbowl","folder":"tf","game":"Team Fortress","app_id":440,"player_count":0,"max_players":24,"Bots":0,"server_type":"Dedicated","server_os":"Linux","password":true,"vac":true,"version":"7695204","steam_id":85568392924469992,"keywords":["cp","nocrits","nodmgspread","uncletopia"],"game_id":440,"stv_port":0,"stv_name":"","players":null},{"server_id":324,"name":"Uncletopia | Los Angeles | 3 | All Maps","name_short":"lax-3","host":"lax-1.us.uncletopia.com","port":27035,"enabled":true,"region":"us-west","cc":"us","latitude":33.94279,"longitude":-118.41004,"reserved":0,"last_update":"0001-01-01T00:00:00Z","name_a2s":"Uncletopia | Los Angeles | 3 | All Maps","protocol":17,"map":"cp_mountainlab","folder":"tf","game":"Team Fortress","app_id":440,"player_count":0,"max_players":24,"Bots":0,"server_type":"Dedicated","server_os":"Linux","password":true,"vac":true,"version":"7695204","steam_id":85568392924510198,"keywords":["cp","nocrits","nodmgspread","uncletopia"],"game_id":440,"stv_port":0,"stv_name":"","players":null},{"server_id":25,"name":"Uncletopia | Los Angeles | 4 | No Payload","name_short":"lax-4","host":"lax-1.us.uncletopia.com","port":27045,"enabled":true,"region":"us-west","cc":"us","latitude":33.94279,"longitude":-118.41004,"reserved":0,"last_update":"0001-01-01T00:00:00Z","name_a2s":"Uncletopia | Los Angeles | 4 | No Payload","protocol":17,"map":"koth_highpass","folder":"tf","game":"Team Fortress","app_id":440,"player_count":0,"max_players":24,"Bots":0,"server_type":"Dedicated","server_os":"Linux","password":true,"vac":true,"version":"7695204","steam_id":85568392924510199,"keywords":["cp","nocrits","nodmgspread","uncletopia"],"game_id":440,"stv_port":27046,"stv_name":"Uncletopia | Los Angeles | 4 | No Payload | STV","players":null},{"server_id":11,"name":"Uncletopia | London | 1 | All Maps","name_short":"lon-1","host":"lon-1.uk.uncletopia.com","port":27015,"enabled":true,"region":"eu","cc":"gb","latitude":51.509865,"longitude":-0.118092,"reserved":0,"last_update":"0001-01-01T00:00:00Z","name_a2s":"Uncletopia | London | 1 | All Maps","protocol":17,"map":"pl_goldrush","folder":"tf","game":"Team Fortress","app_id":440,"player_count":24,"max_players":24,"Bots":0,"server_type":"Dedicated","server_os":"Linux","password":true,"vac":true,"version":"7695204","steam_id":85568392924367362,"keywords":["nocrits","nodmgspread","payload","uncletopia"],"game_id":440,"stv_port":27016,"stv_name":"Uncletopia | London | 1 | All Maps | STV","players":[{"user_id":10,"name":"Fred","steam_id":76561198107137362,"connected_time":11388000000000,"state":"active","ping":47},{"user_id":152,"name":"Dr. Funkenstein","steam_id":76561197977816210,"connected_time":2598000000000,"state":"active","ping":69},{"user_id":195,"name":"Joashie","steam_id":76561198245170822,"connected_time":1441000000000,"state":"active","ping":45},{"user_id":201,"name":"Standingo","steam_id":76561198035642311,"connected_time":1251000000000,"state":"active","ping":102},{"user_id":198,"name":"goofy goober","steam_id":76561198013237629,"connected_time":1372000000000,"state":"active","ping":84},{"user_id":210,"name":"SuportSub99","steam_id":76561198127688900,"connected_time":235000000000,"state":"active","ping":56},{"user_id":142,"name":"DarthPaul8181","steam_id":76561198373050455,"connected_time":2980000000000,"state":"active","ping":44},{"user_id":106,"name":"DarkFloy | Bomboclat Player","steam_id":76561198070650206,"connected_time":4860000000000,"state":"active","ping":86},{"user_id":212,"name":"MarsCream","steam_id":76561198069037449,"connected_time":82000000000,"state":"active","ping":54},{"user_id":162,"name":"WoodsRunner","steam_id":76561198121812870,"connected_time":2330000000000,"state":"active","ping":116},{"user_id":211,"name":"Salty_shark","steam_id":76561198300798280,"connected_time":87000000000,"state":"active","ping":71},{"user_id":205,"name":"Aspartus","steam_id":76561198101385763,"connected_time":705000000000,"state":"active","ping":40},{"user_id":194,"name":"EST_R33kid","steam_id":76561198947039734,"connected_time":1466000000000,"state":"active","ping":81},{"user_id":200,"name":"Blurry","steam_id":76561198115918417,"connected_time":1362000000000,"state":"active","ping":70},{"user_id":196,"name":"silicon based life form","steam_id":76561199127121346,"connected_time":1418000000000,"state":"active","ping":48},{"user_id":207,"name":"MAKENTAKEN","steam_id":76561199127359587,"connected_time":293000000000,"state":"active","ping":103},{"user_id":203,"name":"Monke","steam_id":76561198066994468,"connected_time":1063000000000,"state":"active","ping":71},{"user_id":204,"name":"Michał","steam_id":76561198320346362,"connected_time":1060000000000,"state":"active","ping":74},{"user_id":154,"name":"OH_","steam_id":76561197986134103,"connected_time":2568000000000,"state":"active","ping":45},{"user_id":93,"name":"Smag","steam_id":76561198153675141,"connected_time":5527000000000,"state":"active","ping":44},{"user_id":141,"name":"ReDsinat0r","steam_id":76561198365973345,"connected_time":3060000000000,"state":"active","ping":72},{"user_id":150,"name":"Akirus","steam_id":76561198369831090,"connected_time":2632000000000,"state":"active","ping":111},{"user_id":114,"name":"nudjura","steam_id":76561198281986139,"connected_time":4631000000000,"state":"active","ping":45},{"user_id":167,"name":"viora ✨","steam_id":76561198054979849,"connected_time":2275000000000,"state":"active","ping":50}]},{"server_id":114,"name":"Uncletopia | London | 2 | All Maps","name_short":"lon-2","host":"lon-1.uk.uncletopia.com","port":27025,"enabled":true,"region":"eu","cc":"gb","latitude":51.509865,"longitude":-0.118092,"reserved":0,"last_update":"0001-01-01T00:00:00Z","name_a2s":"Uncletopia | London | 2 | All Maps","protocol":17,"map":"pl_frontier_final","folder":"tf","game":"Team Fortress","app_id":440,"player_count":24,"max_players":24,"Bots":0,"server_type":"Dedicated","server_os":"Linux","password":true,"vac":true,"version":"7695204","steam_id":85568392924470941,"keywords":["nocrits","nodmgspread","payload","uncletopia"],"game_id":440,"stv_port":27026,"stv_name":"Uncletopia | London | 2 | All Maps | STV","players":[{"user_id":181,"name":"Dummy","steam_id":76561198349741126,"connected_time":1531000000000,"state":"active","ping":64},{"user_id":155,"name":"Kazakhstan BEST!!!","steam_id":76561198094111415,"connected_time":3423000000000,"state":"active","ping":77},{"user_id":171,"name":"gus","steam_id":76561198876303958,"connected_time":2495000000000,"state":"active","ping":104},{"user_id":177,"name":"Bobby Wasabi 2007","steam_id":76561197988085026,"connected_time":1999000000000,"state":"active","ping":71},{"user_id":179,"name":"Sunkerdink","steam_id":76561197996757446,"connected_time":1745000000000,"state":"active","ping":59},{"user_id":183,"name":"Diana Ball","steam_id":76561198382533813,"connected_time":1213000000000,"state":"active","ping":48},{"user_id":176,"name":"Karl","steam_id":76561198070959239,"connected_time":2058000000000,"state":"active","ping":53},{"user_id":184,"name":"19raic","steam_id":76561199093514786,"connected_time":1193000000000,"state":"active","ping":416},{"user_id":18,"name":"VK2124 :D","steam_id":76561198111130688,"connected_time":12510000000000,"state":"active","ping":59},{"user_id":200,"name":"jaime8D","steam_id":76561197980590671,"connected_time":703000000000,"state":"active","ping":89},{"user_id":182,"name":"My name is Spencer, Di Spencer","steam_id":76561198152697674,"connected_time":1370000000000,"state":"active","ping":69},{"user_id":205,"name":"Célério","steam_id":76561198088253576,"connected_time":382000000000,"state":"active","ping":45},{"user_id":194,"name":"Rocket.Blade","steam_id":76561198063104145,"connected_time":956000000000,"state":"active","ping":50},{"user_id":197,"name":"デビルドッグ","steam_id":76561198079854838,"connected_time":885000000000,"state":"active","ping":83},{"user_id":204,"name":"TheLogicult","steam_id":76561198072324306,"connected_time":462000000000,"state":"active","ping":34},{"user_id":192,"name":"Nix (they/them)","steam_id":76561198150006573,"connected_time":1075000000000,"state":"active","ping":51},{"user_id":196,"name":"w+m1","steam_id":76561198010428082,"connected_time":916000000000,"state":"active","ping":80},{"user_id":154,"name":":3","steam_id":76561198117784431,"connected_time":3693000000000,"state":"active","ping":74},{"user_id":203,"name":"Spyke","steam_id":76561198042419361,"connected_time":585000000000,"state":"active","ping":73},{"user_id":162,"name":"Qwertuss","steam_id":76561198026305366,"connected_time":3157000000000,"state":"active","ping":53},{"user_id":147,"name":"s a i","steam_id":76561197970379754,"connected_time":4290000000000,"state":"active","ping":65},{"user_id":178,"name":"DefaultKoala","steam_id":76561198059141147,"connected_time":1920000000000,"state":"active","ping":151},{"user_id":193,"name":"ʕ ᵔᴥᵔ ʔ","steam_id":76561199117720299,"connected_time":998000000000,"state":"active","ping":74},{"user_id":207,"name":"Dictatorial Karelian","steam_id":76561198196736457,"connected_time":52000000000,"state":"active","ping":89}]},{"server_id":320,"name":"Uncletopia | London | 3 | All Maps","name_short":"lon-3","host":"lon-1.uk.uncletopia.com","port":27035,"enabled":true,"region":"eu","cc":"gb","latitude":51.509865,"longitude":-0.118092,"reserved":0,"last_update":"0001-01-01T00:00:00Z","name_a2s":"Uncletopia | London | 3 | All Maps","protocol":17,"map":"ctf_snowfall_final","folder":"tf","game":"Team Fortress","app_id":440,"player_count":18,"max_players":24,"Bots":0,"server_type":"Dedicated","server_os":"Linux","password":true,"vac":true,"version":"7695204","steam_id":85568392924510192,"keywords":["ctf","nocrits","nodmgspread","uncletopia"],"game_id":440,"stv_port":27036,"stv_name":"Uncletopia | London | 3 | All Maps | STV","players":[{"user_id":460,"name":"Texas Red","steam_id":76561199069782779,"connected_time":241000000000,"state":"active","ping":71},{"user_id":462,"name":"highwayman","steam_id":76561199230709660,"connected_time":220000000000,"state":"active","ping":49},{"user_id":363,"name":"maakgis","steam_id":76561198851703804,"connected_time":6168000000000,"state":"active","ping":125},{"user_id":457,"name":"DocDelete","steam_id":76561198409687852,"connected_time":346000000000,"state":"active","ping":180},{"user_id":458,"name":"Lyell","steam_id":76561198350329389,"connected_time":334000000000,"state":"active","ping":70},{"user_id":424,"name":"Oh Yeah","steam_id":76561198174510235,"connected_time":1995000000000,"state":"active","ping":55},{"user_id":464,"name":"Cheeseman","steam_id":76561199125502884,"connected_time":200000000000,"state":"active","ping":42},{"user_id":466,"name":"derpy","steam_id":76561199030253700,"connected_time":170000000000,"state":"active","ping":163},{"user_id":469,"name":"Average American","steam_id":76561198154176202,"connected_time":75000000000,"state":"active","ping":37},{"user_id":467,"name":"Lost And Damned","steam_id":76561198453240974,"connected_time":154000000000,"state":"active","ping":175},{"user_id":468,"name":"Tugazu","steam_id":76561198144223649,"connected_time":139000000000,"state":"active","ping":74},{"user_id":470,"name":"BiasedAcorn","steam_id":76561198970772881,"connected_time":63000000000,"state":"active","ping":62},{"user_id":456,"name":"Rodia","steam_id":76561197968293161,"connected_time":670000000000,"state":"active","ping":75},{"user_id":419,"name":"compusMentus","steam_id":76561199134152606,"connected_time":2507000000000,"state":"active","ping":76},{"user_id":304,"name":"Ｒ Ｏ Ｂ Ｂ Ｅ Ｒ Ｔ","steam_id":76561198134404830,"connected_time":9944000000000,"state":"active","ping":142},{"user_id":451,"name":"The Funny Cat 面白い猫","steam_id":76561198439978112,"connected_time":825000000000,"state":"active","ping":99},{"user_id":471,"name":"balto","steam_id":76561199003243168,"connected_time":44000000000,"state":"active","ping":70},{"user_id":472,"name":"2B","steam_id":76561198920856145,"connected_time":27000000000,"state":"active","ping":55}]},{"server_id":321,"name":"Uncletopia | London | 4 | All Maps","name_short":"lon-4","host":"lon-1.uk.uncletopia.com","port":27045,"enabled":true,"region":"eu","cc":"gb","latitude":51.509865,"longitude":-0.118092,"reserved":0,"last_update":"0001-01-01T00:00:00Z","name_a2s":"Uncletopia | London | 4 | All Maps","protocol":17,"map":"koth_king","folder":"tf","game":"Team Fortress","app_id":440,"player_count":0,"max_players":24,"Bots":0,"server_type":"Dedicated","server_os":"Linux","password":true,"vac":true,"version":"7695204","steam_id":85568392924510193,"keywords":["cp","nocrits","nodmgspread","uncletopia"],"game_id":440,"stv_port":27046,"stv_name":"Uncletopia | London | 4 | All Maps | STV","players":null},{"server_id":21,"name":"Uncletopia | London | 5 | All Maps","name_short":"lon-5","host":"lon-1.uk.uncletopia.com","port":27055,"enabled":true,"region":"eu","cc":"gb","latitude":51.509865,"longitude":-0.118092,"reserved":0,"last_update":"0001-01-01T00:00:00Z","name_a2s":"Uncletopia | London | 5 | All Maps","protocol":17,"map":"koth_harvest_final","folder":"tf","game":"Team Fortress","app_id":440,"player_count":16,"max_players":24,"Bots":0,"server_type":"Dedicated","server_os":"Linux","password":true,"vac":true,"version":"7695204","steam_id":85568392924742829,"keywords":["cp","nocrits","nodmgspread","uncletopia"],"game_id":440,"stv_port":27056,"stv_name":"Uncletopia | London | 5 | All Maps | STV","players":[{"user_id":23,"name":"MantyPanty","steam_id":76561198995301099,"connected_time":2593000000000,"state":"active","ping":64},{"user_id":11,"name":"Vashontrash99","steam_id":76561199250946319,"connected_time":3608000000000,"state":"active","ping":123},{"user_id":51,"name":"✪Zeco","steam_id":76561198071365472,"connected_time":256000000000,"state":"active","ping":88},{"user_id":52,"name":"sHIFTINGvORTEX","steam_id":76561198231648332,"connected_time":210000000000,"state":"active","ping":58},{"user_id":53,"name":"Icarus300","steam_id":76561198015125766,"connected_time":189000000000,"state":"active","ping":90},{"user_id":35,"name":"That Femboy \u003c3","steam_id":76561198263158492,"connected_time":1833000000000,"state":"active","ping":50},{"user_id":41,"name":"Toast Nook","steam_id":76561199093949301,"connected_time":843000000000,"state":"active","ping":76},{"user_id":59,"name":"FairHeadcrab","steam_id":76561197999148535,"connected_time":37000000000,"state":"active","ping":147},{"user_id":28,"name":"Swedde","steam_id":76561198297296440,"connected_time":2274000000000,"state":"active","ping":65},{"user_id":43,"name":"Nobaddy","steam_id":76561198037871007,"connected_time":618000000000,"state":"active","ping":65},{"user_id":54,"name":"Jyghc","steam_id":76561198405980575,"connected_time":188000000000,"state":"active","ping":62},{"user_id":55,"name":"Gui","steam_id":76561198072054467,"connected_time":130000000000,"state":"active","ping":76},{"user_id":57,"name":"sm.","steam_id":76561198948954841,"connected_time":96000000000,"state":"active","ping":46},{"user_id":50,"name":"Anon","steam_id":76561198161044725,"connected_time":302000000000,"state":"active","ping":46},{"user_id":60,"name":"tminator64","steam_id":76561197997576273,"connected_time":26000000000,"state":"active","ping":124},{"user_id":61,"name":"i'm use first tf2 unlocks","steam_id":76561199194862650,"connected_time":17000000000,"state":"active","ping":46}]},{"server_id":22,"name":"Uncletopia | London | 6 | All Maps","name_short":"lon-6","host":"lon-1.uk.uncletopia.com","port":27065,"enabled":true,"region":"eu","cc":"gb","latitude":51.509865,"longitude":-0.118092,"reserved":0,"last_update":"0001-01-01T00:00:00Z","name_a2s":"Uncletopia | London | 6 | All Maps","protocol":17,"map":"pl_frontier_final","folder":"tf","game":"Team Fortress","app_id":440,"player_count":0,"max_players":24,"Bots":0,"server_type":"Dedicated","server_os":"Linux","password":true,"vac":true,"version":"7695204","steam_id":85568392924742830,"keywords":["nocrits","nodmgspread","payload","uncletopia"],"game_id":440,"stv_port":27066,"stv_name":"Uncletopia | London | 6 | All Maps | STV","players":null},{"server_id":40,"name":"Uncletopia | London | 7 | No Payload","name_short":"lon-7","host":"lon-1.uk.uncletopia.com","port":27075,"enabled":true,"region":"eu","cc":"gb","latitude":51.509865,"longitude":-0.118092,"reserved":0,"last_update":"0001-01-01T00:00:00Z","name_a2s":"Uncletopia | London | 7 | No Payload","protocol":17,"map":"koth_lakeside_final","folder":"tf","game":"Team Fortress","app_id":440,"player_count":0,"max_players":24,"Bots":0,"server_type":"Dedicated","server_os":"Linux","password":true,"vac":true,"version":"7695204","steam_id":85568392924964314,"keywords":["cp","nocrits","nodmgspread","uncletopia"],"game_id":440,"stv_port":27076,"stv_name":"Uncletopia | London | 7 | No Payload | STV","players":null},{"server_id":41,"name":"Uncletopia | London | 8 | Community","name_short":"lon-8","host":"lon-1.uk.uncletopia.com","port":27085,"enabled":true,"region":"eu","cc":"gb","latitude":51.509865,"longitude":-0.118092,"reserved":0,"last_update":"0001-01-01T00:00:00Z","name_a2s":"Uncletopia | London | 8 | Community","protocol":17,"map":"workshop/pl_barnblitz_pro7.ugc582280235","folder":"tf","game":"Team Fortress","app_id":440,"player_count":4,"max_players":24,"Bots":0,"server_type":"Dedicated","server_os":"Linux","password":true,"vac":true,"version":"7695204","steam_id":85568392924964315,"keywords":["nocrits","nodmgspread","payload","uncletopia"],"game_id":440,"stv_port":27086,"stv_name":"Uncletopia | London | 8 | Community | STV","players":[{"user_id":7,"name":"toxxy the trash","steam_id":76561198279983364,"connected_time":1494000000000,"state":"active","ping":63},{"user_id":8,"name":"User8","steam_id":76561198419902561,"connected_time":1490000000000,"state":"active","ping":44},{"user_id":11,"name":"bee","steam_id":76561198375219671,"connected_time":417000000000,"state":"active","ping":42},{"user_id":13,"name":"Pan Pan","steam_id":76561199074670515,"connected_time":223000000000,"state":"active","ping":86}]},{"server_id":300,"name":"Uncletopia | Montréal | 1 | All Maps","name_short":"mtl-1","host":"mtl-1.ca.uncletopia.com","port":27015,"enabled":true,"region":"us-east","cc":"ca","latitude":45.50889,"longitude":-73.56167,"reserved":0,"last_update":"0001-01-01T00:00:00Z","name_a2s":"Uncletopia | Montréal | 1 | All Maps","protocol":17,"map":"cp_dustbowl","folder":"tf","game":"Team Fortress","app_id":440,"player_count":0,"max_players":24,"Bots":0,"server_type":"Dedicated","server_os":"Linux","password":true,"vac":true,"version":"7695204","steam_id":85568392924500087,"keywords":["cp","nocrits","nodmgspread","uncletopia"],"game_id":440,"stv_port":0,"stv_name":"","players":null},{"server_id":301,"name":"Uncletopia | Montréal | 2 | All Maps","name_short":"mtl-2","host":"mtl-1.ca.uncletopia.com","port":27025,"enabled":true,"region":"us-east","cc":"ca","latitude":45.50889,"longitude":-73.56167,"reserved":0,"last_update":"0001-01-01T00:00:00Z","name_a2s":"Uncletopia | Montréal | 2 | All Maps","protocol":17,"map":"pl_snowycoast","folder":"tf","game":"Team Fortress","app_id":440,"player_count":0,"max_players":24,"Bots":0,"server_type":"Dedicated","server_os":"Linux","password":true,"vac":true,"version":"7695204","steam_id":85568392924500088,"keywords":["nocrits","nodmgspread","payload","uncletopia"],"game_id":440,"stv_port":0,"stv_name":"","players":null},{"server_id":302,"name":"Uncletopia | Montréal | 3 | All Maps","name_short":"mtl-3","host":"mtl-1.ca.uncletopia.com","port":27035,"enabled":true,"region":"us-east","cc":"ca","latitude":45.50889,"longitude":-73.56167,"reserved":0,"last_update":"0001-01-01T00:00:00Z","name_a2s":"Uncletopia | Montréal | 3 | All Maps","protocol":17,"map":"koth_viaduct","folder":"tf","game":"Team Fortress","app_id":440,"player_count":0,"max_players":24,"Bots":0,"server_type":"Dedicated","server_os":"Linux","password":true,"vac":true,"version":"7695204","steam_id":85568392924500089,"keywords":["cp","nocrits","nodmgspread","uncletopia"],"game_id":440,"stv_port":0,"stv_name":"","players":null},{"server_id":303,"name":"Uncletopia | Montréal | 4 | No Payload","name_short":"mtl-4","host":"mtl-1.ca.uncletopia.com","port":27045,"enabled":true,"region":"us-east","cc":"ca","latitude":45.50889,"longitude":-73.56167,"reserved":0,"last_update":"0001-01-01T00:00:00Z","name_a2s":"Uncletopia | Montréal | 4 | No Payload","protocol":17,"map":"cp_dustbowl","folder":"tf","game":"Team Fortress","app_id":440,"player_count":0,"max_players":24,"Bots":0,"server_type":"Dedicated","server_os":"Linux","password":true,"vac":true,"version":"7695204","steam_id":85568392924500090,"keywords":["cp","nocrits","nodmgspread","uncletopia"],"game_id":440,"stv_port":0,"stv_name":"","players":null},{"server_id":13,"name":"Uncletopia | New York City | 1 | All Maps","name_short":"nyc-1","host":"nyc-1.us.uncletopia.com","port":27015,"enabled":true,"region":"us-east","cc":"us","latitude":40.73061,"longitude":-73.93524,"reserved":0,"last_update":"0001-01-01T00:00:00Z","name_a2s":"Uncletopia | New York City | 1 | All Maps","protocol":17,"map":"pl_badwater","folder":"tf","game":"Team Fortress","app_id":440,"player_count":24,"max_players":24,"Bots":0,"server_type":"Dedicated","server_os":"Linux","password":true,"vac":true,"version":"7695204","steam_id":85568392924469993,"keywords":["nocrits","nodmgspread","payload","uncletopia"],"game_id":440,"stv_port":27016,"stv_name":"Uncletopia | New York City | 1 | All Maps | STV","players":[{"user_id":7,"name":"MrSpiffy","steam_id":76561198303596449,"connected_time":1230000000000,"state":"active","ping":76},{"user_id":19,"name":"IRAcide","steam_id":76561198236149504,"connected_time":272000000000,"state":"active","ping":95},{"user_id":9,"name":"dan","steam_id":76561198061589465,"connected_time":719000000000,"state":"active","ping":44},{"user_id":13,"name":"KoolSurfDude","steam_id":76561198979809684,"connected_time":543000000000,"state":"active","ping":58},{"user_id":11,"name":"Mythical Lag","steam_id":76561198347031281,"connected_time":582000000000,"state":"active","ping":86},{"user_id":29,"name":"Kernal5","steam_id":76561198864408520,"connected_time":218000000000,"state":"active","ping":52},{"user_id":14,"name":"TATARA","steam_id":76561199098759517,"connected_time":484000000000,"state":"active","ping":129},{"user_id":15,"name":"MineAGK","steam_id":76561198128372943,"connected_time":353000000000,"state":"active","ping":74},{"user_id":17,"name":"Angry Loona","steam_id":76561198282296334,"connected_time":318000000000,"state":"active","ping":51},{"user_id":18,"name":"b0lt_","steam_id":76561198348918232,"connected_time":309000000000,"state":"active","ping":70},{"user_id":21,"name":"Huntpk","steam_id":76561198340591674,"connected_time":263000000000,"state":"active","ping":63},{"user_id":22,"name":"Tecumseh","steam_id":76561198395023947,"connected_time":259000000000,"state":"active","ping":82},{"user_id":23,"name":"asbestos","steam_id":76561198079178866,"connected_time":254000000000,"state":"active","ping":50},{"user_id":24,"name":"i \u003c3 poptarts #saveTF2","steam_id":76561199057354397,"connected_time":254000000000,"state":"active","ping":66},{"user_id":25,"name":"what the fuck are hands","steam_id":76561198416967473,"connected_time":250000000000,"state":"active","ping":60},{"user_id":26,"name":"king zog","steam_id":76561198050671833,"connected_time":247000000000,"state":"active","ping":57},{"user_id":27,"name":"XD","steam_id":76561198101393625,"connected_time":235000000000,"state":"active","ping":90},{"user_id":28,"name":"Season Veteran","steam_id":76561198088619665,"connected_time":232000000000,"state":"active","ping":91},{"user_id":30,"name":"Galemek","steam_id":76561198161410911,"connected_time":208000000000,"state":"active","ping":79},{"user_id":31,"name":"BeLL","steam_id":76561198151932192,"connected_time":207000000000,"state":"active","ping":145},{"user_id":33,"name":"Drokkit","steam_id":76561197994405728,"connected_time":170000000000,"state":"active","ping":85},{"user_id":34,"name":"Herr Müller","steam_id":76561198064876829,"connected_time":143000000000,"state":"active","ping":89},{"user_id":35,"name":"Glory","steam_id":76561198067875704,"connected_time":138000000000,"state":"active","ping":59},{"user_id":36,"name":"Ch4rl33","steam_id":76561198037008621,"connected_time":82000000000,"state":"active","ping":65}]},{"server_id":14,"name":"Uncletopia | New York City | 2 | All Maps","name_short":"nyc-2","host":"nyc-1.us.uncletopia.com","port":27025,"enabled":true,"region":"us-east","cc":"us","latitude":40.73061,"longitude":-73.93524,"reserved":0,"last_update":"0001-01-01T00:00:00Z","name_a2s":"Uncletopia | New York City | 2 | All Maps","protocol":17,"map":"pl_borneo","folder":"tf","game":"Team Fortress","app_id":440,"player_count":0,"max_players":24,"Bots":0,"server_type":"Dedicated","server_os":"Linux","password":true,"vac":true,"version":"7695204","steam_id":85568392924469994,"keywords":["nocrits","nodmgspread","payload","uncletopia"],"game_id":440,"stv_port":0,"stv_name":"","players":null},{"server_id":15,"name":"Uncletopia | New York City | 3 | All Maps","name_short":"nyc-3","host":"nyc-1.us.uncletopia.com","port":27035,"enabled":true,"region":"us-east","cc":"us","latitude":40.73061,"longitude":-73.93524,"reserved":0,"last_update":"0001-01-01T00:00:00Z","name_a2s":"Uncletopia | New York City | 3 | All Maps","protocol":17,"map":"pl_snowycoast","folder":"tf","game":"Team Fortress","app_id":440,"player_count":0,"max_players":24,"Bots":0,"server_type":"Dedicated","server_os":"Linux","password":true,"vac":true,"version":"7695204","steam_id":85568392924742820,"keywords":["nocrits","nodmgspread","payload","uncletopia"],"game_id":440,"stv_port":0,"stv_name":"","players":null},{"server_id":16,"name":"Uncletopia | New York City | 4 | Community","name_short":"nyc-4","host":"nyc-1.us.uncletopia.com","port":27045,"enabled":true,"region":"us-east","cc":"us","latitude":40.73061,"longitude":-73.93524,"reserved":0,"last_update":"0001-01-01T00:00:00Z","name_a2s":"Uncletopia | New York City | 4 | Community","protocol":17,"map":"pl_barnblitz","folder":"tf","game":"Team Fortress","app_id":440,"player_count":0,"max_players":24,"Bots":0,"server_type":"Dedicated","server_os":"Linux","password":true,"vac":true,"version":"7695204","steam_id":85568392924742821,"keywords":["nocrits","nodmgspread","payload","uncletopia"],"game_id":440,"stv_port":0,"stv_name":"","players":null},{"server_id":142,"name":"Uncletopia | São Paulo | 1 | All Maps","name_short":"sao-1","host":"sao-1.br.uncletopia.com","port":27015,"enabled":true,"region":"sa","cc":"br","latitude":-23.533773,"longitude":-46.62529,"reserved":0,"last_update":"0001-01-01T00:00:00Z","name_a2s":"Uncletopia | São Paulo | 1 | All Maps","protocol":17,"map":"koth_cascade","folder":"tf","game":"Team Fortress","app_id":440,"player_count":0,"max_players":24,"Bots":0,"server_type":"Dedicated","server_os":"Linux","password":true,"vac":true,"version":"7695204","steam_id":85568392924469996,"keywords":["cp","nocrits","nodmgspread","uncletopia"],"game_id":440,"stv_port":0,"stv_name":"","players":null},{"server_id":143,"name":"Uncletopia | São Paulo | 2 | All Maps","name_short":"sao-2","host":"sao-2.br.uncletopia.com","port":27015,"enabled":true,"region":"sa","cc":"br","latitude":-23.533773,"longitude":-46.62529,"reserved":0,"last_update":"0001-01-01T00:00:00Z","name_a2s":"Uncletopia | São Paulo | 2 | All Maps","protocol":17,"map":"koth_lakeside_final","folder":"tf","game":"Team Fortress","app_id":440,"player_count":2,"max_players":24,"Bots":0,"server_type":"Dedicated","server_os":"Linux","password":true,"vac":true,"version":"7695204","steam_id":85568392924485349,"keywords":["cp","nocrits","nodmgspread","uncletopia"],"game_id":440,"stv_port":27016,"stv_name":"Uncletopia | São Paulo | 2 | All Maps | STV","players":[{"user_id":20,"name":"Pietro07","steam_id":76561199017332044,"connected_time":345000000000,"state":"active","ping":39},{"user_id":21,"name":"Caesar","steam_id":76561199275851104,"connected_time":46000000000,"state":"active","ping":109}]},{"server_id":7,"name":"Uncletopia | Seattle | 1 | All Maps","name_short":"sea-1","host":"sea-1.us.uncletopia.com","port":27015,"enabled":true,"region":"us-west","cc":"us","latitude":47.608013,"longitude":-122.33517,"reserved":0,"last_update":"0001-01-01T00:00:00Z","name_a2s":"Uncletopia | Seattle | 1 | All Maps","protocol":17,"map":"pl_snowycoast","folder":"tf","game":"Team Fortress","app_id":440,"player_count":0,"max_players":24,"Bots":0,"server_type":"Dedicated","server_os":"Linux","password":true,"vac":true,"version":"7695204","steam_id":85568392924469997,"keywords":["nocrits","nodmgspread","payload","uncletopia"],"game_id":440,"stv_port":0,"stv_name":"","players":null},{"server_id":119,"name":"Uncletopia | Seattle | 2 | All Maps","name_short":"sea-2","host":"sea-1.us.uncletopia.com","port":27025,"enabled":true,"region":"us-west","cc":"us","latitude":47.608013,"longitude":-122.33517,"reserved":0,"last_update":"0001-01-01T00:00:00Z","name_a2s":"Uncletopia | Seattle | 2 | All Maps","protocol":17,"map":"koth_lakeside_final","folder":"tf","game":"Team Fortress","app_id":440,"player_count":0,"max_players":24,"Bots":0,"server_type":"Dedicated","server_os":"Linux","password":true,"vac":true,"version":"7695204","steam_id":85568392924469998,"keywords":["cp","nocrits","nodmgspread","uncletopia"],"game_id":440,"stv_port":0,"stv_name":"","players":null},{"server_id":17,"name":"Uncletopia | San Francisco | 1 | All Maps","name_short":"sfo-1","host":"sfo-1.us.uncletopia.com","port":27015,"enabled":true,"region":"us-west","cc":"us","latitude":37.77397,"longitude":-122.4313,"reserved":0,"last_update":"0001-01-01T00:00:00Z","name_a2s":"Uncletopia | San Francisco | 1 | All Maps","protocol":17,"map":"pl_snowycoast","folder":"tf","game":"Team Fortress","app_id":440,"player_count":24,"max_players":24,"Bots":0,"server_type":"Dedicated","server_os":"Linux","password":true,"vac":true,"version":"7695204","steam_id":85568392924469999,"keywords":["nocrits","nodmgspread","payload","uncletopia"],"game_id":440,"stv_port":27016,"stv_name":"Uncletopia | San Francisco | 1 | All Maps | STV","players":[{"user_id":2,"name":"Don william","steam_id":76561199066025998,"connected_time":4404000000000,"state":"spawning","ping":182},{"user_id":113,"name":"The Right Hand Of Vegeta","steam_id":76561198048481082,"connected_time":1136000000000,"state":"active","ping":190},{"user_id":148,"name":"Antreuse","steam_id":76561198219721132,"connected_time":11000000000,"state":"active","ping":60},{"user_id":5,"name":"THE NUT","steam_id":76561198067813626,"connected_time":4402000000000,"state":"active","ping":62},{"user_id":146,"name":"Sauce Man","steam_id":76561198400183294,"connected_time":21000000000,"state":"active","ping":82},{"user_id":98,"name":"Doozy","steam_id":76561198033106776,"connected_time":1828000000000,"state":"active","ping":111},{"user_id":130,"name":"PirateKing12","steam_id":76561198992193468,"connected_time":598000000000,"state":"active","ping":152},{"user_id":9,"name":"twitch.tv/HelloAnon_","steam_id":76561198109740776,"connected_time":4373000000000,"state":"active","ping":64},{"user_id":145,"name":"just another furry","steam_id":76561198262852705,"connected_time":97000000000,"state":"active","ping":76},{"user_id":118,"name":"C:\\PT/\\IN","steam_id":76561198038520307,"connected_time":1072000000000,"state":"active","ping":95},{"user_id":99,"name":"pt","steam_id":76561198143023330,"connected_time":1826000000000,"state":"active","ping":47},{"user_id":86,"name":"VerociousVee","steam_id":76561198289106015,"connected_time":2184000000000,"state":"active","ping":69},{"user_id":89,"name":"hoOmIN","steam_id":76561198334947079,"connected_time":2119000000000,"state":"active","ping":49},{"user_id":116,"name":"demolondon the thrice","steam_id":76561198936116083,"connected_time":1117000000000,"state":"active","ping":70},{"user_id":149,"name":"doghouse","steam_id":76561198000319035,"connected_time":11000000000,"state":"spawning","ping":58},{"user_id":107,"name":"Weegeee","steam_id":76561198049000586,"connected_time":1567000000000,"state":"active","ping":60},{"user_id":20,"name":"rideli","steam_id":76561198155443297,"connected_time":4293000000000,"state":"active","ping":114},{"user_id":35,"name":"no vc no c","steam_id":76561197989503095,"connected_time":3813000000000,"state":"active","ping":142},{"user_id":22,"name":"Lord Scrubling","steam_id":76561198263744445,"connected_time":4255000000000,"state":"active","ping":76},{"user_id":119,"name":"Vivzen (Santa Is Real)","steam_id":76561198972619900,"connected_time":1052000000000,"state":"active","ping":67},{"user_id":129,"name":"Zobozo","steam_id":76561198028954297,"connected_time":650000000000,"state":"active","ping":46},{"user_id":25,"name":"Kritzon Treatz","steam_id":76561198880665077,"connected_time":4123000000000,"state":"active","ping":55},{"user_id":150,"name":"PROFILE NAME","steam_id":76561199438851854,"connected_time":3000000000,"state":"spawning","ping":89},{"user_id":78,"name":"Huge","steam_id":76561199030987614,"connected_time":2530000000000,"state":"active","ping":127}]},{"server_id":18,"name":"Uncletopia | San Francisco | 2 | All Maps","name_short":"sfo-2","host":"sfo-1.us.uncletopia.com","port":27025,"enabled":true,"region":"us-west","cc":"us","latitude":37.77397,"longitude":-122.4313,"reserved":0,"last_update":"0001-01-01T00:00:00Z","name_a2s":"Uncletopia | San Francisco | 2 | All Maps","protocol":17,"map":"pl_badwater","folder":"tf","game":"Team Fortress","app_id":440,"player_count":0,"max_players":24,"Bots":0,"server_type":"Dedicated","server_os":"Linux","password":true,"vac":true,"version":"7695204","steam_id":85568392924470000,"keywords":["nocrits","nodmgspread","payload","uncletopia"],"game_id":440,"stv_port":0,"stv_name":"","players":null},{"server_id":19,"name":"Uncletopia | San Francisco | 3 | No Payload","name_short":"sfo-3","host":"sfo-1.us.uncletopia.com","port":27035,"enabled":true,"region":"us-west","cc":"us","latitude":37.77397,"longitude":-122.4313,"reserved":0,"last_update":"0001-01-01T00:00:00Z","name_a2s":"Uncletopia | San Francisco | 3 | No Payload","protocol":17,"map":"cp_snakewater_final1","folder":"tf","game":"Team Fortress","app_id":440,"player_count":0,"max_players":24,"Bots":0,"server_type":"Dedicated","server_os":"Linux","password":true,"vac":true,"version":"7695204","steam_id":85568392924742824,"keywords":["cp","nocrits","nodmgspread","uncletopia"],"game_id":440,"stv_port":0,"stv_name":"","players":null},{"server_id":20,"name":"Uncletopia | San Francisco | 4 | Community","name_short":"sfo-4","host":"sfo-1.us.uncletopia.com","port":27045,"enabled":true,"region":"us-west","cc":"us","latitude":37.77397,"longitude":-122.4313,"reserved":0,"last_update":"0001-01-01T00:00:00Z","name_a2s":"Uncletopia | San Francisco | 4 | Community","protocol":17,"map":"koth_highpass","folder":"tf","game":"Team Fortress","app_id":440,"player_count":0,"max_players":24,"Bots":0,"server_type":"Dedicated","server_os":"Linux","password":true,"vac":true,"version":"7695204","steam_id":85568392924742826,"keywords":["cp","nocrits","nodmgspread","uncletopia"],"game_id":440,"stv_port":0,"stv_name":"","players":null},{"server_id":141,"name":"Uncletopia | Sydney | 1 | All Maps","name_short":"syd-1","host":"syd-1.au.uncletopia.com","port":27015,"enabled":true,"region":"au","cc":"au","latitude":-33.865143,"longitude":151.2099,"reserved":0,"last_update":"0001-01-01T00:00:00Z","name_a2s":"Uncletopia | Sydney | 1 | All Maps","protocol":17,"map":"cp_process_final","folder":"tf","game":"Team Fortress","app_id":440,"player_count":0,"max_players":24,"Bots":0,"server_type":"Dedicated","server_os":"Linux","password":true,"vac":true,"version":"7695204","steam_id":85568392924470001,"keywords":["cp","nocrits","nodmgspread","uncletopia"],"game_id":440,"stv_port":27016,"stv_name":"Uncletopia | Sydney | 1 | All Maps | STV","players":null},{"server_id":123,"name":"Uncletopia | Sydney | 2 | All Maps","name_short":"syd-2","host":"syd-1.au.uncletopia.com","port":27025,"enabled":true,"region":"au","cc":"au","latitude":-33.865143,"longitude":151.2099,"reserved":0,"last_update":"0001-01-01T00:00:00Z","name_a2s":"Uncletopia | Sydney | 2 | All Maps","protocol":17,"map":"cp_sunshine","folder":"tf","game":"Team Fortress","app_id":440,"player_count":0,"max_players":24,"Bots":0,"server_type":"Dedicated","server_os":"Linux","password":true,"vac":true,"version":"7695204","steam_id":85568392924470002,"keywords":["cp","nocrits","nodmgspread","uncletopia"],"game_id":440,"stv_port":27026,"stv_name":"Uncletopia | Sydney | 2 | All Maps | STV","players":null},{"server_id":395,"name":"Uncletopia | Sydney | 3 | All Maps","name_short":"syd-3","host":"syd-1.au.uncletopia.com","port":27035,"enabled":true,"region":"au","cc":"au","latitude":-33.865143,"longitude":151.2099,"reserved":0,"last_update":"0001-01-01T00:00:00Z","name_a2s":"Uncletopia | Sydney | 3 | All Maps","protocol":17,"map":"koth_cascade","folder":"tf","game":"Team Fortress","app_id":440,"player_count":0,"max_players":24,"Bots":0,"server_type":"Dedicated","server_os":"Linux","password":true,"vac":true,"version":"7695204","steam_id":85568392925194467,"keywords":["cp","nocrits","nodmgspread","uncletopia"],"game_id":440,"stv_port":27036,"stv_name":"Uncletopia | Sydney | 3 | All Maps | STV","players":null},{"server_id":396,"name":"Uncletopia | Sydney | 4 | All Maps","name_short":"syd-4","host":"syd-1.au.uncletopia.com","port":27045,"enabled":true,"region":"au","cc":"au","latitude":-33.865143,"longitude":151.2099,"reserved":0,"last_update":"0001-01-01T00:00:00Z","name_a2s":"Uncletopia | Sydney | 4 | All Maps","protocol":17,"map":"koth_highpass","folder":"tf","game":"Team Fortress","app_id":440,"player_count":0,"max_players":24,"Bots":0,"server_type":"Dedicated","server_os":"Linux","password":true,"vac":true,"version":"7695204","steam_id":85568392925397958,"keywords":["cp","nocrits","nodmgspread","uncletopia"],"game_id":440,"stv_port":27046,"stv_name":"Uncletopia | Sydney | 4 | All Maps | STV","players":null},{"server_id":58,"name":"Uncletopia | Sydney | 5 | No Payload","name_short":"syd-5","host":"syd-1.au.uncletopia.com","port":27055,"enabled":true,"region":"au","cc":"au","latitude":-33.865143,"longitude":151.2099,"reserved":0,"last_update":"0001-01-01T00:00:00Z","name_a2s":"Uncletopia | Sydney | 5 | No Payload","protocol":17,"map":"koth_viaduct","folder":"tf","game":"Team Fortress","app_id":440,"player_count":0,"max_players":24,"Bots":0,"server_type":"Dedicated","server_os":"Linux","password":true,"vac":true,"version":"7695204","steam_id":85568392925397959,"keywords":["cp","nocrits","nodmgspread","uncletopia"],"game_id":440,"stv_port":0,"stv_name":"","players":null},{"server_id":59,"name":"Uncletopia | Sydney | 6 | Community","name_short":"syd-6","host":"syd-1.au.uncletopia.com","port":27065,"enabled":true,"region":"au","cc":"au","latitude":-33.865143,"longitude":151.2099,"reserved":0,"last_update":"0001-01-01T00:00:00Z","name_a2s":"Uncletopia | Sydney | 6 | Community","protocol":17,"map":"workshop/koth_bagel_rc5.ugc2514036946","folder":"tf","game":"Team Fortress","app_id":440,"player_count":0,"max_players":24,"Bots":0,"server_type":"Dedicated","server_os":"Linux","password":true,"vac":true,"version":"7695204","steam_id":85568392925397960,"keywords":["cp","nocrits","nodmgspread","uncletopia"],"game_id":440,"stv_port":27066,"stv_name":"Uncletopia | Sydney | 6 | Community | STV","players":null},{"server_id":49,"name":"Uncletopia | Warsaw | 1 | All Maps","name_short":"waw-1","host":"waw-1.pl.uncletopia.com","port":27015,"enabled":true,"region":"eu","cc":"pl","latitude":52.2297,"longitude":21.017532,"reserved":0,"last_update":"0001-01-01T00:00:00Z","name_a2s":"Uncletopia | Warsaw | 1 | All Maps","protocol":17,"map":"pl_badwater","folder":"tf","game":"Team Fortress","app_id":440,"player_count":0,"max_players":24,"Bots":0,"server_type":"Dedicated","server_os":"Linux","password":true,"vac":true,"version":"7695204","steam_id":85568392925397850,"keywords":["nocrits","nodmgspread","payload","uncletopia"],"game_id":440,"stv_port":27016,"stv_name":"Uncletopia | Warsaw | 1 | All Maps | STV","players":null},{"server_id":50,"name":"Uncletopia | Warsaw | 2 | All Maps","name_short":"waw-2","host":"waw-1.pl.uncletopia.com","port":27025,"enabled":true,"region":"eu","cc":"pl","latitude":52.2297,"longitude":21.017532,"reserved":0,"last_update":"0001-01-01T00:00:00Z","name_a2s":"Uncletopia | Warsaw | 2 | All Maps","protocol":17,"map":"cp_mountainlab","folder":"tf","game":"Team Fortress","app_id":440,"player_count":0,"max_players":24,"Bots":0,"server_type":"Dedicated","server_os":"Linux","password":true,"vac":true,"version":"7695204","steam_id":85568392925397851,"keywords":["cp","nocrits","nodmgspread","uncletopia"],"game_id":440,"stv_port":27026,"stv_name":"Uncletopia | Warsaw | 2 | All Maps | STV","players":null},{"server_id":51,"name":"Uncletopia | Warsaw | 3 | All Maps","name_short":"waw-3","host":"waw-1.pl.uncletopia.com","port":27035,"enabled":true,"region":"eu","cc":"pl","latitude":52.2297,"longitude":21.017532,"reserved":0,"last_update":"0001-01-01T00:00:00Z","name_a2s":"Uncletopia | Warsaw | 3 | All Maps","protocol":17,"map":"cp_process_final","folder":"tf","game":"Team Fortress","app_id":440,"player_count":0,"max_players":24,"Bots":0,"server_type":"Dedicated","server_os":"Linux","password":true,"vac":true,"version":"7695204","steam_id":85568392925397852,"keywords":["cp","nocrits","nodmgspread","uncletopia"],"game_id":440,"stv_port":27036,"stv_name":"Uncletopia | Warsaw | 3 | All Maps | STV","players":null},{"server_id":52,"name":"Uncletopia | Warsaw | 4 | All Maps","name_short":"waw-4","host":"waw-1.pl.uncletopia.com","port":27045,"enabled":true,"region":"eu","cc":"pl","latitude":52.2297,"longitude":21.017532,"reserved":0,"last_update":"0001-01-01T00:00:00Z","name_a2s":"Uncletopia | Warsaw | 4 | All Maps","protocol":17,"map":"cp_altitude","folder":"tf","game":"Team Fortress","app_id":440,"player_count":0,"max_players":24,"Bots":0,"server_type":"Dedicated","server_os":"Linux","password":true,"vac":true,"version":"7695204","steam_id":85568392925397853,"keywords":["cp","nocrits","nodmgspread","uncletopia"],"game_id":440,"stv_port":0,"stv_name":"","players":null},{"server_id":53,"name":"Uncletopia | Warsaw | 5 | No Payload","name_short":"waw-5","host":"waw-1.pl.uncletopia.com","port":27055,"enabled":true,"region":"eu","cc":"pl","latitude":52.2297,"longitude":21.017532,"reserved":0,"last_update":"0001-01-01T00:00:00Z","name_a2s":"Uncletopia | Warsaw | 5 | No Payload","protocol":17,"map":"koth_nucleus","folder":"tf","game":"Team Fortress","app_id":440,"player_count":17,"max_players":24,"Bots":0,"server_type":"Dedicated","server_os":"Linux","password":true,"vac":true,"version":"7695204","steam_id":85568392925397854,"keywords":["cp","nocrits","nodmgspread","uncletopia"],"game_id":440,"stv_port":27056,"stv_name":"Uncletopia | Warsaw | 5 | No Payload | STV","players":[{"user_id":232,"name":"Plankton","steam_id":76561197990137093,"connected_time":411000000000,"state":"active","ping":97},{"user_id":235,"name":"Montana","steam_id":76561198449437002,"connected_time":219000000000,"state":"active","ping":94},{"user_id":213,"name":"негоша","steam_id":76561199208330215,"connected_time":1770000000000,"state":"active","ping":50},{"user_id":209,"name":"Mr_Axolotl","steam_id":76561199160681230,"connected_time":2067000000000,"state":"active","ping":81},{"user_id":236,"name":"LasagnaLarry22","steam_id":76561198089478290,"connected_time":111000000000,"state":"active","ping":68},{"user_id":234,"name":"partizan","steam_id":76561198440837262,"connected_time":344000000000,"state":"active","ping":80},{"user_id":228,"name":"leonardini.w #SaveTF2","steam_id":76561199097963071,"connected_time":696000000000,"state":"active","ping":60},{"user_id":134,"name":"JSX #savetf2","steam_id":76561198039097662,"connected_time":6935000000000,"state":"active","ping":91},{"user_id":222,"name":"DeepBlue","steam_id":76561198140075795,"connected_time":1207000000000,"state":"active","ping":32},{"user_id":202,"name":"Age","steam_id":76561197985880056,"connected_time":2362000000000,"state":"active","ping":61},{"user_id":146,"name":"Loading","steam_id":76561198419201273,"connected_time":5888000000000,"state":"active","ping":90},{"user_id":220,"name":"V1CC V1NEGAR","steam_id":76561198154942431,"connected_time":1408000000000,"state":"active","ping":165},{"user_id":203,"name":"Opan","steam_id":76561197971672781,"connected_time":2357000000000,"state":"active","ping":63},{"user_id":185,"name":"xXdoge gaming 42069Xx","steam_id":76561198372971096,"connected_time":3453000000000,"state":"active","ping":83},{"user_id":204,"name":"Mangaggaway","steam_id":76561198361187323,"connected_time":2333000000000,"state":"active","ping":64},{"user_id":227,"name":"Estyle","steam_id":76561198157804700,"connected_time":740000000000,"state":"active","ping":85},{"user_id":211,"name":"BinCooler1201","steam_id":76561199186640382,"connected_time":2047000000000,"state":"active","ping":77}]},{"server_id":54,"name":"Uncletopia | Warsaw | 6 | Community","name_short":"waw-6","host":"waw-1.pl.uncletopia.com","port":27065,"enabled":true,"region":"eu","cc":"pl","latitude":52.2297,"longitude":21.017532,"reserved":0,"last_update":"0001-01-01T00:00:00Z","name_a2s":"Uncletopia | Warsaw | 6 | Community","protocol":17,"map":"workshop/cp_villa_b19.ugc2113052569","folder":"tf","game":"Team Fortress","app_id":440,"player_count":4,"max_players":24,"Bots":0,"server_type":"Dedicated","server_os":"Linux","password":true,"vac":true,"version":"7695204","steam_id":85568392925397856,"keywords":["cp","nocrits","nodmgspread","uncletopia"],"game_id":440,"stv_port":27066,"stv_name":"Uncletopia | Warsaw | 6 | Community | STV","players":[{"user_id":3,"name":"Flaffian","steam_id":76561198261614764,"connected_time":3589000000000,"state":"spawning","ping":54},{"user_id":4,"name":"Крах мужества","steam_id":76561198251356426,"connected_time":3451000000000,"state":"spawning","ping":109},{"user_id":16,"name":"Саня2014","steam_id":76561198184235809,"connected_time":70000000000,"state":"spawning","ping":156},{"user_id":7,"name":"El Teodore","steam_id":76561197998400977,"connected_time":2823000000000,"state":"spawning","ping":125}]}]}