{"status":true,"message":"","result":[{"server_id":9,"name":"Uncletopia | Atlanta | 1 | All Maps","name_short":"atl-1","host":"atl-1.us.uncletopia.com","port":27015,"enabled":true,"region":"us-east","cc":"us","latitude":33.753746,"longitude":-84.38633,"reserved":0,"last_update":"0001-01-01T00:00:00Z","name_a2s":"Uncletopia | Atlanta | 1 | All Maps","protocol":17,"map":"pl_upward","folder":"tf","game":"Team Fortress","app_id":440,"player_count":24,"max_players":24,"Bots":0,"server_type":"Dedicated","server_os":"Linux","password":true,"vac":true,"version":"7961495","steam_id":85568392924469982,"keywords":["nocrits","nodmgspread","payload","uncletopia"],"game_id":440,"stv_port":27016,"stv_name":"Uncletopia | Atlanta | 1 | All Maps | STV","players":null},{"server_id":104,"name":"Uncletopia | Atlanta | 2 | All Maps","name_short":"atl-2","host":"atl-1.us.uncletopia.com","port":27025,"enabled":true,"region":"us-east","cc":"us","latitude":33.753746,"longitude":-84.38633,"reserved":0,"last_update":"0001-01-01T00:00:00Z","name_a2s":"Uncletopia | Atlanta | 2 | All Maps","protocol":17,"map":"pl_hoodoo_final","folder":"tf","game":"Team Fortress","app_id":440,"player_count":24,"max_players":24,"Bots":0,"server_type":"Dedicated","server_os":"Linux","password":true,"vac":true,"version":"7961495","steam_id":85568392924469983,"keywords":["nocrits","nodmgspread","payload","uncletopia"],"game_id":440,"stv_port":27026,"stv_name":"Uncletopia | Atlanta | 2 | All Maps | STV","players":null},{"server_id":400,"name":"Uncletopia | Atlanta | 3 | Stopwatch","name_short":"atl-3","host":"atl-1.us.uncletopia.com","port":27035,"enabled":true,"region":"us-east","cc":"us","latitude":33.753746,"longitude":-84.38633,"reserved":0,"last_update":"0001-01-01T00:00:00Z","name_a2s":"Uncletopia | Atlanta | 3 | Stopwatch","protocol":17,"map":"koth_clearcut_b15","folder":"tf","game":"Team Fortress","app_id":440,"player_count":0,"max_players":24,"Bots":0,"server_type":"Dedicated","server_os":"Linux","password":true,"vac":true,"version":"7961495","steam_id":85568392924515187,"keywords":["cp","nocrits","nodmgspread","uncletopia"],"game_id":440,"stv_port":27036,"stv_name":"Uncletopia | Atlanta | 3 | Stopwatch | STV","players":null},{"server_id":401,"name":"Uncletopia | Atlanta | 4 | Community","name_short":"atl-4","host":"atl-1.us.uncletopia.com","port":27045,"enabled":true,"region":"us-east","cc":"us","latitude":33.753746,"longitude":-84.38633,"reserved":0,"last_update":"0001-01-01T00:00:00Z","name_a2s":"Uncletopia | Atlanta | 4 | Community","protocol":17,"map":"pl_shoreleave_rc2","folder":"tf","game":"Team Fortress","app_id":440,"player_count":23,"max_players":24,"Bots":0,"server_type":"Dedicated","server_os":"Linux","password":true,"vac":true,"version":"7961495","steam_id":85568392924515188,"keywords":["nocrits","nodmgspread","payload","uncletopia"],"game_id":440,"stv_port":27046,"stv_name":"Uncletopia | Atlanta | 4 | Community | STV","players":null},{"server_id":2,"name":"Uncletopia | Chicago | 1 | All Maps","name_short":"chi-1","host":"chi-1.us.uncletopia.com","port":27015,"enabled":true,"region":"us-central","cc":"us","latitude":41.881832,"longitude":-87.62318,"reserved":0,"last_update":"0001-01-01T00:00:00Z","name_a2s":"Uncletopia | Chicago | 1 | All Maps","protocol":17,"map":"cp_snakewater_final1","folder":"tf","game":"Team Fortress","app_id":440,"player_count":24,"max_players":24,"Bots":0,"server_type":"Dedicated","server_os":"Linux","password":true,"vac":true,"version":"7961495","steam_id":85568392924469984,"keywords":["cp","nocrits","nodmgspread","uncletopia"],"game_id":440,"stv_port":27016,"stv_name":"Uncletopia | Chicago | 1 | All Maps | STV","players":[{"user_id":647,"name":"Snom","steam_id":76561198333827920,"connected_time":372000000000,"state":"active","ping":95},{"user_id":643,"name":"MedRed™ #IATAH","steam_id":76561198002962970,"connected_time":945000000000,"state":"active","ping":93},{"user_id":645,"name":"lament","steam_id":76561198408747483,"connected_time":867000000000,"state":"active","ping":75},{"user_id":646,"name":"DinkleBerg","steam_id":76561198891626233,"connected_time":582000000000,"state":"active","ping":61},{"user_id":650,"name":"BB Lorexav","steam_id":76561198207565988,"connected_time":12000000000,"state":"active","ping":98},{"user_id":609,"name":"Nobody","steam_id":76561198286486517,"connected_time":3256000000000,"state":"active","ping":89},{"user_id":615,"name":"Stew Eater","steam_id":76561198978307159,"connected_time":2371000000000,"state":"active","ping":67},{"user_id":611,"name":"Mycelion","steam_id":76561198024999530,"connected_time":3211000000000,"state":"active","ping":108},{"user_id":468,"name":"HOMIE","steam_id":76561198057325155,"connected_time":12282000000000,"state":"active","ping":64},{"user_id":547,"name":"hej","steam_id":76561197996366940,"connected_time":5585000000000,"state":"active","ping":60},{"user_id":622,"name":"K","steam_id":76561198171446177,"connected_time":2109000000000,"state":"active","ping":96},{"user_id":618,"name":"Tildoh","steam_id":76561198196335287,"connected_time":2181000000000,"state":"active","ping":58},{"user_id":619,"name":"Milkmur","steam_id":76561198210043821,"connected_time":2167000000000,"state":"active","ping":65},{"user_id":623,"name":"Toottoot","steam_id":76561197992404836,"connected_time":2102000000000,"state":"active","ping":47},{"user_id":635,"name":"ISlamHooker","steam_id":76561198050136796,"connected_time":1468000000000,"state":"active","ping":76},{"user_id":640,"name":"loser","steam_id":76561198259380127,"connected_time":1016000000000,"state":"active","ping":56},{"user_id":514,"name":"Sunny D+","steam_id":76561197999371052,"connected_time":8369000000000,"state":"active","ping":81},{"user_id":605,"name":"Maxpowi","steam_id":76561198095558036,"connected_time":3597000000000,"state":"active","ping":68},{"user_id":601,"name":"Swash","steam_id":76561197969421355,"connected_time":3755000000000,"state":"active","ping":78},{"user_id":629,"name":"Awenova","steam_id":76561198322928940,"connected_time":1952000000000,"state":"active","ping":65},{"user_id":573,"name":"MitcheyHD","steam_id":76561198066489645,"connected_time":4292000000000,"state":"active","ping":85},{"user_id":632,"name":"AnnieM","steam_id":76561199435467297,"connected_time":1599000000000,"state":"active","ping":90},{"user_id":649,"name":"♥Bunny♥Slut♥","steam_id":76561198206376851,"connected_time":49000000000,"state":"spawning","ping":73},{"user_id":614,"name":"Lia_Rein","steam_id":76561198151569597,"connected_time":2881000000000,"state":"active","ping":143}]},{"server_id":106,"name":"Uncletopia | Chicago | 2 | All Maps","name_short":"chi-2","host":"chi-1.us.uncletopia.com","port":27025,"enabled":true,"region":"us-central","cc":"us","latitude":41.881832,"longitude":-87.62318,"reserved":0,"last_update":"0001-01-01T00:00:00Z","name_a2s":"Uncletopia | Chicago | 2 | All Maps","protocol":17,"map":"cp_dustbowl","folder":"tf","game":"Team Fortress","app_id":440,"player_count":24,"max_players":24,"Bots":0,"server_type":"Dedicated","server_os":"Linux","password":true,"vac":true,"version":"7961495","steam_id":85568392924469985,"keywords":["cp","nocrits","nodmgspread","uncletopia"],"game_id":440,"stv_port":27026,"stv_name":"Uncletopia | Chicago | 2 | All Maps | STV","players":[{"user_id":563,"name":"GreatTimBones","steam_id":76561198409145748,"connected_time":1690000000000,"state":"active","ping":86},{"user_id":585,"name":"bikerkid207","steam_id":76561198390782783,"connected_time":596000000000,"state":"active","ping":72},{"user_id":587,"name":"DON'T LOOK AT ME","steam_id":76561198103496593,"connected_time":586000000000,"state":"active","ping":75},{"user_id":591,"name":"Voodo133","steam_id":76561198042670351,"connected_time":557000000000,"state":"active","ping":89},{"user_id":564,"name":"hot glass of onionaid","steam_id":76561198065266282,"connected_time":1683000000000,"state":"active","ping":66},{"user_id":562,"name":"eloressa","steam_id":76561198120330867,"connected_time":1691000000000,"state":"active","ping":36},{"user_id":588,"name":"Hemiphix","steam_id":76561198329316429,"connected_time":586000000000,"state":"active","ping":70},{"user_id":550,"name":"Specter the Unchained","steam_id":76561198348354629,"connected_time":3396000000000,"state":"active","ping":102},{"user_id":608,"name":"Chica","steam_id":76561198381832158,"connected_time":92000000000,"state":"active","ping":70},{"user_id":610,"name":"wepry","steam_id":76561198114091417,"connected_time":12000000000,"state":"active","ping":131},{"user_id":593,"name":"Galactamarx","steam_id":76561198028065755,"connected_time":540000000000,"state":"active","ping":98},{"user_id":594,"name":"On The Bright Side...","steam_id":76561198168785883,"connected_time":538000000000,"state":"active","ping":46},{"user_id":582,"name":"Chicken Joe","steam_id":76561198125993888,"connected_time":1194000000000,"state":"active","ping":74},{"user_id":595,"name":"Jolly","steam_id":76561198064214000,"connected_time":534000000000,"state":"active","ping":65},{"user_id":575,"name":"Prymtime","steam_id":76561198156140502,"connected_time":1446000000000,"state":"active","ping":82},{"user_id":609,"name":"PoisonIvy","steam_id":76561198072384574,"connected_time":56000000000,"state":"active","ping":50},{"user_id":603,"name":"Dante","steam_id":76561198193452065,"connected_time":489000000000,"state":"active","ping":75},{"user_id":512,"name":"Chauncey von Snuffles III","steam_id":76561198021784746,"connected_time":6179000000000,"state":"active","ping":62},{"user_id":578,"name":"violent monkey porn","steam_id":76561199285074344,"connected_time":1430000000000,"state":"active","ping":70},{"user_id":554,"name":"Dingus4Bingus","steam_id":76561199162776745,"connected_time":2527000000000,"state":"active","ping":70},{"user_id":597,"name":"Tohru","steam_id":76561198139393876,"connected_time":519000000000,"state":"active","ping":75},{"user_id":572,"name":"Anubis","steam_id":76561198290954535,"connected_time":1584000000000,"state":"active","ping":83},{"user_id":604,"name":"STATES RIGHTS!!","steam_id":76561198305796131,"connected_time":459000000000,"state":"active","ping":48},{"user_id":601,"name":"F2P nob","steam_id":76561198224841384,"connected_time":498000000000,"state":"active","ping":77}]},{"server_id":402,"name":"Uncletopia | Chicago | 3 | All Maps","name_short":"chi-3","host":"chi-1.us.uncletopia.com","port":27035,"enabled":true,"region":"us-central","cc":"us","latitude":41.881832,"longitude":-87.62318,"reserved":0,"last_update":"0001-01-01T00:00:00Z","name_a2s":"Uncletopia | Chicago | 3 | All Maps","protocol":17,"map":"pl_borneo","folder":"tf","game":"Team Fortress","app_id":440,"player_count":24,"max_players":24,"Bots":0,"server_type":"Dedicated","server_os":"Linux","password":true,"vac":true,"version":"7961495","steam_id":85568392924515191,"keywords":["nocrits","nodmgspread","payload","uncletopia"],"game_id":440,"stv_port":27036,"stv_name":"Uncletopia | Chicago | 3 | All Maps | STV","players":[{"user_id":688,"name":"Junsei","steam_id":76561199088984886,"connected_time":3123000000000,"state":"active","ping":57},{"user_id":656,"name":"guppy","steam_id":76561198041380190,"connected_time":4861000000000,"state":"active","ping":85},{"user_id":716,"name":"MarauderOP","steam_id":76561199087316861,"connected_time":1929000000000,"state":"active","ping":69},{"user_id":687,"name":"Keegan","steam_id":76561198051325763,"connected_time":3156000000000,"state":"active","ping":161},{"user_id":660,"name":"VisibleForce","steam_id":76561198104178938,"connected_time":4740000000000,"state":"active","ping":79},{"user_id":726,"name":"sheep","steam_id":76561198994761483,"connected_time":251000000000,"state":"active","ping":72},{"user_id":727,"name":"Prsm","steam_id":76561198053344995,"connected_time":231000000000,"state":"active","ping":57},{"user_id":725,"name":"dansal","steam_id":76561197997042510,"connected_time":301000000000,"state":"active","ping":88},{"user_id":665,"name":"Nak","steam_id":76561198058151893,"connected_time":4590000000000,"state":"active","ping":82},{"user_id":704,"name":"Skab","steam_id":76561199126112357,"connected_time":2501000000000,"state":"active","ping":83},{"user_id":728,"name":"sam","steam_id":76561198088504281,"connected_time":217000000000,"state":"active","ping":88},{"user_id":722,"name":"Firedust19","steam_id":76561198153238631,"connected_time":1256000000000,"state":"active","ping":111},{"user_id":733,"name":"jerma but crying and lesbian","steam_id":76561198110661425,"connected_time":20000000000,"state":"active","ping":47},{"user_id":707,"name":"Argo","steam_id":76561198353725622,"connected_time":2444000000000,"state":"active","ping":75},{"user_id":730,"name":"Echolu","steam_id":76561198158613750,"connected_time":173000000000,"state":"active","ping":119},{"user_id":683,"name":"aphexjh","steam_id":76561197985854658,"connected_time":3178000000000,"state":"active","ping":69},{"user_id":711,"name":"Douglas.","steam_id":76561198055974478,"connected_time":2401000000000,"state":"active","ping":97},{"user_id":724,"name":"brisky","steam_id":76561198869675719,"connected_time":312000000000,"state":"active","ping":69},{"user_id":717,"name":"Fio4","steam_id":76561199221171536,"connected_time":1869000000000,"state":"active","ping":77},{"user_id":731,"name":"BONK","steam_id":76561198930651186,"connected_time":158000000000,"state":"active","ping":103},{"user_id":663,"name":"Invis","steam_id":76561198054546884,"connected_time":4625000000000,"state":"active","ping":60},{"user_id":659,"name":"Santa Carrying a Minigun","steam_id":76561198047845399,"connected_time":4828000000000,"state":"active","ping":76},{"user_id":734,"name":"Fat Bear","steam_id":76561198162692775,"connected_time":9000000000,"state":"spawning","ping":96},{"user_id":694,"name":"The Guy","steam_id":76561198799183693,"connected_time":3061000000000,"state":"active","ping":85}]},{"server_id":403,"name":"Uncletopia | Chicago | 4 | All Maps","name_short":"chi-4","host":"chi-1.us.uncletopia.com","port":27045,"enabled":true,"region":"us-central","cc":"us","latitude":41.881832,"longitude":-87.62318,"reserved":0,"last_update":"0001-01-01T00:00:00Z","name_a2s":"Uncletopia | Chicago | 4 | All Maps","protocol":17,"map":"pl_barnblitz","folder":"tf","game":"Team Fortress","app_id":440,"player_count":24,"max_players":24,"Bots":0,"server_type":"Dedicated","server_os":"Linux","password":true,"vac":true,"version":"7961495","steam_id":85568392924515193,"keywords":["nocrits","nodmgspread","payload","uncletopia"],"game_id":440,"stv_port":27046,"stv_name":"Uncletopia | Chicago | 4 | All Maps | STV","players":[{"user_id":316,"name":"Smegmar \"Piss Monkey\"","steam_id":76561198143476620,"connected_time":899000000000,"state":"active","ping":74},{"user_id":309,"name":"cool guy legs","steam_id":76561198099494670,"connected_time":1176000000000,"state":"active","ping":109},{"user_id":297,"name":"DerpyNate","steam_id":76561198100249037,"connected_time":2461000000000,"state":"active","ping":46},{"user_id":322,"name":"wunkem","steam_id":76561198055948497,"connected_time":470000000000,"state":"active","ping":62},{"user_id":274,"name":"Hazeyboi","steam_id":76561198130687838,"connected_time":3525000000000,"state":"active","ping":45},{"user_id":287,"name":"gnoll filth","steam_id":76561198066123607,"connected_time":2556000000000,"state":"active","ping":44},{"user_id":288,"name":"Shady Businessman","steam_id":76561198143855968,"connected_time":2555000000000,"state":"active","ping":128},{"user_id":324,"name":"hashmap","steam_id":76561198043794014,"connected_time":360000000000,"state":"active","ping":53},{"user_id":319,"name":"cosmic ambiance","steam_id":76561198042788986,"connected_time":856000000000,"state":"active","ping":84},{"user_id":302,"name":"ʕ•ᴥ•ʔ the bear","steam_id":76561197989591976,"connected_time":1959000000000,"state":"active","ping":76},{"user_id":307,"name":"Grundle Thunder","steam_id":76561197960790338,"connected_time":1225000000000,"state":"active","ping":86},{"user_id":321,"name":"b","steam_id":76561198118211523,"connected_time":572000000000,"state":"active","ping":60},{"user_id":292,"name":"Nigel","steam_id":76561198115574712,"connected_time":2500000000000,"state":"active","ping":48},{"user_id":308,"name":"Owls = Government Drones","steam_id":76561198439793697,"connected_time":1193000000000,"state":"active","ping":77},{"user_id":314,"name":"Stapler","steam_id":76561198099295077,"connected_time":961000000000,"state":"active","ping":90},{"user_id":293,"name":"poggerchamp","steam_id":76561199145124973,"connected_time":2474000000000,"state":"active","ping":84},{"user_id":306,"name":"[NAME-REDACTED]","steam_id":76561198035682975,"connected_time":1525000000000,"state":"active","ping":68},{"user_id":277,"name":"Maximum Flame","steam_id":76561198073682529,"connected_time":3511000000000,"state":"active","ping":43},{"user_id":320,"name":"e doctor","steam_id":76561198081851446,"connected_time":735000000000,"state":"active","ping":46},{"user_id":318,"name":"Scrotewad the Mighty","steam_id":76561199489748663,"connected_time":871000000000,"state":"active","ping":69},{"user_id":278,"name":"snail2646","steam_id":76561198061411251,"connected_time":3503000000000,"state":"active","ping":34},{"user_id":312,"name":"ElephantHydrogen4277882","steam_id":76561198175741741,"connected_time":1172000000000,"state":"active","ping":76},{"user_id":296,"name":"lil uzi squirt","steam_id":76561198045926594,"connected_time":2468000000000,"state":"active","ping":106},{"user_id":299,"name":"cYSSING","steam_id":76561197987942964,"connected_time":2345000000000,"state":"active","ping":133}]},{"server_id":36,"name":"Uncletopia | Chicago | 5 | All Maps","name_short":"chi-5","host":"chi-2.us.uncletopia.com","port":27015,"enabled":true,"region":"us-central","cc":"us","latitude":41.881832,"longitude":-87.62318,"reserved":0,"last_update":"0001-01-01T00:00:00Z","name_a2s":"Uncletopia | Chicago | 5 | All Maps","protocol":17,"map":"cp_process_final","folder":"tf","game":"Team Fortress","app_id":440,"player_count":24,"max_players":24,"Bots":0,"server_type":"Dedicated","server_os":"Linux","password":true,"vac":true,"version":"7961495","steam_id":85568392924866362,"keywords":["cp","nocrits","nodmgspread","uncletopia"],"game_id":440,"stv_port":27016,"stv_name":"Uncletopia | Chicago | 5 | All Maps | STV","players":[{"user_id":463,"name":"Scut","steam_id":76561198973734291,"connected_time":591000000000,"state":"active","ping":92},{"user_id":430,"name":"Loaded Potato Soup","steam_id":76561198135271566,"connected_time":2150000000000,"state":"active","ping":56},{"user_id":455,"name":"Medici","steam_id":76561198310130481,"connected_time":623000000000,"state":"active","ping":66},{"user_id":453,"name":"Toa of Time","steam_id":76561198086867556,"connected_time":635000000000,"state":"active","ping":99},{"user_id":419,"name":"punnybunny","steam_id":76561198838212519,"connected_time":2639000000000,"state":"active","ping":77},{"user_id":434,"name":"Smelvin","steam_id":76561198073773532,"connected_time":1989000000000,"state":"active","ping":86},{"user_id":467,"name":"Trav_YEET","steam_id":76561198960813580,"connected_time":478000000000,"state":"active","ping":117},{"user_id":406,"name":"\u003etfw no buggo gf","steam_id":76561198980062131,"connected_time":3666000000000,"state":"active","ping":69},{"user_id":435,"name":"TheSpy","steam_id":76561198997837361,"connected_time":1983000000000,"state":"active","ping":58},{"user_id":401,"name":"Deluxe_Taco34","steam_id":76561199037653437,"connected_time":4119000000000,"state":"active","ping":114},{"user_id":449,"name":"pepymango","steam_id":76561198076514665,"connected_time":709000000000,"state":"active","ping":89},{"user_id":446,"name":"AxolotlGod","steam_id":76561198077877910,"connected_time":833000000000,"state":"active","ping":75},{"user_id":398,"name":"chen","steam_id":76561198064872330,"connected_time":4238000000000,"state":"active","ping":70},{"user_id":415,"name":"Andrestor","steam_id":76561198005934930,"connected_time":3259000000000,"state":"active","ping":132},{"user_id":432,"name":"Plinko","steam_id":76561197968530638,"connected_time":2056000000000,"state":"active","ping":64},{"user_id":454,"name":"blood-thirsty pitbull","steam_id":76561198106690989,"connected_time":635000000000,"state":"active","ping":101},{"user_id":423,"name":"henryissoreal","steam_id":76561198128074539,"connected_time":2379000000000,"state":"active","ping":87},{"user_id":461,"name":"Asanez3","steam_id":76561198037381436,"connected_time":607000000000,"state":"active","ping":83},{"user_id":457,"name":"SneakySneak","steam_id":76561198064847921,"connected_time":622000000000,"state":"active","ping":84},{"user_id":408,"name":"Hatterene that is in your walls","steam_id":76561198913572581,"connected_time":3606000000000,"state":"active","ping":60},{"user_id":458,"name":"Natsuki the Scunt","steam_id":76561199175922684,"connected_time":618000000000,"state":"active","ping":109},{"user_id":491,"name":"Vorco","steam_id":76561197996937734,"connected_time":55000000000,"state":"active","ping":76},{"user_id":459,"name":"John16Mark","steam_id":76561198119445407,"connected_time":617000000000,"state":"active","ping":90},{"user_id":447,"name":"Dr. House","steam_id":76561198052910702,"connected_time":830000000000,"state":"active","ping":47}]},{"server_id":37,"name":"Uncletopia | Chicago | 6 | All Maps","name_short":"chi-6","host":"chi-2.us.uncletopia.com","port":27025,"enabled":true,"region":"us-central","cc":"us","latitude":41.881832,"longitude":-87.62318,"reserved":0,"last_update":"0001-01-01T00:00:00Z","name_a2s":"Uncletopia | Chicago | 6 | All Maps","protocol":17,"map":"pl_upward","folder":"tf","game":"Team Fortress","app_id":440,"player_count":23,"max_players":24,"Bots":0,"server_type":"Dedicated","server_os":"Linux","password":true,"vac":true,"version":"7961495","steam_id":85568392924866363,"keywords":["nocrits","nodmgspread","payload","uncletopia"],"game_id":440,"stv_port":27026,"stv_name":"Uncletopia | Chicago | 6 | All Maps | STV","players":[{"user_id":212,"name":"Biosock Infiknit","steam_id":76561198072693794,"connected_time":468000000000,"state":"active","ping":54},{"user_id":205,"name":"shrine","steam_id":76561199001771988,"connected_time":1015000000000,"state":"active","ping":57},{"user_id":214,"name":"StretchySnail59","steam_id":76561198073535005,"connected_time":353000000000,"state":"active","ping":58},{"user_id":202,"name":"FireQuiz","steam_id":76561198107357249,"connected_time":1416000000000,"state":"active","ping":103},{"user_id":204,"name":"Howard Hamlin","steam_id":76561198881039861,"connected_time":1112000000000,"state":"active","ping":47},{"user_id":219,"name":"Kzjytsugn","steam_id":76561198130241974,"connected_time":118000000000,"state":"active","ping":88},{"user_id":213,"name":"Slippin Jimmy","steam_id":76561198119556082,"connected_time":380000000000,"state":"active","ping":65},{"user_id":188,"name":"kicks","steam_id":76561199228854923,"connected_time":2652000000000,"state":"active","ping":60},{"user_id":171,"name":"LVL","steam_id":76561198334403617,"connected_time":3483000000000,"state":"active","ping":60},{"user_id":215,"name":"Astro","steam_id":76561198035676106,"connected_time":352000000000,"state":"active","ping":88},{"user_id":187,"name":"How's your car running?","steam_id":76561198236109724,"connected_time":2791000000000,"state":"active","ping":58},{"user_id":159,"name":"opossum","steam_id":76561198148905570,"connected_time":4646000000000,"state":"active","ping":98},{"user_id":190,"name":"notabox","steam_id":76561198083663640,"connected_time":2525000000000,"state":"active","ping":84},{"user_id":200,"name":"pepsibobby","steam_id":76561198853864511,"connected_time":1518000000000,"state":"active","ping":101},{"user_id":217,"name":"Kiradias777","steam_id":76561198067176309,"connected_time":276000000000,"state":"active","ping":62},{"user_id":206,"name":"totally not a pile of beans","steam_id":76561198119851931,"connected_time":1005000000000,"state":"active","ping":81},{"user_id":195,"name":"sax","steam_id":76561198094788852,"connected_time":2346000000000,"state":"active","ping":46},{"user_id":167,"name":"Mr. CubeX","steam_id":76561198805603832,"connected_time":4210000000000,"state":"active","ping":60},{"user_id":198,"name":"ok","steam_id":76561199074875663,"connected_time":1921000000000,"state":"active","ping":82},{"user_id":218,"name":"rf","steam_id":76561198195359229,"connected_time":248000000000,"state":"active","ping":90},{"user_id":207,"name":"gerg","steam_id":76561197997127387,"connected_time":942000000000,"state":"active","ping":102},{"user_id":146,"name":"Scum Knight | T.I.D.K.","steam_id":76561198282444763,"connected_time":5376000000000,"state":"active","ping":66},{"user_id":176,"name":"badboy6996","steam_id":76561197969386201,"connected_time":3449000000000,"state":"active","ping":58}]},{"server_id":38,"name":"Uncletopia | Chicago | 7 | Stopwatch","name_short":"chi-7","host":"chi-2.us.uncletopia.com","port":27035,"enabled":true,"region":"us-central","cc":"us","latitude":41.881832,"longitude":-87.62318,"reserved":0,"last_update":"0001-01-01T00:00:00Z","name_a2s":"Uncletopia | Chicago | 7 | Stopwatch","protocol":17,"map":"workshop/koth_ramjam_rc1.ugc459778887","folder":"tf","game":"Team Fortress","app_id":440,"player_count":0,"max_players":24,"Bots":0,"server_type":"Dedicated","server_os":"Linux","password":true,"vac":true,"version":"7961495","steam_id":85568392924866364,"keywords":["cp","nocrits","nodmgspread","uncletopia"],"game_id":440,"stv_port":27036,"stv_name":"Uncletopia | Chicago | 7 | Stopwatch | STV","players":null},{"server_id":39,"name":"Uncletopia | Chicago | 8 | Community","name_short":"chi-8","host":"chi-2.us.uncletopia.com","port":27045,"enabled":true,"region":"us-central","cc":"us","latitude":41.881832,"longitude":-87.62318,"reserved":0,"last_update":"0001-01-01T00:00:00Z","name_a2s":"Uncletopia | Chicago | 8 | Community","protocol":17,"map":"workshop/koth_trenchfoot_b1a.ugc731436616","folder":"tf","game":"Team Fortress","app_id":440,"player_count":0,"max_players":24,"Bots":0,"server_type":"Dedicated","server_os":"Linux","password":true,"vac":true,"version":"7961495","steam_id":85568392924866365,"keywords":["cp","nocrits","nodmgspread","uncletopia"],"game_id":440,"stv_port":27046,"stv_name":"Uncletopia | Chicago | 8 | Community | STV","players":null},{"server_id":8,"name":"Uncletopia | Dallas | 1 | All Maps","name_short":"dal-1","host":"dal-1.us.uncletopia.com","port":27015,"enabled":true,"region":"us-central","cc":"us","latitude":32.779167,"longitude":-96.80889,"reserved":0,"last_update":"0001-01-01T00:00:00Z","name_a2s":"Uncletopia | Dallas | 1 | All Maps","protocol":17,"map":"ctf_2fort","folder":"tf","game":"Team Fortress","app_id":440,"player_count":24,"max_players":24,"Bots":0,"server_type":"Dedicated","server_os":"Linux","password":true,"vac":true,"version":"7961495","steam_id":85568392924469986,"keywords":["ctf","nocrits","nodmgspread","uncletopia"],"game_id":440,"stv_port":27016,"stv_name":"Uncletopia | Dallas | 1 | All Maps | STV","players":[{"user_id":489,"name":"Jack \"Hee Ho\" Frost","steam_id":76561198353395198,"connected_time":1635000000000,"state":"active","ping":77},{"user_id":509,"name":"Vaermina","steam_id":76561198169915227,"connected_time":350000000000,"state":"active","ping":90},{"user_id":510,"name":"Inflation Jumpscare","steam_id":76561198137862444,"connected_time":322000000000,"state":"active","ping":47},{"user_id":462,"name":"radicalPolio","steam_id":76561197961561855,"connected_time":3706000000000,"state":"active","ping":45},{"user_id":493,"name":"smoke crack","steam_id":76561199494303414,"connected_time":1149000000000,"state":"active","ping":76},{"user_id":513,"name":"AtomicSexMachine","steam_id":76561198886585159,"connected_time":246000000000,"state":"active","ping":58},{"user_id":426,"name":"lucky","steam_id":76561198323426623,"connected_time":5146000000000,"state":"active","ping":105},{"user_id":515,"name":"asm_ghost","steam_id":76561199205363547,"connected_time":222000000000,"state":"active","ping":97},{"user_id":516,"name":"Manic","steam_id":76561198128149670,"connected_time":164000000000,"state":"active","ping":50},{"user_id":481,"name":"Mossy","steam_id":76561198156401277,"connected_time":1843000000000,"state":"active","ping":81},{"user_id":518,"name":"Kadence","steam_id":76561198160115484,"connected_time":57000000000,"state":"active","ping":77},{"user_id":457,"name":"Frontier Psychiatrist","steam_id":76561198038689088,"connected_time":4155000000000,"state":"active","ping":91},{"user_id":497,"name":"FanaticSalt","steam_id":76561199380123059,"connected_time":607000000000,"state":"active","ping":58},{"user_id":517,"name":"small meth pouch","steam_id":76561198130412963,"connected_time":124000000000,"state":"active","ping":68},{"user_id":378,"name":"Lolxdloldx","steam_id":76561198136887125,"connected_time":8354000000000,"state":"active","ping":99},{"user_id":504,"name":"Crazy Insane Proboscis Monkey","steam_id":76561198061011176,"connected_time":444000000000,"state":"active","ping":95},{"user_id":498,"name":"HybridSolly","steam_id":76561198125067997,"connected_time":591000000000,"state":"active","ping":42},{"user_id":514,"name":"sp4rklep4nts","steam_id":76561199022723865,"connected_time":238000000000,"state":"active","ping":107},{"user_id":506,"name":"Workwaffle","steam_id":76561198088775748,"connected_time":435000000000,"state":"active","ping":106},{"user_id":475,"name":"BADWOLF42","steam_id":76561198055447523,"connected_time":2433000000000,"state":"active","ping":60},{"user_id":490,"name":"Sam11The22Man","steam_id":76561199054551974,"connected_time":1594000000000,"state":"active","ping":68},{"user_id":507,"name":"Phoenix Wright Team Fortress 2","steam_id":76561198147871490,"connected_time":386000000000,"state":"active","ping":56},{"user_id":495,"name":"T0r1ee","steam_id":76561198109311468,"connected_time":757000000000,"state":"active","ping":53},{"user_id":512,"name":"Lock'd","steam_id":76561198170108230,"connected_time":255000000000,"state":"active","ping":60}]},{"server_id":108,"name":"Uncletopia | Dallas | 2 | All Maps","name_short":"dal-2","host":"dal-1.us.uncletopia.com","port":27025,"enabled":true,"region":"us-central","cc":"us","latitude":32.779167,"longitude":-96.80889,"reserved":0,"last_update":"0001-01-01T00:00:00Z","name_a2s":"Uncletopia | Dallas | 2 | All Maps","protocol":17,"map":"pl_upward","folder":"tf","game":"Team Fortress","app_id":440,"player_count":24,"max_players":24,"Bots":0,"server_type":"Dedicated","server_os":"Linux","password":true,"vac":true,"version":"7961495","steam_id":85568392924469988,"keywords":["nocrits","nodmgspread","payload","uncletopia"],"game_id":440,"stv_port":27026,"stv_name":"Uncletopia | Dallas | 2 | All Maps | STV","players":[{"user_id":444,"name":"JayRawgTV","steam_id":76561198044402840,"connected_time":63000000000,"state":"active","ping":44},{"user_id":398,"name":"TheAilingSword","steam_id":76561198250350844,"connected_time":2899000000000,"state":"active","ping":55},{"user_id":433,"name":"Alchemist","steam_id":76561198094238189,"connected_time":1043000000000,"state":"active","ping":74},{"user_id":418,"name":"King Cotton","steam_id":76561198292444376,"connected_time":2020000000000,"state":"active","ping":63},{"user_id":445,"name":"pippopipipio","steam_id":76561198148059714,"connected_time":61000000000,"state":"active","ping":85},{"user_id":434,"name":"0mori","steam_id":76561198806888107,"connected_time":1036000000000,"state":"active","ping":90},{"user_id":443,"name":"LingLengLong","steam_id":76561198871835267,"connected_time":84000000000,"state":"active","ping":46},{"user_id":431,"name":"Vaas Montenegro from Far Cry 3","steam_id":76561198092135570,"connected_time":1247000000000,"state":"active","ping":43},{"user_id":402,"name":"a real fish","steam_id":76561198845824198,"connected_time":2873000000000,"state":"active","ping":87},{"user_id":437,"name":"SaxyThePhone","steam_id":76561199439167761,"connected_time":756000000000,"state":"active","ping":69},{"user_id":404,"name":"Luffliet.","steam_id":76561198186593707,"connected_time":2868000000000,"state":"active","ping":55},{"user_id":405,"name":"1HandsomeLAD","steam_id":76561198807047496,"connected_time":2862000000000,"state":"active","ping":92},{"user_id":442,"name":"plink","steam_id":76561198057829889,"connected_time":90000000000,"state":"active","ping":45},{"user_id":395,"name":"what","steam_id":76561198082336619,"connected_time":2926000000000,"state":"active","ping":99},{"user_id":441,"name":"Ginger","steam_id":76561198074381106,"connected_time":366000000000,"state":"active","ping":100},{"user_id":429,"name":"BlueSceptile","steam_id":76561198303151606,"connected_time":1343000000000,"state":"active","ping":61},{"user_id":426,"name":"Taco","steam_id":76561198158621392,"connected_time":1528000000000,"state":"active","ping":75},{"user_id":408,"name":"Medic Main 2009","steam_id":76561198119656287,"connected_time":2838000000000,"state":"active","ping":112},{"user_id":446,"name":"Alice Hiiragi","steam_id":76561198094078478,"connected_time":35000000000,"state":"active","ping":79},{"user_id":419,"name":"Grasshopper506","steam_id":76561198111633418,"connected_time":2009000000000,"state":"active","ping":95},{"user_id":391,"name":"Ata","steam_id":76561198349085545,"connected_time":3319000000000,"state":"active","ping":85},{"user_id":438,"name":"Smithex","steam_id":76561198882520378,"connected_time":751000000000,"state":"active","ping":78},{"user_id":420,"name":"Blue Collar","steam_id":76561198354781722,"connected_time":1932000000000,"state":"active","ping":83},{"user_id":414,"name":"Fishandfish","steam_id":76561198298483804,"connected_time":2420000000000,"state":"active","ping":103}]},{"server_id":404,"name":"Uncletopia | Dallas | 3 | All Maps","name_short":"dal-3","host":"dal-1.us.uncletopia.com","port":27035,"enabled":true,"region":"us-central","cc":"us","latitude":32.779167,"longitude":-96.80889,"reserved":0,"last_update":"0001-01-01T00:00:00Z","name_a2s":"Uncletopia | Dallas | 3 | All Maps","protocol":17,"map":"cp_dustbowl","folder":"tf","game":"Team Fortress","app_id":440,"player_count":24,"max_players":24,"Bots":0,"server_type":"Dedicated","server_os":"Linux","password":true,"vac":true,"version":"7961495","steam_id":85568392924515219,"keywords":["cp","nocrits","nodmgspread","uncletopia"],"game_id":440,"stv_port":27036,"stv_name":"Uncletopia | Dallas | 3 | All Maps | STV","players":[{"user_id":313,"name":"Franky Leirbag","steam_id":76561198179821973,"connected_time":345000000000,"state":"active","ping":109},{"user_id":284,"name":"nop","steam_id":76561199119420455,"connected_time":2523000000000,"state":"active","ping":66},{"user_id":285,"name":"LordOfTheNoobs","steam_id":76561197962697523,"connected_time":2404000000000,"state":"active","ping":77},{"user_id":305,"name":"Quack","steam_id":76561199086339263,"connected_time":1173000000000,"state":"active","ping":70},{"user_id":307,"name":"The Supreme Gentleman","steam_id":76561198037123203,"connected_time":964000000000,"state":"active","ping":42},{"user_id":302,"name":"Indigolake","steam_id":76561198202215807,"connected_time":1334000000000,"state":"active","ping":117},{"user_id":275,"name":"Man Man","steam_id":76561199068338634,"connected_time":2873000000000,"state":"active","ping":69},{"user_id":278,"name":"Uber","steam_id":76561198060564605,"connected_time":2817000000000,"state":"active","ping":53},{"user_id":279,"name":"Extoned","steam_id":76561198391311164,"connected_time":2813000000000,"state":"active","ping":70},{"user_id":306,"name":"I3lasteroid","steam_id":76561197985463901,"connected_time":1044000000000,"state":"active","ping":57},{"user_id":317,"name":"Major Woody","steam_id":76561198835541533,"connected_time":277000000000,"state":"active","ping":59},{"user_id":303,"name":"irondude","steam_id":76561197971874574,"connected_time":1326000000000,"state":"active","ping":98},{"user_id":308,"name":"Rafl","steam_id":76561198055222756,"connected_time":925000000000,"state":"active","ping":49},{"user_id":320,"name":"Artincendies","steam_id":76561198242373456,"connected_time":199000000000,"state":"active","ping":67},{"user_id":311,"name":"Jetty","steam_id":76561198004885583,"connected_time":383000000000,"state":"active","ping":89},{"user_id":314,"name":"Shogun","steam_id":76561197996472110,"connected_time":300000000000,"state":"active","ping":89},{"user_id":235,"name":"Zebulaun","steam_id":76561197965160251,"connected_time":6466000000000,"state":"active","ping":78},{"user_id":322,"name":"Lots0","steam_id":76561198043143145,"connected_time":31000000000,"state":"active","ping":69},{"user_id":319,"name":"rmx^-^","steam_id":76561197961779026,"connected_time":219000000000,"state":"active","ping":90},{"user_id":309,"name":"nate","steam_id":76561197963935504,"connected_time":681000000000,"state":"active","ping":94},{"user_id":283,"name":"\u003c THIS MAN IS MISSING","steam_id":76561198173296047,"connected_time":2749000000000,"state":"active","ping":95},{"user_id":318,"name":"Sean","steam_id":76561199367470003,"connected_time":258000000000,"state":"active","ping":110},{"user_id":304,"name":"unfrigginbelievable","steam_id":76561198835673715,"connected_time":1320000000000,"state":"active","ping":72},{"user_id":321,"name":"DJpocalypse","steam_id":76561199230125964,"connected_time":78000000000,"state":"active","ping":100}]},{"server_id":405,"name":"Uncletopia | Dallas | 4 | Community","name_short":"dal-4","host":"dal-1.us.uncletopia.com","port":27045,"enabled":true,"region":"us-central","cc":"us","latitude":32.779167,"longitude":-96.80889,"reserved":0,"last_update":"0001-01-01T00:00:00Z","name_a2s":"Uncletopia | Dallas | 4 | Community","protocol":17,"map":"workshop/cp_overgrown_rc8.ugc503939302","folder":"tf","game":"Team Fortress","app_id":440,"player_count":0,"max_players":24,"Bots":0,"server_type":"Dedicated","server_os":"Linux","password":true,"vac":true,"version":"7961495","steam_id":85568392924515220,"keywords":["cp","nocrits","nodmgspread","uncletopia"],"game_id":440,"stv_port":27046,"stv_name":"Uncletopia | Dallas | 4 | Community | STV","players":null},{"server_id":5,"name":"Uncletopia | Frankfurt | 1 | All Maps","name_short":"frk-1","host":"frk-1.de.uncletopia.com","port":27015,"enabled":true,"region":"eu","cc":"de","latitude":50.110924,"longitude":8.682127,"reserved":0,"last_update":"0001-01-01T00:00:00Z","name_a2s":"Uncletopia | Frankfurt | 1 | All Maps","protocol":17,"map":"pl_badwater","folder":"tf","game":"Team Fortress","app_id":440,"player_count":0,"max_players":24,"Bots":0,"server_type":"Dedicated","server_os":"Linux","password":true,"vac":true,"version":"7961495","steam_id":85568392924469989,"keywords":["nocrits","nodmgspread","payload","uncletopia"],"game_id":440,"stv_port":27016,"stv_name":"Uncletopia | Frankfurt | 1 | All Maps | STV","players":null},{"server_id":110,"name":"Uncletopia | Frankfurt | 2 | All Maps","name_short":"frk-2","host":"frk-1.de.uncletopia.com","port":27025,"enabled":true,"region":"eu","cc":"de","latitude":50.110924,"longitude":8.682127,"reserved":0,"last_update":"0001-01-01T00:00:00Z","name_a2s":"Uncletopia | Frankfurt | 2 | All Maps","protocol":17,"map":"koth_cascade","folder":"tf","game":"Team Fortress","app_id":440,"player_count":0,"max_players":24,"Bots":0,"server_type":"Dedicated","server_os":"Linux","password":true,"vac":true,"version":"7961495","steam_id":85568392924469990,"keywords":["cp","nocrits","nodmgspread","uncletopia"],"game_id":440,"stv_port":27026,"stv_name":"Uncletopia | Frankfurt | 2 | All Maps | STV","players":null},{"server_id":308,"name":"Uncletopia | Frankfurt | 3 | All Maps","name_short":"frk-3","host":"frk-1.de.uncletopia.com","port":27035,"enabled":true,"region":"eu","cc":"de","latitude":50.110924,"longitude":8.682127,"reserved":0,"last_update":"0001-01-01T00:00:00Z","name_a2s":"Uncletopia | Frankfurt | 3 | All Maps","protocol":17,"map":"koth_viaduct","folder":"tf","game":"Team Fortress","app_id":440,"player_count":0,"max_players":24,"Bots":0,"server_type":"Dedicated","server_os":"Linux","password":true,"vac":true,"version":"7961495","steam_id":85568392924504274,"keywords":["cp","nocrits","nodmgspread","uncletopia"],"game_id":440,"stv_port":27036,"stv_name":"Uncletopia | Frankfurt | 3 | All Maps | STV","players":null},{"server_id":309,"name":"Uncletopia | Frankfurt | 4 | All Maps","name_short":"frk-4","host":"frk-1.de.uncletopia.com","port":27045,"enabled":true,"region":"eu","cc":"de","latitude":50.110924,"longitude":8.682127,"reserved":0,"last_update":"0001-01-01T00:00:00Z","name_a2s":"Uncletopia | Frankfurt | 4 | All Maps","protocol":17,"map":"koth_viaduct","folder":"tf","game":"Team Fortress","app_id":440,"player_count":0,"max_players":24,"Bots":0,"server_type":"Dedicated","server_os":"Linux","password":true,"vac":true,"version":"7961495","steam_id":85568392924504275,"keywords":["cp","nocrits","nodmgspread","uncletopia"],"game_id":440,"stv_port":27046,"stv_name":"Uncletopia | Frankfurt | 4 | All Maps | STV","players":null},{"server_id":310,"name":"Uncletopia | Frankfurt | 5 | All Maps","name_short":"frk-5","host":"frk-1.de.uncletopia.com","port":27055,"enabled":true,"region":"eu","cc":"de","latitude":50.110924,"longitude":8.682127,"reserved":0,"last_update":"0001-01-01T00:00:00Z","name_a2s":"Uncletopia | Frankfurt | 5 | All Maps","protocol":17,"map":"koth_highpass","folder":"tf","game":"Team Fortress","app_id":440,"player_count":0,"max_players":24,"Bots":0,"server_type":"Dedicated","server_os":"Linux","password":true,"vac":true,"version":"7961495","steam_id":85568392924504277,"keywords":["cp","nocrits","nodmgspread","uncletopia"],"game_id":440,"stv_port":27056,"stv_name":"Uncletopia | Frankfurt | 5 | All Maps | STV","players":null},{"server_id":311,"name":"Uncletopia | Frankfurt | 6 | All Maps","name_short":"frk-6","host":"frk-1.de.uncletopia.com","port":27065,"enabled":true,"region":"eu","cc":"de","latitude":50.110924,"longitude":8.682127,"reserved":0,"last_update":"0001-01-01T00:00:00Z","name_a2s":"Uncletopia | Frankfurt | 6 | All Maps","protocol":17,"map":"koth_viaduct","folder":"tf","game":"Team Fortress","app_id":440,"player_count":0,"max_players":24,"Bots":0,"server_type":"Dedicated","server_os":"Linux","password":true,"vac":true,"version":"7961495","steam_id":85568392924504278,"keywords":["cp","nocrits","nodmgspread","uncletopia"],"game_id":440,"stv_port":27066,"stv_name":"Uncletopia | Frankfurt | 6 | All Maps | STV","players":null},{"server_id":23,"name":"Uncletopia | Frankfurt | 7 | Stopwatch","name_short":"frk-7","host":"frk-1.de.uncletopia.com","port":27075,"enabled":true,"region":"eu","cc":"de","latitude":50.110924,"longitude":8.682127,"reserved":0,"last_update":"0001-01-01T00:00:00Z","name_a2s":"Uncletopia | Frankfurt | 7 | Stopwatch","protocol":17,"map":"workshop/pl_summercoast_rc8e.ugc1761528829","folder":"tf","game":"Team Fortress","app_id":440,"player_count":0,"max_players":24,"Bots":0,"server_type":"Dedicated","server_os":"Linux","password":true,"vac":true,"version":"7961495","steam_id":85568392924742827,"keywords":["nocrits","nodmgspread","payload","uncletopia"],"game_id":440,"stv_port":27076,"stv_name":"Uncletopia | Frankfurt | 7 | Stopwatch | STV","players":null},{"server_id":24,"name":"Uncletopia | Frankfurt | 8 | Community","name_short":"frk-8","host":"frk-1.de.uncletopia.com","port":27085,"enabled":true,"region":"eu","cc":"de","latitude":50.110924,"longitude":8.682127,"reserved":0,"last_update":"0001-01-01T00:00:00Z","name_a2s":"Uncletopia | Frankfurt | 8 | Community","protocol":17,"map":"workshop/koth_slaughter_rc1.ugc1712845210","folder":"tf","game":"Team Fortress","app_id":440,"player_count":0,"max_players":24,"Bots":0,"server_type":"Dedicated","server_os":"Linux","password":true,"vac":true,"version":"7961495","steam_id":85568392924742828,"keywords":["cp","nocrits","nodmgspread","uncletopia"],"game_id":440,"stv_port":27086,"stv_name":"Uncletopia | Frankfurt | 8 | Community | STV","players":null},{"server_id":202,"name":"Uncletopia | Hong Kong | 1 | All Maps","name_short":"hgk-1","host":"hgk-1.hk.uncletopia.com","port":27015,"enabled":true,"region":"asia","cc":"hk","latitude":22.302711,"longitude":114.177216,"reserved":0,"last_update":"0001-01-01T00:00:00Z","name_a2s":"Uncletopia | Hong Kong | 1 | All Maps","protocol":17,"map":"koth_cascade","folder":"tf","game":"Team Fortress","app_id":440,"player_count":0,"max_players":24,"Bots":0,"server_type":"Dedicated","server_os":"Linux","password":true,"vac":true,"version":"7961495","steam_id":85568392924494504,"keywords":["cp","nocrits","nodmgspread","uncletopia"],"game_id":440,"stv_port":27016,"stv_name":"Uncletopia | Hong Kong | 1 | All Maps | STV","players":null},{"server_id":1,"name":"Uncletopia | Los Angeles | 1 | All Maps","name_short":"lax-1","host":"lax-1.us.uncletopia.com","port":27015,"enabled":true,"region":"us-west","cc":"us","latitude":33.94279,"longitude":-118.41004,"reserved":0,"last_update":"0001-01-01T00:00:00Z","name_a2s":"Uncletopia | Los Angeles | 1 | All Maps","protocol":17,"map":"pl_barnblitz","folder":"tf","game":"Team Fortress","app_id":440,"player_count":24,"max_players":24,"Bots":0,"server_type":"Dedicated","server_os":"Linux","password":true,"vac":true,"version":"7961495","steam_id":85568392924469991,"keywords":["nocrits","nodmgspread","payload","uncletopia"],"game_id":440,"stv_port":27016,"stv_name":"Uncletopia | Los Angeles | 1 | All Maps | STV","players":[{"user_id":374,"name":"Gerbias","steam_id":76561198001002427,"connected_time":361000000000,"state":"active","ping":60},{"user_id":302,"name":"Ralph Kramden (Slim Charles)","steam_id":76561197981687895,"connected_time":5506000000000,"state":"active","ping":62},{"user_id":308,"name":"?","steam_id":76561198077811162,"connected_time":5275000000000,"state":"active","ping":52},{"user_id":375,"name":"hoodatnin","steam_id":76561199489670228,"connected_time":352000000000,"state":"active","ping":111},{"user_id":377,"name":"Insert_User_","steam_id":76561199229663997,"connected_time":294000000000,"state":"active","ping":82},{"user_id":348,"name":"Insomniac","steam_id":76561199180653046,"connected_time":2353000000000,"state":"active","ping":163},{"user_id":326,"name":"DiscoTraveler","steam_id":76561199240168088,"connected_time":3751000000000,"state":"active","ping":97},{"user_id":354,"name":"NagitoTheLucky","steam_id":76561198065096327,"connected_time":1745000000000,"state":"active","ping":61},{"user_id":319,"name":"RC","steam_id":76561198048127881,"connected_time":4021000000000,"state":"active","ping":48},{"user_id":356,"name":"[DATS➡] Sugar Meowth","steam_id":76561197995251793,"connected_time":1709000000000,"state":"active","ping":66},{"user_id":361,"name":"Mycelius","steam_id":76561198324811385,"connected_time":1515000000000,"state":"active","ping":55},{"user_id":366,"name":"cielael","steam_id":76561198043971956,"connected_time":1219000000000,"state":"active","ping":47},{"user_id":339,"name":"flo rida","steam_id":76561198226169704,"connected_time":3274000000000,"state":"active","ping":50},{"user_id":324,"name":"IonicMist","steam_id":76561198047105563,"connected_time":3789000000000,"state":"active","ping":90},{"user_id":373,"name":"Veritox","steam_id":76561198075778026,"connected_time":633000000000,"state":"active","ping":70},{"user_id":378,"name":"zinnk","steam_id":76561198092081825,"connected_time":205000000000,"state":"active","ping":52},{"user_id":343,"name":"Cerebral Kaiju","steam_id":76561198805659769,"connected_time":3143000000000,"state":"active","ping":65},{"user_id":345,"name":"LittleJoeRambler","steam_id":76561198015890576,"connected_time":3038000000000,"state":"active","ping":107},{"user_id":370,"name":"Lecko","steam_id":76561199196626333,"connected_time":867000000000,"state":"active","ping":58},{"user_id":359,"name":"Op banana","steam_id":76561198303231451,"connected_time":1658000000000,"state":"active","ping":79},{"user_id":349,"name":"Mystic man of potatoe","steam_id":76561198027267207,"connected_time":2248000000000,"state":"active","ping":62},{"user_id":372,"name":"Bada Bingus","steam_id":76561198046743307,"connected_time":834000000000,"state":"active","ping":125},{"user_id":376,"name":"Misterroo","steam_id":76561199251049017,"connected_time":345000000000,"state":"active","ping":80},{"user_id":365,"name":"Elfy","steam_id":76561199166448617,"connected_time":1245000000000,"state":"active","ping":85}]},{"server_id":112,"name":"Uncletopia | Los Angeles | 2 | All Maps","name_short":"lax-2","host":"lax-1.us.uncletopia.com","port":27025,"enabled":true,"region":"us-west","cc":"us","latitude":33.94279,"longitude":-118.41004,"reserved":0,"last_update":"0001-01-01T00:00:00Z","name_a2s":"Uncletopia | Los Angeles | 2 | All Maps","protocol":17,"map":"pl_borneo","folder":"tf","game":"Team Fortress","app_id":440,"player_count":24,"max_players":24,"Bots":0,"server_type":"Dedicated","server_os":"Linux","password":true,"vac":true,"version":"7961495","steam_id":85568392924469992,"keywords":["nocrits","nodmgspread","payload","uncletopia"],"game_id":440,"stv_port":27026,"stv_name":"Uncletopia | Los Angeles | 2 | All Maps | STV","players":[{"user_id":117,"name":"Velgrauder","steam_id":76561198848526938,"connected_time":1796000000000,"state":"active","ping":100},{"user_id":135,"name":"moosein","steam_id":76561198354272434,"connected_time":598000000000,"state":"active","ping":108},{"user_id":138,"name":"SAVECASEY","steam_id":76561198857896847,"connected_time":132000000000,"state":"active","ping":42},{"user_id":65,"name":"Ulldric","steam_id":76561198045701371,"connected_time":3554000000000,"state":"active","ping":77},{"user_id":105,"name":"self sufficient kitten","steam_id":76561197960592612,"connected_time":2130000000000,"state":"active","ping":75},{"user_id":131,"name":"Sheev Palpatine","steam_id":76561198252332430,"connected_time":641000000000,"state":"active","ping":76},{"user_id":120,"name":"techdeck","steam_id":76561199022751661,"connected_time":1707000000000,"state":"active","ping":79},{"user_id":122,"name":"TheBrocklobster","steam_id":76561198039682984,"connected_time":1655000000000,"state":"active","ping":66},{"user_id":43,"name":"Kng","steam_id":76561198993248203,"connected_time":4352000000000,"state":"active","ping":109},{"user_id":44,"name":"when you smell that zaza","steam_id":76561198985220521,"connected_time":4348000000000,"state":"active","ping":89},{"user_id":136,"name":"FI LO","steam_id":76561198976530881,"connected_time":543000000000,"state":"active","ping":30},{"user_id":129,"name":"Melvin McDingle","steam_id":76561198362635423,"connected_time":922000000000,"state":"active","ping":70},{"user_id":123,"name":"Tideflat","steam_id":76561198179850851,"connected_time":1644000000000,"state":"active","ping":86},{"user_id":124,"name":"SlimeFinger","steam_id":76561198317456244,"connected_time":1637000000000,"state":"active","ping":64},{"user_id":95,"name":"chok","steam_id":76561198242016100,"connected_time":2435000000000,"state":"active","ping":88},{"user_id":85,"name":"Context","steam_id":76561197972634187,"connected_time":2827000000000,"state":"active","ping":45},{"user_id":137,"name":"VicLoL","steam_id":76561198045580784,"connected_time":435000000000,"state":"active","ping":58},{"user_id":98,"name":"Person Man","steam_id":76561198293857963,"connected_time":2300000000000,"state":"active","ping":68},{"user_id":109,"name":"Savaqa","steam_id":76561198158016688,"connected_time":2031000000000,"state":"active","ping":54},{"user_id":100,"name":"❤ Ashley ❤","steam_id":76561198056428303,"connected_time":2220000000000,"state":"active","ping":51},{"user_id":128,"name":"Cookies","steam_id":76561199099061813,"connected_time":1192000000000,"state":"active","ping":61},{"user_id":94,"name":"McSpazatron","steam_id":76561198955942148,"connected_time":2450000000000,"state":"active","ping":86},{"user_id":102,"name":"Snoopy","steam_id":76561198273735974,"connected_time":2194000000000,"state":"active","ping":114},{"user_id":130,"name":"Saber","steam_id":76561199030547855,"connected_time":660000000000,"state":"active","ping":58}]},{"server_id":324,"name":"Uncletopia | Los Angeles | 3 | All Maps","name_short":"lax-3","host":"lax-1.us.uncletopia.com","port":27035,"enabled":true,"region":"us-west","cc":"us","latitude":33.94279,"longitude":-118.41004,"reserved":0,"last_update":"0001-01-01T00:00:00Z","name_a2s":"Uncletopia | Los Angeles | 3 | All Maps","protocol":17,"map":"koth_lakeside_final","folder":"tf","game":"Team Fortress","app_id":440,"player_count":0,"max_players":24,"Bots":0,"server_type":"Dedicated","server_os":"Linux","password":true,"vac":true,"version":"7961495","steam_id":85568392924510198,"keywords":["cp","nocrits","nodmgspread","uncletopia"],"game_id":440,"stv_port":27036,"stv_name":"Uncletopia | Los Angeles | 3 | All Maps | STV","players":null},{"server_id":25,"name":"Uncletopia | Los Angeles | 4 | Stopwatch","name_short":"lax-4","host":"lax-1.us.uncletopia.com","port":27045,"enabled":true,"region":"us-west","cc":"us","latitude":33.94279,"longitude":-118.41004,"reserved":0,"last_update":"0001-01-01T00:00:00Z","name_a2s":"Uncletopia | Los Angeles | 4 | Stopwatch","protocol":17,"map":"workshop/koth_ashville_final.ugc2130459942","folder":"tf","game":"Team Fortress","app_id":440,"player_count":4,"max_players":24,"Bots":0,"server_type":"Dedicated","server_os":"Linux","password":true,"vac":true,"version":"7961495","steam_id":85568392924510199,"keywords":["cp","nocrits","nodmgspread","uncletopia"],"game_id":440,"stv_port":27046,"stv_name":"Uncletopia | Los Angeles | 4 | Stopwatch | STV","players":[{"user_id":8,"name":"Fireboy1-UP","steam_id":76561199073267048,"connected_time":1354000000000,"state":"active","ping":60},{"user_id":14,"name":"The End","steam_id":76561199261496394,"connected_time":651000000000,"state":"active","ping":53},{"user_id":15,"name":"meta slave","steam_id":76561199467334502,"connected_time":237000000000,"state":"active","ping":49},{"user_id":16,"name":"Hydrasent1050","steam_id":76561199041084858,"connected_time":201000000000,"state":"spawning","ping":177}]},{"server_id":11,"name":"Uncletopia | London | 1 | All Maps","name_short":"lon-1","host":"lon-1.uk.uncletopia.com","port":27015,"enabled":true,"region":"eu","cc":"gb","latitude":51.509865,"longitude":-0.118092,"reserved":0,"last_update":"0001-01-01T00:00:00Z","name_a2s":"Uncletopia | London | 1 | All Maps","protocol":17,"map":"pl_upward","folder":"tf","game":"Team Fortress","app_id":440,"player_count":12,"max_players":24,"Bots":0,"server_type":"Dedicated","server_os":"Linux","password":true,"vac":true,"version":"7961495","steam_id":85568392924367362,"keywords":["nocrits","nodmgspread","payload","uncletopia"],"game_id":440,"stv_port":27016,"stv_name":"Uncletopia | London | 1 | All Maps | STV","players":[{"user_id":997,"name":"FanFish","steam_id":76561199389558024,"connected_time":233000000000,"state":"active","ping":75},{"user_id":986,"name":"Susu","steam_id":76561198253350195,"connected_time":2321000000000,"state":"active","ping":59},{"user_id":991,"name":"Frosti","steam_id":76561198332850064,"connected_time":1463000000000,"state":"active","ping":160},{"user_id":984,"name":"Sacetter","steam_id":76561198186614218,"connected_time":2384000000000,"state":"active","ping":60},{"user_id":973,"name":"jerkwaterberg","steam_id":76561198134165667,"connected_time":3264000000000,"state":"active","ping":50},{"user_id":924,"name":"Khvicha Kvaraskhelia","steam_id":76561198985309519,"connected_time":7147000000000,"state":"active","ping":66},{"user_id":976,"name":"Alduin's Wings","steam_id":76561198341180949,"connected_time":3254000000000,"state":"active","ping":56},{"user_id":918,"name":"Penis Contortionist","steam_id":76561198073663784,"connected_time":7257000000000,"state":"active","ping":32},{"user_id":958,"name":"sticks","steam_id":76561198127099299,"connected_time":4600000000000,"state":"active","ping":38},{"user_id":977,"name":"Leo","steam_id":76561198023609460,"connected_time":3236000000000,"state":"active","ping":84},{"user_id":985,"name":"Sherlock Bond","steam_id":76561198042045955,"connected_time":2381000000000,"state":"active","ping":45},{"user_id":978,"name":"Doodlebug","steam_id":76561198116262038,"connected_time":3088000000000,"state":"active","ping":43}]},{"server_id":114,"name":"Uncletopia | London | 2 | All Maps","name_short":"lon-2","host":"lon-1.uk.uncletopia.com","port":27025,"enabled":true,"region":"eu","cc":"gb","latitude":51.509865,"longitude":-0.118092,"reserved":0,"last_update":"0001-01-01T00:00:00Z","name_a2s":"Uncletopia | London | 2 | All Maps","protocol":17,"map":"pl_upward","folder":"tf","game":"Team Fortress","app_id":440,"player_count":0,"max_players":24,"Bots":0,"server_type":"Dedicated","server_os":"Linux","password":true,"vac":true,"version":"7961495","steam_id":85568392924470941,"keywords":["nocrits","nodmgspread","payload","uncletopia"],"game_id":440,"stv_port":27026,"stv_name":"Uncletopia | London | 2 | All Maps | STV","players":null},{"server_id":320,"name":"Uncletopia | London | 3 | All Maps","name_short":"lon-3","host":"lon-1.uk.uncletopia.com","port":27035,"enabled":true,"region":"eu","cc":"gb","latitude":51.509865,"longitude":-0.118092,"reserved":0,"last_update":"0001-01-01T00:00:00Z","name_a2s":"Uncletopia | London | 3 | All Maps","protocol":17,"map":"koth_viaduct","folder":"tf","game":"Team Fortress","app_id":440,"player_count":0,"max_players":24,"Bots":0,"server_type":"Dedicated","server_os":"Linux","password":true,"vac":true,"version":"7961495","steam_id":85568392924510192,"keywords":["cp","nocrits","nodmgspread","uncletopia"],"game_id":440,"stv_port":27036,"stv_name":"Uncletopia | London | 3 | All Maps | STV","players":null},{"server_id":321,"name":"Uncletopia | London | 4 | All Maps","name_short":"lon-4","host":"lon-1.uk.uncletopia.com","port":27045,"enabled":true,"region":"eu","cc":"gb","latitude":51.509865,"longitude":-0.118092,"reserved":0,"last_update":"0001-01-01T00:00:00Z","name_a2s":"Uncletopia | London | 4 | All Maps","protocol":17,"map":"pl_frontier_final","folder":"tf","game":"Team Fortress","app_id":440,"player_count":19,"max_players":24,"Bots":0,"server_type":"Dedicated","server_os":"Linux","password":true,"vac":true,"version":"7961495","steam_id":85568392924510193,"keywords":["nocrits","nodmgspread","payload","uncletopia"],"game_id":440,"stv_port":27046,"stv_name":"Uncletopia | London | 4 | All Maps | STV","players":[{"user_id":760,"name":"Severeburrito16","steam_id":76561198353155991,"connected_time":765000000000,"state":"active","ping":131},{"user_id":709,"name":"Machine Elf","steam_id":76561198274465755,"connected_time":4232000000000,"state":"active","ping":41},{"user_id":765,"name":"sHIFTINGvORTEX","steam_id":76561198231648332,"connected_time":373000000000,"state":"active","ping":55},{"user_id":640,"name":"Dizzy","steam_id":76561198010192462,"connected_time":10242000000000,"state":"active","ping":59},{"user_id":723,"name":"FurbyZone","steam_id":76561198268344503,"connected_time":2353000000000,"state":"active","ping":44},{"user_id":745,"name":"Nyhde","steam_id":76561198012771416,"connected_time":1426000000000,"state":"active","ping":96},{"user_id":769,"name":"bot 1","steam_id":76561199401454343,"connected_time":27000000000,"state":"spawning","ping":150},{"user_id":768,"name":"noseb","steam_id":76561199480942903,"connected_time":46000000000,"state":"active","ping":70},{"user_id":731,"name":"big bird","steam_id":76561199470354045,"connected_time":1955000000000,"state":"active","ping":149},{"user_id":761,"name":"Black Tom","steam_id":76561198335730273,"connected_time":728000000000,"state":"active","ping":61},{"user_id":767,"name":"Visphiric","steam_id":76561198071938027,"connected_time":186000000000,"state":"active","ping":37},{"user_id":714,"name":"aolkdi","steam_id":76561198025479415,"connected_time":3536000000000,"state":"active","ping":133},{"user_id":762,"name":"The Professor","steam_id":76561198113760863,"connected_time":703000000000,"state":"active","ping":107},{"user_id":763,"name":"eelray","steam_id":76561198427919849,"connected_time":692000000000,"state":"active","ping":133},{"user_id":749,"name":"NordicWinter","steam_id":76561198171769927,"connected_time":1306000000000,"state":"active","ping":69},{"user_id":751,"name":"gay little cunt","steam_id":76561198359806726,"connected_time":1234000000000,"state":"active","ping":51},{"user_id":740,"name":"neo the cracked protogen","steam_id":76561198874467825,"connected_time":1661000000000,"state":"active","ping":43},{"user_id":704,"name":"Play slowly, pls","steam_id":76561198006463587,"connected_time":4723000000000,"state":"active","ping":141}]},{"server_id":21,"name":"Uncletopia | London | 5 | All Maps","name_short":"lon-5","host":"lon-1.uk.uncletopia.com","port":27055,"enabled":true,"region":"eu","cc":"gb","latitude":51.509865,"longitude":-0.118092,"reserved":0,"last_update":"0001-01-01T00:00:00Z","name_a2s":"Uncletopia | London | 5 | All Maps","protocol":17,"map":"koth_highpass","folder":"tf","game":"Team Fortress","app_id":440,"player_count":0,"max_players":24,"Bots":0,"server_type":"Dedicated","server_os":"Linux","password":true,"vac":true,"version":"7961495","steam_id":85568392924742829,"keywords":["cp","nocrits","nodmgspread","uncletopia"],"game_id":440,"stv_port":27056,"stv_name":"Uncletopia | London | 5 | All Maps | STV","players":null},{"server_id":22,"name":"Uncletopia | London | 6 | All Maps","name_short":"lon-6","host":"lon-1.uk.uncletopia.com","port":27065,"enabled":true,"region":"eu","cc":"gb","latitude":51.509865,"longitude":-0.118092,"reserved":0,"last_update":"0001-01-01T00:00:00Z","name_a2s":"Uncletopia | London | 6 | All Maps","protocol":17,"map":"ctf_doublecross","folder":"tf","game":"Team Fortress","app_id":440,"player_count":0,"max_players":24,"Bots":0,"server_type":"Dedicated","server_os":"Linux","password":true,"vac":true,"version":"7961495","steam_id":85568392924742830,"keywords":["ctf","nocrits","nodmgspread","uncletopia"],"game_id":440,"stv_port":27066,"stv_name":"Uncletopia | London | 6 | All Maps | STV","players":null},{"server_id":40,"name":"Uncletopia | London | 7 | Stopwatch","name_short":"lon-7","host":"lon-1.uk.uncletopia.com","port":27075,"enabled":true,"region":"eu","cc":"gb","latitude":51.509865,"longitude":-0.118092,"reserved":0,"last_update":"0001-01-01T00:00:00Z","name_a2s":"Uncletopia | London | 7 | Stopwatch","protocol":17,"map":"workshop/koth_product_final.ugc454272353","folder":"tf","game":"Team Fortress","app_id":440,"player_count":0,"max_players":24,"Bots":0,"server_type":"Dedicated","server_os":"Linux","password":true,"vac":true,"version":"7961495","steam_id":85568392924964314,"keywords":["cp","nocrits","nodmgspread","uncletopia"],"game_id":440,"stv_port":27076,"stv_name":"Uncletopia | London | 7 | Stopwatch | STV","players":null},{"server_id":41,"name":"Uncletopia | London | 8 | Community","name_short":"lon-8","host":"lon-1.uk.uncletopia.com","port":27085,"enabled":true,"region":"eu","cc":"gb","latitude":51.509865,"longitude":-0.118092,"reserved":0,"last_update":"0001-01-01T00:00:00Z","name_a2s":"Uncletopia | London | 8 | Community","protocol":17,"map":"workshop/koth_trenchfoot_b1a.ugc731436616","folder":"tf","game":"Team Fortress","app_id":440,"player_count":5,"max_players":24,"Bots":0,"server_type":"Dedicated","server_os":"Linux","password":true,"vac":true,"version":"7961495","steam_id":85568392924964315,"keywords":["cp","nocrits","nodmgspread","uncletopia"],"game_id":440,"stv_port":27086,"stv_name":"Uncletopia | London | 8 | Community | STV","players":[{"user_id":23,"name":"Nala Ackaba","steam_id":76561199290241517,"connected_time":583000000000,"state":"active","ping":145},{"user_id":20,"name":"Chompymage","steam_id":76561198205010028,"connected_time":1368000000000,"state":"active","ping":132},{"user_id":21,"name":"TinY","steam_id":76561199013947069,"connected_time":1356000000000,"state":"active","ping":139},{"user_id":22,"name":"Pancakes","steam_id":76561198194545959,"connected_time":1308000000000,"state":"active","ping":162},{"user_id":24,"name":"jerry","steam_id":76561198348101380,"connected_time":18000000000,"state":"spawning","ping":167}]},{"server_id":300,"name":"Uncletopia | Montréal | 1 | One Thousand Uncles","name_short":"mtl-1","host":"mtl-1.ca.uncletopia.com","port":27015,"enabled":true,"region":"us-east","cc":"ca","latitude":45.50889,"longitude":-73.56167,"reserved":0,"last_update":"0001-01-01T00:00:00Z","name_a2s":"","protocol":0,"map":"","folder":"","game":"","app_id":0,"player_count":0,"max_players":0,"Bots":0,"server_type":"","server_os":"","password":false,"vac":false,"version":"","steam_id":0,"keywords":null,"game_id":0,"stv_port":0,"stv_name":"","players":null},{"server_id":301,"name":"Uncletopia | Montréal | 2 | One Thousand Uncles","name_short":"mtl-2","host":"mtl-1.ca.uncletopia.com","port":27025,"enabled":true,"region":"us-east","cc":"ca","latitude":45.50889,"longitude":-73.56167,"reserved":0,"last_update":"0001-01-01T00:00:00Z","name_a2s":"","protocol":0,"map":"","folder":"","game":"","app_id":0,"player_count":0,"max_players":0,"Bots":0,"server_type":"","server_os":"","password":false,"vac":false,"version":"","steam_id":0,"keywords":null,"game_id":0,"stv_port":0,"stv_name":"","players":null},{"server_id":302,"name":"Uncletopia | Montréal | 3 | One Thousand Uncles","name_short":"mtl-3","host":"mtl-1.ca.uncletopia.com","port":27035,"enabled":true,"region":"us-east","cc":"ca","latitude":45.50889,"longitude":-73.56167,"reserved":0,"last_update":"0001-01-01T00:00:00Z","name_a2s":"","protocol":0,"map":"","folder":"","game":"","app_id":0,"player_count":0,"max_players":0,"Bots":0,"server_type":"","server_os":"","password":false,"vac":false,"version":"","steam_id":0,"keywords":null,"game_id":0,"stv_port":0,"stv_name":"","players":null},{"server_id":13,"name":"Uncletopia | New York City | 1 | All Maps","name_short":"nyc-1","host":"nyc-1.us.uncletopia.com","port":27015,"enabled":true,"region":"us-east","cc":"us","latitude":40.73061,"longitude":-73.93524,"reserved":0,"last_update":"0001-01-01T00:00:00Z","name_a2s":"Uncletopia | New York City | 1 | All Maps","protocol":17,"map":"cp_steel","folder":"tf","game":"Team Fortress","app_id":440,"player_count":24,"max_players":24,"Bots":0,"server_type":"Dedicated","server_os":"Linux","password":true,"vac":true,"version":"7961495","steam_id":85568392924469993,"keywords":["cp","nocrits","nodmgspread","uncletopia"],"game_id":440,"stv_port":27016,"stv_name":"Uncletopia | New York City | 1 | All Maps | STV","players":[{"user_id":731,"name":"olg","steam_id":76561198163423805,"connected_time":2463000000000,"state":"active","ping":71},{"user_id":628,"name":"Mega_Man23","steam_id":76561198138341391,"connected_time":11095000000000,"state":"active","ping":66},{"user_id":626,"name":"A Puppy","steam_id":76561198828184456,"connected_time":11242000000000,"state":"active","ping":45},{"user_id":746,"name":"Two-Teste Tommy","steam_id":76561198064308936,"connected_time":607000000000,"state":"active","ping":57},{"user_id":738,"name":"Scoob","steam_id":76561198078633301,"connected_time":1615000000000,"state":"active","ping":46},{"user_id":697,"name":"Marauder Frost","steam_id":76561198062304733,"connected_time":6778000000000,"state":"active","ping":60},{"user_id":716,"name":"Sundowner","steam_id":76561198218570281,"connected_time":4105000000000,"state":"active","ping":93},{"user_id":703,"name":"batheman63","steam_id":76561198881818552,"connected_time":6009000000000,"state":"active","ping":67},{"user_id":747,"name":"Candy Sparkles","steam_id":76561198126871264,"connected_time":600000000000,"state":"active","ping":72},{"user_id":728,"name":"Eversor","steam_id":76561198028659071,"connected_time":2974000000000,"state":"active","ping":77},{"user_id":705,"name":"Great","steam_id":76561198895516433,"connected_time":5767000000000,"state":"active","ping":60},{"user_id":739,"name":"Xil","steam_id":76561198242099742,"connected_time":1610000000000,"state":"active","ping":101},{"user_id":754,"name":"SplOOge","steam_id":76561198150465954,"connected_time":147000000000,"state":"active","ping":100},{"user_id":734,"name":"only a spoonful","steam_id":76561198113180616,"connected_time":2247000000000,"state":"active","ping":86},{"user_id":751,"name":"$limek✔ngEM0.an1me.B0Y_33309","steam_id":76561198283687382,"connected_time":418000000000,"state":"active","ping":107},{"user_id":744,"name":"Jharlembuschk","steam_id":76561198132174368,"connected_time":642000000000,"state":"active","ping":72},{"user_id":752,"name":"Big G","steam_id":76561198290474559,"connected_time":367000000000,"state":"active","ping":50},{"user_id":610,"name":"Bee_Pirate","steam_id":76561199000599111,"connected_time":12506000000000,"state":"active","ping":64},{"user_id":709,"name":"Primitive","steam_id":76561198060500671,"connected_time":5032000000000,"state":"active","ping":40},{"user_id":694,"name":"Snow Squid","steam_id":76561198201565674,"connected_time":6958000000000,"state":"active","ping":97},{"user_id":733,"name":"WibbyOne","steam_id":76561198052843846,"connected_time":2260000000000,"state":"active","ping":32},{"user_id":749,"name":"my name jeff","steam_id":76561198179816898,"connected_time":589000000000,"state":"active","ping":84},{"user_id":723,"name":"Voracious Puma","steam_id":76561197963621649,"connected_time":3859000000000,"state":"active","ping":91},{"user_id":753,"name":"Jungle Boy","steam_id":76561198058278300,"connected_time":364000000000,"state":"active","ping":62}]},{"server_id":14,"name":"Uncletopia | New York City | 2 | All Maps","name_short":"nyc-2","host":"nyc-1.us.uncletopia.com","port":27025,"enabled":true,"region":"us-east","cc":"us","latitude":40.73061,"longitude":-73.93524,"reserved":0,"last_update":"0001-01-01T00:00:00Z","name_a2s":"Uncletopia | New York City | 2 | All Maps","protocol":17,"map":"pl_badwater","folder":"tf","game":"Team Fortress","app_id":440,"player_count":24,"max_players":24,"Bots":0,"server_type":"Dedicated","server_os":"Linux","password":true,"vac":true,"version":"7961495","steam_id":85568392924469994,"keywords":["nocrits","nodmgspread","payload","uncletopia"],"game_id":440,"stv_port":27026,"stv_name":"Uncletopia | New York City | 2 | All Maps | STV","players":[{"user_id":401,"name":"GRIM GAMING","steam_id":76561198107491637,"connected_time":1756000000000,"state":"active","ping":70},{"user_id":247,"name":"googa","steam_id":76561198133130452,"connected_time":13841000000000,"state":"active","ping":45},{"user_id":382,"name":"AJTarcza","steam_id":76561198070800190,"connected_time":2591000000000,"state":"active","ping":84},{"user_id":422,"name":"Colonel Chikara","steam_id":76561198010021087,"connected_time":419000000000,"state":"active","ping":119},{"user_id":414,"name":"nethersome","steam_id":76561198892225148,"connected_time":873000000000,"state":"active","ping":144},{"user_id":397,"name":"HUESO","steam_id":76561198276383681,"connected_time":2080000000000,"state":"active","ping":85},{"user_id":358,"name":"♦♣Quadric♥♠","steam_id":76561198061003853,"connected_time":4680000000000,"state":"active","ping":54},{"user_id":356,"name":"Goredude","steam_id":76561198041048764,"connected_time":4900000000000,"state":"active","ping":45},{"user_id":389,"name":"averted","steam_id":76561198067784310,"connected_time":2294000000000,"state":"active","ping":44},{"user_id":363,"name":"MAXIMUS","steam_id":76561198085809453,"connected_time":3843000000000,"state":"active","ping":85},{"user_id":423,"name":"Havok","steam_id":76561198063455003,"connected_time":86000000000,"state":"active","ping":56},{"user_id":408,"name":"chiswola","steam_id":76561198046920142,"connected_time":1091000000000,"state":"active","ping":134},{"user_id":417,"name":"MilesFireStorm","steam_id":76561198078642820,"connected_time":535000000000,"state":"active","ping":75},{"user_id":419,"name":"fahrvergnugget","steam_id":76561198009830110,"connected_time":504000000000,"state":"active","ping":112},{"user_id":379,"name":"Chewbacca","steam_id":76561198041927925,"connected_time":2855000000000,"state":"active","ping":57},{"user_id":407,"name":"Al Cabone","steam_id":76561198956823243,"connected_time":1113000000000,"state":"active","ping":60},{"user_id":375,"name":"YelloGoat","steam_id":76561198367174421,"connected_time":3301000000000,"state":"active","ping":32},{"user_id":316,"name":"Flowers","steam_id":76561198031669899,"connected_time":8459000000000,"state":"active","ping":85},{"user_id":413,"name":"leo.combs11","steam_id":76561199440984213,"connected_time":913000000000,"state":"active","ping":100},{"user_id":420,"name":"NekoTrap","steam_id":76561198797624241,"connected_time":495000000000,"state":"active","ping":60},{"user_id":370,"name":"coda","steam_id":76561198092052685,"connected_time":3565000000000,"state":"active","ping":57},{"user_id":406,"name":"Sgt. Pepper","steam_id":76561198063674627,"connected_time":1211000000000,"state":"active","ping":83},{"user_id":404,"name":"DJThunderHeart","steam_id":76561198274197575,"connected_time":1397000000000,"state":"active","ping":45},{"user_id":411,"name":"Sableye","steam_id":76561198061247147,"connected_time":955000000000,"state":"active","ping":76}]},{"server_id":15,"name":"Uncletopia | New York City | 3 | Stopwatch","name_short":"nyc-3","host":"nyc-1.us.uncletopia.com","port":27035,"enabled":true,"region":"us-east","cc":"us","latitude":40.73061,"longitude":-73.93524,"reserved":0,"last_update":"0001-01-01T00:00:00Z","name_a2s":"Uncletopia | New York City | 3 | Stopwatch","protocol":17,"map":"workshop/koth_product_final.ugc454272353","folder":"tf","game":"Team Fortress","app_id":440,"player_count":0,"max_players":24,"Bots":0,"server_type":"Dedicated","server_os":"Linux","password":true,"vac":true,"version":"7961495","steam_id":85568392924742820,"keywords":["cp","nocrits","nodmgspread","uncletopia"],"game_id":440,"stv_port":27036,"stv_name":"Uncletopia | New York City | 3 | Stopwatch | STV","players":null},{"server_id":16,"name":"Uncletopia | New York City | 4 | Community","name_short":"nyc-4","host":"nyc-1.us.uncletopia.com","port":27045,"enabled":true,"region":"us-east","cc":"us","latitude":40.73061,"longitude":-73.93524,"reserved":0,"last_update":"0001-01-01T00:00:00Z","name_a2s":"Uncletopia | New York City | 4 | Community","protocol":17,"map":"workshop/pl_shoreleave_rc2.ugc1238849347","folder":"tf","game":"Team Fortress","app_id":440,"player_count":24,"max_players":24,"Bots":0,"server_type":"Dedicated","server_os":"Linux","password":true,"vac":true,"version":"7961495","steam_id":85568392924742821,"keywords":["nocrits","nodmgspread","payload","uncletopia"],"game_id":440,"stv_port":27046,"stv_name":"Uncletopia | New York City | 4 | Community | STV","players":[{"user_id":113,"name":"Jim Guy Tucker","steam_id":76561197999035461,"connected_time":1020000000000,"state":"active","ping":97},{"user_id":82,"name":"AureateAura","steam_id":76561198046902265,"connected_time":3792000000000,"state":"active","ping":65},{"user_id":117,"name":"mitty","steam_id":76561197996031815,"connected_time":847000000000,"state":"active","ping":85},{"user_id":69,"name":"The","steam_id":76561198016479886,"connected_time":4365000000000,"state":"active","ping":118},{"user_id":124,"name":"Bart the General","steam_id":76561197996574751,"connected_time":254000000000,"state":"active","ping":101},{"user_id":126,"name":"Aviastur","steam_id":76561198066776250,"connected_time":207000000000,"state":"active","ping":55},{"user_id":87,"name":"stampdawg","steam_id":76561198050500060,"connected_time":2925000000000,"state":"active","ping":75},{"user_id":60,"name":"Apex","steam_id":76561198039981618,"connected_time":5073000000000,"state":"active","ping":83},{"user_id":112,"name":"troyfish2010","steam_id":76561199444139646,"connected_time":1127000000000,"state":"active","ping":74},{"user_id":100,"name":"R0KKSTAR","steam_id":76561198206177593,"connected_time":1713000000000,"state":"active","ping":120},{"user_id":110,"name":"bologna forklift 2012","steam_id":76561198199061206,"connected_time":1335000000000,"state":"active","ping":61},{"user_id":70,"name":"bios","steam_id":76561198063737238,"connected_time":4362000000000,"state":"active","ping":74},{"user_id":80,"name":"EmeraldCola","steam_id":76561198066663687,"connected_time":3993000000000,"state":"active","ping":50},{"user_id":102,"name":"Punkin","steam_id":76561198334301755,"connected_time":1627000000000,"state":"active","ping":57},{"user_id":44,"name":"eipi","steam_id":76561199084492097,"connected_time":5743000000000,"state":"active","ping":67},{"user_id":45,"name":"Swag","steam_id":76561198835483242,"connected_time":5742000000000,"state":"active","ping":69},{"user_id":98,"name":"lil EGG","steam_id":76561198361321253,"connected_time":2084000000000,"state":"active","ping":56},{"user_id":129,"name":"SushiYum","steam_id":76561199376772893,"connected_time":46000000000,"state":"spawning","ping":213},{"user_id":109,"name":"I'mWalkerHere","steam_id":76561199310055450,"connected_time":1388000000000,"state":"active","ping":82},{"user_id":90,"name":"OBSERVER","steam_id":76561198072996397,"connected_time":2742000000000,"state":"active","ping":77},{"user_id":91,"name":"Froyo Ding Dong","steam_id":76561198379421700,"connected_time":2740000000000,"state":"active","ping":50},{"user_id":127,"name":"Agatesword","steam_id":76561198067590014,"connected_time":184000000000,"state":"active","ping":57},{"user_id":128,"name":"buzz","steam_id":76561198107899101,"connected_time":110000000000,"state":"active","ping":62},{"user_id":79,"name":"Dr.Longmont","steam_id":76561198035566337,"connected_time":4121000000000,"state":"active","ping":80}]},{"server_id":142,"name":"Uncletopia | São Paulo | 1 | All Maps","name_short":"sao-1","host":"sao-1.br.uncletopia.com","port":27015,"enabled":true,"region":"sa","cc":"br","latitude":-23.533773,"longitude":-46.62529,"reserved":0,"last_update":"0001-01-01T00:00:00Z","name_a2s":"Uncletopia | São Paulo | 1 | All Maps","protocol":17,"map":"pl_pier","folder":"tf","game":"Team Fortress","app_id":440,"player_count":0,"max_players":24,"Bots":0,"server_type":"Dedicated","server_os":"Linux","password":true,"vac":true,"version":"7961495","steam_id":85568392924469996,"keywords":["nocrits","nodmgspread","payload","uncletopia"],"game_id":440,"stv_port":27016,"stv_name":"Uncletopia | São Paulo | 1 | All Maps | STV","players":null},{"server_id":143,"name":"Uncletopia | São Paulo | 2 | Community","name_short":"sao-2","host":"sao-2.br.uncletopia.com","port":27015,"enabled":true,"region":"sa","cc":"br","latitude":-23.533773,"longitude":-46.62529,"reserved":0,"last_update":"0001-01-01T00:00:00Z","name_a2s":"Uncletopia | São Paulo | 2 | Community","protocol":17,"map":"workshop/koth_product_final.ugc454272353","folder":"tf","game":"Team Fortress","app_id":440,"player_count":0,"max_players":24,"Bots":0,"server_type":"Dedicated","server_os":"Linux","password":true,"vac":true,"version":"7961495","steam_id":85568392924485349,"keywords":["cp","nocrits","nodmgspread","uncletopia"],"game_id":440,"stv_port":27016,"stv_name":"Uncletopia | São Paulo | 2 | Community | STV","players":null},{"server_id":7,"name":"Uncletopia | Seattle | 1 | All Maps","name_short":"sea-1","host":"sea-1.us.uncletopia.com","port":27015,"enabled":true,"region":"us-west","cc":"us","latitude":47.608013,"longitude":-122.33517,"reserved":0,"last_update":"0001-01-01T00:00:00Z","name_a2s":"Uncletopia | Seattle | 1 | All Maps","protocol":17,"map":"pl_frontier_final","folder":"tf","game":"Team Fortress","app_id":440,"player_count":24,"max_players":24,"Bots":0,"server_type":"Dedicated","server_os":"Linux","password":true,"vac":true,"version":"7961495","steam_id":85568392924469997,"keywords":["nocrits","nodmgspread","payload","uncletopia"],"game_id":440,"stv_port":27016,"stv_name":"Uncletopia | Seattle | 1 | All Maps | STV","players":[{"user_id":559,"name":"trackpad gaming | f2p","steam_id":76561198840414371,"connected_time":3697000000000,"state":"active","ping":55},{"user_id":587,"name":"Smile","steam_id":76561198110008786,"connected_time":817000000000,"state":"active","ping":54},{"user_id":561,"name":"MacchuPeachu","steam_id":76561199093242587,"connected_time":3369000000000,"state":"active","ping":61},{"user_id":564,"name":"Callahan","steam_id":76561197976928457,"connected_time":3322000000000,"state":"active","ping":44},{"user_id":592,"name":"Alltrex","steam_id":76561198202254225,"connected_time":501000000000,"state":"active","ping":51},{"user_id":589,"name":"Greskrendtregk","steam_id":76561197969553142,"connected_time":791000000000,"state":"active","ping":62},{"user_id":590,"name":"vfa","steam_id":76561198055729118,"connected_time":589000000000,"state":"active","ping":60},{"user_id":579,"name":"nolove","steam_id":76561198274550638,"connected_time":1481000000000,"state":"active","ping":107},{"user_id":550,"name":"Nightshade","steam_id":76561199011017814,"connected_time":4479000000000,"state":"active","ping":70},{"user_id":594,"name":"es","steam_id":76561198006892337,"connected_time":454000000000,"state":"active","ping":79},{"user_id":571,"name":"jayeskae","steam_id":76561198144220801,"connected_time":2630000000000,"state":"active","ping":46},{"user_id":593,"name":"Captain Underbelly","steam_id":76561198811270935,"connected_time":498000000000,"state":"active","ping":49},{"user_id":595,"name":"rad killl raccoon","steam_id":76561198980975595,"connected_time":107000000000,"state":"active","ping":57},{"user_id":580,"name":"Tazzzy18 YTlive","steam_id":76561198280897107,"connected_time":938000000000,"state":"active","ping":45},{"user_id":549,"name":"squart guy","steam_id":76561199411560141,"connected_time":4999000000000,"state":"active","ping":52},{"user_id":552,"name":"Mignyanne :3","steam_id":76561198048754056,"connected_time":4468000000000,"state":"active","ping":68},{"user_id":577,"name":"sierra","steam_id":76561197969873415,"connected_time":1494000000000,"state":"active","ping":149},{"user_id":506,"name":"Daz","steam_id":76561198041431938,"connected_time":9718000000000,"state":"active","ping":48},{"user_id":581,"name":"Spectre","steam_id":76561198037535169,"connected_time":852000000000,"state":"active","ping":75},{"user_id":586,"name":"forest","steam_id":76561198157960257,"connected_time":824000000000,"state":"active","ping":45},{"user_id":574,"name":"HotHead","steam_id":76561198138468982,"connected_time":1648000000000,"state":"active","ping":39},{"user_id":570,"name":"Apollo","steam_id":76561198162364702,"connected_time":2639000000000,"state":"active","ping":45},{"user_id":493,"name":"Luca","steam_id":76561198125087140,"connected_time":10743000000000,"state":"active","ping":46},{"user_id":582,"name":"Streamline","steam_id":76561198031098638,"connected_time":851000000000,"state":"active","ping":107}]},{"server_id":119,"name":"Uncletopia | Seattle | 2 | All Maps","name_short":"sea-2","host":"sea-1.us.uncletopia.com","port":27025,"enabled":true,"region":"us-west","cc":"us","latitude":47.608013,"longitude":-122.33517,"reserved":0,"last_update":"0001-01-01T00:00:00Z","name_a2s":"Uncletopia | Seattle | 2 | All Maps","protocol":17,"map":"koth_lakeside_final","folder":"tf","game":"Team Fortress","app_id":440,"player_count":24,"max_players":24,"Bots":0,"server_type":"Dedicated","server_os":"Linux","password":true,"vac":true,"version":"7961495","steam_id":85568392924469998,"keywords":["cp","nocrits","nodmgspread","uncletopia"],"game_id":440,"stv_port":27026,"stv_name":"Uncletopia | Seattle | 2 | All Maps | STV","players":[{"user_id":460,"name":"Seriously Bruh","steam_id":76561198070408485,"connected_time":1102000000000,"state":"active","ping":52},{"user_id":480,"name":"August_Aurelius","steam_id":76561198029055447,"connected_time":638000000000,"state":"active","ping":75},{"user_id":454,"name":"SoCal Kaizer","steam_id":76561198334361081,"connected_time":1457000000000,"state":"active","ping":83},{"user_id":471,"name":"Dongus","steam_id":76561197979056451,"connected_time":825000000000,"state":"active","ping":56},{"user_id":473,"name":"⌞pizzaguy⌝","steam_id":76561197963710485,"connected_time":786000000000,"state":"active","ping":56},{"user_id":478,"name":"Vv","steam_id":76561199052196750,"connected_time":730000000000,"state":"active","ping":91},{"user_id":412,"name":"ilun","steam_id":76561198042913843,"connected_time":4754000000000,"state":"active","ping":60},{"user_id":439,"name":"ChangingThingy","steam_id":76561198402451290,"connected_time":2443000000000,"state":"active","ping":59},{"user_id":472,"name":"HunterRedTalon","steam_id":76561198983453730,"connected_time":819000000000,"state":"active","ping":105},{"user_id":450,"name":"› Noir","steam_id":76561197977418994,"connected_time":1592000000000,"state":"active","ping":65},{"user_id":367,"name":"Lili","steam_id":76561199488457138,"connected_time":7966000000000,"state":"active","ping":56},{"user_id":435,"name":"Phos","steam_id":76561198122339506,"connected_time":2617000000000,"state":"active","ping":82},{"user_id":481,"name":"eryn 🗺","steam_id":76561198004433070,"connected_time":554000000000,"state":"active","ping":118},{"user_id":442,"name":"Legionnaire man","steam_id":76561199338313228,"connected_time":2091000000000,"state":"active","ping":74},{"user_id":474,"name":"Calico Jolteon","steam_id":76561198283758322,"connected_time":786000000000,"state":"active","ping":79},{"user_id":476,"name":"AllThisDesignerGotMeDripDrip","steam_id":76561198113427343,"connected_time":775000000000,"state":"active","ping":86},{"user_id":479,"name":"ShiningForce","steam_id":76561198026039048,"connected_time":718000000000,"state":"active","ping":75},{"user_id":392,"name":"tolnut","steam_id":76561198818842933,"connected_time":6256000000000,"state":"active","ping":57},{"user_id":393,"name":"hamilton","steam_id":76561198034096096,"connected_time":6245000000000,"state":"active","ping":120},{"user_id":470,"name":"Thequirka","steam_id":76561198968058652,"connected_time":861000000000,"state":"active","ping":51},{"user_id":394,"name":"BitPieStudios","steam_id":76561198059216393,"connected_time":6231000000000,"state":"active","ping":64},{"user_id":448,"name":"Wet","steam_id":76561199474220124,"connected_time":1682000000000,"state":"active","ping":122},{"user_id":452,"name":"Retroliar","steam_id":76561199004899484,"connected_time":1522000000000,"state":"active","ping":80},{"user_id":456,"name":"Spicy Chicken","steam_id":76561198074209737,"connected_time":1418000000000,"state":"active","ping":91}]},{"server_id":406,"name":"Uncletopia | Seattle | 3 | Stopwatch","name_short":"sea-3","host":"sea-1.us.uncletopia.com","port":27035,"enabled":true,"region":"us-west","cc":"us","latitude":47.608013,"longitude":-122.33517,"reserved":0,"last_update":"0001-01-01T00:00:00Z","name_a2s":"Uncletopia | Seattle | 3 | Stopwatch","protocol":17,"map":"workshop/koth_ashville_final.ugc2130459942","folder":"tf","game":"Team Fortress","app_id":440,"player_count":1,"max_players":24,"Bots":0,"server_type":"Dedicated","server_os":"Linux","password":true,"vac":true,"version":"7961495","steam_id":85568392924515217,"keywords":["cp","nocrits","nodmgspread","uncletopia"],"game_id":440,"stv_port":27036,"stv_name":"Uncletopia | Seattle | 3 | Stopwatch | STV","players":[{"user_id":113,"name":"CEO of blowing stuff up","steam_id":76561198874140296,"connected_time":90000000000,"state":"active","ping":45}]},{"server_id":17,"name":"Uncletopia | San Francisco | 1 | All Maps","name_short":"sfo-1","host":"sfo-1.us.uncletopia.com","port":27015,"enabled":true,"region":"us-west","cc":"us","latitude":37.77397,"longitude":-122.4313,"reserved":0,"last_update":"0001-01-01T00:00:00Z","name_a2s":"Uncletopia | San Francisco | 1 | All Maps","protocol":17,"map":"cp_sunshine","folder":"tf","game":"Team Fortress","app_id":440,"player_count":0,"max_players":24,"Bots":0,"server_type":"Dedicated","server_os":"Linux","password":true,"vac":true,"version":"7961495","steam_id":85568392924469999,"keywords":["cp","nocrits","nodmgspread","uncletopia"],"game_id":440,"stv_port":27016,"stv_name":"Uncletopia | San Francisco | 1 | All Maps | STV","players":null},{"server_id":18,"name":"Uncletopia | San Francisco | 2 | All Maps","name_short":"sfo-2","host":"sfo-1.us.uncletopia.com","port":27025,"enabled":true,"region":"us-west","cc":"us","latitude":37.77397,"longitude":-122.4313,"reserved":0,"last_update":"0001-01-01T00:00:00Z","name_a2s":"Uncletopia | San Francisco | 2 | All Maps","protocol":17,"map":"cp_dustbowl","folder":"tf","game":"Team Fortress","app_id":440,"player_count":24,"max_players":24,"Bots":0,"server_type":"Dedicated","server_os":"Linux","password":true,"vac":true,"version":"7961495","steam_id":85568392924470000,"keywords":["cp","nocrits","nodmgspread","uncletopia"],"game_id":440,"stv_port":27026,"stv_name":"Uncletopia | San Francisco | 2 | All Maps | STV","players":[{"user_id":295,"name":"Skad","steam_id":76561198872455128,"connected_time":1271000000000,"state":"active","ping":74},{"user_id":316,"name":"Motobono9","steam_id":76561198032403516,"connected_time":121000000000,"state":"active","ping":66},{"user_id":312,"name":"caca sniffer","steam_id":76561199099914725,"connected_time":223000000000,"state":"active","ping":92},{"user_id":317,"name":"Junipyre","steam_id":76561198044819364,"connected_time":116000000000,"state":"spawning","ping":74},{"user_id":302,"name":"Cowboyfos","steam_id":76561199055740230,"connected_time":999000000000,"state":"active","ping":65},{"user_id":278,"name":"SanitysEdge","steam_id":76561198130732813,"connected_time":1482000000000,"state":"active","ping":53},{"user_id":297,"name":"dark souls boss","steam_id":76561198316610724,"connected_time":1257000000000,"state":"active","ping":91},{"user_id":310,"name":"Igrium","steam_id":76561198119549811,"connected_time":556000000000,"state":"active","ping":56},{"user_id":305,"name":"Mom","steam_id":76561198207936000,"connected_time":750000000000,"state":"active","ping":43},{"user_id":265,"name":"Chirunomo","steam_id":76561197963956138,"connected_time":2130000000000,"state":"active","ping":67},{"user_id":304,"name":"this","steam_id":76561198170195505,"connected_time":827000000000,"state":"active","ping":39},{"user_id":280,"name":"Djosaurus","steam_id":76561199117271153,"connected_time":1428000000000,"state":"active","ping":80},{"user_id":315,"name":"JawnyMac","steam_id":76561198179529599,"connected_time":134000000000,"state":"active","ping":57},{"user_id":289,"name":"TüCold","steam_id":76561198111278197,"connected_time":1337000000000,"state":"active","ping":54},{"user_id":259,"name":"Minidonk","steam_id":76561197983644117,"connected_time":2231000000000,"state":"active","ping":66},{"user_id":284,"name":"KingOmegaVolt","steam_id":76561199187481231,"connected_time":1400000000000,"state":"active","ping":123},{"user_id":292,"name":"IV","steam_id":76561198208996573,"connected_time":1310000000000,"state":"active","ping":69},{"user_id":306,"name":"neet","steam_id":76561197968115168,"connected_time":729000000000,"state":"active","ping":100},{"user_id":313,"name":"Artemisia (She/They)","steam_id":76561198265616793,"connected_time":190000000000,"state":"active","ping":76},{"user_id":314,"name":"Quaalude","steam_id":76561198100177449,"connected_time":183000000000,"state":"active","ping":78},{"user_id":307,"name":"portal robewrtson big fan","steam_id":76561198150428763,"connected_time":700000000000,"state":"active","ping":59},{"user_id":301,"name":"RuinLucky","steam_id":76561199481172481,"connected_time":1131000000000,"state":"active","ping":126},{"user_id":294,"name":"Hektur Salmondchonka","steam_id":76561198136982572,"connected_time":1293000000000,"state":"active","ping":69},{"user_id":309,"name":"SN0W","steam_id":76561198153665468,"connected_time":670000000000,"state":"active","ping":91}]},{"server_id":19,"name":"Uncletopia | San Francisco | 3 | Stopwatch","name_short":"sfo-3","host":"sfo-1.us.uncletopia.com","port":27035,"enabled":true,"region":"us-west","cc":"us","latitude":37.77397,"longitude":-122.4313,"reserved":0,"last_update":"0001-01-01T00:00:00Z","name_a2s":"Uncletopia | San Francisco | 3 | Stopwatch","protocol":17,"map":"workshop/koth_bagel_rc6.ugc2514036946","folder":"tf","game":"Team Fortress","app_id":440,"player_count":0,"max_players":24,"Bots":0,"server_type":"Dedicated","server_os":"Linux","password":true,"vac":true,"version":"7961495","steam_id":85568392924742824,"keywords":["cp","nocrits","nodmgspread","uncletopia"],"game_id":440,"stv_port":27036,"stv_name":"Uncletopia | San Francisco | 3 | Stopwatch | STV","players":null},{"server_id":20,"name":"Uncletopia | San Francisco | 4 | Community","name_short":"sfo-4","host":"sfo-1.us.uncletopia.com","port":27045,"enabled":true,"region":"us-west","cc":"us","latitude":37.77397,"longitude":-122.4313,"reserved":0,"last_update":"0001-01-01T00:00:00Z","name_a2s":"Uncletopia | San Francisco | 4 | Community","protocol":17,"map":"pl_pier","folder":"tf","game":"Team Fortress","app_id":440,"player_count":0,"max_players":24,"Bots":0,"server_type":"Dedicated","server_os":"Linux","password":true,"vac":true,"version":"7961495","steam_id":85568392924742826,"keywords":["nocrits","nodmgspread","payload","uncletopia"],"game_id":440,"stv_port":27046,"stv_name":"Uncletopia | San Francisco | 4 | Community | STV","players":null},{"server_id":141,"name":"Uncletopia | Sydney | 1 | All Maps","name_short":"syd-1","host":"syd-1.au.uncletopia.com","port":27015,"enabled":true,"region":"au","cc":"au","latitude":-33.865143,"longitude":151.2099,"reserved":0,"last_update":"0001-01-01T00:00:00Z","name_a2s":"Uncletopia | Sydney | 1 | All Maps","protocol":17,"map":"koth_cascade","folder":"tf","game":"Team Fortress","app_id":440,"player_count":21,"max_players":24,"Bots":0,"server_type":"Dedicated","server_os":"Linux","password":true,"vac":true,"version":"7961495","steam_id":85568392924470001,"keywords":["cp","nocrits","nodmgspread","uncletopia"],"game_id":440,"stv_port":27016,"stv_name":"Uncletopia | Sydney | 1 | All Maps | STV","players":[{"user_id":245,"name":"Esiotrot101","steam_id":76561199017575950,"connected_time":164000000000,"state":"active","ping":55},{"user_id":147,"name":"Medieval Cucumber Sorcerer","steam_id":76561198972095766,"connected_time":6183000000000,"state":"active","ping":33},{"user_id":226,"name":"dizzy","steam_id":76561198102953163,"connected_time":1127000000000,"state":"active","ping":64},{"user_id":246,"name":"† Reeve","steam_id":76561197969102326,"connected_time":156000000000,"state":"active","ping":68},{"user_id":139,"name":"ash :)","steam_id":76561198127508905,"connected_time":7110000000000,"state":"active","ping":37},{"user_id":247,"name":"Massira","steam_id":76561199445907962,"connected_time":124000000000,"state":"active","ping":56},{"user_id":193,"name":"table","steam_id":76561199218095319,"connected_time":2955000000000,"state":"active","ping":58},{"user_id":242,"name":"Makima's Chair","steam_id":76561199174449723,"connected_time":220000000000,"state":"active","ping":154},{"user_id":248,"name":"Lirix_2","steam_id":76561199211079793,"connected_time":85000000000,"state":"active","ping":48},{"user_id":249,"name":"Leviathan","steam_id":76561198437699814,"connected_time":26000000000,"state":"spawning","ping":263},{"user_id":217,"name":"Cogzy","steam_id":76561198012463402,"connected_time":1660000000000,"state":"active","ping":60},{"user_id":233,"name":"peedybird819","steam_id":76561198967467564,"connected_time":755000000000,"state":"active","ping":74},{"user_id":232,"name":"Majima","steam_id":76561198288970258,"connected_time":832000000000,"state":"active","ping":46},{"user_id":238,"name":"sav","steam_id":76561198058760041,"connected_time":259000000000,"state":"active","ping":69},{"user_id":211,"name":"CheeseFlag126","steam_id":76561199262769917,"connected_time":1904000000000,"state":"active","ping":68},{"user_id":216,"name":"maximally sub-optimised","steam_id":76561198064700468,"connected_time":1754000000000,"state":"active","ping":69},{"user_id":213,"name":"hydatid","steam_id":76561198796773396,"connected_time":1874000000000,"state":"active","ping":48},{"user_id":215,"name":"P. Ness","steam_id":76561198037664265,"connected_time":1760000000000,"state":"active","ping":60},{"user_id":231,"name":"Wobbly Bob","steam_id":76561197998726168,"connected_time":865000000000,"state":"active","ping":67},{"user_id":192,"name":"fun haver","steam_id":76561197996866578,"connected_time":2983000000000,"state":"active","ping":58},{"user_id":199,"name":"goob","steam_id":76561199480479443,"connected_time":2715000000000,"state":"active","ping":87}]},{"server_id":123,"name":"Uncletopia | Sydney | 2 | All Maps","name_short":"syd-2","host":"syd-1.au.uncletopia.com","port":27025,"enabled":true,"region":"au","cc":"au","latitude":-33.865143,"longitude":151.2099,"reserved":0,"last_update":"0001-01-01T00:00:00Z","name_a2s":"Uncletopia | Sydney | 2 | All Maps","protocol":17,"map":"koth_lakeside_final","folder":"tf","game":"Team Fortress","app_id":440,"player_count":0,"max_players":24,"Bots":0,"server_type":"Dedicated","server_os":"Linux","password":true,"vac":true,"version":"7961495","steam_id":85568392924470002,"keywords":["cp","nocrits","nodmgspread","uncletopia"],"game_id":440,"stv_port":27026,"stv_name":"Uncletopia | Sydney | 2 | All Maps | STV","players":null},{"server_id":395,"name":"Uncletopia | Sydney | 3 | All Maps","name_short":"syd-3","host":"syd-1.au.uncletopia.com","port":27035,"enabled":true,"region":"au","cc":"au","latitude":-33.865143,"longitude":151.2099,"reserved":0,"last_update":"0001-01-01T00:00:00Z","name_a2s":"Uncletopia | Sydney | 3 | All Maps","protocol":17,"map":"koth_lakeside_final","folder":"tf","game":"Team Fortress","app_id":440,"player_count":0,"max_players":24,"Bots":0,"server_type":"Dedicated","server_os":"Linux","password":true,"vac":true,"version":"7961495","steam_id":85568392925194467,"keywords":["cp","nocrits","nodmgspread","uncletopia"],"game_id":440,"stv_port":27036,"stv_name":"Uncletopia | Sydney | 3 | All Maps | STV","players":null},{"server_id":396,"name":"Uncletopia | Sydney | 4 | All Maps","name_short":"syd-4","host":"syd-1.au.uncletopia.com","port":27045,"enabled":true,"region":"au","cc":"au","latitude":-33.865143,"longitude":151.2099,"reserved":0,"last_update":"0001-01-01T00:00:00Z","name_a2s":"Uncletopia | Sydney | 4 | All Maps","protocol":17,"map":"pl_barnblitz","folder":"tf","game":"Team Fortress","app_id":440,"player_count":3,"max_players":24,"Bots":0,"server_type":"Dedicated","server_os":"Linux","password":true,"vac":true,"version":"7961495","steam_id":85568392925397958,"keywords":["nocrits","nodmgspread","payload","uncletopia"],"game_id":440,"stv_port":27046,"stv_name":"Uncletopia | Sydney | 4 | All Maps | STV","players":[{"user_id":10,"name":"little raw meat boy","steam_id":76561199248254676,"connected_time":393000000000,"state":"active","ping":62},{"user_id":8,"name":"wom","steam_id":76561199375834537,"connected_time":824000000000,"state":"active","ping":126},{"user_id":9,"name":"Saint Patrick #FineMaccasDining","steam_id":76561198336999112,"connected_time":548000000000,"state":"active","ping":52}]},{"server_id":58,"name":"Uncletopia | Sydney | 5 | Stopwatch","name_short":"syd-5","host":"syd-1.au.uncletopia.com","port":27055,"enabled":true,"region":"au","cc":"au","latitude":-33.865143,"longitude":151.2099,"reserved":0,"last_update":"0001-01-01T00:00:00Z","name_a2s":"Uncletopia | Sydney | 5 | Stopwatch","protocol":17,"map":"pl_frontier_final","folder":"tf","game":"Team Fortress","app_id":440,"player_count":0,"max_players":24,"Bots":0,"server_type":"Dedicated","server_os":"Linux","password":true,"vac":true,"version":"7961495","steam_id":85568392925397959,"keywords":["nocrits","nodmgspread","payload","uncletopia"],"game_id":440,"stv_port":27056,"stv_name":"Uncletopia | Sydney | 5 | Stopwatch | STV","players":null},{"server_id":59,"name":"Uncletopia | Sydney | 6 | Community","name_short":"syd-6","host":"syd-1.au.uncletopia.com","port":27065,"enabled":true,"region":"au","cc":"au","latitude":-33.865143,"longitude":151.2099,"reserved":0,"last_update":"0001-01-01T00:00:00Z","name_a2s":"Uncletopia | Sydney | 6 | Community","protocol":17,"map":"cp_sunshine","folder":"tf","game":"Team Fortress","app_id":440,"player_count":0,"max_players":24,"Bots":0,"server_type":"Dedicated","server_os":"Linux","password":true,"vac":true,"version":"7961495","steam_id":85568392925397960,"keywords":["cp","nocrits","nodmgspread","uncletopia"],"game_id":440,"stv_port":27066,"stv_name":"Uncletopia | Sydney | 6 | Community | STV","players":null},{"server_id":49,"name":"Uncletopia | Warsaw | 1 | One Thousand Uncles","name_short":"waw-1","host":"waw-1.pl.uncletopia.com","port":27015,"enabled":true,"region":"eu","cc":"pl","latitude":52.2297,"longitude":21.017532,"reserved":0,"last_update":"0001-01-01T00:00:00Z","name_a2s":"Uncletopia | Warsaw | 1 | One Thousand Uncles","protocol":17,"map":"pl_upward","folder":"tf","game":"Team Fortress","app_id":440,"player_count":0,"max_players":32,"Bots":0,"server_type":"Dedicated","server_os":"Linux","password":true,"vac":true,"version":"7961495","steam_id":85568392925397850,"keywords":["alltalk","danepve","increased_maxplayers","nocrits","norespawntime","payload","uncletopia"],"game_id":440,"stv_port":0,"stv_name":"","players":null},{"server_id":50,"name":"Uncletopia | Warsaw | 2 | One Thousand Uncles","name_short":"waw-2","host":"waw-1.pl.uncletopia.com","port":27025,"enabled":true,"region":"eu","cc":"pl","latitude":52.2297,"longitude":21.017532,"reserved":0,"last_update":"0001-01-01T00:00:00Z","name_a2s":"Uncletopia | Warsaw | 2 | One Thousand Uncles","protocol":17,"map":"pl_thundermountain","folder":"tf","game":"Team Fortress","app_id":440,"player_count":0,"max_players":32,"Bots":0,"server_type":"Dedicated","server_os":"Linux","password":true,"vac":true,"version":"7961495","steam_id":85568392925397851,"keywords":["alltalk","danepve","increased_maxplayers","nocrits","norespawntime","payload","uncletopia"],"game_id":440,"stv_port":0,"stv_name":"","players":null},{"server_id":51,"name":"Uncletopia | Warsaw | 3 | All Maps","name_short":"waw-3","host":"waw-1.pl.uncletopia.com","port":27035,"enabled":true,"region":"eu","cc":"pl","latitude":52.2297,"longitude":21.017532,"reserved":0,"last_update":"0001-01-01T00:00:00Z","name_a2s":"Uncletopia | Warsaw | 3 | All Maps","protocol":17,"map":"cp_process_final","folder":"tf","game":"Team Fortress","app_id":440,"player_count":0,"max_players":24,"Bots":0,"server_type":"Dedicated","server_os":"Linux","password":true,"vac":true,"version":"7961495","steam_id":85568392925397852,"keywords":["cp","nocrits","nodmgspread","uncletopia"],"game_id":440,"stv_port":27036,"stv_name":"Uncletopia | Warsaw | 3 | All Maps | STV","players":null},{"server_id":52,"name":"Uncletopia | Warsaw | 4 | All Maps","name_short":"waw-4","host":"waw-1.pl.uncletopia.com","port":27045,"enabled":true,"region":"eu","cc":"pl","latitude":52.2297,"longitude":21.017532,"reserved":0,"last_update":"0001-01-01T00:00:00Z","name_a2s":"Uncletopia | Warsaw | 4 | All Maps","protocol":17,"map":"pl_borneo","folder":"tf","game":"Team Fortress","app_id":440,"player_count":0,"max_players":24,"Bots":0,"server_type":"Dedicated","server_os":"Linux","password":true,"vac":true,"version":"7961495","steam_id":85568392925397853,"keywords":["nocrits","nodmgspread","payload","uncletopia"],"game_id":440,"stv_port":27046,"stv_name":"Uncletopia | Warsaw | 4 | All Maps | STV","players":null},{"server_id":53,"name":"Uncletopia | Warsaw | 5 | Stopwatch","name_short":"waw-5","host":"waw-1.pl.uncletopia.com","port":27055,"enabled":true,"region":"eu","cc":"pl","latitude":52.2297,"longitude":21.017532,"reserved":0,"last_update":"0001-01-01T00:00:00Z","name_a2s":"Uncletopia | Warsaw | 5 | Stopwatch","protocol":17,"map":"workshop/cp_reckoner_rc6.ugc674719999","folder":"tf","game":"Team Fortress","app_id":440,"player_count":0,"max_players":24,"Bots":0,"server_type":"Dedicated","server_os":"Linux","password":true,"vac":true,"version":"7961495","steam_id":85568392925397854,"keywords":["cp","nocrits","nodmgspread","uncletopia"],"game_id":440,"stv_port":27056,"stv_name":"Uncletopia | Warsaw | 5 | Stopwatch | STV","players":null},{"server_id":54,"name":"Uncletopia | Warsaw | 6 | Community","name_short":"waw-6","host":"waw-1.pl.uncletopia.com","port":27065,"enabled":true,"region":"eu","cc":"pl","latitude":52.2297,"longitude":21.017532,"reserved":0,"last_update":"0001-01-01T00:00:00Z","name_a2s":"Uncletopia | Warsaw | 6 | Community","protocol":17,"map":"workshop/koth_synthetic_rc6a.ugc1549817316","folder":"tf","game":"Team Fortress","app_id":440,"player_count":0,"max_players":24,"Bots":0,"server_type":"Dedicated","server_os":"Linux","password":true,"vac":true,"version":"7961495","steam_id":85568392925397856,"keywords":["cp","nocrits","nodmgspread","uncletopia"],"game_id":440,"stv_port":27066,"stv_name":"Uncletopia | Warsaw | 6 | Community | STV","players":null}]}