{"status":true,"message":"","result":[{"server_id":9,"name":"Uncletopia | Atlanta | 1 | All Maps","name_short":"atl-1","host":"atl-1.us.uncletopia.com","port":27015,"enabled":true,"region":"us-east","cc":"us","latitude":33.753746,"longitude":-84.38633,"reserved":0,"last_update":"0001-01-01T00:00:00Z","name_a2s":"Uncletopia | Atlanta | 1 | All Maps","protocol":17,"map":"pl_pier","folder":"tf","game":"Team Fortress","app_id":440,"player_count":0,"max_players":24,"Bots":0,"server_type":"Dedicated","server_os":"Linux","password":true,"vac":true,"version":"7932396","steam_id":85568392924469982,"keywords":["nocrits","nodmgspread","payload","uncletopia"],"game_id":440,"stv_port":27016,"stv_name":"Uncletopia | Atlanta | 1 | All Maps | STV","players":null},{"server_id":104,"name":"Uncletopia | Atlanta | 2 | All Maps","name_short":"atl-2","host":"atl-1.us.uncletopia.com","port":27025,"enabled":true,"region":"us-east","cc":"us","latitude":33.753746,"longitude":-84.38633,"reserved":0,"last_update":"0001-01-01T00:00:00Z","name_a2s":"Uncletopia | Atlanta | 2 | All Maps","protocol":17,"map":"cp_mountainlab","folder":"tf","game":"Team Fortress","app_id":440,"player_count":0,"max_players":24,"Bots":0,"server_type":"Dedicated","server_os":"Linux","password":true,"vac":true,"version":"7932396","steam_id":85568392924469983,"keywords":["cp","nocrits","nodmgspread","uncletopia"],"game_id":440,"stv_port":27026,"stv_name":"Uncletopia | Atlanta | 2 | All Maps | STV","players":null},{"server_id":400,"name":"Uncletopia | Atlanta | 3 | Community","name_short":"atl-3","host":"atl-1.us.uncletopia.com","port":27035,"enabled":true,"region":"us-east","cc":"us","latitude":33.753746,"longitude":-84.38633,"reserved":0,"last_update":"0001-01-01T00:00:00Z","name_a2s":"Uncletopia | Atlanta | 3 | Community","protocol":17,"map":"pl_borneo","folder":"tf","game":"Team Fortress","app_id":440,"player_count":0,"max_players":24,"Bots":0,"server_type":"Dedicated","server_os":"Linux","password":true,"vac":true,"version":"7932396","steam_id":85568392924515187,"keywords":["nocrits","nodmgspread","payload","uncletopia"],"game_id":440,"stv_port":27036,"stv_name":"Uncletopia | Atlanta | 3 | Community | STV","players":null},{"server_id":401,"name":"Uncletopia | Atlanta | 4 | No Payload","name_short":"atl-4","host":"atl-1.us.uncletopia.com","port":27045,"enabled":true,"region":"us-east","cc":"us","latitude":33.753746,"longitude":-84.38633,"reserved":0,"last_update":"0001-01-01T00:00:00Z","name_a2s":"","protocol":0,"map":"","folder":"","game":"","app_id":0,"player_count":0,"max_players":0,"Bots":0,"server_type":"","server_os":"","password":false,"vac":false,"version":"","steam_id":0,"keywords":null,"game_id":0,"stv_port":0,"stv_name":"","players":null},{"server_id":2,"name":"Uncletopia | Chicago | 1 | All Maps","name_short":"chi-1","host":"chi-1.us.uncletopia.com","port":27015,"enabled":true,"region":"us-central","cc":"us","latitude":41.881832,"longitude":-87.62318,"reserved":0,"last_update":"0001-01-01T00:00:00Z","name_a2s":"Uncletopia | Chicago | 1 | All Maps","protocol":17,"map":"pl_upward","folder":"tf","game":"Team Fortress","app_id":440,"player_count":23,"max_players":24,"Bots":0,"server_type":"Dedicated","server_os":"Linux","password":true,"vac":true,"version":"7932396","steam_id":85568392924469984,"keywords":["nocrits","nodmgspread","payload","uncletopia"],"game_id":440,"stv_port":27016,"stv_name":"Uncletopia | Chicago | 1 | All Maps | STV","players":[{"user_id":62,"name":"‚ô• Mossaline ‚ô•","steam_id":76561198365188929,"connected_time":1233000000000,"state":"spawning","ping":63},{"user_id":48,"name":"SLEEPY-Class NHP","steam_id":76561198064583865,"connected_time":1580000000000,"state":"spawning","ping":47},{"user_id":67,"name":"GotYourNose","steam_id":76561198803527852,"connected_time":778000000000,"state":"spawning","ping":60},{"user_id":30,"name":"JStheguy","steam_id":76561198042168350,"connected_time":2205000000000,"state":"spawning","ping":41},{"user_id":75,"name":"jug of milk","steam_id":76561198386085365,"connected_time":417000000000,"state":"spawning","ping":54},{"user_id":33,"name":"Sonicega the Brave","steam_id":76561198044362988,"connected_time":2100000000000,"state":"spawning","ping":39},{"user_id":72,"name":"anonion","steam_id":76561198056477584,"connected_time":528000000000,"state":"active","ping":190},{"user_id":79,"name":"MayTheFennec","steam_id":76561198859299567,"connected_time":7000000000,"state":"spawning","ping":83},{"user_id":73,"name":"Leonhard Euler","steam_id":76561199070141774,"connected_time":519000000000,"state":"spawning","ping":103},{"user_id":56,"name":"swam","steam_id":76561198412916626,"connected_time":1391000000000,"state":"spawning","ping":79},{"user_id":39,"name":"scapegoat","steam_id":76561198188722751,"connected_time":1905000000000,"state":"active","ping":228},{"user_id":40,"name":"RiverEgg","steam_id":76561198888913405,"connected_time":1876000000000,"state":"spawning","ping":45},{"user_id":76,"name":"Praise_to_the_Flashlight!","steam_id":76561199001728789,"connected_time":250000000000,"state":"spawning","ping":223},{"user_id":49,"name":"FizzleWizard","steam_id":76561198045990868,"connected_time":1577000000000,"state":"spawning","ping":210},{"user_id":43,"name":"realhedgehog2082","steam_id":76561198168931330,"connected_time":1844000000000,"state":"spawning","ping":78},{"user_id":71,"name":"ElZeto","steam_id":76561198252322622,"connected_time":636000000000,"state":"spawning","ping":78},{"user_id":51,"name":"Kirby, Eater of Gods","steam_id":76561199013548188,"connected_time":1544000000000,"state":"spawning","ping":51},{"user_id":66,"name":"GooniOoni","steam_id":76561198102154561,"connected_time":802000000000,"state":"spawning","ping":252},{"user_id":53,"name":"leaf.png","steam_id":76561198847561312,"connected_time":1508000000000,"state":"spawning","ping":304},{"user_id":77,"name":"sneakyboy32","steam_id":76561198341537452,"connected_time":38000000000,"state":"spawning","ping":77},{"user_id":63,"name":"Dennis The Dark Lord","steam_id":76561198259260405,"connected_time":1227000000000,"state":"spawning","ping":59},{"user_id":61,"name":"Frosti","steam_id":76561199236298900,"connected_time":1357000000000,"state":"spawning","ping":64},{"user_id":78,"name":"viagra addict","steam_id":76561198017705248,"connected_time":37000000000,"state":"active","ping":86}]},{"server_id":106,"name":"Uncletopia | Chicago | 2 | All Maps","name_short":"chi-2","host":"chi-1.us.uncletopia.com","port":27025,"enabled":true,"region":"us-central","cc":"us","latitude":41.881832,"longitude":-87.62318,"reserved":0,"last_update":"0001-01-01T00:00:00Z","name_a2s":"Uncletopia | Chicago | 2 | All Maps","protocol":17,"map":"koth_suijin","folder":"tf","game":"Team Fortress","app_id":440,"player_count":9,"max_players":24,"Bots":0,"server_type":"Dedicated","server_os":"Linux","password":true,"vac":true,"version":"7932396","steam_id":85568392924469985,"keywords":["cp","nocrits","nodmgspread","uncletopia"],"game_id":440,"stv_port":27026,"stv_name":"Uncletopia | Chicago | 2 | All Maps | STV","players":[{"user_id":11,"name":"cpg","steam_id":76561198853515541,"connected_time":1141000000000,"state":"active","ping":75},{"user_id":12,"name":"doamgeo468","steam_id":76561199485287045,"connected_time":1118000000000,"state":"active","ping":68},{"user_id":14,"name":"Bored Popcorn","steam_id":76561198141041287,"connected_time":980000000000,"state":"active","ping":101},{"user_id":15,"name":"OrangeSodaMachine","steam_id":76561198079230156,"connected_time":685000000000,"state":"active","ping":67},{"user_id":16,"name":"Cyberknight","steam_id":76561199384165711,"connected_time":669000000000,"state":"active","ping":71},{"user_id":19,"name":"Al Cabone","steam_id":76561198956823243,"connected_time":138000000000,"state":"active","ping":60},{"user_id":20,"name":"minecraft 2.0","steam_id":76561198391819120,"connected_time":122000000000,"state":"active","ping":167},{"user_id":21,"name":"no seriously","steam_id":76561199001979290,"connected_time":103000000000,"state":"active","ping":80},{"user_id":22,"name":"eryn üó∫","steam_id":76561198004433070,"connected_time":36000000000,"state":"active","ping":210}]},{"server_id":402,"name":"Uncletopia | Chicago | 3 | All Maps","name_short":"chi-3","host":"chi-1.us.uncletopia.com","port":27035,"enabled":true,"region":"us-central","cc":"us","latitude":41.881832,"longitude":-87.62318,"reserved":0,"last_update":"0001-01-01T00:00:00Z","name_a2s":"Uncletopia | Chicago | 3 | All Maps","protocol":17,"map":"cp_steel","folder":"tf","game":"Team Fortress","app_id":440,"player_count":24,"max_players":24,"Bots":0,"server_type":"Dedicated","server_os":"Linux","password":true,"vac":true,"version":"7932396","steam_id":85568392924515191,"keywords":["cp","nocrits","nodmgspread","uncletopia"],"game_id":440,"stv_port":27036,"stv_name":"Uncletopia | Chicago | 3 | All Maps | STV","players":[{"user_id":417,"name":"Temujin","steam_id":76561198030936583,"connected_time":1426000000000,"state":"active","ping":60},{"user_id":413,"name":"Cy4nideCutie","steam_id":76561198126686695,"connected_time":1769000000000,"state":"active","ping":74},{"user_id":391,"name":"obamascout","steam_id":76561199073972797,"connected_time":3107000000000,"state":"active","ping":104},{"user_id":432,"name":"trobin120","steam_id":76561199122420273,"connected_time":704000000000,"state":"active","ping":62},{"user_id":429,"name":"Rookie","steam_id":76561198191763447,"connected_time":1033000000000,"state":"active","ping":65},{"user_id":359,"name":"Garfield Expert","steam_id":76561198092452824,"connected_time":4139000000000,"state":"active","ping":70},{"user_id":416,"name":"Town Dweller","steam_id":76561198013735714,"connected_time":1682000000000,"state":"active","ping":68},{"user_id":434,"name":"etoile","steam_id":76561198081962061,"connected_time":472000000000,"state":"active","ping":83},{"user_id":405,"name":"Clover","steam_id":76561198038905361,"connected_time":2663000000000,"state":"active","ping":58},{"user_id":435,"name":"croissantcrusader","steam_id":76561198813533235,"connected_time":457000000000,"state":"active","ping":90},{"user_id":431,"name":"john tavolta from pulp fiction","steam_id":76561199487373269,"connected_time":838000000000,"state":"active","ping":62},{"user_id":436,"name":"Dakyser1","steam_id":76561199371191338,"connected_time":447000000000,"state":"active","ping":65},{"user_id":438,"name":"Borgir","steam_id":76561198325390265,"connected_time":412000000000,"state":"active","ping":100},{"user_id":441,"name":"CEO of aiming","steam_id":76561198058956253,"connected_time":123000000000,"state":"active","ping":78},{"user_id":389,"name":"Villain_7","steam_id":76561198985858094,"connected_time":3143000000000,"state":"active","ping":68},{"user_id":428,"name":"Fox Mulder is the first himbo","steam_id":76561198799297906,"connected_time":1176000000000,"state":"active","ping":83},{"user_id":440,"name":"custodian","steam_id":76561198058793778,"connected_time":187000000000,"state":"active","ping":66},{"user_id":404,"name":"scrotal recall","steam_id":76561198135945598,"connected_time":2714000000000,"state":"active","ping":74},{"user_id":433,"name":"Captain Cocochino","steam_id":76561197967647629,"connected_time":486000000000,"state":"active","ping":141},{"user_id":430,"name":"Idiot Princess","steam_id":76561198048205270,"connected_time":855000000000,"state":"active","ping":87},{"user_id":426,"name":"Bradz","steam_id":76561198175090085,"connected_time":1192000000000,"state":"active","ping":104},{"user_id":400,"name":"GumZie","steam_id":76561198202584223,"connected_time":2987000000000,"state":"active","ping":104},{"user_id":401,"name":"Anonymous Redneck","steam_id":76561198006140954,"connected_time":2981000000000,"state":"active","ping":76},{"user_id":402,"name":"BurningKev","steam_id":76561198057688837,"connected_time":2940000000000,"state":"active","ping":82}]},{"server_id":403,"name":"Uncletopia | Chicago | 4 | All Maps","name_short":"chi-4","host":"chi-1.us.uncletopia.com","port":27045,"enabled":true,"region":"us-central","cc":"us","latitude":41.881832,"longitude":-87.62318,"reserved":0,"last_update":"0001-01-01T00:00:00Z","name_a2s":"Uncletopia | Chicago | 4 | All Maps","protocol":17,"map":"pl_snowycoast","folder":"tf","game":"Team Fortress","app_id":440,"player_count":24,"max_players":24,"Bots":0,"server_type":"Dedicated","server_os":"Linux","password":true,"vac":true,"version":"7932396","steam_id":85568392924515193,"keywords":["nocrits","nodmgspread","payload","uncletopia"],"game_id":440,"stv_port":27046,"stv_name":"Uncletopia | Chicago | 4 | All Maps | STV","players":[{"user_id":106,"name":"hatsune miku","steam_id":76561199445009981,"connected_time":1646000000000,"state":"active","ping":92},{"user_id":128,"name":"Ezakt","steam_id":76561199099132304,"connected_time":104000000000,"state":"active","ping":70},{"user_id":127,"name":"scrapheap","steam_id":76561198202407087,"connected_time":120000000000,"state":"active","ping":88},{"user_id":130,"name":"Myn","steam_id":76561198055438857,"connected_time":78000000000,"state":"active","ping":79},{"user_id":129,"name":"SMT III Gaming","steam_id":76561198120536505,"connected_time":100000000000,"state":"active","ping":60},{"user_id":124,"name":"Gotta Move That Gear Up","steam_id":76561197993467034,"connected_time":263000000000,"state":"active","ping":45},{"user_id":114,"name":"TRGG","steam_id":76561198797867876,"connected_time":1049000000000,"state":"active","ping":56},{"user_id":131,"name":"rabscootle","steam_id":76561198045619076,"connected_time":47000000000,"state":"active","ping":93},{"user_id":132,"name":"Skrunkly","steam_id":76561198241629912,"connected_time":47000000000,"state":"active","ping":64},{"user_id":133,"name":"gorf?","steam_id":76561198142286417,"connected_time":45000000000,"state":"active","ping":50},{"user_id":125,"name":"Belvidere","steam_id":76561198121336953,"connected_time":169000000000,"state":"active","ping":68},{"user_id":24,"name":"Lucide","steam_id":76561197998530400,"connected_time":7620000000000,"state":"active","ping":101},{"user_id":120,"name":"OpenDown","steam_id":76561198064132688,"connected_time":644000000000,"state":"active","ping":58},{"user_id":134,"name":"Elevator","steam_id":76561198974286387,"connected_time":35000000000,"state":"active","ping":63},{"user_id":126,"name":"MoonWolf","steam_id":76561198095735033,"connected_time":144000000000,"state":"active","ping":73},{"user_id":58,"name":"Maverick","steam_id":76561198322829814,"connected_time":5326000000000,"state":"active","ping":79},{"user_id":108,"name":"thehookerslammer","steam_id":76561198050136796,"connected_time":1535000000000,"state":"active","ping":75},{"user_id":135,"name":"Wengatang","steam_id":76561198021747059,"connected_time":20000000000,"state":"active","ping":45},{"user_id":136,"name":"[—µ∆áity] Grill","steam_id":76561198084040844,"connected_time":18000000000,"state":"spawning","ping":74},{"user_id":115,"name":"Orenji","steam_id":76561199229204857,"connected_time":958000000000,"state":"active","ping":119},{"user_id":113,"name":"Vortigon23","steam_id":76561198116361805,"connected_time":1317000000000,"state":"active","ping":85},{"user_id":121,"name":"Fiendish Frog","steam_id":76561198029478821,"connected_time":629000000000,"state":"active","ping":69},{"user_id":137,"name":"mepng","steam_id":76561199018758598,"connected_time":18000000000,"state":"spawning","ping":76},{"user_id":138,"name":"M249 | Spectre","steam_id":76561198118334485,"connected_time":4000000000,"state":"spawning","ping":69}]},{"server_id":36,"name":"Uncletopia | Chicago | 5 | All Maps","name_short":"chi-5","host":"chi-2.us.uncletopia.com","port":27015,"enabled":true,"region":"us-central","cc":"us","latitude":41.881832,"longitude":-87.62318,"reserved":0,"last_update":"0001-01-01T00:00:00Z","name_a2s":"Uncletopia | Chicago | 5 | All Maps","protocol":17,"map":"pl_borneo","folder":"tf","game":"Team Fortress","app_id":440,"player_count":16,"max_players":24,"Bots":0,"server_type":"Dedicated","server_os":"Linux","password":true,"vac":true,"version":"7932396","steam_id":85568392924866362,"keywords":["nocrits","nodmgspread","payload","uncletopia"],"game_id":440,"stv_port":27016,"stv_name":"Uncletopia | Chicago | 5 | All Maps | STV","players":[{"user_id":96,"name":"Jesse Bear","steam_id":76561198217075305,"connected_time":132000000000,"state":"active","ping":87},{"user_id":93,"name":"Try Gardening","steam_id":76561198120311340,"connected_time":477000000000,"state":"active","ping":45},{"user_id":97,"name":"magnanimity","steam_id":76561198242842394,"connected_time":127000000000,"state":"active","ping":77},{"user_id":98,"name":"sad boi","steam_id":76561198395577807,"connected_time":106000000000,"state":"active","ping":61},{"user_id":101,"name":"superbad","steam_id":76561198065913973,"connected_time":42000000000,"state":"active","ping":94},{"user_id":50,"name":"Utopia","steam_id":76561198330205913,"connected_time":3424000000000,"state":"active","ping":87},{"user_id":100,"name":"Red_knight85","steam_id":76561199034429562,"connected_time":98000000000,"state":"active","ping":101},{"user_id":89,"name":"Sweetness","steam_id":76561198299850205,"connected_time":772000000000,"state":"active","ping":105},{"user_id":61,"name":"Broadsword","steam_id":76561198011160411,"connected_time":2467000000000,"state":"active","ping":85},{"user_id":88,"name":"Zeek","steam_id":76561197987204351,"connected_time":879000000000,"state":"active","ping":60},{"user_id":87,"name":"ShadowBolt","steam_id":76561198061610985,"connected_time":903000000000,"state":"active","ping":142},{"user_id":66,"name":"Fightin Cow","steam_id":76561198080941486,"connected_time":2301000000000,"state":"active","ping":78},{"user_id":44,"name":"dr. ewk","steam_id":76561198832991231,"connected_time":3914000000000,"state":"active","ping":76},{"user_id":38,"name":"seems_fishy","steam_id":76561199028846656,"connected_time":4539000000000,"state":"active","ping":62},{"user_id":62,"name":"twizted","steam_id":76561197960407274,"connected_time":2392000000000,"state":"active","ping":73},{"user_id":42,"name":"Ozald","steam_id":76561199092019322,"connected_time":4396000000000,"state":"active","ping":71}]},{"server_id":37,"name":"Uncletopia | Chicago | 6 | All Maps","name_short":"chi-6","host":"chi-2.us.uncletopia.com","port":27025,"enabled":true,"region":"us-central","cc":"us","latitude":41.881832,"longitude":-87.62318,"reserved":0,"last_update":"0001-01-01T00:00:00Z","name_a2s":"Uncletopia | Chicago | 6 | All Maps","protocol":17,"map":"koth_viaduct","folder":"tf","game":"Team Fortress","app_id":440,"player_count":0,"max_players":24,"Bots":0,"server_type":"Dedicated","server_os":"Linux","password":true,"vac":true,"version":"7932396","steam_id":85568392924866363,"keywords":["cp","nocrits","nodmgspread","uncletopia"],"game_id":440,"stv_port":27026,"stv_name":"Uncletopia | Chicago | 6 | All Maps | STV","players":null},{"server_id":38,"name":"Uncletopia | Chicago | 7 | Stopwatch Beta","name_short":"chi-7","host":"chi-2.us.uncletopia.com","port":27035,"enabled":true,"region":"us-central","cc":"us","latitude":41.881832,"longitude":-87.62318,"reserved":0,"last_update":"0001-01-01T00:00:00Z","name_a2s":"Uncletopia | Chicago | 7 | Stopwatch Beta","protocol":17,"map":"workshop/koth_ashville_final.ugc2130459942","folder":"tf","game":"Team Fortress","app_id":440,"player_count":0,"max_players":24,"Bots":0,"server_type":"Dedicated","server_os":"Linux","password":true,"vac":true,"version":"7932396","steam_id":85568392924866364,"keywords":["cp","nocrits","nodmgspread","uncletopia"],"game_id":440,"stv_port":27036,"stv_name":"Uncletopia | Chicago | 7 | Stopwatch Beta | STV","players":null},{"server_id":39,"name":"Uncletopia | Chicago | 8 | Community","name_short":"chi-8","host":"chi-2.us.uncletopia.com","port":27045,"enabled":true,"region":"us-central","cc":"us","latitude":41.881832,"longitude":-87.62318,"reserved":0,"last_update":"0001-01-01T00:00:00Z","name_a2s":"Uncletopia | Chicago | 8 | Community","protocol":17,"map":"workshop/pl_shoreleave_rc2.ugc1238849347","folder":"tf","game":"Team Fortress","app_id":440,"player_count":24,"max_players":24,"Bots":0,"server_type":"Dedicated","server_os":"Linux","password":true,"vac":true,"version":"7932396","steam_id":85568392924866365,"keywords":["nocrits","nodmgspread","payload","uncletopia"],"game_id":440,"stv_port":27046,"stv_name":"Uncletopia | Chicago | 8 | Community | STV","players":[{"user_id":384,"name":"NUt","steam_id":76561198031007966,"connected_time":909000000000,"state":"active","ping":71},{"user_id":331,"name":"autisthicc","steam_id":76561198003918928,"connected_time":3512000000000,"state":"active","ping":136},{"user_id":323,"name":"mythics","steam_id":76561199179957944,"connected_time":3852000000000,"state":"active","ping":104},{"user_id":356,"name":"Voids","steam_id":76561198128386726,"connected_time":2456000000000,"state":"active","ping":82},{"user_id":395,"name":"Snowy 79","steam_id":76561198944639546,"connected_time":254000000000,"state":"active","ping":68},{"user_id":389,"name":"dryjack","steam_id":76561198102314418,"connected_time":689000000000,"state":"active","ping":68},{"user_id":397,"name":"Marie","steam_id":76561198056104899,"connected_time":140000000000,"state":"active","ping":88},{"user_id":388,"name":"ronocc","steam_id":76561198089225457,"connected_time":780000000000,"state":"active","ping":106},{"user_id":385,"name":"elyk37","steam_id":76561198124135253,"connected_time":903000000000,"state":"active","ping":77},{"user_id":371,"name":"CHAIRMAN MAO GAMING","steam_id":76561198066018972,"connected_time":1999000000000,"state":"active","ping":78},{"user_id":306,"name":"jayzak24","steam_id":76561198354267509,"connected_time":4873000000000,"state":"active","ping":88},{"user_id":342,"name":"Snake Handler","steam_id":76561198027198306,"connected_time":3014000000000,"state":"active","ping":55},{"user_id":390,"name":"Osrio","steam_id":76561198083428069,"connected_time":681000000000,"state":"active","ping":102},{"user_id":382,"name":"Cassini","steam_id":76561198318526294,"connected_time":1080000000000,"state":"active","ping":61},{"user_id":375,"name":"stupid bastard","steam_id":76561199195104977,"connected_time":1615000000000,"state":"active","ping":74},{"user_id":396,"name":"jozthebob","steam_id":76561199476198856,"connected_time":181000000000,"state":"active","ping":104},{"user_id":391,"name":"fleura","steam_id":76561199403319171,"connected_time":655000000000,"state":"active","ping":120},{"user_id":392,"name":"Bluekiwi1099","steam_id":76561198969079090,"connected_time":606000000000,"state":"active","ping":92},{"user_id":347,"name":"Bozanimal","steam_id":76561198044096897,"connected_time":2862000000000,"state":"active","ping":60},{"user_id":374,"name":"Butters495","steam_id":76561197998689042,"connected_time":1885000000000,"state":"active","ping":81},{"user_id":363,"name":"ADRIEN BRODY","steam_id":76561198009299473,"connected_time":2232000000000,"state":"active","ping":74},{"user_id":292,"name":"miria","steam_id":76561198166433332,"connected_time":5636000000000,"state":"active","ping":105},{"user_id":272,"name":"MellowBoy-2354","steam_id":76561199080630632,"connected_time":7425000000000,"state":"active","ping":101},{"user_id":393,"name":"cass","steam_id":76561198074502046,"connected_time":585000000000,"state":"active","ping":113}]},{"server_id":8,"name":"Uncletopia | Dallas | 1 | All Maps","name_short":"dal-1","host":"dal-1.us.uncletopia.com","port":27015,"enabled":true,"region":"us-central","cc":"us","latitude":32.779167,"longitude":-96.80889,"reserved":0,"last_update":"0001-01-01T00:00:00Z","name_a2s":"Uncletopia | Dallas | 1 | All Maps","protocol":17,"map":"pl_pier","folder":"tf","game":"Team Fortress","app_id":440,"player_count":24,"max_players":24,"Bots":0,"server_type":"Dedicated","server_os":"Linux","password":true,"vac":true,"version":"7932396","steam_id":85568392924469986,"keywords":["nocrits","nodmgspread","payload","uncletopia"],"game_id":440,"stv_port":27016,"stv_name":"Uncletopia | Dallas | 1 | All Maps | STV","players":[{"user_id":355,"name":"Chunck","steam_id":76561198952356892,"connected_time":1626000000000,"state":"active","ping":91},{"user_id":354,"name":"FUNKY TOWN SLAYER","steam_id":76561198119489292,"connected_time":1914000000000,"state":"active","ping":101},{"user_id":370,"name":"Sloth ‚ù¶","steam_id":76561197998378462,"connected_time":1143000000000,"state":"active","ping":107},{"user_id":313,"name":"Silver","steam_id":76561198043770709,"connected_time":4583000000000,"state":"active","ping":38},{"user_id":376,"name":"bean d eafs","steam_id":76561199481157814,"connected_time":340000000000,"state":"active","ping":98},{"user_id":367,"name":"RainboomCrash","steam_id":76561198065612273,"connected_time":1265000000000,"state":"active","ping":104},{"user_id":377,"name":"m√ºnnn","steam_id":76561198111147624,"connected_time":309000000000,"state":"active","ping":73},{"user_id":373,"name":"Daddy Topps","steam_id":76561198203594332,"connected_time":891000000000,"state":"active","ping":97},{"user_id":341,"name":"Jerk Tryhard (roleplay)","steam_id":76561199470538309,"connected_time":3311000000000,"state":"active","ping":76},{"user_id":325,"name":"Deltaco","steam_id":76561198094572694,"connected_time":3994000000000,"state":"active","ping":123},{"user_id":344,"name":"cup","steam_id":76561198121245586,"connected_time":3095000000000,"state":"active","ping":108},{"user_id":378,"name":"Pika","steam_id":76561198068063436,"connected_time":242000000000,"state":"active","ping":64},{"user_id":364,"name":"Doomagedden","steam_id":76561198272589475,"connected_time":1392000000000,"state":"active","ping":59},{"user_id":351,"name":"cute girls add me","steam_id":76561199474493516,"connected_time":2392000000000,"state":"active","ping":75},{"user_id":345,"name":"Bomberman6868","steam_id":76561198101086506,"connected_time":2982000000000,"state":"active","ping":73},{"user_id":310,"name":"Brown_Dream","steam_id":76561198975766145,"connected_time":4780000000000,"state":"active","ping":90},{"user_id":374,"name":"Rick Astley Is A F2P?","steam_id":76561199258805660,"connected_time":721000000000,"state":"active","ping":88},{"user_id":372,"name":"dmdr1969","steam_id":76561198080469611,"connected_time":1060000000000,"state":"active","ping":77},{"user_id":339,"name":"Smashing93","steam_id":76561199058453316,"connected_time":3493000000000,"state":"active","ping":66},{"user_id":352,"name":"Lemonade Juice","steam_id":76561198402892608,"connected_time":2318000000000,"state":"active","ping":73},{"user_id":368,"name":"LUM","steam_id":76561198069976825,"connected_time":1215000000000,"state":"active","ping":98},{"user_id":353,"name":"Axities","steam_id":76561198278008225,"connected_time":1988000000000,"state":"active","ping":88},{"user_id":369,"name":"chikin.sauce","steam_id":76561198042464635,"connected_time":1212000000000,"state":"active","ping":60},{"user_id":255,"name":"gretchling","steam_id":76561198046111695,"connected_time":7271000000000,"state":"active","ping":47}]},{"server_id":108,"name":"Uncletopia | Dallas | 2 | All Maps","name_short":"dal-2","host":"dal-1.us.uncletopia.com","port":27025,"enabled":true,"region":"us-central","cc":"us","latitude":32.779167,"longitude":-96.80889,"reserved":0,"last_update":"0001-01-01T00:00:00Z","name_a2s":"Uncletopia | Dallas | 2 | All Maps","protocol":17,"map":"ctf_doublecross","folder":"tf","game":"Team Fortress","app_id":440,"player_count":24,"max_players":24,"Bots":0,"server_type":"Dedicated","server_os":"Linux","password":true,"vac":true,"version":"7932396","steam_id":85568392924469988,"keywords":["ctf","nocrits","nodmgspread","uncletopia"],"game_id":440,"stv_port":27026,"stv_name":"Uncletopia | Dallas | 2 | All Maps | STV","players":[{"user_id":271,"name":"Lucas","steam_id":76561199079052426,"connected_time":419000000000,"state":"active","ping":147},{"user_id":223,"name":"Likeia #Savetf2","steam_id":76561198005214207,"connected_time":3811000000000,"state":"active","ping":65},{"user_id":236,"name":"Insizhen","steam_id":76561198051352605,"connected_time":2321000000000,"state":"active","ping":47},{"user_id":232,"name":"Zeora","steam_id":76561198799145251,"connected_time":2921000000000,"state":"active","ping":71},{"user_id":268,"name":"TEXAN DREAM","steam_id":76561198119067958,"connected_time":514000000000,"state":"active","ping":100},{"user_id":272,"name":"GetOffMyArk","steam_id":76561198282291988,"connected_time":317000000000,"state":"active","ping":110},{"user_id":265,"name":"peebs","steam_id":76561198261319753,"connected_time":672000000000,"state":"active","ping":56},{"user_id":273,"name":"Darakrish","steam_id":76561198133126686,"connected_time":261000000000,"state":"active","ping":84},{"user_id":182,"name":"TG_16","steam_id":76561199109196768,"connected_time":7807000000000,"state":"active","ping":47},{"user_id":266,"name":"Petah","steam_id":76561198222343492,"connected_time":650000000000,"state":"active","ping":103},{"user_id":229,"name":"stungoperation","steam_id":76561199162409918,"connected_time":2963000000000,"state":"active","ping":123},{"user_id":194,"name":"Gamerfan64","steam_id":76561198801410962,"connected_time":6878000000000,"state":"active","ping":41},{"user_id":241,"name":"Huey","steam_id":76561198972816386,"connected_time":2155000000000,"state":"active","ping":76},{"user_id":221,"name":"Urist McDwarf","steam_id":76561198164004939,"connected_time":4339000000000,"state":"active","ping":103},{"user_id":230,"name":"IT Guy","steam_id":76561198071790583,"connected_time":2946000000000,"state":"active","ping":60},{"user_id":263,"name":"Cube","steam_id":76561199021614213,"connected_time":810000000000,"state":"active","ping":174},{"user_id":237,"name":"Garfelf","steam_id":76561198419850129,"connected_time":2283000000000,"state":"active","ping":110},{"user_id":262,"name":"craxyt","steam_id":76561198050192689,"connected_time":898000000000,"state":"active","ping":110},{"user_id":274,"name":"whats an egg","steam_id":76561198991039398,"connected_time":216000000000,"state":"active","ping":79},{"user_id":253,"name":"Shattered Glass","steam_id":76561198116835391,"connected_time":1150000000000,"state":"active","ping":99},{"user_id":267,"name":"Corpe","steam_id":76561198054490549,"connected_time":610000000000,"state":"active","ping":117},{"user_id":256,"name":"A Straw","steam_id":76561199367935846,"connected_time":1102000000000,"state":"active","ping":70},{"user_id":246,"name":"hforce11","steam_id":76561198087647130,"connected_time":1827000000000,"state":"active","ping":63},{"user_id":275,"name":"L + Ratio","steam_id":76561198263786953,"connected_time":7000000000,"state":"spawning","ping":102}]},{"server_id":5,"name":"Uncletopia | Frankfurt | 1 | All Maps","name_short":"frk-1","host":"frk-1.de.uncletopia.com","port":27015,"enabled":true,"region":"eu","cc":"de","latitude":50.110924,"longitude":8.682127,"reserved":0,"last_update":"0001-01-01T00:00:00Z","name_a2s":"Uncletopia | Frankfurt | 1 | All Maps","protocol":17,"map":"koth_lakeside_final","folder":"tf","game":"Team Fortress","app_id":440,"player_count":17,"max_players":24,"Bots":0,"server_type":"Dedicated","server_os":"Linux","password":true,"vac":true,"version":"7932396","steam_id":85568392924469989,"keywords":["cp","nocrits","nodmgspread","uncletopia"],"game_id":440,"stv_port":27016,"stv_name":"Uncletopia | Frankfurt | 1 | All Maps | STV","players":[{"user_id":423,"name":"Snaky","steam_id":76561199000954430,"connected_time":3012000000000,"state":"active","ping":97},{"user_id":446,"name":"elyas","steam_id":76561198964639269,"connected_time":1648000000000,"state":"spawning","ping":151},{"user_id":387,"name":"Joejee","steam_id":76561199122423976,"connected_time":5380000000000,"state":"active","ping":65},{"user_id":466,"name":"H2n9","steam_id":76561198055811259,"connected_time":6000000000,"state":"spawning","ping":63},{"user_id":462,"name":"pineapple guy","steam_id":76561199144546264,"connected_time":443000000000,"state":"active","ping":69},{"user_id":440,"name":"Mammut","steam_id":76561198056773933,"connected_time":2272000000000,"state":"spawning","ping":38},{"user_id":463,"name":"cheriberry","steam_id":76561198093577036,"connected_time":387000000000,"state":"active","ping":47},{"user_id":458,"name":"GuSkand","steam_id":76561198043775605,"connected_time":1116000000000,"state":"active","ping":68},{"user_id":451,"name":"Economic crisis","steam_id":76561198063562843,"connected_time":1540000000000,"state":"spawning","ping":58},{"user_id":430,"name":"pyro gaming","steam_id":76561198087970118,"connected_time":2686000000000,"state":"spawning","ping":48},{"user_id":366,"name":"Urfangonultasadana","steam_id":76561199389286151,"connected_time":6371000000000,"state":"active","ping":91},{"user_id":431,"name":"Doctor Medic","steam_id":76561198100957443,"connected_time":2686000000000,"state":"spawning","ping":65},{"user_id":465,"name":"DETERR","steam_id":76561198223088296,"connected_time":43000000000,"state":"connecting","ping":55},{"user_id":464,"name":"Kƒ±lƒ±√ßdar","steam_id":76561198267528331,"connected_time":146000000000,"state":"active","ping":91},{"user_id":460,"name":"Peter","steam_id":76561198165604007,"connected_time":641000000000,"state":"active","ping":56},{"user_id":435,"name":"birth giver","steam_id":76561198383564900,"connected_time":2620000000000,"state":"active","ping":84},{"user_id":445,"name":"Carl","steam_id":76561198045638738,"connected_time":1705000000000,"state":"active","ping":66}]},{"server_id":110,"name":"Uncletopia | Frankfurt | 2 | All Maps","name_short":"frk-2","host":"frk-1.de.uncletopia.com","port":27025,"enabled":true,"region":"eu","cc":"de","latitude":50.110924,"longitude":8.682127,"reserved":0,"last_update":"0001-01-01T00:00:00Z","name_a2s":"Uncletopia | Frankfurt | 2 | All Maps","protocol":17,"map":"pl_badwater","folder":"tf","game":"Team Fortress","app_id":440,"player_count":24,"max_players":24,"Bots":0,"server_type":"Dedicated","server_os":"Linux","password":true,"vac":true,"version":"7932396","steam_id":85568392924469990,"keywords":["nocrits","nodmgspread","payload","uncletopia"],"game_id":440,"stv_port":27026,"stv_name":"Uncletopia | Frankfurt | 2 | All Maps | STV","players":[{"user_id":353,"name":"SchneezySchitzel","steam_id":76561198401693881,"connected_time":2746000000000,"state":"active","ping":42},{"user_id":360,"name":"Rimx","steam_id":76561198053034840,"connected_time":2169000000000,"state":"active","ping":94},{"user_id":388,"name":"B19-PP","steam_id":76561198057733920,"connected_time":276000000000,"state":"active","ping":116},{"user_id":298,"name":"Enigmatic Gale","steam_id":76561198039416982,"connected_time":5505000000000,"state":"active","ping":79},{"user_id":389,"name":"Nobody","steam_id":76561198151116796,"connected_time":256000000000,"state":"active","ping":82},{"user_id":349,"name":"Fish 'n' Chips","steam_id":76561198033476886,"connected_time":2981000000000,"state":"active","ping":45},{"user_id":370,"name":"Fish","steam_id":76561198182278770,"connected_time":1378000000000,"state":"active","ping":84},{"user_id":371,"name":"The Mask...","steam_id":76561198052402891,"connected_time":1365000000000,"state":"active","ping":57},{"user_id":387,"name":"dotdotdot","steam_id":76561198057628751,"connected_time":354000000000,"state":"active","ping":60},{"user_id":373,"name":"„ÄÇ„ÄÇ„ÄÇ„Éü(Ôª≠ \u003e‚Äø‚ÄøÀÇ)‡≠®","steam_id":76561198254322995,"connected_time":1307000000000,"state":"active","ping":90},{"user_id":374,"name":"bico","steam_id":76561198089560908,"connected_time":1299000000000,"state":"active","ping":104},{"user_id":299,"name":"THY DARK L0RD","steam_id":76561198029005085,"connected_time":5492000000000,"state":"active","ping":93},{"user_id":334,"name":"Sammy096","steam_id":76561198128167541,"connected_time":3787000000000,"state":"active","ping":65},{"user_id":355,"name":"berahne khosh hal","steam_id":76561198327135462,"connected_time":2508000000000,"state":"active","ping":160},{"user_id":376,"name":"810352869090","steam_id":76561198092602832,"connected_time":1258000000000,"state":"active","ping":82},{"user_id":292,"name":"Nyhde","steam_id":76561198012771416,"connected_time":5692000000000,"state":"active","ping":101},{"user_id":383,"name":"avenje","steam_id":76561198155824845,"connected_time":540000000000,"state":"active","ping":58},{"user_id":367,"name":"ghenios","steam_id":76561198030011207,"connected_time":1596000000000,"state":"active","ping":92},{"user_id":390,"name":"F.Fazbear","steam_id":76561198406606196,"connected_time":106000000000,"state":"active","ping":75},{"user_id":380,"name":"Mr.Schnittlauch","steam_id":76561198295868113,"connected_time":1172000000000,"state":"active","ping":51},{"user_id":359,"name":":)","steam_id":76561198977420882,"connected_time":2208000000000,"state":"active","ping":54},{"user_id":386,"name":"So Guys We Did It","steam_id":76561198871136698,"connected_time":474000000000,"state":"active","ping":57},{"user_id":362,"name":"Toasty5050","steam_id":76561198073540881,"connected_time":2130000000000,"state":"active","ping":48},{"user_id":358,"name":"CB","steam_id":76561198255389232,"connected_time":2319000000000,"state":"active","ping":72}]},{"server_id":308,"name":"Uncletopia | Frankfurt | 3 | All Maps","name_short":"frk-3","host":"frk-1.de.uncletopia.com","port":27035,"enabled":true,"region":"eu","cc":"de","latitude":50.110924,"longitude":8.682127,"reserved":0,"last_update":"0001-01-01T00:00:00Z","name_a2s":"Uncletopia | Frankfurt | 3 | All Maps","protocol":17,"map":"koth_highpass","folder":"tf","game":"Team Fortress","app_id":440,"player_count":0,"max_players":24,"Bots":0,"server_type":"Dedicated","server_os":"Linux","password":true,"vac":true,"version":"7932396","steam_id":85568392924504274,"keywords":["cp","nocrits","nodmgspread","uncletopia"],"game_id":440,"stv_port":27036,"stv_name":"Uncletopia | Frankfurt | 3 | All Maps | STV","players":null},{"server_id":309,"name":"Uncletopia | Frankfurt | 4 | All Maps","name_short":"frk-4","host":"frk-1.de.uncletopia.com","port":27045,"enabled":true,"region":"eu","cc":"de","latitude":50.110924,"longitude":8.682127,"reserved":0,"last_update":"0001-01-01T00:00:00Z","name_a2s":"Uncletopia | Frankfurt | 4 | All Maps","protocol":17,"map":"pl_snowycoast","folder":"tf","game":"Team Fortress","app_id":440,"player_count":22,"max_players":24,"Bots":0,"server_type":"Dedicated","server_os":"Linux","password":true,"vac":true,"version":"7932396","steam_id":85568392924504275,"keywords":["nocrits","nodmgspread","payload","uncletopia"],"game_id":440,"stv_port":27046,"stv_name":"Uncletopia | Frankfurt | 4 | All Maps | STV","players":[{"user_id":207,"name":"The Green Uncle","steam_id":76561198257163156,"connected_time":323000000000,"state":"active","ping":60},{"user_id":203,"name":"T der Ba","steam_id":76561198091189185,"connected_time":1040000000000,"state":"active","ping":48},{"user_id":208,"name":"Hungry man","steam_id":76561198360630363,"connected_time":236000000000,"state":"active","ping":72},{"user_id":201,"name":"DJPNK","steam_id":76561197989948420,"connected_time":1844000000000,"state":"active","ping":63},{"user_id":176,"name":"Clamantblock","steam_id":76561198026758345,"connected_time":3005000000000,"state":"active","ping":67},{"user_id":205,"name":"Astolfo","steam_id":76561198354584982,"connected_time":962000000000,"state":"active","ping":54},{"user_id":204,"name":"LurkingPancake","steam_id":76561199488567082,"connected_time":1008000000000,"state":"active","ping":81},{"user_id":209,"name":"kamu","steam_id":76561198367337443,"connected_time":172000000000,"state":"active","ping":104},{"user_id":188,"name":"ManeGunner6","steam_id":76561198059065962,"connected_time":2171000000000,"state":"active","ping":96},{"user_id":125,"name":"Zerfesh","steam_id":76561198117534358,"connected_time":6657000000000,"state":"active","ping":93},{"user_id":190,"name":"gay cheating brazilian vore","steam_id":76561198332529555,"connected_time":2132000000000,"state":"active","ping":86},{"user_id":210,"name":"OSwaldd","steam_id":76561199078712899,"connected_time":168000000000,"state":"active","ping":78},{"user_id":211,"name":"Mong","steam_id":76561198254497427,"connected_time":126000000000,"state":"active","ping":49},{"user_id":157,"name":"Master Of Noob","steam_id":76561198217926783,"connected_time":4783000000000,"state":"active","ping":74},{"user_id":169,"name":"Spillefuglen","steam_id":76561198065670387,"connected_time":3685000000000,"state":"active","ping":75},{"user_id":213,"name":"AwterSix","steam_id":76561198042561678,"connected_time":99000000000,"state":"active","ping":57},{"user_id":177,"name":"Gigachad Supreme","steam_id":76561198137354428,"connected_time":2683000000000,"state":"active","ping":60},{"user_id":196,"name":"S Ka Y","steam_id":76561197993423450,"connected_time":2105000000000,"state":"active","ping":57},{"user_id":206,"name":"Neon","steam_id":76561198089944674,"connected_time":606000000000,"state":"active","ping":70},{"user_id":215,"name":"SunZi","steam_id":76561198139243535,"connected_time":56000000000,"state":"active","ping":80},{"user_id":214,"name":"primordial soup enjoyer","steam_id":76561199163260578,"connected_time":87000000000,"state":"active","ping":67},{"user_id":198,"name":"Yuzu","steam_id":76561198121694613,"connected_time":2080000000000,"state":"active","ping":56}]},{"server_id":310,"name":"Uncletopia | Frankfurt | 5 | All Maps","name_short":"frk-5","host":"frk-1.de.uncletopia.com","port":27055,"enabled":true,"region":"eu","cc":"de","latitude":50.110924,"longitude":8.682127,"reserved":0,"last_update":"0001-01-01T00:00:00Z","name_a2s":"Uncletopia | Frankfurt | 5 | All Maps","protocol":17,"map":"pl_badwater","folder":"tf","game":"Team Fortress","app_id":440,"player_count":24,"max_players":24,"Bots":0,"server_type":"Dedicated","server_os":"Linux","password":true,"vac":true,"version":"7932396","steam_id":85568392924504277,"keywords":["nocrits","nodmgspread","payload","uncletopia"],"game_id":440,"stv_port":27056,"stv_name":"Uncletopia | Frankfurt | 5 | All Maps | STV","players":[{"user_id":371,"name":"3 AM","steam_id":76561198410945277,"connected_time":2234000000000,"state":"active","ping":117},{"user_id":393,"name":"Genesis","steam_id":76561198999652040,"connected_time":480000000000,"state":"active","ping":45},{"user_id":369,"name":"kgf","steam_id":76561198181442259,"connected_time":2368000000000,"state":"active","ping":47},{"user_id":365,"name":"Taez","steam_id":76561198261820803,"connected_time":2658000000000,"state":"active","ping":67},{"user_id":400,"name":"Bacon","steam_id":76561198050165015,"connected_time":156000000000,"state":"active","ping":63},{"user_id":378,"name":"Dag!","steam_id":76561198030147941,"connected_time":1528000000000,"state":"active","ping":66},{"user_id":394,"name":"Dacia Sandero","steam_id":76561199052062415,"connected_time":464000000000,"state":"active","ping":82},{"user_id":389,"name":"heavy TF2 live reaction","steam_id":76561198082502910,"connected_time":801000000000,"state":"active","ping":56},{"user_id":395,"name":"Zazou","steam_id":76561198028076362,"connected_time":455000000000,"state":"active","ping":59},{"user_id":376,"name":"BD[PL]","steam_id":76561198115995871,"connected_time":1704000000000,"state":"active","ping":70},{"user_id":251,"name":"Micha≈Ç","steam_id":76561198320346362,"connected_time":10032000000000,"state":"active","ping":67},{"user_id":366,"name":"skill based","steam_id":76561198341178432,"connected_time":2637000000000,"state":"active","ping":54},{"user_id":375,"name":"Potato","steam_id":76561198184310425,"connected_time":1905000000000,"state":"active","ping":115},{"user_id":386,"name":"ScaryTree","steam_id":76561199384362833,"connected_time":1171000000000,"state":"active","ping":69},{"user_id":367,"name":"Faking.","steam_id":76561198823540483,"connected_time":2434000000000,"state":"active","ping":75},{"user_id":401,"name":"help","steam_id":76561199056338917,"connected_time":130000000000,"state":"active","ping":176},{"user_id":403,"name":"James","steam_id":76561198138558005,"connected_time":57000000000,"state":"active","ping":67},{"user_id":379,"name":"Steen","steam_id":76561198122992510,"connected_time":1509000000000,"state":"active","ping":46},{"user_id":390,"name":"GymoWich","steam_id":76561198050110129,"connected_time":731000000000,"state":"active","ping":67},{"user_id":380,"name":"TAFI03","steam_id":76561198213082089,"connected_time":1487000000000,"state":"active","ping":58},{"user_id":330,"name":"Lyncurion","steam_id":76561199260022725,"connected_time":5051000000000,"state":"active","ping":79},{"user_id":384,"name":"kreeekz","steam_id":76561198014431602,"connected_time":1263000000000,"state":"active","ping":62},{"user_id":381,"name":"zek","steam_id":76561198862763731,"connected_time":1462000000000,"state":"active","ping":60},{"user_id":399,"name":"K.O.wal","steam_id":76561198317737261,"connected_time":320000000000,"state":"active","ping":61}]},{"server_id":311,"name":"Uncletopia | Frankfurt | 6 | All Maps","name_short":"frk-6","host":"frk-1.de.uncletopia.com","port":27065,"enabled":true,"region":"eu","cc":"de","latitude":50.110924,"longitude":8.682127,"reserved":0,"last_update":"0001-01-01T00:00:00Z","name_a2s":"Uncletopia | Frankfurt | 6 | All Maps","protocol":17,"map":"cp_snakewater_final1","folder":"tf","game":"Team Fortress","app_id":440,"player_count":4,"max_players":24,"Bots":0,"server_type":"Dedicated","server_os":"Linux","password":true,"vac":true,"version":"7932396","steam_id":85568392924504278,"keywords":["cp","nocrits","nodmgspread","uncletopia"],"game_id":440,"stv_port":27066,"stv_name":"Uncletopia | Frankfurt | 6 | All Maps | STV","players":[{"user_id":295,"name":"Verculum","steam_id":76561198894912634,"connected_time":412000000000,"state":"active","ping":98},{"user_id":291,"name":"One-Face","steam_id":76561197999384826,"connected_time":837000000000,"state":"active","ping":46},{"user_id":218,"name":"soldier tf2","steam_id":76561198372186715,"connected_time":5017000000000,"state":"active","ping":105},{"user_id":222,"name":"choe","steam_id":76561199112671834,"connected_time":4989000000000,"state":"active","ping":91}]},{"server_id":23,"name":"Uncletopia | Frankfurt | 7 | Stopwatch Beta","name_short":"frk-7","host":"frk-1.de.uncletopia.com","port":27075,"enabled":true,"region":"eu","cc":"de","latitude":50.110924,"longitude":8.682127,"reserved":0,"last_update":"0001-01-01T00:00:00Z","name_a2s":"Uncletopia | Frankfurt | 7 | Stopwatch Beta","protocol":17,"map":"pl_snowycoast","folder":"tf","game":"Team Fortress","app_id":440,"player_count":0,"max_players":24,"Bots":0,"server_type":"Dedicated","server_os":"Linux","password":true,"vac":true,"version":"7932396","steam_id":85568392924742827,"keywords":["nocrits","nodmgspread","payload","uncletopia"],"game_id":440,"stv_port":27076,"stv_name":"Uncletopia | Frankfurt | 7 | Stopwatch Beta | STV","players":null},{"server_id":24,"name":"Uncletopia | Frankfurt | 8 | Community","name_short":"frk-8","host":"frk-1.de.uncletopia.com","port":27085,"enabled":true,"region":"eu","cc":"de","latitude":50.110924,"longitude":8.682127,"reserved":0,"last_update":"0001-01-01T00:00:00Z","name_a2s":"Uncletopia | Frankfurt | 8 | Community","protocol":17,"map":"workshop/pl_corrode_rc2.ugc546577989","folder":"tf","game":"Team Fortress","app_id":440,"player_count":0,"max_players":24,"Bots":0,"server_type":"Dedicated","server_os":"Linux","password":true,"vac":true,"version":"7932396","steam_id":85568392924742828,"keywords":["nocrits","nodmgspread","payload","uncletopia"],"game_id":440,"stv_port":27086,"stv_name":"Uncletopia | Frankfurt | 8 | Community | STV","players":null},{"server_id":202,"name":"Uncletopia | Hong Kong | 1 | All Maps","name_short":"hgk-1","host":"hgk-1.hk.uncletopia.com","port":27015,"enabled":true,"region":"asia","cc":"hk","latitude":22.302711,"longitude":114.177216,"reserved":0,"last_update":"0001-01-01T00:00:00Z","name_a2s":"Uncletopia | Hong Kong | 1 | All Maps","protocol":17,"map":"koth_viaduct","folder":"tf","game":"Team Fortress","app_id":440,"player_count":0,"max_players":24,"Bots":0,"server_type":"Dedicated","server_os":"Linux","password":true,"vac":true,"version":"7932396","steam_id":85568392924494504,"keywords":["cp","nocrits","nodmgspread","uncletopia"],"game_id":440,"stv_port":27016,"stv_name":"Uncletopia | Hong Kong | 1 | All Maps | STV","players":null},{"server_id":1,"name":"Uncletopia | Los Angeles | 1 | All Maps","name_short":"lax-1","host":"lax-1.us.uncletopia.com","port":27015,"enabled":true,"region":"us-west","cc":"us","latitude":33.94279,"longitude":-118.41004,"reserved":0,"last_update":"0001-01-01T00:00:00Z","name_a2s":"Uncletopia | Los Angeles | 1 | All Maps","protocol":17,"map":"pl_swiftwater_final1","folder":"tf","game":"Team Fortress","app_id":440,"player_count":0,"max_players":24,"Bots":0,"server_type":"Dedicated","server_os":"Linux","password":true,"vac":true,"version":"7932396","steam_id":85568392924469991,"keywords":["nocrits","nodmgspread","payload","uncletopia"],"game_id":440,"stv_port":27016,"stv_name":"Uncletopia | Los Angeles | 1 | All Maps | STV","players":null},{"server_id":112,"name":"Uncletopia | Los Angeles | 2 | All Maps","name_short":"lax-2","host":"lax-1.us.uncletopia.com","port":27025,"enabled":true,"region":"us-west","cc":"us","latitude":33.94279,"longitude":-118.41004,"reserved":0,"last_update":"0001-01-01T00:00:00Z","name_a2s":"Uncletopia | Los Angeles | 2 | All Maps","protocol":17,"map":"cp_mountainlab","folder":"tf","game":"Team Fortress","app_id":440,"player_count":0,"max_players":24,"Bots":0,"server_type":"Dedicated","server_os":"Linux","password":true,"vac":true,"version":"7932396","steam_id":85568392924469992,"keywords":["cp","nocrits","nodmgspread","uncletopia"],"game_id":440,"stv_port":27026,"stv_name":"Uncletopia | Los Angeles | 2 | All Maps | STV","players":null},{"server_id":324,"name":"Uncletopia | Los Angeles | 3 | All Maps","name_short":"lax-3","host":"lax-1.us.uncletopia.com","port":27035,"enabled":true,"region":"us-west","cc":"us","latitude":33.94279,"longitude":-118.41004,"reserved":0,"last_update":"0001-01-01T00:00:00Z","name_a2s":"Uncletopia | Los Angeles | 3 | All Maps","protocol":17,"map":"koth_highpass","folder":"tf","game":"Team Fortress","app_id":440,"player_count":22,"max_players":24,"Bots":0,"server_type":"Dedicated","server_os":"Linux","password":true,"vac":true,"version":"7932396","steam_id":85568392924510198,"keywords":["cp","nocrits","nodmgspread","uncletopia"],"game_id":440,"stv_port":27036,"stv_name":"Uncletopia | Los Angeles | 3 | All Maps | STV","players":[{"user_id":186,"name":"Erntest","steam_id":76561198049499899,"connected_time":37000000000,"state":"active","ping":54},{"user_id":189,"name":"SanitysEdge","steam_id":76561198130732813,"connected_time":3000000000,"state":"spawning","ping":55},{"user_id":142,"name":"Spicy Shrimp","steam_id":76561198453909294,"connected_time":3726000000000,"state":"spawning","ping":343},{"user_id":187,"name":"Smooth‚Ñ¢","steam_id":76561197995866050,"connected_time":30000000000,"state":"active","ping":123},{"user_id":144,"name":"stboncho","steam_id":76561198172275301,"connected_time":3697000000000,"state":"active","ping":76},{"user_id":37,"name":"NavyDinosaur","steam_id":76561198088459962,"connected_time":11838000000000,"state":"active","ping":123},{"user_id":178,"name":"Noxus","steam_id":76561199009820852,"connected_time":758000000000,"state":"active","ping":89},{"user_id":165,"name":"Whisper!","steam_id":76561198119609795,"connected_time":1768000000000,"state":"active","ping":50},{"user_id":145,"name":"miscellaneous","steam_id":76561199436642954,"connected_time":3686000000000,"state":"active","ping":107},{"user_id":164,"name":"The Spanked Monkey","steam_id":76561198128293111,"connected_time":1793000000000,"state":"spawning","ping":105},{"user_id":146,"name":"no vc no c","steam_id":76561197989503095,"connected_time":3677000000000,"state":"active","ping":178},{"user_id":183,"name":"sleepy catgirl","steam_id":76561198388123421,"connected_time":349000000000,"state":"active","ping":52},{"user_id":185,"name":"SAD MOSCOVIA","steam_id":76561198101081520,"connected_time":44000000000,"state":"active","ping":85},{"user_id":147,"name":"culture shock","steam_id":76561198212421513,"connected_time":3675000000000,"state":"active","ping":116},{"user_id":154,"name":"meme","steam_id":76561199170771700,"connected_time":2880000000000,"state":"spawning","ping":354},{"user_id":174,"name":"Rain","steam_id":76561198032318897,"connected_time":1329000000000,"state":"active","ping":84},{"user_id":175,"name":"Nibotshooter","steam_id":76561199284825579,"connected_time":945000000000,"state":"active","ping":145},{"user_id":166,"name":"Dragonsalt","steam_id":76561198141927559,"connected_time":1757000000000,"state":"active","ping":114},{"user_id":182,"name":"Cheeseburglar","steam_id":76561198880267007,"connected_time":482000000000,"state":"spawning","ping":44},{"user_id":176,"name":"Jokezonyu","steam_id":76561198213167893,"connected_time":887000000000,"state":"active","ping":50},{"user_id":184,"name":"Lightning Bolt 1O1","steam_id":76561199099630600,"connected_time":76000000000,"state":"active","ping":126},{"user_id":158,"name":"The Alchemist","steam_id":76561199121436784,"connected_time":2207000000000,"state":"active","ping":174}]},{"server_id":25,"name":"Uncletopia | Los Angeles | 4 | Stopwatch Beta","name_short":"lax-4","host":"lax-1.us.uncletopia.com","port":27045,"enabled":true,"region":"us-west","cc":"us","latitude":33.94279,"longitude":-118.41004,"reserved":0,"last_update":"0001-01-01T00:00:00Z","name_a2s":"Uncletopia | Los Angeles | 4 | Stopwatch Beta","protocol":17,"map":"cp_altitude","folder":"tf","game":"Team Fortress","app_id":440,"player_count":0,"max_players":24,"Bots":0,"server_type":"Dedicated","server_os":"Linux","password":true,"vac":true,"version":"7932396","steam_id":85568392924510199,"keywords":["cp","nocrits","nodmgspread","uncletopia"],"game_id":440,"stv_port":27046,"stv_name":"Uncletopia | Los Angeles | 4 | Stopwatch Beta | STV","players":null},{"server_id":11,"name":"Uncletopia | London | 1 | All Maps","name_short":"lon-1","host":"lon-1.uk.uncletopia.com","port":27015,"enabled":true,"region":"eu","cc":"gb","latitude":51.509865,"longitude":-0.118092,"reserved":0,"last_update":"0001-01-01T00:00:00Z","name_a2s":"Uncletopia | London | 1 | All Maps","protocol":17,"map":"plr_hightower","folder":"tf","game":"Team Fortress","app_id":440,"player_count":24,"max_players":24,"Bots":0,"server_type":"Dedicated","server_os":"Linux","password":true,"vac":true,"version":"7932396","steam_id":85568392924367362,"keywords":["nocrits","nodmgspread","payload","uncletopia"],"game_id":440,"stv_port":27016,"stv_name":"Uncletopia | London | 1 | All Maps | STV","players":[{"user_id":707,"name":"Talvy","steam_id":76561198009083535,"connected_time":5906000000000,"state":"active","ping":86},{"user_id":779,"name":"balanced diet","steam_id":76561198240320806,"connected_time":626000000000,"state":"active","ping":70},{"user_id":728,"name":"Salih","steam_id":76561198287934839,"connected_time":4348000000000,"state":"active","ping":68},{"user_id":786,"name":"Bob.","steam_id":76561198330093822,"connected_time":154000000000,"state":"active","ping":86},{"user_id":711,"name":"pandillero gato","steam_id":76561198314381191,"connected_time":5863000000000,"state":"active","ping":100},{"user_id":771,"name":"Kjat","steam_id":76561198839433592,"connected_time":1255000000000,"state":"active","ping":60},{"user_id":754,"name":"Aaron","steam_id":76561197990046953,"connected_time":1916000000000,"state":"active","ping":56},{"user_id":763,"name":"Edling","steam_id":76561199111565357,"connected_time":1439000000000,"state":"active","ping":86},{"user_id":724,"name":"foul beast","steam_id":76561198055389492,"connected_time":5169000000000,"state":"active","ping":45},{"user_id":773,"name":"Steevegonzales","steam_id":76561198094725789,"connected_time":1150000000000,"state":"active","ping":42},{"user_id":782,"name":"elio","steam_id":76561198142662131,"connected_time":422000000000,"state":"active","ping":63},{"user_id":783,"name":"Cass","steam_id":76561198934205195,"connected_time":420000000000,"state":"active","ping":51},{"user_id":775,"name":"John Noob","steam_id":76561197999170026,"connected_time":1096000000000,"state":"active","ping":77},{"user_id":778,"name":"Kiryust","steam_id":76561198072162886,"connected_time":636000000000,"state":"active","ping":68},{"user_id":781,"name":"Tree","steam_id":76561198054795379,"connected_time":568000000000,"state":"active","ping":72},{"user_id":785,"name":"‚ú™ qua ‚ú™","steam_id":76561198066408333,"connected_time":200000000000,"state":"active","ping":76},{"user_id":767,"name":"dobrekGolbin","steam_id":76561198074745885,"connected_time":1392000000000,"state":"active","ping":83},{"user_id":766,"name":"Grander","steam_id":76561198011492179,"connected_time":1401000000000,"state":"active","ping":87},{"user_id":784,"name":"Rained Fellow","steam_id":76561198404557509,"connected_time":290000000000,"state":"active","ping":60},{"user_id":743,"name":"2spooky4me","steam_id":76561198043211244,"connected_time":3483000000000,"state":"active","ping":67},{"user_id":752,"name":"Egor Pomidor","steam_id":76561199175688390,"connected_time":2069000000000,"state":"active","ping":86},{"user_id":768,"name":"sushii","steam_id":76561198297987372,"connected_time":1387000000000,"state":"active","ping":52},{"user_id":777,"name":"ma≈Çy #tf2pickup.pl","steam_id":76561198074409147,"connected_time":931000000000,"state":"active","ping":71},{"user_id":769,"name":"Whackyone5588","steam_id":76561198846242972,"connected_time":1378000000000,"state":"active","ping":141}]},{"server_id":114,"name":"Uncletopia | London | 2 | All Maps","name_short":"lon-2","host":"lon-1.uk.uncletopia.com","port":27025,"enabled":true,"region":"eu","cc":"gb","latitude":51.509865,"longitude":-0.118092,"reserved":0,"last_update":"0001-01-01T00:00:00Z","name_a2s":"Uncletopia | London | 2 | All Maps","protocol":17,"map":"pl_borneo","folder":"tf","game":"Team Fortress","app_id":440,"player_count":24,"max_players":24,"Bots":0,"server_type":"Dedicated","server_os":"Linux","password":true,"vac":true,"version":"7932396","steam_id":85568392924470941,"keywords":["nocrits","nodmgspread","payload","uncletopia"],"game_id":440,"stv_port":27026,"stv_name":"Uncletopia | London | 2 | All Maps | STV","players":[{"user_id":275,"name":"Sylvanas","steam_id":76561198154904165,"connected_time":2231000000000,"state":"active","ping":107},{"user_id":286,"name":"Max Power","steam_id":76561198019269089,"connected_time":1232000000000,"state":"active","ping":56},{"user_id":272,"name":"cordi","steam_id":76561198254657328,"connected_time":2281000000000,"state":"active","ping":51},{"user_id":284,"name":"vadr","steam_id":76561198334528186,"connected_time":1262000000000,"state":"active","ping":43},{"user_id":264,"name":"Check Your Posture!","steam_id":76561198097466136,"connected_time":2652000000000,"state":"active","ping":52},{"user_id":292,"name":"Basil","steam_id":76561197990239733,"connected_time":273000000000,"state":"active","ping":51},{"user_id":179,"name":"fence_","steam_id":76561198150386379,"connected_time":5568000000000,"state":"active","ping":45},{"user_id":173,"name":"Townsend And Sons","steam_id":76561199072698153,"connected_time":5858000000000,"state":"active","ping":68},{"user_id":239,"name":"profreshional cactus","steam_id":76561198837919828,"connected_time":3283000000000,"state":"active","ping":113},{"user_id":273,"name":"Grillem Dafoe","steam_id":76561198306874574,"connected_time":2259000000000,"state":"active","ping":63},{"user_id":290,"name":"BlinkedUp","steam_id":76561198249985618,"connected_time":940000000000,"state":"active","ping":69},{"user_id":199,"name":"Grim the lemon","steam_id":76561199083433988,"connected_time":4241000000000,"state":"active","ping":57},{"user_id":291,"name":"Fenty","steam_id":76561198044991858,"connected_time":420000000000,"state":"active","ping":72},{"user_id":200,"name":"- 84n4n3n8r07 -","steam_id":76561198047887705,"connected_time":4207000000000,"state":"active","ping":61},{"user_id":283,"name":"Simon Ekpa","steam_id":76561198853658163,"connected_time":1265000000000,"state":"active","ping":85},{"user_id":282,"name":"Sir Figglebottom Esquire The II","steam_id":76561198307378058,"connected_time":1525000000000,"state":"active","ping":56},{"user_id":277,"name":"the least schizo med main","steam_id":76561198048530109,"connected_time":2200000000000,"state":"active","ping":72},{"user_id":234,"name":"Codex","steam_id":76561198068748584,"connected_time":3358000000000,"state":"active","ping":54},{"user_id":278,"name":"Pepegi","steam_id":76561198001230113,"connected_time":2161000000000,"state":"active","ping":88},{"user_id":280,"name":"Bumblebee","steam_id":76561198033551105,"connected_time":1638000000000,"state":"active","ping":75},{"user_id":287,"name":"Yuval","steam_id":76561198241802390,"connected_time":1230000000000,"state":"active","ping":114},{"user_id":244,"name":"tato","steam_id":76561198061630068,"connected_time":3068000000000,"state":"active","ping":73},{"user_id":288,"name":"Night Fury","steam_id":76561197995207032,"connected_time":1222000000000,"state":"active","ping":88},{"user_id":196,"name":"Puss in Boots","steam_id":76561198211599767,"connected_time":4693000000000,"state":"active","ping":54}]},{"server_id":320,"name":"Uncletopia | London | 3 | All Maps","name_short":"lon-3","host":"lon-1.uk.uncletopia.com","port":27035,"enabled":true,"region":"eu","cc":"gb","latitude":51.509865,"longitude":-0.118092,"reserved":0,"last_update":"0001-01-01T00:00:00Z","name_a2s":"Uncletopia | London | 3 | All Maps","protocol":17,"map":"cp_process_final","folder":"tf","game":"Team Fortress","app_id":440,"player_count":24,"max_players":24,"Bots":0,"server_type":"Dedicated","server_os":"Linux","password":true,"vac":true,"version":"7932396","steam_id":85568392924510192,"keywords":["cp","nocrits","nodmgspread","uncletopia"],"game_id":440,"stv_port":27036,"stv_name":"Uncletopia | London | 3 | All Maps | STV","players":[{"user_id":574,"name":"Eme","steam_id":76561198171619442,"connected_time":1480000000000,"state":"active","ping":85},{"user_id":575,"name":"Kestrel","steam_id":76561198144033005,"connected_time":1461000000000,"state":"active","ping":51},{"user_id":563,"name":"Dakeyras","steam_id":76561198057069564,"connected_time":2259000000000,"state":"active","ping":104},{"user_id":565,"name":"LeafConsumer","steam_id":76561198866802561,"connected_time":2156000000000,"state":"active","ping":51},{"user_id":576,"name":"Fran","steam_id":76561199070516960,"connected_time":1411000000000,"state":"active","ping":75},{"user_id":531,"name":"GoblinGaming","steam_id":76561198360395476,"connected_time":4271000000000,"state":"active","ping":34},{"user_id":556,"name":"Zoppox","steam_id":76561198033930332,"connected_time":2777000000000,"state":"active","ping":79},{"user_id":555,"name":"YARrICk.¬´+¬ª","steam_id":76561197990126485,"connected_time":2790000000000,"state":"active","ping":53},{"user_id":526,"name":"Soaya","steam_id":76561199101510855,"connected_time":4836000000000,"state":"active","ping":46},{"user_id":577,"name":"Irets","steam_id":76561198057216786,"connected_time":1361000000000,"state":"active","ping":90},{"user_id":578,"name":"hedon/","steam_id":76561198249832770,"connected_time":1339000000000,"state":"active","ping":47},{"user_id":579,"name":"Rusk","steam_id":76561198982057397,"connected_time":1282000000000,"state":"active","ping":40},{"user_id":567,"name":"Purps","steam_id":76561198053886680,"connected_time":1978000000000,"state":"active","ping":43},{"user_id":498,"name":"OPUR","steam_id":76561197993123284,"connected_time":6321000000000,"state":"active","ping":75},{"user_id":580,"name":"Snake-chan","steam_id":76561199044755854,"connected_time":1242000000000,"state":"active","ping":117},{"user_id":586,"name":"ReenoDaWizard","steam_id":76561198841678291,"connected_time":972000000000,"state":"active","ping":56},{"user_id":583,"name":"Voks_","steam_id":76561198159687785,"connected_time":1041000000000,"state":"active","ping":78},{"user_id":533,"name":"Marmac","steam_id":76561198120033210,"connected_time":4204000000000,"state":"active","ping":84},{"user_id":529,"name":"LuckLuster","steam_id":76561198092986647,"connected_time":4810000000000,"state":"active","ping":107},{"user_id":570,"name":"Yanniki","steam_id":76561197986058110,"connected_time":1691000000000,"state":"active","ping":67},{"user_id":561,"name":"SpyCrab  Erik Twice","steam_id":76561198009710309,"connected_time":2738000000000,"state":"active","ping":60},{"user_id":587,"name":"Solima","steam_id":76561198045349099,"connected_time":499000000000,"state":"active","ping":59},{"user_id":588,"name":"Emiri Uchi","steam_id":76561198119475305,"connected_time":186000000000,"state":"active","ping":82},{"user_id":589,"name":"sethlington14","steam_id":76561199438357690,"connected_time":39000000000,"state":"active","ping":55}]},{"server_id":321,"name":"Uncletopia | London | 4 | All Maps","name_short":"lon-4","host":"lon-1.uk.uncletopia.com","port":27045,"enabled":true,"region":"eu","cc":"gb","latitude":51.509865,"longitude":-0.118092,"reserved":0,"last_update":"0001-01-01T00:00:00Z","name_a2s":"Uncletopia | London | 4 | All Maps","protocol":17,"map":"cp_process_final","folder":"tf","game":"Team Fortress","app_id":440,"player_count":24,"max_players":24,"Bots":0,"server_type":"Dedicated","server_os":"Linux","password":true,"vac":true,"version":"7932396","steam_id":85568392924510193,"keywords":["cp","nocrits","nodmgspread","uncletopia"],"game_id":440,"stv_port":27046,"stv_name":"Uncletopia | London | 4 | All Maps | STV","players":[{"user_id":24,"name":"Ray Lilith","steam_id":76561198133946866,"connected_time":2824000000000,"state":"active","ping":60},{"user_id":64,"name":"DobreStarachowickie","steam_id":76561198027126737,"connected_time":763000000000,"state":"active","ping":77},{"user_id":35,"name":"clueless","steam_id":76561198193357946,"connected_time":2010000000000,"state":"active","ping":96},{"user_id":67,"name":"Skyfox","steam_id":76561198036647535,"connected_time":401000000000,"state":"active","ping":57},{"user_id":58,"name":"psychogoat101","steam_id":76561198156146805,"connected_time":1433000000000,"state":"active","ping":44},{"user_id":38,"name":"tomo","steam_id":76561199015097595,"connected_time":1956000000000,"state":"active","ping":45},{"user_id":69,"name":"darkwater","steam_id":76561197986978738,"connected_time":336000000000,"state":"active","ping":55},{"user_id":39,"name":"Cagnus Marlsen","steam_id":76561198077859721,"connected_time":1923000000000,"state":"active","ping":60},{"user_id":66,"name":"Malnourished Goblin Child","steam_id":76561199088612293,"connected_time":426000000000,"state":"active","ping":71},{"user_id":68,"name":"sHIFTINGvORTEX","steam_id":76561198231648332,"connected_time":393000000000,"state":"active","ping":53},{"user_id":70,"name":"azzy","steam_id":76561198061293740,"connected_time":322000000000,"state":"active","ping":78},{"user_id":32,"name":"LainBizkit","steam_id":76561199200708626,"connected_time":2199000000000,"state":"active","ping":75},{"user_id":33,"name":"Pluto","steam_id":76561198159566418,"connected_time":2194000000000,"state":"active","ping":114},{"user_id":47,"name":"Thing","steam_id":76561197997904403,"connected_time":1832000000000,"state":"active","ping":98},{"user_id":54,"name":"Gentlemann of Scotland","steam_id":76561198073941805,"connected_time":1685000000000,"state":"active","ping":57},{"user_id":71,"name":"Kapitan Dagistan","steam_id":76561198010500289,"connected_time":300000000000,"state":"active","ping":98},{"user_id":43,"name":"Hexagon","steam_id":76561198151205758,"connected_time":1863000000000,"state":"active","ping":59},{"user_id":72,"name":"trite","steam_id":76561197983765323,"connected_time":293000000000,"state":"active","ping":51},{"user_id":75,"name":"Rock..","steam_id":76561198004641963,"connected_time":154000000000,"state":"active","ping":82},{"user_id":48,"name":"Walter Griffin","steam_id":76561199415989636,"connected_time":1832000000000,"state":"active","ping":94},{"user_id":73,"name":"Xenopol","steam_id":76561198985413820,"connected_time":286000000000,"state":"active","ping":71},{"user_id":63,"name":"iokoieon","steam_id":76561198065009070,"connected_time":830000000000,"state":"active","ping":96},{"user_id":77,"name":"Locke","steam_id":76561198339408300,"connected_time":22000000000,"state":"spawning","ping":47},{"user_id":57,"name":"Monkeytonk","steam_id":76561198081151851,"connected_time":1664000000000,"state":"active","ping":31}]},{"server_id":21,"name":"Uncletopia | London | 5 | All Maps","name_short":"lon-5","host":"lon-1.uk.uncletopia.com","port":27055,"enabled":true,"region":"eu","cc":"gb","latitude":51.509865,"longitude":-0.118092,"reserved":0,"last_update":"0001-01-01T00:00:00Z","name_a2s":"Uncletopia | London | 5 | All Maps","protocol":17,"map":"koth_lakeside_final","folder":"tf","game":"Team Fortress","app_id":440,"player_count":0,"max_players":24,"Bots":0,"server_type":"Dedicated","server_os":"Linux","password":true,"vac":true,"version":"7932396","steam_id":85568392924742829,"keywords":["cp","nocrits","nodmgspread","uncletopia"],"game_id":440,"stv_port":27056,"stv_name":"Uncletopia | London | 5 | All Maps | STV","players":null},{"server_id":22,"name":"Uncletopia | London | 6 | All Maps","name_short":"lon-6","host":"lon-1.uk.uncletopia.com","port":27065,"enabled":true,"region":"eu","cc":"gb","latitude":51.509865,"longitude":-0.118092,"reserved":0,"last_update":"0001-01-01T00:00:00Z","name_a2s":"Uncletopia | London | 6 | All Maps","protocol":17,"map":"pl_borneo","folder":"tf","game":"Team Fortress","app_id":440,"player_count":24,"max_players":24,"Bots":0,"server_type":"Dedicated","server_os":"Linux","password":true,"vac":true,"version":"7932396","steam_id":85568392924742830,"keywords":["nocrits","nodmgspread","payload","uncletopia"],"game_id":440,"stv_port":27066,"stv_name":"Uncletopia | London | 6 | All Maps | STV","players":[{"user_id":138,"name":"mr","steam_id":76561199037541925,"connected_time":479000000000,"state":"active","ping":74},{"user_id":108,"name":"Skippie","steam_id":76561198102029146,"connected_time":2873000000000,"state":"active","ping":82},{"user_id":125,"name":"LiterallyRyanGosling","steam_id":76561199017856691,"connected_time":1687000000000,"state":"active","ping":51},{"user_id":123,"name":"Pacanaz","steam_id":76561198011514552,"connected_time":2027000000000,"state":"active","ping":85},{"user_id":143,"name":"Edgar","steam_id":76561198065255259,"connected_time":148000000000,"state":"active","ping":57},{"user_id":107,"name":"beurgeur","steam_id":76561198872426314,"connected_time":2928000000000,"state":"active","ping":33},{"user_id":131,"name":"Axord","steam_id":76561199289652176,"connected_time":929000000000,"state":"active","ping":61},{"user_id":85,"name":"RLCrazyCat3","steam_id":76561197983757878,"connected_time":4705000000000,"state":"active","ping":67},{"user_id":134,"name":"Jefe de Los Mariachis","steam_id":76561198047304470,"connected_time":742000000000,"state":"active","ping":60},{"user_id":102,"name":"TuffaxVEVO","steam_id":76561198079558729,"connected_time":3404000000000,"state":"active","ping":70},{"user_id":139,"name":"Cookies and Bakies","steam_id":76561198017442928,"connected_time":404000000000,"state":"active","ping":66},{"user_id":64,"name":"png.png","steam_id":76561198444446521,"connected_time":5763000000000,"state":"active","ping":107},{"user_id":101,"name":"Ham‚Ñ¢","steam_id":76561198057808379,"connected_time":3719000000000,"state":"active","ping":70},{"user_id":117,"name":"Donnie's Boyfriend","steam_id":76561198068990383,"connected_time":2818000000000,"state":"active","ping":67},{"user_id":88,"name":"EastmoreRandoms.","steam_id":76561198048921203,"connected_time":4569000000000,"state":"active","ping":67},{"user_id":72,"name":"weird gamer","steam_id":76561198047749446,"connected_time":5436000000000,"state":"active","ping":60},{"user_id":140,"name":"quickfast","steam_id":76561199438900919,"connected_time":393000000000,"state":"active","ping":42},{"user_id":51,"name":"Ixsus\u003c3","steam_id":76561198094756869,"connected_time":6166000000000,"state":"active","ping":60},{"user_id":120,"name":"Tekky‚òª wee/woo","steam_id":76561197990987315,"connected_time":2699000000000,"state":"active","ping":40},{"user_id":132,"name":"stoppen","steam_id":76561197960281482,"connected_time":891000000000,"state":"active","ping":69},{"user_id":96,"name":"Frylock","steam_id":76561198050292560,"connected_time":4063000000000,"state":"active","ping":45},{"user_id":119,"name":"Gubbly Bubbins","steam_id":76561198101451654,"connected_time":2801000000000,"state":"active","ping":50},{"user_id":90,"name":"Bart„ÉÑ","steam_id":76561198164718893,"connected_time":4527000000000,"state":"active","ping":45}]},{"server_id":40,"name":"Uncletopia | London | 7 | No Payload","name_short":"lon-7","host":"lon-1.uk.uncletopia.com","port":27075,"enabled":true,"region":"eu","cc":"gb","latitude":51.509865,"longitude":-0.118092,"reserved":0,"last_update":"0001-01-01T00:00:00Z","name_a2s":"Uncletopia | London | 7 | No Payload","protocol":17,"map":"cp_fastlane","folder":"tf","game":"Team Fortress","app_id":440,"player_count":24,"max_players":24,"Bots":0,"server_type":"Dedicated","server_os":"Linux","password":true,"vac":true,"version":"7932396","steam_id":85568392924964314,"keywords":["cp","nocrits","nodmgspread","uncletopia"],"game_id":440,"stv_port":27076,"stv_name":"Uncletopia | London | 7 | No Payload | STV","players":[{"user_id":600,"name":"After8","steam_id":76561198090750865,"connected_time":1423000000000,"state":"active","ping":75},{"user_id":556,"name":"mark of the outsider","steam_id":76561198309246388,"connected_time":4569000000000,"state":"active","ping":56},{"user_id":598,"name":"„É†GeRmAn |√óUA√ó„É†","steam_id":76561199044754898,"connected_time":1736000000000,"state":"active","ping":81},{"user_id":578,"name":"soupalognionycrouton","steam_id":76561199021878433,"connected_time":2804000000000,"state":"active","ping":100},{"user_id":571,"name":"joachym","steam_id":76561198428579761,"connected_time":3848000000000,"state":"active","ping":70},{"user_id":599,"name":"Orbit","steam_id":76561198242999878,"connected_time":1717000000000,"state":"active","ping":55},{"user_id":539,"name":"Envy","steam_id":76561198132723219,"connected_time":5622000000000,"state":"active","ping":108},{"user_id":548,"name":"Martin.","steam_id":76561199487883321,"connected_time":5205000000000,"state":"active","ping":56},{"user_id":606,"name":"dr sex","steam_id":76561198029044617,"connected_time":287000000000,"state":"active","ping":46},{"user_id":579,"name":"Enkloth!","steam_id":76561198115106008,"connected_time":2769000000000,"state":"active","ping":52},{"user_id":596,"name":"Bobirulez","steam_id":76561198009125458,"connected_time":1843000000000,"state":"active","ping":72},{"user_id":520,"name":"Jonathan","steam_id":76561198087988880,"connected_time":7391000000000,"state":"active","ping":59},{"user_id":587,"name":"mt","steam_id":76561197961319303,"connected_time":2547000000000,"state":"active","ping":61},{"user_id":588,"name":"sareena","steam_id":76561198810194062,"connected_time":2391000000000,"state":"active","ping":74},{"user_id":604,"name":"Udinese Dion","steam_id":76561198067931573,"connected_time":634000000000,"state":"active","ping":61},{"user_id":574,"name":"Fat Pigeon","steam_id":76561198817940142,"connected_time":3327000000000,"state":"active","ping":45},{"user_id":441,"name":"Suspicious Cabin","steam_id":76561198083261198,"connected_time":14994000000000,"state":"active","ping":51},{"user_id":581,"name":"Tea","steam_id":76561198799243030,"connected_time":2748000000000,"state":"active","ping":64},{"user_id":591,"name":"‚ô•aura‚ô•","steam_id":76561198066258544,"connected_time":2186000000000,"state":"active","ping":62},{"user_id":593,"name":"Fish","steam_id":76561198152128484,"connected_time":1944000000000,"state":"active","ping":46},{"user_id":597,"name":"transgender e-girl","steam_id":76561198168589809,"connected_time":1842000000000,"state":"active","ping":68},{"user_id":515,"name":"X-tis","steam_id":76561198043837480,"connected_time":7824000000000,"state":"active","ping":65},{"user_id":605,"name":"Suspicious Viktor","steam_id":76561198136496249,"connected_time":580000000000,"state":"active","ping":70},{"user_id":603,"name":"MrBanana","steam_id":76561198116021623,"connected_time":1142000000000,"state":"active","ping":59}]},{"server_id":41,"name":"Uncletopia | London | 8 | Community","name_short":"lon-8","host":"lon-1.uk.uncletopia.com","port":27085,"enabled":true,"region":"eu","cc":"gb","latitude":51.509865,"longitude":-0.118092,"reserved":0,"last_update":"0001-01-01T00:00:00Z","name_a2s":"Uncletopia | London | 8 | Community","protocol":17,"map":"workshop/cp_propaganda_b18.ugc1603743849","folder":"tf","game":"Team Fortress","app_id":440,"player_count":0,"max_players":24,"Bots":0,"server_type":"Dedicated","server_os":"Linux","password":true,"vac":true,"version":"7932396","steam_id":85568392924964315,"keywords":["cp","nocrits","nodmgspread","uncletopia"],"game_id":440,"stv_port":27086,"stv_name":"Uncletopia | London | 8 | Community | STV","players":null},{"server_id":300,"name":"Uncletopia | Montr√©al | 1 | All Maps","name_short":"mtl-1","host":"mtl-1.ca.uncletopia.com","port":27015,"enabled":true,"region":"us-east","cc":"ca","latitude":45.50889,"longitude":-73.56167,"reserved":0,"last_update":"0001-01-01T00:00:00Z","name_a2s":"Uncletopia | Montr√©al | 1 | All Maps","protocol":17,"map":"pl_pier","folder":"tf","game":"Team Fortress","app_id":440,"player_count":0,"max_players":24,"Bots":0,"server_type":"Dedicated","server_os":"Linux","password":true,"vac":true,"version":"7932396","steam_id":85568392924500087,"keywords":["nocrits","nodmgspread","payload","uncletopia"],"game_id":440,"stv_port":27016,"stv_name":"Uncletopia | Montr√©al | 1 | All Maps | STV","players":null},{"server_id":301,"name":"Uncletopia | Montr√©al | 2 | All Maps","name_short":"mtl-2","host":"mtl-1.ca.uncletopia.com","port":27025,"enabled":true,"region":"us-east","cc":"ca","latitude":45.50889,"longitude":-73.56167,"reserved":0,"last_update":"0001-01-01T00:00:00Z","name_a2s":"Uncletopia | Montr√©al | 2 | All Maps","protocol":17,"map":"koth_lakeside_final","folder":"tf","game":"Team Fortress","app_id":440,"player_count":0,"max_players":24,"Bots":0,"server_type":"Dedicated","server_os":"Linux","password":true,"vac":true,"version":"7932396","steam_id":85568392924500088,"keywords":["cp","nocrits","nodmgspread","uncletopia"],"game_id":440,"stv_port":27026,"stv_name":"Uncletopia | Montr√©al | 2 | All Maps | STV","players":null},{"server_id":302,"name":"Uncletopia | Montr√©al | 3 | All Maps","name_short":"mtl-3","host":"mtl-1.ca.uncletopia.com","port":27035,"enabled":true,"region":"us-east","cc":"ca","latitude":45.50889,"longitude":-73.56167,"reserved":0,"last_update":"0001-01-01T00:00:00Z","name_a2s":"Uncletopia | Montr√©al | 3 | All Maps","protocol":17,"map":"cp_process_final","folder":"tf","game":"Team Fortress","app_id":440,"player_count":0,"max_players":24,"Bots":0,"server_type":"Dedicated","server_os":"Linux","password":true,"vac":true,"version":"7932396","steam_id":85568392924500089,"keywords":["cp","nocrits","nodmgspread","uncletopia"],"game_id":440,"stv_port":27036,"stv_name":"Uncletopia | Montr√©al | 3 | All Maps | STV","players":null},{"server_id":303,"name":"Uncletopia | Montr√©al | 4 | No Payload","name_short":"mtl-4","host":"mtl-1.ca.uncletopia.com","port":27045,"enabled":true,"region":"us-east","cc":"ca","latitude":45.50889,"longitude":-73.56167,"reserved":0,"last_update":"0001-01-01T00:00:00Z","name_a2s":"Uncletopia | Montr√©al | 4 | No Payload","protocol":17,"map":"cp_snakewater_final1","folder":"tf","game":"Team Fortress","app_id":440,"player_count":0,"max_players":24,"Bots":0,"server_type":"Dedicated","server_os":"Linux","password":true,"vac":true,"version":"7932396","steam_id":85568392924500090,"keywords":["cp","nocrits","nodmgspread","uncletopia"],"game_id":440,"stv_port":27046,"stv_name":"Uncletopia | Montr√©al | 4 | No Payload | STV","players":null},{"server_id":13,"name":"Uncletopia | New York City | 1 | All Maps","name_short":"nyc-1","host":"nyc-1.us.uncletopia.com","port":27015,"enabled":true,"region":"us-east","cc":"us","latitude":40.73061,"longitude":-73.93524,"reserved":0,"last_update":"0001-01-01T00:00:00Z","name_a2s":"Uncletopia | New York City | 1 | All Maps","protocol":17,"map":"koth_highpass","folder":"tf","game":"Team Fortress","app_id":440,"player_count":0,"max_players":24,"Bots":0,"server_type":"Dedicated","server_os":"Linux","password":true,"vac":true,"version":"7932396","steam_id":85568392924469993,"keywords":["cp","nocrits","nodmgspread","uncletopia"],"game_id":440,"stv_port":27016,"stv_name":"Uncletopia | New York City | 1 | All Maps | STV","players":null},{"server_id":14,"name":"Uncletopia | New York City | 2 | All Maps","name_short":"nyc-2","host":"nyc-1.us.uncletopia.com","port":27025,"enabled":true,"region":"us-east","cc":"us","latitude":40.73061,"longitude":-73.93524,"reserved":0,"last_update":"0001-01-01T00:00:00Z","name_a2s":"Uncletopia | New York City | 2 | All Maps","protocol":17,"map":"pl_snowycoast","folder":"tf","game":"Team Fortress","app_id":440,"player_count":0,"max_players":24,"Bots":0,"server_type":"Dedicated","server_os":"Linux","password":true,"vac":true,"version":"7932396","steam_id":85568392924469994,"keywords":["nocrits","nodmgspread","payload","uncletopia"],"game_id":440,"stv_port":27026,"stv_name":"Uncletopia | New York City | 2 | All Maps | STV","players":null},{"server_id":15,"name":"Uncletopia | New York City | 3 | Stopwatch Beta","name_short":"nyc-3","host":"nyc-1.us.uncletopia.com","port":27035,"enabled":true,"region":"us-east","cc":"us","latitude":40.73061,"longitude":-73.93524,"reserved":0,"last_update":"0001-01-01T00:00:00Z","name_a2s":"Uncletopia | New York City | 3 | Stopwatch Beta","protocol":17,"map":"workshop/koth_ramjam_rc1.ugc459778887","folder":"tf","game":"Team Fortress","app_id":440,"player_count":0,"max_players":24,"Bots":0,"server_type":"Dedicated","server_os":"Linux","password":true,"vac":true,"version":"7932396","steam_id":85568392924742820,"keywords":["cp","nocrits","nodmgspread","uncletopia"],"game_id":440,"stv_port":27036,"stv_name":"Uncletopia | New York City | 3 | Stopwatch Beta | STV","players":null},{"server_id":16,"name":"Uncletopia | New York City | 4 | Community","name_short":"nyc-4","host":"nyc-1.us.uncletopia.com","port":27045,"enabled":true,"region":"us-east","cc":"us","latitude":40.73061,"longitude":-73.93524,"reserved":0,"last_update":"0001-01-01T00:00:00Z","name_a2s":"Uncletopia | New York City | 4 | Community","protocol":17,"map":"workshop/pl_cactuscanyon_redux_final2.ugc2579644293","folder":"tf","game":"Team Fortress","app_id":440,"player_count":5,"max_players":24,"Bots":0,"server_type":"Dedicated","server_os":"Linux","password":true,"vac":true,"version":"7932396","steam_id":85568392924742821,"keywords":["nocrits","nodmgspread","payload","uncletopia"],"game_id":440,"stv_port":27046,"stv_name":"Uncletopia | New York City | 4 | Community | STV","players":[{"user_id":139,"name":"Blitzy","steam_id":76561198149472890,"connected_time":1694000000000,"state":"active","ping":89},{"user_id":162,"name":"Tom","steam_id":76561198139202942,"connected_time":373000000000,"state":"active","ping":73},{"user_id":77,"name":"üÖúüÖîüÖîüÖöüÖ¢üÖ£üÖî\ufffd\ufffd\ufffd","steam_id":76561197999748343,"connected_time":6524000000000,"state":"active","ping":62},{"user_id":159,"name":"Challenger Charles","steam_id":76561198005576553,"connected_time":808000000000,"state":"active","ping":58},{"user_id":157,"name":"Red","steam_id":76561198082958231,"connected_time":944000000000,"state":"active","ping":46}]},{"server_id":142,"name":"Uncletopia | S√£o Paulo | 1 | All Maps","name_short":"sao-1","host":"sao-1.br.uncletopia.com","port":27015,"enabled":true,"region":"sa","cc":"br","latitude":-23.533773,"longitude":-46.62529,"reserved":0,"last_update":"0001-01-01T00:00:00Z","name_a2s":"Uncletopia | S√£o Paulo | 1 | All Maps","protocol":17,"map":"cp_mountainlab","folder":"tf","game":"Team Fortress","app_id":440,"player_count":0,"max_players":24,"Bots":0,"server_type":"Dedicated","server_os":"Linux","password":true,"vac":true,"version":"7932396","steam_id":85568392924469996,"keywords":["cp","nocrits","nodmgspread","uncletopia"],"game_id":440,"stv_port":27016,"stv_name":"Uncletopia | S√£o Paulo | 1 | All Maps | STV","players":null},{"server_id":143,"name":"Uncletopia | S√£o Paulo | 2 | All Maps","name_short":"sao-2","host":"sao-2.br.uncletopia.com","port":27015,"enabled":true,"region":"sa","cc":"br","latitude":-23.533773,"longitude":-46.62529,"reserved":0,"last_update":"0001-01-01T00:00:00Z","name_a2s":"Uncletopia | S√£o Paulo | 2 | All Maps","protocol":17,"map":"koth_lakeside_final","folder":"tf","game":"Team Fortress","app_id":440,"player_count":1,"max_players":24,"Bots":0,"server_type":"Dedicated","server_os":"Linux","password":true,"vac":true,"version":"7932396","steam_id":85568392924485349,"keywords":["cp","nocrits","nodmgspread","uncletopia"],"game_id":440,"stv_port":27016,"stv_name":"Uncletopia | S√£o Paulo | 2 | All Maps | STV","players":[{"user_id":11,"name":"Frans","steam_id":76561198207928860,"connected_time":134000000000,"state":"active","ping":32}]},{"server_id":7,"name":"Uncletopia | Seattle | 1 | All Maps","name_short":"sea-1","host":"sea-1.us.uncletopia.com","port":27015,"enabled":true,"region":"us-west","cc":"us","latitude":47.608013,"longitude":-122.33517,"reserved":0,"last_update":"0001-01-01T00:00:00Z","name_a2s":"Uncletopia | Seattle | 1 | All Maps","protocol":17,"map":"pl_badwater","folder":"tf","game":"Team Fortress","app_id":440,"player_count":24,"max_players":24,"Bots":0,"server_type":"Dedicated","server_os":"Linux","password":true,"vac":true,"version":"7932396","steam_id":85568392924469997,"keywords":["nocrits","nodmgspread","payload","uncletopia"],"game_id":440,"stv_port":27016,"stv_name":"Uncletopia | Seattle | 1 | All Maps | STV","players":[{"user_id":40,"name":"BlazedBunny","steam_id":76561198243610560,"connected_time":6313000000000,"state":"active","ping":69},{"user_id":101,"name":"Shark Sandwich","steam_id":76561198025007938,"connected_time":289000000000,"state":"active","ping":54},{"user_id":9,"name":"fwoov","steam_id":76561198129166260,"connected_time":7255000000000,"state":"active","ping":76},{"user_id":103,"name":"gnoblin","steam_id":76561198210322871,"connected_time":263000000000,"state":"active","ping":64},{"user_id":84,"name":"delight","steam_id":76561197980280272,"connected_time":1776000000000,"state":"active","ping":48},{"user_id":86,"name":"ORANGE","steam_id":76561198000401769,"connected_time":1742000000000,"state":"active","ping":45},{"user_id":99,"name":"breathing meat donut","steam_id":76561198123566649,"connected_time":393000000000,"state":"active","ping":203},{"user_id":104,"name":"SnailYT","steam_id":76561198332040385,"connected_time":241000000000,"state":"active","ping":67},{"user_id":88,"name":"gloobern","steam_id":76561198341190679,"connected_time":1582000000000,"state":"active","ping":68},{"user_id":69,"name":"TobyTurner32","steam_id":76561198018801418,"connected_time":3746000000000,"state":"active","ping":44},{"user_id":112,"name":"mr. nine","steam_id":76561198097599414,"connected_time":26000000000,"state":"active","ping":81},{"user_id":58,"name":"Vincent Van Bro","steam_id":76561197966919802,"connected_time":4829000000000,"state":"active","ping":54},{"user_id":106,"name":"sirsmit1","steam_id":76561199129778001,"connected_time":166000000000,"state":"active","ping":129},{"user_id":73,"name":"Ducks","steam_id":76561198130038345,"connected_time":3237000000000,"state":"active","ping":55},{"user_id":109,"name":"Integral","steam_id":76561198158225481,"connected_time":114000000000,"state":"active","ping":119},{"user_id":55,"name":"p i n e ‚Üü ‚Üü","steam_id":76561198058199952,"connected_time":5196000000000,"state":"active","ping":54},{"user_id":111,"name":"MR HANKY","steam_id":76561198938434440,"connected_time":62000000000,"state":"active","ping":94},{"user_id":59,"name":"Sudsen","steam_id":76561198370603787,"connected_time":4823000000000,"state":"active","ping":58},{"user_id":62,"name":"Keamy","steam_id":76561199471434875,"connected_time":4332000000000,"state":"active","ping":44},{"user_id":90,"name":"c","steam_id":76561199391478575,"connected_time":1390000000000,"state":"active","ping":64},{"user_id":85,"name":"SpinetinglingToast","steam_id":76561198099470670,"connected_time":1776000000000,"state":"active","ping":117},{"user_id":96,"name":"Flowey","steam_id":76561198442304406,"connected_time":595000000000,"state":"active","ping":45},{"user_id":97,"name":"CEOlifestyle","steam_id":76561198025747866,"connected_time":496000000000,"state":"active","ping":48},{"user_id":57,"name":"Noodle","steam_id":76561198040872617,"connected_time":4856000000000,"state":"active","ping":58}]},{"server_id":119,"name":"Uncletopia | Seattle | 2 | All Maps","name_short":"sea-2","host":"sea-1.us.uncletopia.com","port":27025,"enabled":true,"region":"us-west","cc":"us","latitude":47.608013,"longitude":-122.33517,"reserved":0,"last_update":"0001-01-01T00:00:00Z","name_a2s":"Uncletopia | Seattle | 2 | All Maps","protocol":17,"map":"cp_mountainlab","folder":"tf","game":"Team Fortress","app_id":440,"player_count":0,"max_players":24,"Bots":0,"server_type":"Dedicated","server_os":"Linux","password":true,"vac":true,"version":"7932396","steam_id":85568392924469998,"keywords":["cp","nocrits","nodmgspread","uncletopia"],"game_id":440,"stv_port":27026,"stv_name":"Uncletopia | Seattle | 2 | All Maps | STV","players":null},{"server_id":406,"name":"Uncletopia | Seattle | 3 | Stopwatch Beta","name_short":"sea-3","host":"sea-1.us.uncletopia.com","port":27035,"enabled":true,"region":"us-west","cc":"us","latitude":47.608013,"longitude":-122.33517,"reserved":0,"last_update":"0001-01-01T00:00:00Z","name_a2s":"Uncletopia | Seattle | 3 | Stopwatch Beta","protocol":17,"map":"workshop/koth_bagel_rc6.ugc2514036946","folder":"tf","game":"Team Fortress","app_id":440,"player_count":0,"max_players":24,"Bots":0,"server_type":"Dedicated","server_os":"Linux","password":true,"vac":true,"version":"7932396","steam_id":85568392924515217,"keywords":["cp","nocrits","nodmgspread","uncletopia"],"game_id":440,"stv_port":27036,"stv_name":"Uncletopia | Seattle | 3 | Stopwatch Beta | STV","players":null},{"server_id":17,"name":"Uncletopia | San Francisco | 1 | All Maps","name_short":"sfo-1","host":"sfo-1.us.uncletopia.com","port":27015,"enabled":true,"region":"us-west","cc":"us","latitude":37.77397,"longitude":-122.4313,"reserved":0,"last_update":"0001-01-01T00:00:00Z","name_a2s":"Uncletopia | San Francisco | 1 | All Maps","protocol":17,"map":"plr_pipeline","folder":"tf","game":"Team Fortress","app_id":440,"player_count":0,"max_players":24,"Bots":0,"server_type":"Dedicated","server_os":"Linux","password":true,"vac":true,"version":"7932396","steam_id":85568392924469999,"keywords":["nocrits","nodmgspread","payload","uncletopia"],"game_id":440,"stv_port":27016,"stv_name":"Uncletopia | San Francisco | 1 | All Maps | STV","players":null},{"server_id":18,"name":"Uncletopia | San Francisco | 2 | All Maps","name_short":"sfo-2","host":"sfo-1.us.uncletopia.com","port":27025,"enabled":true,"region":"us-west","cc":"us","latitude":37.77397,"longitude":-122.4313,"reserved":0,"last_update":"0001-01-01T00:00:00Z","name_a2s":"Uncletopia | San Francisco | 2 | All Maps","protocol":17,"map":"pl_snowycoast","folder":"tf","game":"Team Fortress","app_id":440,"player_count":0,"max_players":24,"Bots":0,"server_type":"Dedicated","server_os":"Linux","password":true,"vac":true,"version":"7932396","steam_id":85568392924470000,"keywords":["nocrits","nodmgspread","payload","uncletopia"],"game_id":440,"stv_port":27026,"stv_name":"Uncletopia | San Francisco | 2 | All Maps | STV","players":null},{"server_id":19,"name":"Uncletopia | San Francisco | 3 | Stopwatch Beta","name_short":"sfo-3","host":"sfo-1.us.uncletopia.com","port":27035,"enabled":true,"region":"us-west","cc":"us","latitude":37.77397,"longitude":-122.4313,"reserved":0,"last_update":"0001-01-01T00:00:00Z","name_a2s":"Uncletopia | San Francisco | 3 | Stopwatch Beta","protocol":17,"map":"workshop/pl_badwater_pro_v12.ugc2142942074","folder":"tf","game":"Team Fortress","app_id":440,"player_count":0,"max_players":24,"Bots":0,"server_type":"Dedicated","server_os":"Linux","password":true,"vac":true,"version":"7932396","steam_id":85568392924742824,"keywords":["nocrits","nodmgspread","payload","uncletopia"],"game_id":440,"stv_port":27036,"stv_name":"Uncletopia | San Francisco | 3 | Stopwatch Beta | STV","players":null},{"server_id":20,"name":"Uncletopia | San Francisco | 4 | Community","name_short":"sfo-4","host":"sfo-1.us.uncletopia.com","port":27045,"enabled":true,"region":"us-west","cc":"us","latitude":37.77397,"longitude":-122.4313,"reserved":0,"last_update":"0001-01-01T00:00:00Z","name_a2s":"Uncletopia | San Francisco | 4 | Community","protocol":17,"map":"pl_borneo","folder":"tf","game":"Team Fortress","app_id":440,"player_count":0,"max_players":24,"Bots":0,"server_type":"Dedicated","server_os":"Linux","password":true,"vac":true,"version":"7932396","steam_id":85568392924742826,"keywords":["nocrits","nodmgspread","payload","uncletopia"],"game_id":440,"stv_port":27046,"stv_name":"Uncletopia | San Francisco | 4 | Community | STV","players":null},{"server_id":141,"name":"Uncletopia | Sydney | 1 | All Maps","name_short":"syd-1","host":"syd-1.au.uncletopia.com","port":27015,"enabled":true,"region":"au","cc":"au","latitude":-33.865143,"longitude":151.2099,"reserved":0,"last_update":"0001-01-01T00:00:00Z","name_a2s":"Uncletopia | Sydney | 1 | All Maps","protocol":17,"map":"pl_pier","folder":"tf","game":"Team Fortress","app_id":440,"player_count":0,"max_players":24,"Bots":0,"server_type":"Dedicated","server_os":"Linux","password":true,"vac":true,"version":"7932396","steam_id":85568392924470001,"keywords":["nocrits","nodmgspread","payload","uncletopia"],"game_id":440,"stv_port":27016,"stv_name":"Uncletopia | Sydney | 1 | All Maps | STV","players":null},{"server_id":123,"name":"Uncletopia | Sydney | 2 | All Maps","name_short":"syd-2","host":"syd-1.au.uncletopia.com","port":27025,"enabled":true,"region":"au","cc":"au","latitude":-33.865143,"longitude":151.2099,"reserved":0,"last_update":"0001-01-01T00:00:00Z","name_a2s":"Uncletopia | Sydney | 2 | All Maps","protocol":17,"map":"koth_lakeside_final","folder":"tf","game":"Team Fortress","app_id":440,"player_count":0,"max_players":24,"Bots":0,"server_type":"Dedicated","server_os":"Linux","password":true,"vac":true,"version":"7932396","steam_id":85568392924470002,"keywords":["cp","nocrits","nodmgspread","uncletopia"],"game_id":440,"stv_port":27026,"stv_name":"Uncletopia | Sydney | 2 | All Maps | STV","players":null},{"server_id":395,"name":"Uncletopia | Sydney | 3 | All Maps","name_short":"syd-3","host":"syd-1.au.uncletopia.com","port":27035,"enabled":true,"region":"au","cc":"au","latitude":-33.865143,"longitude":151.2099,"reserved":0,"last_update":"0001-01-01T00:00:00Z","name_a2s":"Uncletopia | Sydney | 3 | All Maps","protocol":17,"map":"pl_barnblitz","folder":"tf","game":"Team Fortress","app_id":440,"player_count":0,"max_players":24,"Bots":0,"server_type":"Dedicated","server_os":"Linux","password":true,"vac":true,"version":"7932396","steam_id":85568392925194467,"keywords":["nocrits","nodmgspread","payload","uncletopia"],"game_id":440,"stv_port":27036,"stv_name":"Uncletopia | Sydney | 3 | All Maps | STV","players":null},{"server_id":396,"name":"Uncletopia | Sydney | 4 | All Maps","name_short":"syd-4","host":"syd-1.au.uncletopia.com","port":27045,"enabled":true,"region":"au","cc":"au","latitude":-33.865143,"longitude":151.2099,"reserved":0,"last_update":"0001-01-01T00:00:00Z","name_a2s":"Uncletopia | Sydney | 4 | All Maps","protocol":17,"map":"pl_pier","folder":"tf","game":"Team Fortress","app_id":440,"player_count":0,"max_players":24,"Bots":0,"server_type":"Dedicated","server_os":"Linux","password":true,"vac":true,"version":"7932396","steam_id":85568392925397958,"keywords":["nocrits","nodmgspread","payload","uncletopia"],"game_id":440,"stv_port":27046,"stv_name":"Uncletopia | Sydney | 4 | All Maps | STV","players":null},{"server_id":58,"name":"Uncletopia | Sydney | 5 | Stopwatch Beta","name_short":"syd-5","host":"syd-1.au.uncletopia.com","port":27055,"enabled":true,"region":"au","cc":"au","latitude":-33.865143,"longitude":151.2099,"reserved":0,"last_update":"0001-01-01T00:00:00Z","name_a2s":"Uncletopia | Sydney | 5 | Stopwatch Beta","protocol":17,"map":"pl_borneo","folder":"tf","game":"Team Fortress","app_id":440,"player_count":0,"max_players":24,"Bots":0,"server_type":"Dedicated","server_os":"Linux","password":true,"vac":true,"version":"7932396","steam_id":85568392925397959,"keywords":["nocrits","nodmgspread","payload","uncletopia"],"game_id":440,"stv_port":27056,"stv_name":"Uncletopia | Sydney | 5 | Stopwatch Beta | STV","players":null},{"server_id":59,"name":"Uncletopia | Sydney | 6 | Community","name_short":"syd-6","host":"syd-1.au.uncletopia.com","port":27065,"enabled":true,"region":"au","cc":"au","latitude":-33.865143,"longitude":151.2099,"reserved":0,"last_update":"0001-01-01T00:00:00Z","name_a2s":"Uncletopia | Sydney | 6 | Community","protocol":17,"map":"pl_badwater","folder":"tf","game":"Team Fortress","app_id":440,"player_count":0,"max_players":24,"Bots":0,"server_type":"Dedicated","server_os":"Linux","password":true,"vac":true,"version":"7932396","steam_id":85568392925397960,"keywords":["nocrits","nodmgspread","payload","uncletopia"],"game_id":440,"stv_port":27066,"stv_name":"Uncletopia | Sydney | 6 | Community | STV","players":null},{"server_id":49,"name":"Uncletopia | Warsaw | 1 | All Maps","name_short":"waw-1","host":"waw-1.pl.uncletopia.com","port":27015,"enabled":true,"region":"eu","cc":"pl","latitude":52.2297,"longitude":21.017532,"reserved":0,"last_update":"0001-01-01T00:00:00Z","name_a2s":"","protocol":0,"map":"","folder":"","game":"","app_id":0,"player_count":0,"max_players":0,"Bots":0,"server_type":"","server_os":"","password":false,"vac":false,"version":"","steam_id":0,"keywords":null,"game_id":0,"stv_port":0,"stv_name":"","players":null},{"server_id":50,"name":"Uncletopia | Warsaw | 2 | All Maps","name_short":"waw-2","host":"waw-1.pl.uncletopia.com","port":27025,"enabled":true,"region":"eu","cc":"pl","latitude":52.2297,"longitude":21.017532,"reserved":0,"last_update":"0001-01-01T00:00:00Z","name_a2s":"Uncletopia | Warsaw | 2 | All Maps","protocol":17,"map":"pl_borneo","folder":"tf","game":"Team Fortress","app_id":440,"player_count":24,"max_players":24,"Bots":0,"server_type":"Dedicated","server_os":"Linux","password":true,"vac":true,"version":"7932396","steam_id":85568392925397851,"keywords":["nocrits","nodmgspread","payload","uncletopia"],"game_id":440,"stv_port":27026,"stv_name":"Uncletopia | Warsaw | 2 | All Maps | STV","players":[{"user_id":271,"name":"Syd","steam_id":76561198020515027,"connected_time":825000000000,"state":"active","ping":57},{"user_id":272,"name":"Swedde","steam_id":76561198297296440,"connected_time":742000000000,"state":"active","ping":91},{"user_id":269,"name":"Arcticpyro","steam_id":76561198010708923,"connected_time":920000000000,"state":"active","ping":81},{"user_id":283,"name":"MR.SODAMAN","steam_id":76561199073754324,"connected_time":136000000000,"state":"active","ping":106},{"user_id":273,"name":"weaselmeister","steam_id":76561199059841173,"connected_time":659000000000,"state":"active","ping":75},{"user_id":194,"name":"I eat human babys","steam_id":76561199248584098,"connected_time":7569000000000,"state":"active","ping":114},{"user_id":285,"name":"rysieko","steam_id":76561199385228217,"connected_time":46000000000,"state":"active","ping":43},{"user_id":280,"name":"Cypher","steam_id":76561197996967254,"connected_time":404000000000,"state":"active","ping":75},{"user_id":211,"name":"markotrichko4238","steam_id":76561199125036759,"connected_time":5752000000000,"state":"active","ping":97},{"user_id":275,"name":"Fart Goblin","steam_id":76561198072147068,"connected_time":618000000000,"state":"active","ping":109},{"user_id":284,"name":"Hercules","steam_id":76561198041164170,"connected_time":118000000000,"state":"active","ping":41},{"user_id":216,"name":"Daan77","steam_id":76561198129940468,"connected_time":5133000000000,"state":"active","ping":85},{"user_id":276,"name":"rabbitface26","steam_id":76561198327540113,"connected_time":586000000000,"state":"active","ping":64},{"user_id":253,"name":"Proud Jojo Fan #TF2SP","steam_id":76561198847327216,"connected_time":2603000000000,"state":"active","ping":45},{"user_id":258,"name":"Creative","steam_id":76561198835034247,"connected_time":1961000000000,"state":"active","ping":97},{"user_id":158,"name":"God","steam_id":76561199049925843,"connected_time":10724000000000,"state":"active","ping":123},{"user_id":259,"name":"Siegmeyer","steam_id":76561198328543549,"connected_time":1870000000000,"state":"active","ping":77},{"user_id":262,"name":"Goodmouth","steam_id":76561198097645042,"connected_time":1575000000000,"state":"active","ping":86},{"user_id":244,"name":"PsycLess","steam_id":76561198429499007,"connected_time":3640000000000,"state":"active","ping":111},{"user_id":260,"name":"DraGOs512","steam_id":76561198438519964,"connected_time":1802000000000,"state":"active","ping":102},{"user_id":227,"name":"Biggus Dickus","steam_id":76561198018358868,"connected_time":4714000000000,"state":"active","ping":75},{"user_id":277,"name":"BELADIT","steam_id":76561198011911501,"connected_time":583000000000,"state":"active","ping":86},{"user_id":196,"name":"light brandon","steam_id":76561198272804994,"connected_time":7511000000000,"state":"active","ping":93},{"user_id":281,"name":"BORGETENNISCLUB","steam_id":76561198049343723,"connected_time":365000000000,"state":"active","ping":78}]},{"server_id":51,"name":"Uncletopia | Warsaw | 3 | All Maps","name_short":"waw-3","host":"waw-1.pl.uncletopia.com","port":27035,"enabled":true,"region":"eu","cc":"pl","latitude":52.2297,"longitude":21.017532,"reserved":0,"last_update":"0001-01-01T00:00:00Z","name_a2s":"Uncletopia | Warsaw | 3 | All Maps","protocol":17,"map":"pl_badwater","folder":"tf","game":"Team Fortress","app_id":440,"player_count":23,"max_players":24,"Bots":0,"server_type":"Dedicated","server_os":"Linux","password":true,"vac":true,"version":"7932396","steam_id":85568392925397852,"keywords":["nocrits","nodmgspread","payload","uncletopia"],"game_id":440,"stv_port":27036,"stv_name":"Uncletopia | Warsaw | 3 | All Maps | STV","players":[{"user_id":46,"name":"Baba Foss","steam_id":76561198002302019,"connected_time":1862000000000,"state":"active","ping":90},{"user_id":24,"name":"Tortoise01Swe","steam_id":76561198118673227,"connected_time":3486000000000,"state":"active","ping":89},{"user_id":25,"name":"DOODL","steam_id":76561198358378176,"connected_time":3486000000000,"state":"active","ping":92},{"user_id":26,"name":"Commander Slem","steam_id":76561198064900840,"connected_time":3471000000000,"state":"active","ping":96},{"user_id":27,"name":"Patrik Stj√§rna","steam_id":76561198044435735,"connected_time":3470000000000,"state":"active","ping":92},{"user_id":28,"name":"Morfiwen","steam_id":76561198930976764,"connected_time":3425000000000,"state":"active","ping":72},{"user_id":45,"name":"Laxslow","steam_id":76561198065361846,"connected_time":1988000000000,"state":"active","ping":75},{"user_id":71,"name":"Lopat","steam_id":76561198820264239,"connected_time":379000000000,"state":"active","ping":82},{"user_id":58,"name":"Camele0pard","steam_id":76561198145191589,"connected_time":1168000000000,"state":"active","ping":91},{"user_id":50,"name":"miiq130","steam_id":76561198188010666,"connected_time":1818000000000,"state":"active","ping":59},{"user_id":51,"name":"Man","steam_id":76561197964776022,"connected_time":1648000000000,"state":"active","ping":58},{"user_id":35,"name":"Viper","steam_id":76561199093702442,"connected_time":2553000000000,"state":"active","ping":144},{"user_id":52,"name":"Razor","steam_id":76561197973965174,"connected_time":1567000000000,"state":"active","ping":73},{"user_id":53,"name":"Poison Tree","steam_id":76561198819901435,"connected_time":1340000000000,"state":"active","ping":63},{"user_id":39,"name":"‚ú™ m_br3","steam_id":76561198044981990,"connected_time":2536000000000,"state":"active","ping":47},{"user_id":61,"name":"bonour74","steam_id":76561199089910337,"connected_time":996000000000,"state":"active","ping":193},{"user_id":55,"name":"Grumtsior","steam_id":76561198043563111,"connected_time":1247000000000,"state":"active","ping":45},{"user_id":56,"name":"fewry","steam_id":76561198045330758,"connected_time":1239000000000,"state":"active","ping":113},{"user_id":60,"name":"s a i","steam_id":76561197970379754,"connected_time":1115000000000,"state":"active","ping":69},{"user_id":62,"name":"Officer KD6-3.7","steam_id":76561198034343111,"connected_time":953000000000,"state":"active","ping":77},{"user_id":63,"name":"cat","steam_id":76561198832231975,"connected_time":870000000000,"state":"active","ping":63},{"user_id":72,"name":"—Ö–ª—ñ–± –∫–∏—ó–≤—Å—å–∫–∏–π","steam_id":76561198284750295,"connected_time":339000000000,"state":"active","ping":61},{"user_id":65,"name":"lagzer","steam_id":76561198029295449,"connected_time":833000000000,"state":"active","ping":47}]},{"server_id":52,"name":"Uncletopia | Warsaw | 4 | All Maps","name_short":"waw-4","host":"waw-1.pl.uncletopia.com","port":27045,"enabled":true,"region":"eu","cc":"pl","latitude":52.2297,"longitude":21.017532,"reserved":0,"last_update":"0001-01-01T00:00:00Z","name_a2s":"Uncletopia | Warsaw | 4 | All Maps","protocol":17,"map":"pl_swiftwater_final1","folder":"tf","game":"Team Fortress","app_id":440,"player_count":0,"max_players":24,"Bots":0,"server_type":"Dedicated","server_os":"Linux","password":true,"vac":true,"version":"7932396","steam_id":85568392925397853,"keywords":["nocrits","nodmgspread","payload","uncletopia"],"game_id":440,"stv_port":27046,"stv_name":"Uncletopia | Warsaw | 4 | All Maps | STV","players":null},{"server_id":53,"name":"Uncletopia | Warsaw | 5 | Stopwatch Beta","name_short":"waw-5","host":"waw-1.pl.uncletopia.com","port":27055,"enabled":true,"region":"eu","cc":"pl","latitude":52.2297,"longitude":21.017532,"reserved":0,"last_update":"0001-01-01T00:00:00Z","name_a2s":"Uncletopia | Warsaw | 5 | Stopwatch Beta","protocol":17,"map":"koth_lakeside_final","folder":"tf","game":"Team Fortress","app_id":440,"player_count":0,"max_players":24,"Bots":0,"server_type":"Dedicated","server_os":"Linux","password":true,"vac":true,"version":"7932396","steam_id":85568392925397854,"keywords":["cp","nocrits","nodmgspread","uncletopia"],"game_id":440,"stv_port":27056,"stv_name":"Uncletopia | Warsaw | 5 | Stopwatch Beta | STV","players":null},{"server_id":54,"name":"Uncletopia | Warsaw | 6 | Community","name_short":"waw-6","host":"waw-1.pl.uncletopia.com","port":27065,"enabled":true,"region":"eu","cc":"pl","latitude":52.2297,"longitude":21.017532,"reserved":0,"last_update":"0001-01-01T00:00:00Z","name_a2s":"Uncletopia | Warsaw | 6 | Community","protocol":17,"map":"pl_upward","folder":"tf","game":"Team Fortress","app_id":440,"player_count":0,"max_players":24,"Bots":0,"server_type":"Dedicated","server_os":"Linux","password":true,"vac":true,"version":"7932396","steam_id":85568392925397856,"keywords":["nocrits","nodmgspread","payload","uncletopia"],"game_id":440,"stv_port":27066,"stv_name":"Uncletopia | Warsaw | 6 | Community | STV","players":null}]}