{"status":true,"message":"","result":[{"server_id":9,"name":"Uncletopia | Atlanta | 1 | All Maps","name_short":"atl-1","host":"atl-1.us.uncletopia.com","port":27015,"enabled":true,"region":"us-east","cc":"us","latitude":33.753746,"longitude":-84.38633,"reserved":0,"last_update":"0001-01-01T00:00:00Z","name_a2s":"Uncletopia | Atlanta | 1 | All Maps","protocol":17,"map":"pl_upward","folder":"tf","game":"Team Fortress","app_id":440,"player_count":23,"max_players":24,"Bots":0,"server_type":"Dedicated","server_os":"Linux","password":true,"vac":true,"version":"7961495","steam_id":85568392924469982,"keywords":["nocrits","nodmgspread","payload","uncletopia"],"game_id":440,"stv_port":27016,"stv_name":"Uncletopia | Atlanta | 1 | All Maps | STV","players":[{"user_id":561,"name":"Dr.Inkmix(femboy)","steam_id":76561198854070384,"connected_time":760000000000,"state":"active","ping":108},{"user_id":509,"name":"monsterplayer","steam_id":76561198065923482,"connected_time":5415000000000,"state":"active","ping":45},{"user_id":562,"name":"Onyx","steam_id":76561198275349640,"connected_time":412000000000,"state":"active","ping":82},{"user_id":535,"name":"Dim","steam_id":76561198061411324,"connected_time":2479000000000,"state":"active","ping":83},{"user_id":565,"name":"PK","steam_id":76561198368722500,"connected_time":293000000000,"state":"active","ping":57},{"user_id":528,"name":"gallowsCalibrator","steam_id":76561198404707578,"connected_time":2844000000000,"state":"active","ping":53},{"user_id":495,"name":"Jared","steam_id":76561198027210228,"connected_time":6540000000000,"state":"active","ping":79},{"user_id":569,"name":"Jabawakai","steam_id":76561198088881254,"connected_time":3000000000,"state":"spawning","ping":54},{"user_id":543,"name":"owlbortch","steam_id":76561198042849350,"connected_time":1588000000000,"state":"active","ping":51},{"user_id":567,"name":"kite","steam_id":76561198346516392,"connected_time":154000000000,"state":"active","ping":76},{"user_id":568,"name":"Nideroid","steam_id":76561198215790484,"connected_time":4000000000,"state":"spawning","ping":82},{"user_id":497,"name":"Laura Palmer Gaming","steam_id":76561198282965733,"connected_time":6531000000000,"state":"active","ping":57},{"user_id":435,"name":"Heathcliff","steam_id":76561198044288534,"connected_time":10987000000000,"state":"active","ping":60},{"user_id":564,"name":":0 :0 :0","steam_id":76561198008931651,"connected_time":304000000000,"state":"active","ping":71},{"user_id":503,"name":"H√ñLLENFEUER","steam_id":76561198032751171,"connected_time":5437000000000,"state":"active","ping":45},{"user_id":453,"name":"Shame","steam_id":76561198100490994,"connected_time":10136000000000,"state":"active","ping":60},{"user_id":546,"name":"butterthoughts","steam_id":76561198025120284,"connected_time":1582000000000,"state":"active","ping":75},{"user_id":501,"name":"KBoneski ‚ô°","steam_id":76561198307409065,"connected_time":5449000000000,"state":"active","ping":70},{"user_id":507,"name":"Yeti‚Ñ¢","steam_id":76561199151545966,"connected_time":5420000000000,"state":"active","ping":59},{"user_id":536,"name":"mangokip","steam_id":76561198156471516,"connected_time":2138000000000,"state":"active","ping":53},{"user_id":560,"name":"PayPal me $3000 USD","steam_id":76561199066185761,"connected_time":779000000000,"state":"active","ping":110},{"user_id":557,"name":"Maestro","steam_id":76561198157325020,"connected_time":908000000000,"state":"active","ping":60},{"user_id":539,"name":"helen keller","steam_id":76561197979870540,"connected_time":1901000000000,"state":"active","ping":73}]},{"server_id":104,"name":"Uncletopia | Atlanta | 2 | All Maps","name_short":"atl-2","host":"atl-1.us.uncletopia.com","port":27025,"enabled":true,"region":"us-east","cc":"us","latitude":33.753746,"longitude":-84.38633,"reserved":0,"last_update":"0001-01-01T00:00:00Z","name_a2s":"Uncletopia | Atlanta | 2 | All Maps","protocol":17,"map":"pl_barnblitz","folder":"tf","game":"Team Fortress","app_id":440,"player_count":23,"max_players":24,"Bots":0,"server_type":"Dedicated","server_os":"Linux","password":true,"vac":true,"version":"7961495","steam_id":85568392924469983,"keywords":["nocrits","nodmgspread","payload","uncletopia"],"game_id":440,"stv_port":27026,"stv_name":"Uncletopia | Atlanta | 2 | All Maps | STV","players":[{"user_id":252,"name":"Zero","steam_id":76561198033384990,"connected_time":6951000000000,"state":"active","ping":56},{"user_id":290,"name":"Fear","steam_id":76561198966631666,"connected_time":4031000000000,"state":"active","ping":91},{"user_id":303,"name":"Artixes","steam_id":76561198379574232,"connected_time":2444000000000,"state":"active","ping":42},{"user_id":253,"name":"dilfbot","steam_id":76561198099988165,"connected_time":6950000000000,"state":"active","ping":64},{"user_id":285,"name":"Monkey Mode","steam_id":76561197961267543,"connected_time":4184000000000,"state":"active","ping":57},{"user_id":324,"name":"Plazmatik","steam_id":76561198168976029,"connected_time":1115000000000,"state":"active","ping":75},{"user_id":299,"name":"Ghost","steam_id":76561198110914180,"connected_time":3301000000000,"state":"active","ping":180},{"user_id":332,"name":"General Sherman","steam_id":76561198044769376,"connected_time":710000000000,"state":"active","ping":54},{"user_id":333,"name":"Game Broke No Fix","steam_id":76561198028271650,"connected_time":684000000000,"state":"active","ping":100},{"user_id":319,"name":"Dat Lion Boi","steam_id":76561198043856765,"connected_time":1524000000000,"state":"active","ping":54},{"user_id":317,"name":"Chip","steam_id":76561198182205245,"connected_time":1731000000000,"state":"active","ping":76},{"user_id":291,"name":"Timmy The Tyrant","steam_id":76561199156409732,"connected_time":3991000000000,"state":"active","ping":62},{"user_id":338,"name":"Macro","steam_id":76561199442846226,"connected_time":348000000000,"state":"active","ping":79},{"user_id":283,"name":"jri22896","steam_id":76561199369035331,"connected_time":4944000000000,"state":"active","ping":78},{"user_id":310,"name":"DivineBanana","steam_id":76561198026529731,"connected_time":2048000000000,"state":"active","ping":76},{"user_id":336,"name":"bowling ball biscuits","steam_id":76561199004451589,"connected_time":504000000000,"state":"active","ping":67},{"user_id":221,"name":"MichelangeloStark","steam_id":76561197976489900,"connected_time":10208000000000,"state":"active","ping":75},{"user_id":297,"name":"Char Aznable","steam_id":76561198041630663,"connected_time":3530000000000,"state":"active","ping":106},{"user_id":320,"name":"Poetic Pillager","steam_id":76561198964913885,"connected_time":1482000000000,"state":"active","ping":72},{"user_id":337,"name":"Colepie","steam_id":76561198037853211,"connected_time":480000000000,"state":"active","ping":81},{"user_id":330,"name":"The destroyer of foreskin","steam_id":76561198135275966,"connected_time":876000000000,"state":"active","ping":70},{"user_id":321,"name":"Draco6257","steam_id":76561199147322448,"connected_time":1477000000000,"state":"active","ping":52},{"user_id":259,"name":"Nicolas Cage Kisses Mace Windu","steam_id":76561198046127710,"connected_time":6813000000000,"state":"active","ping":74}]},{"server_id":400,"name":"Uncletopia | Atlanta | 3 | Stopwatch","name_short":"atl-3","host":"atl-1.us.uncletopia.com","port":27035,"enabled":true,"region":"us-east","cc":"us","latitude":33.753746,"longitude":-84.38633,"reserved":0,"last_update":"0001-01-01T00:00:00Z","name_a2s":"Uncletopia | Atlanta | 3 | Stopwatch","protocol":17,"map":"workshop/koth_jamram_rc1a.ugc2964065613","folder":"tf","game":"Team Fortress","app_id":440,"player_count":0,"max_players":24,"Bots":0,"server_type":"Dedicated","server_os":"Linux","password":true,"vac":true,"version":"7961495","steam_id":85568392924515187,"keywords":["cp","nocrits","nodmgspread","uncletopia"],"game_id":440,"stv_port":27036,"stv_name":"Uncletopia | Atlanta | 3 | Stopwatch | STV","players":null},{"server_id":401,"name":"Uncletopia | Atlanta | 4 | Community","name_short":"atl-4","host":"atl-1.us.uncletopia.com","port":27045,"enabled":true,"region":"us-east","cc":"us","latitude":33.753746,"longitude":-84.38633,"reserved":0,"last_update":"0001-01-01T00:00:00Z","name_a2s":"Uncletopia | Atlanta | 4 | Community","protocol":17,"map":"workshop/cp_reckoner_rc6.ugc674719999","folder":"tf","game":"Team Fortress","app_id":440,"player_count":0,"max_players":24,"Bots":0,"server_type":"Dedicated","server_os":"Linux","password":true,"vac":true,"version":"7961495","steam_id":85568392924515188,"keywords":["cp","nocrits","nodmgspread","uncletopia"],"game_id":440,"stv_port":27046,"stv_name":"Uncletopia | Atlanta | 4 | Community | STV","players":null},{"server_id":2,"name":"Uncletopia | Chicago | 1 | All Maps","name_short":"chi-1","host":"chi-1.us.uncletopia.com","port":27015,"enabled":true,"region":"us-central","cc":"us","latitude":41.881832,"longitude":-87.62318,"reserved":0,"last_update":"0001-01-01T00:00:00Z","name_a2s":"Uncletopia | Chicago | 1 | All Maps","protocol":17,"map":"pl_badwater","folder":"tf","game":"Team Fortress","app_id":440,"player_count":24,"max_players":24,"Bots":0,"server_type":"Dedicated","server_os":"Linux","password":true,"vac":true,"version":"7961495","steam_id":85568392924469984,"keywords":["nocrits","nodmgspread","payload","uncletopia"],"game_id":440,"stv_port":27016,"stv_name":"Uncletopia | Chicago | 1 | All Maps | STV","players":[{"user_id":459,"name":"The Washer of Dishes","steam_id":76561198028157625,"connected_time":2008000000000,"state":"active","ping":86},{"user_id":480,"name":"Asanez3","steam_id":76561198037381436,"connected_time":307000000000,"state":"active","ping":61},{"user_id":481,"name":"Phos","steam_id":76561198122339506,"connected_time":304000000000,"state":"active","ping":75},{"user_id":479,"name":"voyager","steam_id":76561198169747517,"connected_time":371000000000,"state":"active","ping":95},{"user_id":451,"name":"Cobrakid1968","steam_id":76561198106262346,"connected_time":2182000000000,"state":"active","ping":62},{"user_id":432,"name":"Ademar","steam_id":76561199391802581,"connected_time":3308000000000,"state":"active","ping":54},{"user_id":420,"name":"Marcuso","steam_id":76561198117206414,"connected_time":3800000000000,"state":"active","ping":79},{"user_id":476,"name":"gyozaking","steam_id":76561197972312696,"connected_time":694000000000,"state":"active","ping":69},{"user_id":484,"name":"Joe Camel","steam_id":76561198205531739,"connected_time":218000000000,"state":"active","ping":114},{"user_id":469,"name":"SPYCHECK ME","steam_id":76561198980994364,"connected_time":954000000000,"state":"active","ping":86},{"user_id":424,"name":"„ÄåDaws_Dudeguy„Äç","steam_id":76561198205838645,"connected_time":3595000000000,"state":"active","ping":63},{"user_id":470,"name":"Sheev Palpatine","steam_id":76561198252332430,"connected_time":926000000000,"state":"active","ping":63},{"user_id":454,"name":"ShortenedName","steam_id":76561198079337360,"connected_time":2087000000000,"state":"active","ping":58},{"user_id":471,"name":"I HATE U BICH !","steam_id":76561198079416036,"connected_time":895000000000,"state":"active","ping":59},{"user_id":388,"name":"Drooop","steam_id":76561198856700517,"connected_time":5748000000000,"state":"active","ping":77},{"user_id":466,"name":"capybara","steam_id":76561198798828328,"connected_time":1319000000000,"state":"active","ping":55},{"user_id":421,"name":"Hertz","steam_id":76561198245322982,"connected_time":3779000000000,"state":"active","ping":53},{"user_id":477,"name":"üå∏AVYüå∏","steam_id":76561197964252106,"connected_time":629000000000,"state":"active","ping":57},{"user_id":447,"name":"I'm Special","steam_id":76561198181743090,"connected_time":2710000000000,"state":"active","ping":63},{"user_id":486,"name":"Titan Exodos","steam_id":76561198063852935,"connected_time":93000000000,"state":"active","ping":90},{"user_id":487,"name":"silvanae324","steam_id":76561199150642573,"connected_time":87000000000,"state":"active","ping":95},{"user_id":478,"name":"EvilStickGuy","steam_id":76561197985379320,"connected_time":425000000000,"state":"active","ping":60},{"user_id":475,"name":"Blur","steam_id":76561198062314111,"connected_time":810000000000,"state":"active","ping":63},{"user_id":465,"name":"Bear bird","steam_id":76561198166769479,"connected_time":1540000000000,"state":"active","ping":85}]},{"server_id":106,"name":"Uncletopia | Chicago | 2 | All Maps","name_short":"chi-2","host":"chi-1.us.uncletopia.com","port":27025,"enabled":true,"region":"us-central","cc":"us","latitude":41.881832,"longitude":-87.62318,"reserved":0,"last_update":"0001-01-01T00:00:00Z","name_a2s":"Uncletopia | Chicago | 2 | All Maps","protocol":17,"map":"pl_upward","folder":"tf","game":"Team Fortress","app_id":440,"player_count":24,"max_players":24,"Bots":0,"server_type":"Dedicated","server_os":"Linux","password":true,"vac":true,"version":"7961495","steam_id":85568392924469985,"keywords":["nocrits","nodmgspread","payload","uncletopia"],"game_id":440,"stv_port":27026,"stv_name":"Uncletopia | Chicago | 2 | All Maps | STV","players":[{"user_id":742,"name":"igotmail","steam_id":76561198070631899,"connected_time":1402000000000,"state":"active","ping":49},{"user_id":614,"name":"spire lft newcomer","steam_id":76561198367664346,"connected_time":8096000000000,"state":"active","ping":53},{"user_id":744,"name":"figuefolle","steam_id":76561198311733787,"connected_time":857000000000,"state":"active","ping":67},{"user_id":757,"name":"Malarkey","steam_id":76561198844473584,"connected_time":115000000000,"state":"active","ping":54},{"user_id":623,"name":"T∆éC","steam_id":76561198237180318,"connected_time":7380000000000,"state":"active","ping":65},{"user_id":722,"name":"Atari","steam_id":76561199101314006,"connected_time":2046000000000,"state":"active","ping":101},{"user_id":755,"name":"Tobo","steam_id":76561198085846393,"connected_time":144000000000,"state":"active","ping":75},{"user_id":724,"name":"lordstinkdemon666","steam_id":76561198073914311,"connected_time":2024000000000,"state":"active","ping":92},{"user_id":758,"name":"SHUMT__","steam_id":76561198867869986,"connected_time":76000000000,"state":"active","ping":64},{"user_id":754,"name":"JFK GAMING","steam_id":76561198025593142,"connected_time":208000000000,"state":"active","ping":55},{"user_id":621,"name":"Swishers","steam_id":76561198288294254,"connected_time":7562000000000,"state":"active","ping":69},{"user_id":753,"name":"BIG LION","steam_id":76561198091880358,"connected_time":270000000000,"state":"active","ping":38},{"user_id":717,"name":"general.b","steam_id":76561198162480519,"connected_time":2387000000000,"state":"active","ping":57},{"user_id":704,"name":"addies for free","steam_id":76561199195602221,"connected_time":3214000000000,"state":"active","ping":66},{"user_id":756,"name":"Rin \"Hindwing\" Redtail","steam_id":76561199074865638,"connected_time":142000000000,"state":"active","ping":74},{"user_id":618,"name":"troll","steam_id":76561198082680563,"connected_time":7914000000000,"state":"active","ping":48},{"user_id":747,"name":"Kriegsman","steam_id":76561198398761223,"connected_time":483000000000,"state":"active","ping":42},{"user_id":737,"name":"Hankel Tom (The Hankeler)","steam_id":76561199446367874,"connected_time":1602000000000,"state":"active","ping":51},{"user_id":719,"name":"Space Barris","steam_id":76561198007242624,"connected_time":2240000000000,"state":"active","ping":57},{"user_id":705,"name":"GRONT","steam_id":76561198040464533,"connected_time":3208000000000,"state":"active","ping":60},{"user_id":714,"name":"2cats_2curious","steam_id":76561198027143149,"connected_time":2726000000000,"state":"active","ping":46},{"user_id":748,"name":"Six Piece Chicken McNobody","steam_id":76561198129848222,"connected_time":455000000000,"state":"active","ping":59},{"user_id":759,"name":"Nash","steam_id":76561198044192734,"connected_time":63000000000,"state":"active","ping":60},{"user_id":708,"name":"DWW","steam_id":76561198132274074,"connected_time":3086000000000,"state":"active","ping":60}]},{"server_id":402,"name":"Uncletopia | Chicago | 3 | All Maps","name_short":"chi-3","host":"chi-1.us.uncletopia.com","port":27035,"enabled":true,"region":"us-central","cc":"us","latitude":41.881832,"longitude":-87.62318,"reserved":0,"last_update":"0001-01-01T00:00:00Z","name_a2s":"Uncletopia | Chicago | 3 | All Maps","protocol":17,"map":"pl_borneo","folder":"tf","game":"Team Fortress","app_id":440,"player_count":24,"max_players":24,"Bots":0,"server_type":"Dedicated","server_os":"Linux","password":true,"vac":true,"version":"7961495","steam_id":85568392924515191,"keywords":["nocrits","nodmgspread","payload","uncletopia"],"game_id":440,"stv_port":27036,"stv_name":"Uncletopia | Chicago | 3 | All Maps | STV","players":[{"user_id":326,"name":"The Mio Honda - Step! 1","steam_id":76561198128721844,"connected_time":1837000000000,"state":"active","ping":57},{"user_id":336,"name":"Fart Smella","steam_id":76561198377835843,"connected_time":668000000000,"state":"active","ping":41},{"user_id":325,"name":"dr peppah chug!","steam_id":76561198068835693,"connected_time":1962000000000,"state":"active","ping":91},{"user_id":319,"name":"pa$$w0rd","steam_id":76561198224614084,"connected_time":2196000000000,"state":"active","ping":70},{"user_id":333,"name":"Joe, Banana","steam_id":76561198077551754,"connected_time":1172000000000,"state":"active","ping":70},{"user_id":337,"name":"axellinag15","steam_id":76561199188113751,"connected_time":604000000000,"state":"active","ping":79},{"user_id":255,"name":"thecal","steam_id":76561198307893384,"connected_time":7149000000000,"state":"active","ping":54},{"user_id":334,"name":"jaytheking05","steam_id":76561198856419769,"connected_time":805000000000,"state":"active","ping":54},{"user_id":338,"name":"kaputon","steam_id":76561198146299782,"connected_time":539000000000,"state":"active","ping":60},{"user_id":339,"name":"Kaypo","steam_id":76561198262420097,"connected_time":477000000000,"state":"active","ping":52},{"user_id":330,"name":"Shoeshocker","steam_id":76561198174302467,"connected_time":1378000000000,"state":"active","ping":64},{"user_id":329,"name":"JetZ","steam_id":76561199122488957,"connected_time":1402000000000,"state":"active","ping":53},{"user_id":323,"name":"KiloeJet","steam_id":76561199084636926,"connected_time":2133000000000,"state":"active","ping":90},{"user_id":301,"name":"Voodo133","steam_id":76561198042670351,"connected_time":4208000000000,"state":"active","ping":76},{"user_id":342,"name":"Chai Iced Tea","steam_id":76561198072815522,"connected_time":86000000000,"state":"active","ping":67},{"user_id":316,"name":"Buttfuck Armstrong","steam_id":76561198075547905,"connected_time":2678000000000,"state":"active","ping":60},{"user_id":302,"name":"BurnN8or101","steam_id":76561198132668224,"connected_time":4187000000000,"state":"active","ping":63},{"user_id":317,"name":"Cider Lia","steam_id":76561198151569597,"connected_time":2469000000000,"state":"active","ping":138},{"user_id":313,"name":"beats (16:38)","steam_id":76561199245717718,"connected_time":3079000000000,"state":"active","ping":58},{"user_id":117,"name":"Rode hard, put away wet","steam_id":76561198062764039,"connected_time":16805000000000,"state":"active","ping":57},{"user_id":241,"name":"Javaris Jamar Javarison-Lamar","steam_id":76561198146951387,"connected_time":8534000000000,"state":"active","ping":74},{"user_id":341,"name":"barry steakfries","steam_id":76561199472218520,"connected_time":354000000000,"state":"active","ping":76},{"user_id":315,"name":"Hooked","steam_id":76561198007302139,"connected_time":3041000000000,"state":"active","ping":79},{"user_id":328,"name":"disengage","steam_id":76561197992499738,"connected_time":1641000000000,"state":"active","ping":71}]},{"server_id":403,"name":"Uncletopia | Chicago | 4 | All Maps","name_short":"chi-4","host":"chi-1.us.uncletopia.com","port":27045,"enabled":true,"region":"us-central","cc":"us","latitude":41.881832,"longitude":-87.62318,"reserved":0,"last_update":"0001-01-01T00:00:00Z","name_a2s":"Uncletopia | Chicago | 4 | All Maps","protocol":17,"map":"cp_mountainlab","folder":"tf","game":"Team Fortress","app_id":440,"player_count":24,"max_players":24,"Bots":0,"server_type":"Dedicated","server_os":"Linux","password":true,"vac":true,"version":"7961495","steam_id":85568392924515193,"keywords":["cp","nocrits","nodmgspread","uncletopia"],"game_id":440,"stv_port":27046,"stv_name":"Uncletopia | Chicago | 4 | All Maps | STV","players":[{"user_id":319,"name":"Ech0","steam_id":76561198073136685,"connected_time":1718000000000,"state":"active","ping":60},{"user_id":341,"name":"slender scoot","steam_id":76561198130480615,"connected_time":340000000000,"state":"active","ping":60},{"user_id":323,"name":"Cheese Gremlin","steam_id":76561198799724217,"connected_time":1667000000000,"state":"active","ping":100},{"user_id":314,"name":"Doc Romie","steam_id":76561198953778878,"connected_time":2224000000000,"state":"active","ping":51},{"user_id":295,"name":"DerpyNate","steam_id":76561198100249037,"connected_time":3659000000000,"state":"active","ping":39},{"user_id":303,"name":"Mosh Ruum (Whydoitmc)","steam_id":76561198076328582,"connected_time":2853000000000,"state":"active","ping":45},{"user_id":335,"name":"Screwball","steam_id":76561198142102141,"connected_time":715000000000,"state":"active","ping":44},{"user_id":321,"name":"immoral man","steam_id":76561198129359862,"connected_time":1674000000000,"state":"active","ping":105},{"user_id":309,"name":"idarmed","steam_id":76561198420064361,"connected_time":2710000000000,"state":"active","ping":60},{"user_id":300,"name":"jxh300","steam_id":76561199196579894,"connected_time":2923000000000,"state":"active","ping":60},{"user_id":337,"name":"Dr. Dick","steam_id":76561198138011922,"connected_time":674000000000,"state":"active","ping":62},{"user_id":334,"name":"Jeffypoo","steam_id":76561198066384337,"connected_time":813000000000,"state":"active","ping":52},{"user_id":296,"name":"Maximum Flame","steam_id":76561198073682529,"connected_time":3507000000000,"state":"active","ping":40},{"user_id":328,"name":"Hazeyboi","steam_id":76561198130687838,"connected_time":1500000000000,"state":"active","ping":88},{"user_id":339,"name":"Samrizo el Chorizo","steam_id":76561198009838162,"connected_time":531000000000,"state":"active","ping":58},{"user_id":329,"name":"The New Bob","steam_id":76561199122072556,"connected_time":1110000000000,"state":"active","ping":79},{"user_id":343,"name":"0","steam_id":76561198046065237,"connected_time":73000000000,"state":"active","ping":134},{"user_id":338,"name":"Karma's Camera","steam_id":76561198059385185,"connected_time":621000000000,"state":"active","ping":72},{"user_id":326,"name":"Stapler","steam_id":76561198099295077,"connected_time":1648000000000,"state":"active","ping":101},{"user_id":342,"name":"that1guy","steam_id":76561199495431287,"connected_time":329000000000,"state":"active","ping":62},{"user_id":307,"name":"SafetyInstructor","steam_id":76561199195205705,"connected_time":2768000000000,"state":"active","ping":68},{"user_id":228,"name":"Harbor Seal","steam_id":76561198162631724,"connected_time":8887000000000,"state":"active","ping":64},{"user_id":327,"name":"Antwan","steam_id":76561198246200638,"connected_time":1642000000000,"state":"active","ping":72},{"user_id":294,"name":"snail2646","steam_id":76561198061411251,"connected_time":3694000000000,"state":"active","ping":48}]},{"server_id":36,"name":"Uncletopia | Chicago | 5 | All Maps","name_short":"chi-5","host":"chi-2.us.uncletopia.com","port":27015,"enabled":true,"region":"us-central","cc":"us","latitude":41.881832,"longitude":-87.62318,"reserved":0,"last_update":"0001-01-01T00:00:00Z","name_a2s":"Uncletopia | Chicago | 5 | All Maps","protocol":17,"map":"cp_dustbowl","folder":"tf","game":"Team Fortress","app_id":440,"player_count":20,"max_players":24,"Bots":0,"server_type":"Dedicated","server_os":"Linux","password":true,"vac":true,"version":"7961495","steam_id":85568392924866362,"keywords":["cp","nocrits","nodmgspread","uncletopia"],"game_id":440,"stv_port":27016,"stv_name":"Uncletopia | Chicago | 5 | All Maps | STV","players":[{"user_id":495,"name":"Uwu Micster","steam_id":76561198843890616,"connected_time":7656000000000,"state":"active","ping":90},{"user_id":565,"name":"swagerman90020 from oblock","steam_id":76561199196918355,"connected_time":1244000000000,"state":"active","ping":57},{"user_id":519,"name":"The strongest ‚ë® ball","steam_id":76561198126760743,"connected_time":4536000000000,"state":"active","ping":67},{"user_id":578,"name":"Rashaad Penny","steam_id":76561198122501753,"connected_time":266000000000,"state":"active","ping":67},{"user_id":546,"name":"Evelynn the Fox","steam_id":76561198050946208,"connected_time":2530000000000,"state":"active","ping":74},{"user_id":535,"name":"AJTarcza","steam_id":76561198070800190,"connected_time":3687000000000,"state":"active","ping":72},{"user_id":562,"name":"momlovie","steam_id":76561198843933742,"connected_time":1392000000000,"state":"active","ping":89},{"user_id":582,"name":"Madrox Who?","steam_id":76561197988859134,"connected_time":55000000000,"state":"active","ping":64},{"user_id":584,"name":"UwU","steam_id":76561198971629959,"connected_time":38000000000,"state":"active","ping":129},{"user_id":567,"name":"Whimsical Bruh","steam_id":76561199069973423,"connected_time":1029000000000,"state":"active","ping":60},{"user_id":585,"name":"give me your hash browns","steam_id":76561198162830544,"connected_time":31000000000,"state":"spawning","ping":44},{"user_id":561,"name":"Lunagriff","steam_id":76561198036889008,"connected_time":1418000000000,"state":"active","ping":61},{"user_id":569,"name":"BOGDANOFF","steam_id":76561198026516681,"connected_time":915000000000,"state":"active","ping":93},{"user_id":512,"name":"Flowers","steam_id":76561198031669899,"connected_time":5822000000000,"state":"active","ping":70},{"user_id":572,"name":"Fred Ott","steam_id":76561198099088693,"connected_time":834000000000,"state":"active","ping":74},{"user_id":574,"name":"NotAldo","steam_id":76561198272370662,"connected_time":787000000000,"state":"active","ping":90},{"user_id":552,"name":"Bob","steam_id":76561199100437824,"connected_time":2466000000000,"state":"active","ping":74},{"user_id":575,"name":"Arthur Drexel","steam_id":76561198003904750,"connected_time":718000000000,"state":"active","ping":79},{"user_id":515,"name":"Sigmar Male","steam_id":76561198067584440,"connected_time":4976000000000,"state":"active","ping":63},{"user_id":576,"name":"tunaa","steam_id":76561198362763159,"connected_time":706000000000,"state":"active","ping":94}]},{"server_id":37,"name":"Uncletopia | Chicago | 6 | All Maps","name_short":"chi-6","host":"chi-2.us.uncletopia.com","port":27025,"enabled":true,"region":"us-central","cc":"us","latitude":41.881832,"longitude":-87.62318,"reserved":0,"last_update":"0001-01-01T00:00:00Z","name_a2s":"Uncletopia | Chicago | 6 | All Maps","protocol":17,"map":"pl_borneo","folder":"tf","game":"Team Fortress","app_id":440,"player_count":24,"max_players":24,"Bots":0,"server_type":"Dedicated","server_os":"Linux","password":true,"vac":true,"version":"7961495","steam_id":85568392924866363,"keywords":["nocrits","nodmgspread","payload","uncletopia"],"game_id":440,"stv_port":27026,"stv_name":"Uncletopia | Chicago | 6 | All Maps | STV","players":[{"user_id":477,"name":"Training Bot [Easy]","steam_id":76561199119473164,"connected_time":3464000000000,"state":"active","ping":51},{"user_id":499,"name":"Closer Charles","steam_id":76561198194141631,"connected_time":1847000000000,"state":"active","ping":51},{"user_id":520,"name":"the rare bear","steam_id":76561198035015260,"connected_time":81000000000,"state":"active","ping":79},{"user_id":480,"name":"rf","steam_id":76561198195359229,"connected_time":3285000000000,"state":"active","ping":94},{"user_id":434,"name":"paisano","steam_id":76561198065575472,"connected_time":6198000000000,"state":"active","ping":59},{"user_id":510,"name":"THIRDPIERCE","steam_id":76561198405366314,"connected_time":709000000000,"state":"active","ping":88},{"user_id":507,"name":"pluto","steam_id":76561198354990729,"connected_time":844000000000,"state":"active","ping":76},{"user_id":495,"name":"astrobob911","steam_id":76561199099110654,"connected_time":2395000000000,"state":"active","ping":60},{"user_id":435,"name":"REALLINUSJEWTIP.","steam_id":76561198056647983,"connected_time":6178000000000,"state":"active","ping":67},{"user_id":503,"name":"snow","steam_id":76561198109783729,"connected_time":1147000000000,"state":"active","ping":50},{"user_id":519,"name":"Sigh","steam_id":76561198044840173,"connected_time":126000000000,"state":"active","ping":73},{"user_id":517,"name":"frank","steam_id":76561198137777483,"connected_time":243000000000,"state":"active","ping":69},{"user_id":512,"name":"iBMWRyS","steam_id":76561198041005664,"connected_time":643000000000,"state":"active","ping":46},{"user_id":498,"name":"12XU","steam_id":76561198239286750,"connected_time":1875000000000,"state":"active","ping":67},{"user_id":463,"name":"Jesse Bear","steam_id":76561198217075305,"connected_time":4480000000000,"state":"active","ping":74},{"user_id":502,"name":"creeeeeee","steam_id":76561198392539722,"connected_time":1215000000000,"state":"active","ping":84},{"user_id":501,"name":"Bunnyboy","steam_id":76561198298416058,"connected_time":1769000000000,"state":"active","ping":80},{"user_id":513,"name":"Rhutebeer","steam_id":76561198018302761,"connected_time":610000000000,"state":"active","ping":90},{"user_id":492,"name":"Kzjytsugn","steam_id":76561198130241974,"connected_time":2743000000000,"state":"active","ping":87},{"user_id":485,"name":"ewp","steam_id":76561199148289271,"connected_time":3083000000000,"state":"active","ping":96},{"user_id":521,"name":"a","steam_id":76561198131245396,"connected_time":14000000000,"state":"active","ping":101},{"user_id":493,"name":"snugglebug","steam_id":76561199489391928,"connected_time":2545000000000,"state":"active","ping":59},{"user_id":516,"name":"[P-CAN] Un_Chevre","steam_id":76561198126700526,"connected_time":415000000000,"state":"active","ping":89},{"user_id":522,"name":"associate of sanchez","steam_id":76561198056186750,"connected_time":13000000000,"state":"active","ping":57}]},{"server_id":38,"name":"Uncletopia | Chicago | 7 | Stopwatch","name_short":"chi-7","host":"chi-2.us.uncletopia.com","port":27035,"enabled":true,"region":"us-central","cc":"us","latitude":41.881832,"longitude":-87.62318,"reserved":0,"last_update":"0001-01-01T00:00:00Z","name_a2s":"Uncletopia | Chicago | 7 | Stopwatch","protocol":17,"map":"koth_lakeside_final","folder":"tf","game":"Team Fortress","app_id":440,"player_count":0,"max_players":24,"Bots":0,"server_type":"Dedicated","server_os":"Linux","password":true,"vac":true,"version":"7961495","steam_id":85568392924866364,"keywords":["cp","nocrits","nodmgspread","uncletopia"],"game_id":440,"stv_port":27036,"stv_name":"Uncletopia | Chicago | 7 | Stopwatch | STV","players":null},{"server_id":39,"name":"Uncletopia | Chicago | 8 | Community","name_short":"chi-8","host":"chi-2.us.uncletopia.com","port":27045,"enabled":true,"region":"us-central","cc":"us","latitude":41.881832,"longitude":-87.62318,"reserved":0,"last_update":"0001-01-01T00:00:00Z","name_a2s":"Uncletopia | Chicago | 8 | Community","protocol":17,"map":"workshop/pl_badwater_pro_v12.ugc2142942074","folder":"tf","game":"Team Fortress","app_id":440,"player_count":3,"max_players":24,"Bots":0,"server_type":"Dedicated","server_os":"Linux","password":true,"vac":true,"version":"7961495","steam_id":85568392924866365,"keywords":["nocrits","nodmgspread","payload","uncletopia"],"game_id":440,"stv_port":27046,"stv_name":"Uncletopia | Chicago | 8 | Community | STV","players":[{"user_id":18,"name":"ITS HAM TIME","steam_id":76561199229684207,"connected_time":1642000000000,"state":"spawning","ping":252},{"user_id":19,"name":"Taskrabbits","steam_id":76561198366682546,"connected_time":1640000000000,"state":"active","ping":77},{"user_id":21,"name":"Scarecrow","steam_id":76561198045870511,"connected_time":0,"state":"spawning","ping":25}]},{"server_id":8,"name":"Uncletopia | Dallas | 1 | All Maps","name_short":"dal-1","host":"dal-1.us.uncletopia.com","port":27015,"enabled":true,"region":"us-central","cc":"us","latitude":32.779167,"longitude":-96.80889,"reserved":0,"last_update":"0001-01-01T00:00:00Z","name_a2s":"Uncletopia | Dallas | 1 | All Maps","protocol":17,"map":"pl_swiftwater_final1","folder":"tf","game":"Team Fortress","app_id":440,"player_count":24,"max_players":24,"Bots":0,"server_type":"Dedicated","server_os":"Linux","password":true,"vac":true,"version":"7961495","steam_id":85568392924469986,"keywords":["nocrits","nodmgspread","payload","uncletopia"],"game_id":440,"stv_port":27016,"stv_name":"Uncletopia | Dallas | 1 | All Maps | STV","players":[{"user_id":492,"name":"Imrgrim","steam_id":76561198135866481,"connected_time":2903000000000,"state":"active","ping":64},{"user_id":504,"name":"bumknifgkkwet","steam_id":76561199507590156,"connected_time":1874000000000,"state":"active","ping":76},{"user_id":517,"name":"deity main","steam_id":76561199251639888,"connected_time":461000000000,"state":"active","ping":82},{"user_id":487,"name":"Camakazininja","steam_id":76561198032109987,"connected_time":3515000000000,"state":"active","ping":62},{"user_id":511,"name":"iiamiizzyy","steam_id":76561198355030751,"connected_time":1286000000000,"state":"active","ping":85},{"user_id":472,"name":"Moonflower ‚ú¶","steam_id":76561198191782483,"connected_time":4879000000000,"state":"active","ping":53},{"user_id":494,"name":"LL || Borg","steam_id":76561198011062970,"connected_time":2338000000000,"state":"active","ping":64},{"user_id":522,"name":"vom","steam_id":76561198070311363,"connected_time":358000000000,"state":"active","ping":81},{"user_id":506,"name":"TacoMan4Life","steam_id":76561198832562728,"connected_time":1585000000000,"state":"active","ping":80},{"user_id":507,"name":"Top-G Man","steam_id":76561199122152458,"connected_time":1464000000000,"state":"active","ping":55},{"user_id":524,"name":"plink","steam_id":76561198057829889,"connected_time":206000000000,"state":"active","ping":57},{"user_id":437,"name":"Ikalpo","steam_id":76561198044686915,"connected_time":7941000000000,"state":"active","ping":117},{"user_id":443,"name":"Shuko","steam_id":76561197995563378,"connected_time":7263000000000,"state":"active","ping":85},{"user_id":516,"name":"rip ghost mountain","steam_id":76561198357132470,"connected_time":465000000000,"state":"active","ping":83},{"user_id":519,"name":"ATLS1 | Strange Festive","steam_id":76561198050385093,"connected_time":432000000000,"state":"active","ping":92},{"user_id":500,"name":"Selective Serotonin Inhibitor","steam_id":76561198397908108,"connected_time":2075000000000,"state":"active","ping":47},{"user_id":520,"name":"bladees realest, saddest verse","steam_id":76561198098099826,"connected_time":429000000000,"state":"active","ping":88},{"user_id":502,"name":"Muselk, but mexican","steam_id":76561199289676387,"connected_time":1965000000000,"state":"active","ping":66},{"user_id":509,"name":"big ol' buford","steam_id":76561198290675957,"connected_time":1415000000000,"state":"active","ping":45},{"user_id":513,"name":"Caught a Thundah","steam_id":76561198054495572,"connected_time":970000000000,"state":"active","ping":59},{"user_id":523,"name":"Nooblord","steam_id":76561199105123730,"connected_time":354000000000,"state":"active","ping":117},{"user_id":505,"name":"Espresso Enjoyer","steam_id":76561198254238409,"connected_time":1601000000000,"state":"active","ping":70},{"user_id":510,"name":"techdeck","steam_id":76561199022751661,"connected_time":1381000000000,"state":"active","ping":56},{"user_id":508,"name":"SloppySulking","steam_id":76561198866538571,"connected_time":1446000000000,"state":"active","ping":54}]},{"server_id":108,"name":"Uncletopia | Dallas | 2 | All Maps","name_short":"dal-2","host":"dal-1.us.uncletopia.com","port":27025,"enabled":true,"region":"us-central","cc":"us","latitude":32.779167,"longitude":-96.80889,"reserved":0,"last_update":"0001-01-01T00:00:00Z","name_a2s":"Uncletopia | Dallas | 2 | All Maps","protocol":17,"map":"pl_frontier_final","folder":"tf","game":"Team Fortress","app_id":440,"player_count":24,"max_players":24,"Bots":0,"server_type":"Dedicated","server_os":"Linux","password":true,"vac":true,"version":"7961495","steam_id":85568392924469988,"keywords":["nocrits","nodmgspread","payload","uncletopia"],"game_id":440,"stv_port":27026,"stv_name":"Uncletopia | Dallas | 2 | All Maps | STV","players":[{"user_id":398,"name":"Agent Bowtie","steam_id":76561198175839279,"connected_time":4690000000000,"state":"active","ping":48},{"user_id":388,"name":"Whompert","steam_id":76561198042939624,"connected_time":5209000000000,"state":"active","ping":75},{"user_id":448,"name":"Captain Malarkey","steam_id":76561198869924281,"connected_time":1624000000000,"state":"active","ping":41},{"user_id":455,"name":"JJz","steam_id":76561199200296010,"connected_time":1254000000000,"state":"active","ping":42},{"user_id":461,"name":"MoomyBoomy","steam_id":76561198150787961,"connected_time":848000000000,"state":"active","ping":45},{"user_id":460,"name":"The Notorious T.A.F.T.","steam_id":76561198073012352,"connected_time":869000000000,"state":"active","ping":52},{"user_id":445,"name":"Rock Kickass","steam_id":76561198450510841,"connected_time":1701000000000,"state":"active","ping":74},{"user_id":464,"name":"Evil little man","steam_id":76561198311053471,"connected_time":449000000000,"state":"active","ping":55},{"user_id":465,"name":"ono","steam_id":76561198024377986,"connected_time":381000000000,"state":"active","ping":75},{"user_id":422,"name":"stinky","steam_id":76561198046111695,"connected_time":3755000000000,"state":"active","ping":50},{"user_id":346,"name":"info","steam_id":76561198119354946,"connected_time":8728000000000,"state":"active","ping":153},{"user_id":462,"name":"Ghostmeal","steam_id":76561198042380299,"connected_time":844000000000,"state":"active","ping":39},{"user_id":423,"name":"King Cotton","steam_id":76561198292444376,"connected_time":3718000000000,"state":"active","ping":59},{"user_id":463,"name":"theconqueror","steam_id":76561199229806456,"connected_time":842000000000,"state":"active","ping":53},{"user_id":456,"name":"Lavender (they/them)","steam_id":76561198135961731,"connected_time":1225000000000,"state":"active","ping":47},{"user_id":437,"name":"Certified Hood Classic","steam_id":76561199086159354,"connected_time":2643000000000,"state":"active","ping":49},{"user_id":404,"name":"Redguardowen","steam_id":76561198176957862,"connected_time":4553000000000,"state":"active","ping":57},{"user_id":421,"name":"(‚à©'-¬¥)‚äÉ ‚òÜ Lezbean Cat","steam_id":76561199500664171,"connected_time":3842000000000,"state":"active","ping":88},{"user_id":438,"name":"Young Sheldon Tik-Tok Clip","steam_id":76561198253927199,"connected_time":2504000000000,"state":"active","ping":152},{"user_id":439,"name":"Alejandro","steam_id":76561197970051493,"connected_time":2109000000000,"state":"active","ping":132},{"user_id":393,"name":"Pupcubus","steam_id":76561198057986869,"connected_time":4870000000000,"state":"active","ping":80},{"user_id":459,"name":"Legit_Jaxer","steam_id":76561198172234053,"connected_time":1082000000000,"state":"active","ping":111},{"user_id":442,"name":"123","steam_id":76561198106308056,"connected_time":1893000000000,"state":"active","ping":84},{"user_id":458,"name":"Spuds33","steam_id":76561198950726797,"connected_time":1212000000000,"state":"active","ping":75}]},{"server_id":404,"name":"Uncletopia | Dallas | 3 | All Maps","name_short":"dal-3","host":"dal-1.us.uncletopia.com","port":27035,"enabled":true,"region":"us-central","cc":"us","latitude":32.779167,"longitude":-96.80889,"reserved":0,"last_update":"0001-01-01T00:00:00Z","name_a2s":"Uncletopia | Dallas | 3 | All Maps","protocol":17,"map":"plr_bananabay","folder":"tf","game":"Team Fortress","app_id":440,"player_count":0,"max_players":24,"Bots":0,"server_type":"Dedicated","server_os":"Linux","password":true,"vac":true,"version":"7961495","steam_id":85568392924515219,"keywords":["nocrits","nodmgspread","payload","uncletopia"],"game_id":440,"stv_port":27036,"stv_name":"Uncletopia | Dallas | 3 | All Maps | STV","players":null},{"server_id":405,"name":"Uncletopia | Dallas | 4 | Community","name_short":"dal-4","host":"dal-1.us.uncletopia.com","port":27045,"enabled":true,"region":"us-central","cc":"us","latitude":32.779167,"longitude":-96.80889,"reserved":0,"last_update":"0001-01-01T00:00:00Z","name_a2s":"Uncletopia | Dallas | 4 | Community","protocol":17,"map":"workshop/koth_ashville_final.ugc2130459942","folder":"tf","game":"Team Fortress","app_id":440,"player_count":0,"max_players":24,"Bots":0,"server_type":"Dedicated","server_os":"Linux","password":true,"vac":true,"version":"7961495","steam_id":85568392924515220,"keywords":["cp","nocrits","nodmgspread","uncletopia"],"game_id":440,"stv_port":27046,"stv_name":"Uncletopia | Dallas | 4 | Community | STV","players":null},{"server_id":5,"name":"Uncletopia | Frankfurt | 1 | All Maps","name_short":"frk-1","host":"frk-1.de.uncletopia.com","port":27015,"enabled":true,"region":"eu","cc":"de","latitude":50.110924,"longitude":8.682127,"reserved":0,"last_update":"0001-01-01T00:00:00Z","name_a2s":"Uncletopia | Frankfurt | 1 | All Maps","protocol":17,"map":"koth_viaduct","folder":"tf","game":"Team Fortress","app_id":440,"player_count":0,"max_players":24,"Bots":0,"server_type":"Dedicated","server_os":"Linux","password":true,"vac":true,"version":"7961495","steam_id":85568392924469989,"keywords":["cp","nocrits","nodmgspread","uncletopia"],"game_id":440,"stv_port":27016,"stv_name":"Uncletopia | Frankfurt | 1 | All Maps | STV","players":null},{"server_id":110,"name":"Uncletopia | Frankfurt | 2 | All Maps","name_short":"frk-2","host":"frk-1.de.uncletopia.com","port":27025,"enabled":true,"region":"eu","cc":"de","latitude":50.110924,"longitude":8.682127,"reserved":0,"last_update":"0001-01-01T00:00:00Z","name_a2s":"Uncletopia | Frankfurt | 2 | All Maps","protocol":17,"map":"pl_snowycoast","folder":"tf","game":"Team Fortress","app_id":440,"player_count":0,"max_players":24,"Bots":0,"server_type":"Dedicated","server_os":"Linux","password":true,"vac":true,"version":"7961495","steam_id":85568392924469990,"keywords":["nocrits","nodmgspread","payload","uncletopia"],"game_id":440,"stv_port":27026,"stv_name":"Uncletopia | Frankfurt | 2 | All Maps | STV","players":null},{"server_id":308,"name":"Uncletopia | Frankfurt | 3 | All Maps","name_short":"frk-3","host":"frk-1.de.uncletopia.com","port":27035,"enabled":true,"region":"eu","cc":"de","latitude":50.110924,"longitude":8.682127,"reserved":0,"last_update":"0001-01-01T00:00:00Z","name_a2s":"Uncletopia | Frankfurt | 3 | All Maps","protocol":17,"map":"koth_highpass","folder":"tf","game":"Team Fortress","app_id":440,"player_count":0,"max_players":24,"Bots":0,"server_type":"Dedicated","server_os":"Linux","password":true,"vac":true,"version":"7961495","steam_id":85568392924504274,"keywords":["cp","nocrits","nodmgspread","uncletopia"],"game_id":440,"stv_port":27036,"stv_name":"Uncletopia | Frankfurt | 3 | All Maps | STV","players":null},{"server_id":309,"name":"Uncletopia | Frankfurt | 4 | All Maps","name_short":"frk-4","host":"frk-1.de.uncletopia.com","port":27045,"enabled":true,"region":"eu","cc":"de","latitude":50.110924,"longitude":8.682127,"reserved":0,"last_update":"0001-01-01T00:00:00Z","name_a2s":"Uncletopia | Frankfurt | 4 | All Maps","protocol":17,"map":"cp_sunshine","folder":"tf","game":"Team Fortress","app_id":440,"player_count":0,"max_players":24,"Bots":0,"server_type":"Dedicated","server_os":"Linux","password":true,"vac":true,"version":"7961495","steam_id":85568392924504275,"keywords":["cp","nocrits","nodmgspread","uncletopia"],"game_id":440,"stv_port":27046,"stv_name":"Uncletopia | Frankfurt | 4 | All Maps | STV","players":null},{"server_id":310,"name":"Uncletopia | Frankfurt | 5 | All Maps","name_short":"frk-5","host":"frk-1.de.uncletopia.com","port":27055,"enabled":true,"region":"eu","cc":"de","latitude":50.110924,"longitude":8.682127,"reserved":0,"last_update":"0001-01-01T00:00:00Z","name_a2s":"Uncletopia | Frankfurt | 5 | All Maps","protocol":17,"map":"pl_snowycoast","folder":"tf","game":"Team Fortress","app_id":440,"player_count":0,"max_players":24,"Bots":0,"server_type":"Dedicated","server_os":"Linux","password":true,"vac":true,"version":"7961495","steam_id":85568392924504277,"keywords":["nocrits","nodmgspread","payload","uncletopia"],"game_id":440,"stv_port":27056,"stv_name":"Uncletopia | Frankfurt | 5 | All Maps | STV","players":null},{"server_id":311,"name":"Uncletopia | Frankfurt | 6 | All Maps","name_short":"frk-6","host":"frk-1.de.uncletopia.com","port":27065,"enabled":true,"region":"eu","cc":"de","latitude":50.110924,"longitude":8.682127,"reserved":0,"last_update":"0001-01-01T00:00:00Z","name_a2s":"Uncletopia | Frankfurt | 6 | All Maps","protocol":17,"map":"koth_cascade","folder":"tf","game":"Team Fortress","app_id":440,"player_count":0,"max_players":24,"Bots":0,"server_type":"Dedicated","server_os":"Linux","password":true,"vac":true,"version":"7961495","steam_id":85568392924504278,"keywords":["cp","nocrits","nodmgspread","uncletopia"],"game_id":440,"stv_port":27066,"stv_name":"Uncletopia | Frankfurt | 6 | All Maps | STV","players":null},{"server_id":23,"name":"Uncletopia | Frankfurt | 7 | Stopwatch","name_short":"frk-7","host":"frk-1.de.uncletopia.com","port":27075,"enabled":true,"region":"eu","cc":"de","latitude":50.110924,"longitude":8.682127,"reserved":0,"last_update":"0001-01-01T00:00:00Z","name_a2s":"Uncletopia | Frankfurt | 7 | Stopwatch","protocol":17,"map":"koth_lakeside_final","folder":"tf","game":"Team Fortress","app_id":440,"player_count":0,"max_players":24,"Bots":0,"server_type":"Dedicated","server_os":"Linux","password":true,"vac":true,"version":"7961495","steam_id":85568392924742827,"keywords":["cp","nocrits","nodmgspread","uncletopia"],"game_id":440,"stv_port":27076,"stv_name":"Uncletopia | Frankfurt | 7 | Stopwatch | STV","players":null},{"server_id":24,"name":"Uncletopia | Frankfurt | 8 | Community","name_short":"frk-8","host":"frk-1.de.uncletopia.com","port":27085,"enabled":true,"region":"eu","cc":"de","latitude":50.110924,"longitude":8.682127,"reserved":0,"last_update":"0001-01-01T00:00:00Z","name_a2s":"Uncletopia | Frankfurt | 8 | Community","protocol":17,"map":"workshop/koth_jamram_rc1a.ugc2964065613","folder":"tf","game":"Team Fortress","app_id":440,"player_count":0,"max_players":24,"Bots":0,"server_type":"Dedicated","server_os":"Linux","password":true,"vac":true,"version":"7961495","steam_id":85568392924742828,"keywords":["cp","nocrits","nodmgspread","uncletopia"],"game_id":440,"stv_port":27086,"stv_name":"Uncletopia | Frankfurt | 8 | Community | STV","players":null},{"server_id":202,"name":"Uncletopia | Hong Kong | 1 | All Maps","name_short":"hgk-1","host":"hgk-1.hk.uncletopia.com","port":27015,"enabled":true,"region":"asia","cc":"hk","latitude":22.302711,"longitude":114.177216,"reserved":0,"last_update":"0001-01-01T00:00:00Z","name_a2s":"Uncletopia | Hong Kong | 1 | All Maps","protocol":17,"map":"pl_badwater","folder":"tf","game":"Team Fortress","app_id":440,"player_count":24,"max_players":24,"Bots":0,"server_type":"Dedicated","server_os":"Linux","password":true,"vac":true,"version":"7961495","steam_id":85568392924494504,"keywords":["nocrits","nodmgspread","payload","uncletopia"],"game_id":440,"stv_port":27016,"stv_name":"Uncletopia | Hong Kong | 1 | All Maps | STV","players":[{"user_id":8,"name":"in the balls","steam_id":76561199481967063,"connected_time":5119000000000,"state":"active","ping":83},{"user_id":9,"name":"coakDeLera","steam_id":76561199262817512,"connected_time":4201000000000,"state":"active","ping":66},{"user_id":10,"name":"DeesDeedsF2p|trade.tf|HM|","steam_id":76561199244400513,"connected_time":4109000000000,"state":"active","ping":52},{"user_id":12,"name":"my gun can shoot now!","steam_id":76561199249938987,"connected_time":3654000000000,"state":"active","ping":42},{"user_id":18,"name":"tris","steam_id":76561198337296919,"connected_time":2473000000000,"state":"active","ping":71},{"user_id":84,"name":"ConHoshi","steam_id":76561199387718733,"connected_time":236000000000,"state":"active","ping":66},{"user_id":19,"name":"beeoh","steam_id":76561198088242177,"connected_time":2456000000000,"state":"active","ping":87},{"user_id":86,"name":"Kenos234","steam_id":76561199183803664,"connected_time":127000000000,"state":"active","ping":123},{"user_id":74,"name":"Xx_EpicTrickstabber_xX","steam_id":76561199024960087,"connected_time":767000000000,"state":"active","ping":59},{"user_id":79,"name":"Lady D.","steam_id":76561199225360457,"connected_time":281000000000,"state":"active","ping":54},{"user_id":25,"name":"Mimi Sen","steam_id":76561199034546642,"connected_time":2201000000000,"state":"active","ping":113},{"user_id":82,"name":"BingBong","steam_id":76561198864441253,"connected_time":251000000000,"state":"active","ping":105},{"user_id":48,"name":"Gaming","steam_id":76561199070693421,"connected_time":1619000000000,"state":"active","ping":176},{"user_id":28,"name":"spinach (old mouse)","steam_id":76561198042539541,"connected_time":1945000000000,"state":"active","ping":84},{"user_id":57,"name":"Mongolian Archer","steam_id":76561199187407373,"connected_time":1516000000000,"state":"active","ping":93},{"user_id":73,"name":"yo!","steam_id":76561198388935921,"connected_time":1005000000000,"state":"active","ping":60},{"user_id":87,"name":"Duef","steam_id":76561198386748174,"connected_time":84000000000,"state":"active","ping":95},{"user_id":80,"name":"Sir.Apple","steam_id":76561198065612995,"connected_time":270000000000,"state":"active","ping":83},{"user_id":64,"name":"doctor morbin' (official)","steam_id":76561199365241695,"connected_time":1411000000000,"state":"active","ping":83},{"user_id":65,"name":"spy's flat ass","steam_id":76561198163164053,"connected_time":1381000000000,"state":"active","ping":130},{"user_id":67,"name":"BAzooKA","steam_id":76561198061628689,"connected_time":1343000000000,"state":"active","ping":55},{"user_id":76,"name":"Sheckler","steam_id":76561199165279360,"connected_time":547000000000,"state":"active","ping":78},{"user_id":71,"name":"mk18 cqbr","steam_id":76561198797387199,"connected_time":1188000000000,"state":"active","ping":73},{"user_id":78,"name":"Hoto Cocoa","steam_id":76561198134724794,"connected_time":356000000000,"state":"active","ping":55}]},{"server_id":1,"name":"Uncletopia | Los Angeles | 1 | All Maps","name_short":"lax-1","host":"lax-1.us.uncletopia.com","port":27015,"enabled":true,"region":"us-west","cc":"us","latitude":33.94279,"longitude":-118.41004,"reserved":0,"last_update":"0001-01-01T00:00:00Z","name_a2s":"Uncletopia | Los Angeles | 1 | All Maps","protocol":17,"map":"pl_thundermountain","folder":"tf","game":"Team Fortress","app_id":440,"player_count":20,"max_players":24,"Bots":0,"server_type":"Dedicated","server_os":"Linux","password":true,"vac":true,"version":"7961495","steam_id":85568392924469991,"keywords":["nocrits","nodmgspread","payload","uncletopia"],"game_id":440,"stv_port":27016,"stv_name":"Uncletopia | Los Angeles | 1 | All Maps | STV","players":[{"user_id":230,"name":"Sak","steam_id":76561198307655707,"connected_time":2454000000000,"state":"active","ping":51},{"user_id":246,"name":"Soma","steam_id":76561198084292485,"connected_time":48000000000,"state":"active","ping":88},{"user_id":242,"name":"Cinnifox","steam_id":76561198068773971,"connected_time":853000000000,"state":"active","ping":59},{"user_id":190,"name":"eipi","steam_id":76561199084492097,"connected_time":5272000000000,"state":"active","ping":111},{"user_id":234,"name":"Pie‚Ñ¢","steam_id":76561198158312625,"connected_time":1940000000000,"state":"active","ping":138},{"user_id":209,"name":"El Super Monkey Ball","steam_id":76561198135634819,"connected_time":3850000000000,"state":"active","ping":46},{"user_id":226,"name":"JohnFMX","steam_id":76561198175608097,"connected_time":2648000000000,"state":"active","ping":92},{"user_id":233,"name":"RilRil","steam_id":76561198060589523,"connected_time":2380000000000,"state":"active","ping":109},{"user_id":240,"name":"jack54321f","steam_id":76561198858664230,"connected_time":999000000000,"state":"active","ping":138},{"user_id":218,"name":"moewa","steam_id":76561198338739253,"connected_time":3181000000000,"state":"active","ping":54},{"user_id":227,"name":"Keamy","steam_id":76561199471434875,"connected_time":2623000000000,"state":"active","ping":66},{"user_id":231,"name":"asm_ghost","steam_id":76561199205363547,"connected_time":2430000000000,"state":"active","ping":70},{"user_id":235,"name":"God's Drunkest Driver","steam_id":76561198418288939,"connected_time":1863000000000,"state":"active","ping":45},{"user_id":243,"name":"laughs bigman","steam_id":76561198067714032,"connected_time":418000000000,"state":"active","ping":52},{"user_id":241,"name":"Jamarcus","steam_id":76561198150272587,"connected_time":974000000000,"state":"active","ping":90},{"user_id":222,"name":"Captain Underbelly","steam_id":76561198811270935,"connected_time":2957000000000,"state":"active","ping":73},{"user_id":245,"name":"LogicalFurret","steam_id":76561198350604657,"connected_time":86000000000,"state":"active","ping":76},{"user_id":244,"name":"For The Emperor Of Mankind!","steam_id":76561197970669109,"connected_time":198000000000,"state":"active","ping":57},{"user_id":224,"name":"Ê∞¥","steam_id":76561198800794550,"connected_time":2842000000000,"state":"active","ping":49},{"user_id":208,"name":"Igrium","steam_id":76561198119549811,"connected_time":3884000000000,"state":"active","ping":56}]},{"server_id":112,"name":"Uncletopia | Los Angeles | 2 | All Maps","name_short":"lax-2","host":"lax-1.us.uncletopia.com","port":27025,"enabled":true,"region":"us-west","cc":"us","latitude":33.94279,"longitude":-118.41004,"reserved":0,"last_update":"0001-01-01T00:00:00Z","name_a2s":"Uncletopia | Los Angeles | 2 | All Maps","protocol":17,"map":"cp_dustbowl","folder":"tf","game":"Team Fortress","app_id":440,"player_count":21,"max_players":24,"Bots":0,"server_type":"Dedicated","server_os":"Linux","password":true,"vac":true,"version":"7961495","steam_id":85568392924469992,"keywords":["cp","nocrits","nodmgspread","uncletopia"],"game_id":440,"stv_port":27026,"stv_name":"Uncletopia | Los Angeles | 2 | All Maps | STV","players":[{"user_id":111,"name":"Petrivus","steam_id":76561198202152453,"connected_time":3360000000000,"state":"active","ping":71},{"user_id":151,"name":"squid","steam_id":76561198070236972,"connected_time":401000000000,"state":"active","ping":60},{"user_id":124,"name":"Mook","steam_id":76561198219800355,"connected_time":2538000000000,"state":"active","ping":30},{"user_id":125,"name":"Flinkerdoodle","steam_id":76561198052111706,"connected_time":2462000000000,"state":"active","ping":73},{"user_id":118,"name":"Sonny","steam_id":76561198042243689,"connected_time":3271000000000,"state":"active","ping":47},{"user_id":152,"name":"Herdez Hot Salsa","steam_id":76561197991740906,"connected_time":334000000000,"state":"active","ping":103},{"user_id":156,"name":"Sawer","steam_id":76561198034294967,"connected_time":177000000000,"state":"active","ping":98},{"user_id":153,"name":"Mom","steam_id":76561198207936000,"connected_time":278000000000,"state":"active","ping":45},{"user_id":130,"name":"Satori Komeiji","steam_id":76561198158211423,"connected_time":2307000000000,"state":"active","ping":39},{"user_id":154,"name":"Turd Ferguson","steam_id":76561198127395608,"connected_time":247000000000,"state":"active","ping":58},{"user_id":147,"name":"Velgrauder","steam_id":76561198848526938,"connected_time":1041000000000,"state":"active","ping":91},{"user_id":155,"name":"WaylonIsEpic","steam_id":76561199087480628,"connected_time":203000000000,"state":"active","ping":130},{"user_id":150,"name":"Veritox","steam_id":76561198075778026,"connected_time":590000000000,"state":"active","ping":61},{"user_id":157,"name":"Antking14","steam_id":76561198188971771,"connected_time":158000000000,"state":"active","ping":61},{"user_id":141,"name":"Lv3 Kobold Shadow Sorcerer","steam_id":76561198042068995,"connected_time":1794000000000,"state":"active","ping":79},{"user_id":146,"name":"otwtomarsoffdabars(spacecore)","steam_id":76561199085974120,"connected_time":1139000000000,"state":"active","ping":99},{"user_id":105,"name":"shrimpboi783","steam_id":76561199091069924,"connected_time":4040000000000,"state":"active","ping":49},{"user_id":159,"name":"shakoiwa","steam_id":76561199059441773,"connected_time":61000000000,"state":"active","ping":31},{"user_id":144,"name":"Linksaver1","steam_id":76561198096312838,"connected_time":1686000000000,"state":"active","ping":61},{"user_id":145,"name":"plumber","steam_id":76561198122177409,"connected_time":1484000000000,"state":"active","ping":74},{"user_id":134,"name":"Lard","steam_id":76561198290315229,"connected_time":2172000000000,"state":"active","ping":57}]},{"server_id":324,"name":"Uncletopia | Los Angeles | 3 | All Maps","name_short":"lax-3","host":"lax-1.us.uncletopia.com","port":27035,"enabled":true,"region":"us-west","cc":"us","latitude":33.94279,"longitude":-118.41004,"reserved":0,"last_update":"0001-01-01T00:00:00Z","name_a2s":"Uncletopia | Los Angeles | 3 | All Maps","protocol":17,"map":"koth_cascade","folder":"tf","game":"Team Fortress","app_id":440,"player_count":0,"max_players":24,"Bots":0,"server_type":"Dedicated","server_os":"Linux","password":true,"vac":true,"version":"7961495","steam_id":85568392924510198,"keywords":["cp","nocrits","nodmgspread","uncletopia"],"game_id":440,"stv_port":27036,"stv_name":"Uncletopia | Los Angeles | 3 | All Maps | STV","players":null},{"server_id":25,"name":"Uncletopia | Los Angeles | 4 | Stopwatch","name_short":"lax-4","host":"lax-1.us.uncletopia.com","port":27045,"enabled":true,"region":"us-west","cc":"us","latitude":33.94279,"longitude":-118.41004,"reserved":0,"last_update":"0001-01-01T00:00:00Z","name_a2s":"Uncletopia | Los Angeles | 4 | Stopwatch","protocol":17,"map":"workshop/koth_jamram_rc1a.ugc2964065613","folder":"tf","game":"Team Fortress","app_id":440,"player_count":0,"max_players":24,"Bots":0,"server_type":"Dedicated","server_os":"Linux","password":true,"vac":true,"version":"7961495","steam_id":85568392924510199,"keywords":["cp","nocrits","nodmgspread","uncletopia"],"game_id":440,"stv_port":27046,"stv_name":"Uncletopia | Los Angeles | 4 | Stopwatch | STV","players":null},{"server_id":11,"name":"Uncletopia | London | 1 | All Maps","name_short":"lon-1","host":"lon-1.uk.uncletopia.com","port":27015,"enabled":true,"region":"eu","cc":"gb","latitude":51.509865,"longitude":-0.118092,"reserved":0,"last_update":"0001-01-01T00:00:00Z","name_a2s":"Uncletopia | London | 1 | All Maps","protocol":17,"map":"pl_badwater","folder":"tf","game":"Team Fortress","app_id":440,"player_count":24,"max_players":24,"Bots":0,"server_type":"Dedicated","server_os":"Linux","password":true,"vac":true,"version":"7961495","steam_id":85568392924367362,"keywords":["nocrits","nodmgspread","payload","uncletopia"],"game_id":440,"stv_port":27016,"stv_name":"Uncletopia | London | 1 | All Maps | STV","players":[{"user_id":845,"name":"Sputnik","steam_id":76561198138660241,"connected_time":288000000000,"state":"active","ping":46},{"user_id":610,"name":"BreadBubbles","steam_id":76561198174332826,"connected_time":23546000000000,"state":"active","ping":54},{"user_id":816,"name":"Scoundrel","steam_id":76561198056672372,"connected_time":3558000000000,"state":"active","ping":119},{"user_id":798,"name":"SaydGover","steam_id":76561199062433944,"connected_time":5072000000000,"state":"active","ping":135},{"user_id":835,"name":"ja","steam_id":76561199228540618,"connected_time":2399000000000,"state":"active","ping":65},{"user_id":840,"name":"sHIFTINGvORTEX","steam_id":76561198231648332,"connected_time":1333000000000,"state":"active","ping":60},{"user_id":811,"name":"Kick gibus-engineers","steam_id":76561198046368451,"connected_time":4054000000000,"state":"active","ping":91},{"user_id":795,"name":"co","steam_id":76561198188225497,"connected_time":5464000000000,"state":"active","ping":61},{"user_id":844,"name":"rizook","steam_id":76561198055010039,"connected_time":477000000000,"state":"active","ping":75},{"user_id":841,"name":"Slowdive w/ EATEOF","steam_id":76561198047856328,"connected_time":1128000000000,"state":"active","ping":51},{"user_id":829,"name":"Mimic","steam_id":76561199204932956,"connected_time":2723000000000,"state":"active","ping":44},{"user_id":825,"name":"‚õß AlphaSatanOmega ‚õß","steam_id":76561198035125511,"connected_time":3034000000000,"state":"active","ping":119},{"user_id":830,"name":"Chicken Golem","steam_id":76561198138995247,"connected_time":2657000000000,"state":"active","ping":122},{"user_id":838,"name":"Play slowly, pls","steam_id":76561198006463587,"connected_time":1687000000000,"state":"active","ping":130},{"user_id":777,"name":"Taste","steam_id":76561197994506978,"connected_time":8173000000000,"state":"active","ping":54},{"user_id":846,"name":"–Å–∂–∏–∫ –°–∞–Ω—è","steam_id":76561198376307313,"connected_time":245000000000,"state":"active","ping":140},{"user_id":839,"name":"BONK","steam_id":76561199120275042,"connected_time":1423000000000,"state":"active","ping":62},{"user_id":821,"name":"Burbie","steam_id":76561198046069449,"connected_time":3391000000000,"state":"active","ping":59},{"user_id":794,"name":"44Ejkej77","steam_id":76561198117717593,"connected_time":5656000000000,"state":"active","ping":61},{"user_id":843,"name":"akciq ‚Åß‚Åßrespect","steam_id":76561198390963456,"connected_time":480000000000,"state":"active","ping":87},{"user_id":822,"name":"Psyche","steam_id":76561198091662001,"connected_time":3361000000000,"state":"active","ping":39},{"user_id":842,"name":"Peat","steam_id":76561197992168067,"connected_time":1035000000000,"state":"active","ping":73},{"user_id":788,"name":"SuntanPikachu","steam_id":76561198121242476,"connected_time":6972000000000,"state":"active","ping":43},{"user_id":814,"name":"heal","steam_id":76561198046754534,"connected_time":3583000000000,"state":"active","ping":90}]},{"server_id":114,"name":"Uncletopia | London | 2 | All Maps","name_short":"lon-2","host":"lon-1.uk.uncletopia.com","port":27025,"enabled":true,"region":"eu","cc":"gb","latitude":51.509865,"longitude":-0.118092,"reserved":0,"last_update":"0001-01-01T00:00:00Z","name_a2s":"Uncletopia | London | 2 | All Maps","protocol":17,"map":"koth_cascade","folder":"tf","game":"Team Fortress","app_id":440,"player_count":12,"max_players":24,"Bots":0,"server_type":"Dedicated","server_os":"Linux","password":true,"vac":true,"version":"7961495","steam_id":85568392924470941,"keywords":["cp","nocrits","nodmgspread","uncletopia"],"game_id":440,"stv_port":27026,"stv_name":"Uncletopia | London | 2 | All Maps | STV","players":[{"user_id":691,"name":"IoN","steam_id":76561199405317937,"connected_time":4101000000000,"state":"active","ping":46},{"user_id":740,"name":"128mph Black Man","steam_id":76561198225578600,"connected_time":843000000000,"state":"active","ping":128},{"user_id":741,"name":"Furry Medic Gf","steam_id":76561198034166729,"connected_time":834000000000,"state":"active","ping":121},{"user_id":742,"name":"Jessica from H.R","steam_id":76561198401180111,"connected_time":832000000000,"state":"active","ping":348},{"user_id":743,"name":"squibbles!","steam_id":76561198271861959,"connected_time":818000000000,"state":"active","ping":105},{"user_id":744,"name":"127mph Black Man","steam_id":76561198032552641,"connected_time":787000000000,"state":"active","ping":45},{"user_id":748,"name":"Lorenzo Lovers","steam_id":76561198073973581,"connected_time":237000000000,"state":"active","ping":79},{"user_id":729,"name":"ÓÅ®EÓÅïRÓÅïUÓÅ®","steam_id":76561198162166762,"connected_time":1694000000000,"state":"active","ping":109},{"user_id":747,"name":"trans werewolf","steam_id":76561198107235989,"connected_time":558000000000,"state":"active","ping":61},{"user_id":749,"name":"toast","steam_id":76561199032816880,"connected_time":93000000000,"state":"active","ping":91},{"user_id":709,"name":"Hunter64","steam_id":76561199121947938,"connected_time":2404000000000,"state":"active","ping":39},{"user_id":714,"name":"Flapjack_deceiver","steam_id":76561198884400402,"connected_time":2055000000000,"state":"active","ping":37}]},{"server_id":320,"name":"Uncletopia | London | 3 | All Maps","name_short":"lon-3","host":"lon-1.uk.uncletopia.com","port":27035,"enabled":true,"region":"eu","cc":"gb","latitude":51.509865,"longitude":-0.118092,"reserved":0,"last_update":"0001-01-01T00:00:00Z","name_a2s":"Uncletopia | London | 3 | All Maps","protocol":17,"map":"koth_harvest_final","folder":"tf","game":"Team Fortress","app_id":440,"player_count":0,"max_players":24,"Bots":0,"server_type":"Dedicated","server_os":"Linux","password":true,"vac":true,"version":"7961495","steam_id":85568392924510192,"keywords":["cp","nocrits","nodmgspread","uncletopia"],"game_id":440,"stv_port":27036,"stv_name":"Uncletopia | London | 3 | All Maps | STV","players":null},{"server_id":321,"name":"Uncletopia | London | 4 | All Maps","name_short":"lon-4","host":"lon-1.uk.uncletopia.com","port":27045,"enabled":true,"region":"eu","cc":"gb","latitude":51.509865,"longitude":-0.118092,"reserved":0,"last_update":"0001-01-01T00:00:00Z","name_a2s":"Uncletopia | London | 4 | All Maps","protocol":17,"map":"cp_dustbowl","folder":"tf","game":"Team Fortress","app_id":440,"player_count":0,"max_players":24,"Bots":0,"server_type":"Dedicated","server_os":"Linux","password":true,"vac":true,"version":"7961495","steam_id":85568392924510193,"keywords":["cp","nocrits","nodmgspread","uncletopia"],"game_id":440,"stv_port":27046,"stv_name":"Uncletopia | London | 4 | All Maps | STV","players":null},{"server_id":21,"name":"Uncletopia | London | 5 | All Maps","name_short":"lon-5","host":"lon-1.uk.uncletopia.com","port":27055,"enabled":true,"region":"eu","cc":"gb","latitude":51.509865,"longitude":-0.118092,"reserved":0,"last_update":"0001-01-01T00:00:00Z","name_a2s":"Uncletopia | London | 5 | All Maps","protocol":17,"map":"koth_highpass","folder":"tf","game":"Team Fortress","app_id":440,"player_count":0,"max_players":24,"Bots":0,"server_type":"Dedicated","server_os":"Linux","password":true,"vac":true,"version":"7961495","steam_id":85568392924742829,"keywords":["cp","nocrits","nodmgspread","uncletopia"],"game_id":440,"stv_port":27056,"stv_name":"Uncletopia | London | 5 | All Maps | STV","players":null},{"server_id":22,"name":"Uncletopia | London | 6 | All Maps","name_short":"lon-6","host":"lon-1.uk.uncletopia.com","port":27065,"enabled":true,"region":"eu","cc":"gb","latitude":51.509865,"longitude":-0.118092,"reserved":0,"last_update":"0001-01-01T00:00:00Z","name_a2s":"Uncletopia | London | 6 | All Maps","protocol":17,"map":"cp_sunshine","folder":"tf","game":"Team Fortress","app_id":440,"player_count":0,"max_players":24,"Bots":0,"server_type":"Dedicated","server_os":"Linux","password":true,"vac":true,"version":"7961495","steam_id":85568392924742830,"keywords":["cp","nocrits","nodmgspread","uncletopia"],"game_id":440,"stv_port":27066,"stv_name":"Uncletopia | London | 6 | All Maps | STV","players":null},{"server_id":40,"name":"Uncletopia | London | 7 | Stopwatch","name_short":"lon-7","host":"lon-1.uk.uncletopia.com","port":27075,"enabled":true,"region":"eu","cc":"gb","latitude":51.509865,"longitude":-0.118092,"reserved":0,"last_update":"0001-01-01T00:00:00Z","name_a2s":"Uncletopia | London | 7 | Stopwatch","protocol":17,"map":"workshop/koth_jamram_rc1a.ugc2964065613","folder":"tf","game":"Team Fortress","app_id":440,"player_count":0,"max_players":24,"Bots":0,"server_type":"Dedicated","server_os":"Linux","password":true,"vac":true,"version":"7961495","steam_id":85568392924964314,"keywords":["cp","nocrits","nodmgspread","uncletopia"],"game_id":440,"stv_port":27076,"stv_name":"Uncletopia | London | 7 | Stopwatch | STV","players":null},{"server_id":41,"name":"Uncletopia | London | 8 | Community","name_short":"lon-8","host":"lon-1.uk.uncletopia.com","port":27085,"enabled":true,"region":"eu","cc":"gb","latitude":51.509865,"longitude":-0.118092,"reserved":0,"last_update":"0001-01-01T00:00:00Z","name_a2s":"Uncletopia | London | 8 | Community","protocol":17,"map":"workshop/koth_synthetic_rc6a.ugc1549817316","folder":"tf","game":"Team Fortress","app_id":440,"player_count":0,"max_players":24,"Bots":0,"server_type":"Dedicated","server_os":"Linux","password":true,"vac":true,"version":"7961495","steam_id":85568392924964315,"keywords":["cp","nocrits","nodmgspread","uncletopia"],"game_id":440,"stv_port":27086,"stv_name":"Uncletopia | London | 8 | Community | STV","players":null},{"server_id":300,"name":"Uncletopia | Montr√©al | 1 | One Thousand Uncles","name_short":"mtl-1","host":"mtl-1.ca.uncletopia.com","port":27015,"enabled":true,"region":"us-east","cc":"ca","latitude":45.50889,"longitude":-73.56167,"reserved":0,"last_update":"0001-01-01T00:00:00Z","name_a2s":"Uncletopia | Montr√©al | 1 | One Thousand Uncles","protocol":17,"map":"cp_dustbowl","folder":"tf","game":"Team Fortress","app_id":440,"player_count":0,"max_players":32,"Bots":0,"server_type":"Dedicated","server_os":"Linux","password":true,"vac":true,"version":"7961495","steam_id":85568392924500087,"keywords":["alltalk","cp","danepve","increased_maxplayers","norespawntime","uncletopia"],"game_id":440,"stv_port":0,"stv_name":"","players":null},{"server_id":301,"name":"Uncletopia | Montr√©al | 2 | One Thousand Uncles","name_short":"mtl-2","host":"mtl-1.ca.uncletopia.com","port":27025,"enabled":true,"region":"us-east","cc":"ca","latitude":45.50889,"longitude":-73.56167,"reserved":0,"last_update":"0001-01-01T00:00:00Z","name_a2s":"Uncletopia | Montr√©al | 2 | One Thousand Uncles","protocol":17,"map":"pl_chilly","folder":"tf","game":"Team Fortress","app_id":440,"player_count":17,"max_players":32,"Bots":16,"server_type":"Dedicated","server_os":"Linux","password":true,"vac":true,"version":"7961495","steam_id":85568392924500088,"keywords":["alltalk","bots","danepve","increased_maxplayers","norespawntime","payload","uncletopia"],"game_id":440,"stv_port":0,"stv_name":"","players":[{"user_id":23,"name":"DeepDive","steam_id":76561198140542184,"connected_time":342000000000,"state":"active","ping":57}]},{"server_id":302,"name":"Uncletopia | Montr√©al | 3 | One Thousand Uncles","name_short":"mtl-3","host":"mtl-1.ca.uncletopia.com","port":27035,"enabled":true,"region":"us-east","cc":"ca","latitude":45.50889,"longitude":-73.56167,"reserved":0,"last_update":"0001-01-01T00:00:00Z","name_a2s":"Uncletopia | Montr√©al | 3 | One Thousand Uncles","protocol":17,"map":"cp_dustbowl","folder":"tf","game":"Team Fortress","app_id":440,"player_count":31,"max_players":32,"Bots":16,"server_type":"Dedicated","server_os":"Linux","password":true,"vac":true,"version":"7961495","steam_id":85568392924500089,"keywords":["alltalk","bots","cp","danepve","increased_maxplayers","norespawntime","uncletopia"],"game_id":440,"stv_port":0,"stv_name":"","players":[{"user_id":310,"name":"Poyo Boyo","steam_id":76561198010201227,"connected_time":295000000000,"state":"active","ping":60},{"user_id":298,"name":"Robert Nutbar","steam_id":76561198062334757,"connected_time":1769000000000,"state":"active","ping":70},{"user_id":286,"name":"Cat","steam_id":76561198132362099,"connected_time":3651000000000,"state":"active","ping":126},{"user_id":300,"name":"two kick individual","steam_id":76561199208523712,"connected_time":1628000000000,"state":"active","ping":55},{"user_id":297,"name":"Bucket","steam_id":76561199105084889,"connected_time":2305000000000,"state":"active","ping":94},{"user_id":289,"name":"Birdie Smalls","steam_id":76561198208947105,"connected_time":3175000000000,"state":"active","ping":35},{"user_id":293,"name":"Lucas096br","steam_id":76561198350760997,"connected_time":2386000000000,"state":"active","ping":210},{"user_id":306,"name":"Aristotle Voulton","steam_id":76561198100174923,"connected_time":813000000000,"state":"active","ping":100},{"user_id":295,"name":"Carolus Rex","steam_id":76561198116830955,"connected_time":2362000000000,"state":"active","ping":64},{"user_id":296,"name":"Bunny B‚ù§tch","steam_id":76561198013286930,"connected_time":2356000000000,"state":"active","ping":67},{"user_id":301,"name":"Microwave","steam_id":76561199334265939,"connected_time":1599000000000,"state":"active","ping":91},{"user_id":303,"name":"Grilled Jizo","steam_id":76561199250875340,"connected_time":1327000000000,"state":"active","ping":97},{"user_id":304,"name":"Noise","steam_id":76561198075011424,"connected_time":1191000000000,"state":"active","ping":87},{"user_id":307,"name":"cold","steam_id":76561199017901552,"connected_time":705000000000,"state":"active","ping":70},{"user_id":311,"name":"only a spoonful","steam_id":76561198113180616,"connected_time":88000000000,"state":"active","ping":57}]},{"server_id":13,"name":"Uncletopia | New York City | 1 | All Maps","name_short":"nyc-1","host":"nyc-1.us.uncletopia.com","port":27015,"enabled":true,"region":"us-east","cc":"us","latitude":40.73061,"longitude":-73.93524,"reserved":0,"last_update":"0001-01-01T00:00:00Z","name_a2s":"Uncletopia | New York City | 1 | All Maps","protocol":17,"map":"pl_pier","folder":"tf","game":"Team Fortress","app_id":440,"player_count":24,"max_players":24,"Bots":0,"server_type":"Dedicated","server_os":"Linux","password":true,"vac":true,"version":"7961495","steam_id":85568392924469993,"keywords":["nocrits","nodmgspread","payload","uncletopia"],"game_id":440,"stv_port":27016,"stv_name":"Uncletopia | New York City | 1 | All Maps | STV","players":[{"user_id":211,"name":"canadian birds","steam_id":76561198059466588,"connected_time":7844000000000,"state":"active","ping":53},{"user_id":301,"name":"superx","steam_id":76561198044976613,"connected_time":546000000000,"state":"active","ping":54},{"user_id":285,"name":"m√ºde","steam_id":76561198141184894,"connected_time":1666000000000,"state":"active","ping":93},{"user_id":295,"name":"Peepster","steam_id":76561198297854733,"connected_time":816000000000,"state":"active","ping":73},{"user_id":305,"name":"Bacchus","steam_id":76561198113244990,"connected_time":198000000000,"state":"active","ping":69},{"user_id":273,"name":"Justcallmedave","steam_id":76561198013700581,"connected_time":2012000000000,"state":"active","ping":46},{"user_id":303,"name":"Udo","steam_id":76561198156860063,"connected_time":424000000000,"state":"active","ping":45},{"user_id":297,"name":"Snavsz","steam_id":76561198339090183,"connected_time":775000000000,"state":"active","ping":190},{"user_id":264,"name":"Hauntedtoaster","steam_id":76561198034655610,"connected_time":2591000000000,"state":"active","ping":80},{"user_id":302,"name":"zzzz","steam_id":76561198310495200,"connected_time":539000000000,"state":"active","ping":72},{"user_id":265,"name":"Shack","steam_id":76561198035503322,"connected_time":2529000000000,"state":"active","ping":60},{"user_id":304,"name":"Yandings","steam_id":76561198864521572,"connected_time":374000000000,"state":"active","ping":45},{"user_id":293,"name":"Miner2495","steam_id":76561198445904523,"connected_time":1041000000000,"state":"active","ping":70},{"user_id":263,"name":"Vincent Van Ghoul","steam_id":76561198271907916,"connected_time":2682000000000,"state":"active","ping":53},{"user_id":291,"name":"‚ôÇDasCJ‚ôÇ","steam_id":76561198068850865,"connected_time":1165000000000,"state":"active","ping":47},{"user_id":191,"name":"Urine_Gaming","steam_id":76561198096233456,"connected_time":8752000000000,"state":"active","ping":82},{"user_id":281,"name":"Gregory","steam_id":76561199070901945,"connected_time":1793000000000,"state":"active","ping":78},{"user_id":294,"name":"Yummy Kabobz","steam_id":76561198067661705,"connected_time":859000000000,"state":"active","ping":48},{"user_id":224,"name":"Yuzu","steam_id":76561198417913035,"connected_time":6667000000000,"state":"active","ping":61},{"user_id":298,"name":"GoodleShoes/ttv","steam_id":76561198030993521,"connected_time":748000000000,"state":"active","ping":60},{"user_id":226,"name":"soup","steam_id":76561198880568662,"connected_time":6295000000000,"state":"active","ping":68},{"user_id":306,"name":"RGB Lawnmower Toilet","steam_id":76561198045389359,"connected_time":120000000000,"state":"active","ping":89},{"user_id":283,"name":"fazaness","steam_id":76561198851525394,"connected_time":1757000000000,"state":"active","ping":58},{"user_id":299,"name":"JustLooking","steam_id":76561198207877387,"connected_time":719000000000,"state":"active","ping":84}]},{"server_id":14,"name":"Uncletopia | New York City | 2 | All Maps","name_short":"nyc-2","host":"nyc-1.us.uncletopia.com","port":27025,"enabled":true,"region":"us-east","cc":"us","latitude":40.73061,"longitude":-73.93524,"reserved":0,"last_update":"0001-01-01T00:00:00Z","name_a2s":"Uncletopia | New York City | 2 | All Maps","protocol":17,"map":"cp_dustbowl","folder":"tf","game":"Team Fortress","app_id":440,"player_count":13,"max_players":24,"Bots":0,"server_type":"Dedicated","server_os":"Linux","password":true,"vac":true,"version":"7961495","steam_id":85568392924469994,"keywords":["cp","nocrits","nodmgspread","uncletopia"],"game_id":440,"stv_port":27026,"stv_name":"Uncletopia | New York City | 2 | All Maps | STV","players":[{"user_id":441,"name":"DededeMain | trade.tf","steam_id":76561198310951632,"connected_time":835000000000,"state":"active","ping":41},{"user_id":447,"name":"hilarious","steam_id":76561198981494806,"connected_time":533000000000,"state":"active","ping":58},{"user_id":428,"name":"Flutterr","steam_id":76561198014772471,"connected_time":1256000000000,"state":"active","ping":46},{"user_id":439,"name":"Dystrophy","steam_id":76561198057530953,"connected_time":996000000000,"state":"active","ping":43},{"user_id":430,"name":"DRY. BABY.","steam_id":76561198107221298,"connected_time":1151000000000,"state":"active","ping":77},{"user_id":420,"name":"HalfDead","steam_id":76561198049700226,"connected_time":2687000000000,"state":"active","ping":64},{"user_id":444,"name":"ando","steam_id":76561198103606647,"connected_time":720000000000,"state":"active","ping":39},{"user_id":448,"name":"B0B_Bobson","steam_id":76561198400694217,"connected_time":137000000000,"state":"active","ping":73},{"user_id":359,"name":"THE MENACE","steam_id":76561198312055294,"connected_time":7682000000000,"state":"active","ping":44},{"user_id":360,"name":"DA GOOFY MENACE ^_^ \u003c3","steam_id":76561198832230598,"connected_time":7399000000000,"state":"active","ping":58},{"user_id":436,"name":"Cowabummer","steam_id":76561198272640432,"connected_time":1078000000000,"state":"active","ping":76},{"user_id":437,"name":"Jfrvl Gvl","steam_id":76561199013465852,"connected_time":1078000000000,"state":"active","ping":36},{"user_id":443,"name":"Sire Salty","steam_id":76561198079639072,"connected_time":815000000000,"state":"active","ping":54}]},{"server_id":15,"name":"Uncletopia | New York City | 3 | Stopwatch","name_short":"nyc-3","host":"nyc-1.us.uncletopia.com","port":27035,"enabled":true,"region":"us-east","cc":"us","latitude":40.73061,"longitude":-73.93524,"reserved":0,"last_update":"0001-01-01T00:00:00Z","name_a2s":"Uncletopia | New York City | 3 | Stopwatch","protocol":17,"map":"workshop/cp_process_f12.ugc2302948105","folder":"tf","game":"Team Fortress","app_id":440,"player_count":0,"max_players":24,"Bots":0,"server_type":"Dedicated","server_os":"Linux","password":true,"vac":true,"version":"7961495","steam_id":85568392924742820,"keywords":["cp","nocrits","nodmgspread","uncletopia"],"game_id":440,"stv_port":27036,"stv_name":"Uncletopia | New York City | 3 | Stopwatch | STV","players":null},{"server_id":16,"name":"Uncletopia | New York City | 4 | Community","name_short":"nyc-4","host":"nyc-1.us.uncletopia.com","port":27045,"enabled":true,"region":"us-east","cc":"us","latitude":40.73061,"longitude":-73.93524,"reserved":0,"last_update":"0001-01-01T00:00:00Z","name_a2s":"Uncletopia | New York City | 4 | Community","protocol":17,"map":"workshop/pl_shoreleave_rc2.ugc1238849347","folder":"tf","game":"Team Fortress","app_id":440,"player_count":0,"max_players":24,"Bots":0,"server_type":"Dedicated","server_os":"Linux","password":true,"vac":true,"version":"7961495","steam_id":85568392924742821,"keywords":["nocrits","nodmgspread","payload","uncletopia"],"game_id":440,"stv_port":27046,"stv_name":"Uncletopia | New York City | 4 | Community | STV","players":null},{"server_id":142,"name":"Uncletopia | S√£o Paulo | 1 | All Maps","name_short":"sao-1","host":"sao-1.br.uncletopia.com","port":27015,"enabled":true,"region":"sa","cc":"br","latitude":-23.533773,"longitude":-46.62529,"reserved":0,"last_update":"0001-01-01T00:00:00Z","name_a2s":"Uncletopia | S√£o Paulo | 1 | All Maps","protocol":17,"map":"koth_highpass","folder":"tf","game":"Team Fortress","app_id":440,"player_count":0,"max_players":24,"Bots":0,"server_type":"Dedicated","server_os":"Linux","password":true,"vac":true,"version":"7961495","steam_id":85568392924469996,"keywords":["cp","nocrits","nodmgspread","uncletopia"],"game_id":440,"stv_port":27016,"stv_name":"Uncletopia | S√£o Paulo | 1 | All Maps | STV","players":null},{"server_id":143,"name":"Uncletopia | S√£o Paulo | 2 | Community","name_short":"sao-2","host":"sao-2.br.uncletopia.com","port":27015,"enabled":true,"region":"sa","cc":"br","latitude":-23.533773,"longitude":-46.62529,"reserved":0,"last_update":"0001-01-01T00:00:00Z","name_a2s":"Uncletopia | S√£o Paulo | 2 | Community","protocol":17,"map":"workshop/cp_logjam_rc12.ugc454812035","folder":"tf","game":"Team Fortress","app_id":440,"player_count":0,"max_players":24,"Bots":0,"server_type":"Dedicated","server_os":"Linux","password":true,"vac":true,"version":"7961495","steam_id":85568392924485349,"keywords":["cp","nocrits","nodmgspread","uncletopia"],"game_id":440,"stv_port":27016,"stv_name":"Uncletopia | S√£o Paulo | 2 | Community | STV","players":null},{"server_id":7,"name":"Uncletopia | Seattle | 1 | All Maps","name_short":"sea-1","host":"sea-1.us.uncletopia.com","port":27015,"enabled":true,"region":"us-west","cc":"us","latitude":47.608013,"longitude":-122.33517,"reserved":0,"last_update":"0001-01-01T00:00:00Z","name_a2s":"Uncletopia | Seattle | 1 | All Maps","protocol":17,"map":"pl_badwater","folder":"tf","game":"Team Fortress","app_id":440,"player_count":24,"max_players":24,"Bots":0,"server_type":"Dedicated","server_os":"Linux","password":true,"vac":true,"version":"7961495","steam_id":85568392924469997,"keywords":["nocrits","nodmgspread","payload","uncletopia"],"game_id":440,"stv_port":27016,"stv_name":"Uncletopia | Seattle | 1 | All Maps | STV","players":[{"user_id":519,"name":"faze pantalla","steam_id":76561198250215734,"connected_time":119000000000,"state":"active","ping":105},{"user_id":466,"name":"Wheaty","steam_id":76561198003553412,"connected_time":3457000000000,"state":"active","ping":50},{"user_id":418,"name":"Dongus","steam_id":76561197979056451,"connected_time":6413000000000,"state":"active","ping":46},{"user_id":503,"name":"xoms","steam_id":76561199068623664,"connected_time":671000000000,"state":"active","ping":53},{"user_id":423,"name":"Â∞çÊ≤ñÂü∫ÈáëÂàÜÊûêÂ∏´","steam_id":76561198068672882,"connected_time":6356000000000,"state":"active","ping":68},{"user_id":518,"name":"melan","steam_id":76561199052003533,"connected_time":194000000000,"state":"active","ping":84},{"user_id":479,"name":"Eraser cat","steam_id":76561199045570463,"connected_time":2637000000000,"state":"active","ping":44},{"user_id":501,"name":"TTVQuizzicl","steam_id":76561199004591465,"connected_time":783000000000,"state":"active","ping":65},{"user_id":488,"name":"ShackerJack","steam_id":76561198118017448,"connected_time":1464000000000,"state":"active","ping":60},{"user_id":494,"name":"Ricky Dicky Doo Dah Grimes","steam_id":76561198143221900,"connected_time":1202000000000,"state":"active","ping":113},{"user_id":516,"name":"Kriddur","steam_id":76561198347660282,"connected_time":318000000000,"state":"active","ping":96},{"user_id":484,"name":"Neb","steam_id":76561198883473473,"connected_time":1796000000000,"state":"active","ping":49},{"user_id":504,"name":"doro","steam_id":76561198099041747,"connected_time":648000000000,"state":"active","ping":81},{"user_id":506,"name":"self sufficient kitten","steam_id":76561197960592612,"connected_time":604000000000,"state":"active","ping":45},{"user_id":520,"name":"the girl girlkisser","steam_id":76561198438737908,"connected_time":96000000000,"state":"active","ping":80},{"user_id":522,"name":"faze waadden","steam_id":76561198325569425,"connected_time":32000000000,"state":"spawning","ping":103},{"user_id":521,"name":"Severeburrito16","steam_id":76561198353155991,"connected_time":91000000000,"state":"active","ping":106},{"user_id":461,"name":"DubiousDodo","steam_id":76561198828172686,"connected_time":4333000000000,"state":"active","ping":78},{"user_id":509,"name":"Nelson","steam_id":76561198036822957,"connected_time":482000000000,"state":"active","ping":60},{"user_id":510,"name":"es","steam_id":76561198006892337,"connected_time":482000000000,"state":"active","ping":69},{"user_id":483,"name":"RainboomCrash","steam_id":76561198065612273,"connected_time":1814000000000,"state":"active","ping":49},{"user_id":511,"name":"Siopao","steam_id":76561198254089497,"connected_time":451000000000,"state":"active","ping":54},{"user_id":515,"name":"a narwhal","steam_id":76561198014527353,"connected_time":358000000000,"state":"active","ping":114},{"user_id":458,"name":"Yoshidube","steam_id":76561198352675680,"connected_time":4912000000000,"state":"active","ping":110}]},{"server_id":119,"name":"Uncletopia | Seattle | 2 | All Maps","name_short":"sea-2","host":"sea-1.us.uncletopia.com","port":27025,"enabled":true,"region":"us-west","cc":"us","latitude":47.608013,"longitude":-122.33517,"reserved":0,"last_update":"0001-01-01T00:00:00Z","name_a2s":"Uncletopia | Seattle | 2 | All Maps","protocol":17,"map":"cp_snakewater_final1","folder":"tf","game":"Team Fortress","app_id":440,"player_count":22,"max_players":24,"Bots":0,"server_type":"Dedicated","server_os":"Linux","password":true,"vac":true,"version":"7961495","steam_id":85568392924469998,"keywords":["cp","nocrits","nodmgspread","uncletopia"],"game_id":440,"stv_port":27026,"stv_name":"Uncletopia | Seattle | 2 | All Maps | STV","players":[{"user_id":134,"name":"4lorist","steam_id":76561198009121060,"connected_time":72000000000,"state":"active","ping":45},{"user_id":129,"name":"Thexx ‚ù§","steam_id":76561198113823050,"connected_time":359000000000,"state":"active","ping":60},{"user_id":44,"name":"Nick","steam_id":76561198329096986,"connected_time":6753000000000,"state":"active","ping":88},{"user_id":127,"name":"Arkell","steam_id":76561198135884882,"connected_time":485000000000,"state":"active","ping":44},{"user_id":131,"name":"ark","steam_id":76561198041066271,"connected_time":234000000000,"state":"active","ping":76},{"user_id":110,"name":"Yakashama","steam_id":76561198204869719,"connected_time":1867000000000,"state":"active","ping":33},{"user_id":118,"name":"Rude Dog","steam_id":76561197980385816,"connected_time":1613000000000,"state":"active","ping":41},{"user_id":123,"name":"MakerRov","steam_id":76561198914108894,"connected_time":1185000000000,"state":"active","ping":73},{"user_id":119,"name":"SecurityCamera","steam_id":76561198117266792,"connected_time":1538000000000,"state":"active","ping":91},{"user_id":97,"name":"qrdl","steam_id":76561198049032186,"connected_time":3382000000000,"state":"active","ping":47},{"user_id":93,"name":"Weed Pyro (real)","steam_id":76561199388058358,"connected_time":3535000000000,"state":"active","ping":54},{"user_id":109,"name":"Micc","steam_id":76561199447744486,"connected_time":1905000000000,"state":"active","ping":106},{"user_id":75,"name":"NinjaWolf74","steam_id":76561198278272446,"connected_time":4135000000000,"state":"active","ping":166},{"user_id":130,"name":"Antzen","steam_id":76561198041343470,"connected_time":354000000000,"state":"active","ping":73},{"user_id":106,"name":"A UsedNom","steam_id":76561198402832756,"connected_time":1950000000000,"state":"active","ping":55},{"user_id":133,"name":"mak","steam_id":76561198856016840,"connected_time":209000000000,"state":"active","ping":127},{"user_id":124,"name":"epsilon","steam_id":76561198025337276,"connected_time":1152000000000,"state":"active","ping":85},{"user_id":113,"name":"dairy","steam_id":76561198047270339,"connected_time":1823000000000,"state":"active","ping":45},{"user_id":114,"name":"SubSammich","steam_id":76561198063812601,"connected_time":1783000000000,"state":"active","ping":107},{"user_id":126,"name":"[Bandit]","steam_id":76561197986919852,"connected_time":1003000000000,"state":"active","ping":46},{"user_id":120,"name":"Komada337","steam_id":76561198153971124,"connected_time":1536000000000,"state":"active","ping":111},{"user_id":83,"name":"SEGNO","steam_id":76561198102780113,"connected_time":3888000000000,"state":"active","ping":75}]},{"server_id":406,"name":"Uncletopia | Seattle | 3 | Stopwatch","name_short":"sea-3","host":"sea-1.us.uncletopia.com","port":27035,"enabled":true,"region":"us-west","cc":"us","latitude":47.608013,"longitude":-122.33517,"reserved":0,"last_update":"0001-01-01T00:00:00Z","name_a2s":"Uncletopia | Seattle | 3 | Stopwatch","protocol":17,"map":"cp_metalworks","folder":"tf","game":"Team Fortress","app_id":440,"player_count":0,"max_players":24,"Bots":0,"server_type":"Dedicated","server_os":"Linux","password":true,"vac":true,"version":"7961495","steam_id":85568392924515217,"keywords":["cp","nocrits","nodmgspread","uncletopia"],"game_id":440,"stv_port":27036,"stv_name":"Uncletopia | Seattle | 3 | Stopwatch | STV","players":null},{"server_id":17,"name":"Uncletopia | San Francisco | 1 | All Maps","name_short":"sfo-1","host":"sfo-1.us.uncletopia.com","port":27015,"enabled":true,"region":"us-west","cc":"us","latitude":37.77397,"longitude":-122.4313,"reserved":0,"last_update":"0001-01-01T00:00:00Z","name_a2s":"Uncletopia | San Francisco | 1 | All Maps","protocol":17,"map":"koth_highpass","folder":"tf","game":"Team Fortress","app_id":440,"player_count":0,"max_players":24,"Bots":0,"server_type":"Dedicated","server_os":"Linux","password":true,"vac":true,"version":"7961495","steam_id":85568392924469999,"keywords":["cp","nocrits","nodmgspread","uncletopia"],"game_id":440,"stv_port":27016,"stv_name":"Uncletopia | San Francisco | 1 | All Maps | STV","players":null},{"server_id":18,"name":"Uncletopia | San Francisco | 2 | All Maps","name_short":"sfo-2","host":"sfo-1.us.uncletopia.com","port":27025,"enabled":true,"region":"us-west","cc":"us","latitude":37.77397,"longitude":-122.4313,"reserved":0,"last_update":"0001-01-01T00:00:00Z","name_a2s":"Uncletopia | San Francisco | 2 | All Maps","protocol":17,"map":"ctf_sawmill","folder":"tf","game":"Team Fortress","app_id":440,"player_count":22,"max_players":24,"Bots":0,"server_type":"Dedicated","server_os":"Linux","password":true,"vac":true,"version":"7961495","steam_id":85568392924470000,"keywords":["ctf","nocrits","nodmgspread","uncletopia"],"game_id":440,"stv_port":27026,"stv_name":"Uncletopia | San Francisco | 2 | All Maps | STV","players":[{"user_id":254,"name":"Otsdarva","steam_id":76561198095914346,"connected_time":1756000000000,"state":"active","ping":62},{"user_id":264,"name":"Real","steam_id":76561198405830028,"connected_time":342000000000,"state":"active","ping":56},{"user_id":269,"name":"Poacher","steam_id":76561198867626964,"connected_time":54000000000,"state":"active","ping":89},{"user_id":215,"name":"dogerich404","steam_id":76561199124102546,"connected_time":4645000000000,"state":"active","ping":61},{"user_id":260,"name":"TheSantaStalker","steam_id":76561198044411734,"connected_time":682000000000,"state":"active","ping":135},{"user_id":193,"name":"Silly Shark","steam_id":76561198130714378,"connected_time":6240000000000,"state":"active","ping":71},{"user_id":259,"name":"filthycasual","steam_id":76561199138226238,"connected_time":774000000000,"state":"active","ping":55},{"user_id":262,"name":"Equinox","steam_id":76561198274279754,"connected_time":418000000000,"state":"active","ping":114},{"user_id":238,"name":"Natsuki the Scunt","steam_id":76561199175922684,"connected_time":3045000000000,"state":"active","ping":101},{"user_id":239,"name":"Life.....","steam_id":76561199099870494,"connected_time":3012000000000,"state":"active","ping":46},{"user_id":255,"name":"truck freak","steam_id":76561198062712676,"connected_time":1642000000000,"state":"active","ping":58},{"user_id":212,"name":"Nassu","steam_id":76561198147367577,"connected_time":4923000000000,"state":"active","ping":105},{"user_id":162,"name":"the pizza","steam_id":76561198221331476,"connected_time":8509000000000,"state":"active","ping":38},{"user_id":263,"name":"matvey","steam_id":76561199404191412,"connected_time":408000000000,"state":"active","ping":68},{"user_id":224,"name":"Surfing Garchomp","steam_id":76561199107236884,"connected_time":4121000000000,"state":"active","ping":67},{"user_id":233,"name":"bobtheninjaman","steam_id":76561198066424544,"connected_time":3357000000000,"state":"active","ping":53},{"user_id":270,"name":"Lord Skelly","steam_id":76561198242217716,"connected_time":40000000000,"state":"active","ping":107},{"user_id":240,"name":"pipebombrater","steam_id":76561199029030831,"connected_time":2995000000000,"state":"active","ping":112},{"user_id":271,"name":"Dr. Adderman","steam_id":76561199072803576,"connected_time":13000000000,"state":"active","ping":154},{"user_id":235,"name":"CHIEF_JUSTICE_FUCKASS","steam_id":76561199261675844,"connected_time":3294000000000,"state":"active","ping":67},{"user_id":209,"name":"DeckofDragons","steam_id":76561198057398213,"connected_time":5132000000000,"state":"active","ping":63},{"user_id":256,"name":"Ragnalon","steam_id":76561198807377526,"connected_time":1619000000000,"state":"active","ping":52}]},{"server_id":19,"name":"Uncletopia | San Francisco | 3 | Stopwatch","name_short":"sfo-3","host":"sfo-1.us.uncletopia.com","port":27035,"enabled":true,"region":"us-west","cc":"us","latitude":37.77397,"longitude":-122.4313,"reserved":0,"last_update":"0001-01-01T00:00:00Z","name_a2s":"Uncletopia | San Francisco | 3 | Stopwatch","protocol":17,"map":"workshop/koth_product_final.ugc454272353","folder":"tf","game":"Team Fortress","app_id":440,"player_count":0,"max_players":24,"Bots":0,"server_type":"Dedicated","server_os":"Linux","password":true,"vac":true,"version":"7961495","steam_id":85568392924742824,"keywords":["cp","nocrits","nodmgspread","uncletopia"],"game_id":440,"stv_port":27036,"stv_name":"Uncletopia | San Francisco | 3 | Stopwatch | STV","players":null},{"server_id":20,"name":"Uncletopia | San Francisco | 4 | Community","name_short":"sfo-4","host":"sfo-1.us.uncletopia.com","port":27045,"enabled":true,"region":"us-west","cc":"us","latitude":37.77397,"longitude":-122.4313,"reserved":0,"last_update":"0001-01-01T00:00:00Z","name_a2s":"Uncletopia | San Francisco | 4 | Community","protocol":17,"map":"workshop/pl_cactuscanyon_redux_final2.ugc2579644293","folder":"tf","game":"Team Fortress","app_id":440,"player_count":0,"max_players":24,"Bots":0,"server_type":"Dedicated","server_os":"Linux","password":true,"vac":true,"version":"7961495","steam_id":85568392924742826,"keywords":["nocrits","nodmgspread","payload","uncletopia"],"game_id":440,"stv_port":27046,"stv_name":"Uncletopia | San Francisco | 4 | Community | STV","players":null},{"server_id":141,"name":"Uncletopia | Sydney | 1 | All Maps","name_short":"syd-1","host":"syd-1.au.uncletopia.com","port":27015,"enabled":true,"region":"au","cc":"au","latitude":-33.865143,"longitude":151.2099,"reserved":0,"last_update":"0001-01-01T00:00:00Z","name_a2s":"Uncletopia | Sydney | 1 | All Maps","protocol":17,"map":"koth_viaduct","folder":"tf","game":"Team Fortress","app_id":440,"player_count":0,"max_players":24,"Bots":0,"server_type":"Dedicated","server_os":"Linux","password":true,"vac":true,"version":"7961495","steam_id":85568392924470001,"keywords":["cp","nocrits","nodmgspread","uncletopia"],"game_id":440,"stv_port":27016,"stv_name":"Uncletopia | Sydney | 1 | All Maps | STV","players":null},{"server_id":123,"name":"Uncletopia | Sydney | 2 | All Maps","name_short":"syd-2","host":"syd-1.au.uncletopia.com","port":27025,"enabled":true,"region":"au","cc":"au","latitude":-33.865143,"longitude":151.2099,"reserved":0,"last_update":"0001-01-01T00:00:00Z","name_a2s":"Uncletopia | Sydney | 2 | All Maps","protocol":17,"map":"cp_altitude","folder":"tf","game":"Team Fortress","app_id":440,"player_count":0,"max_players":24,"Bots":0,"server_type":"Dedicated","server_os":"Linux","password":true,"vac":true,"version":"7961495","steam_id":85568392924470002,"keywords":["cp","nocrits","nodmgspread","uncletopia"],"game_id":440,"stv_port":27026,"stv_name":"Uncletopia | Sydney | 2 | All Maps | STV","players":null},{"server_id":395,"name":"Uncletopia | Sydney | 3 | All Maps","name_short":"syd-3","host":"syd-1.au.uncletopia.com","port":27035,"enabled":true,"region":"au","cc":"au","latitude":-33.865143,"longitude":151.2099,"reserved":0,"last_update":"0001-01-01T00:00:00Z","name_a2s":"Uncletopia | Sydney | 3 | All Maps","protocol":17,"map":"cp_metalworks","folder":"tf","game":"Team Fortress","app_id":440,"player_count":0,"max_players":24,"Bots":0,"server_type":"Dedicated","server_os":"Linux","password":true,"vac":true,"version":"7961495","steam_id":85568392925194467,"keywords":["cp","nocrits","nodmgspread","uncletopia"],"game_id":440,"stv_port":27036,"stv_name":"Uncletopia | Sydney | 3 | All Maps | STV","players":null},{"server_id":396,"name":"Uncletopia | Sydney | 4 | All Maps","name_short":"syd-4","host":"syd-1.au.uncletopia.com","port":27045,"enabled":true,"region":"au","cc":"au","latitude":-33.865143,"longitude":151.2099,"reserved":0,"last_update":"0001-01-01T00:00:00Z","name_a2s":"Uncletopia | Sydney | 4 | All Maps","protocol":17,"map":"koth_cascade","folder":"tf","game":"Team Fortress","app_id":440,"player_count":0,"max_players":24,"Bots":0,"server_type":"Dedicated","server_os":"Linux","password":true,"vac":true,"version":"7961495","steam_id":85568392925397958,"keywords":["cp","nocrits","nodmgspread","uncletopia"],"game_id":440,"stv_port":27046,"stv_name":"Uncletopia | Sydney | 4 | All Maps | STV","players":null},{"server_id":58,"name":"Uncletopia | Sydney | 5 | Stopwatch","name_short":"syd-5","host":"syd-1.au.uncletopia.com","port":27055,"enabled":true,"region":"au","cc":"au","latitude":-33.865143,"longitude":151.2099,"reserved":0,"last_update":"0001-01-01T00:00:00Z","name_a2s":"Uncletopia | Sydney | 5 | Stopwatch","protocol":17,"map":"workshop/koth_product_final.ugc454272353","folder":"tf","game":"Team Fortress","app_id":440,"player_count":0,"max_players":24,"Bots":0,"server_type":"Dedicated","server_os":"Linux","password":true,"vac":true,"version":"7961495","steam_id":85568392925397959,"keywords":["cp","nocrits","nodmgspread","uncletopia"],"game_id":440,"stv_port":27056,"stv_name":"Uncletopia | Sydney | 5 | Stopwatch | STV","players":null},{"server_id":59,"name":"Uncletopia | Sydney | 6 | Community","name_short":"syd-6","host":"syd-1.au.uncletopia.com","port":27065,"enabled":true,"region":"au","cc":"au","latitude":-33.865143,"longitude":151.2099,"reserved":0,"last_update":"0001-01-01T00:00:00Z","name_a2s":"Uncletopia | Sydney | 6 | Community","protocol":17,"map":"workshop/koth_synthetic_rc6a.ugc1549817316","folder":"tf","game":"Team Fortress","app_id":440,"player_count":7,"max_players":24,"Bots":0,"server_type":"Dedicated","server_os":"Linux","password":true,"vac":true,"version":"7961495","steam_id":85568392925397960,"keywords":["cp","nocrits","nodmgspread","uncletopia"],"game_id":440,"stv_port":27066,"stv_name":"Uncletopia | Sydney | 6 | Community | STV","players":[{"user_id":98,"name":"Del Davis (Del Davis)","steam_id":76561199365669004,"connected_time":1942000000000,"state":"active","ping":52},{"user_id":106,"name":"Vaconcovat","steam_id":76561198024284041,"connected_time":582000000000,"state":"active","ping":53},{"user_id":100,"name":"soup","steam_id":76561198094520079,"connected_time":1479000000000,"state":"active","ping":64},{"user_id":101,"name":"SUSHIMAN","steam_id":76561199089989428,"connected_time":1425000000000,"state":"active","ping":95},{"user_id":107,"name":"Nyda","steam_id":76561198152311904,"connected_time":540000000000,"state":"active","ping":68},{"user_id":103,"name":"sav","steam_id":76561198058760041,"connected_time":1204000000000,"state":"active","ping":75},{"user_id":62,"name":"{Azura Sarah}","steam_id":76561197989210208,"connected_time":8017000000000,"state":"active","ping":45}]},{"server_id":49,"name":"Uncletopia | Warsaw | 1 | One Thousand Uncles","name_short":"waw-1","host":"waw-1.pl.uncletopia.com","port":27015,"enabled":true,"region":"eu","cc":"pl","latitude":52.2297,"longitude":21.017532,"reserved":0,"last_update":"0001-01-01T00:00:00Z","name_a2s":"Uncletopia | Warsaw | 1 | One Thousand Uncles","protocol":17,"map":"pl_goldrush","folder":"tf","game":"Team Fortress","app_id":440,"player_count":0,"max_players":32,"Bots":0,"server_type":"Dedicated","server_os":"Linux","password":true,"vac":true,"version":"7961495","steam_id":85568392925397850,"keywords":["alltalk","danepve","increased_maxplayers","norespawntime","payload","uncletopia"],"game_id":440,"stv_port":0,"stv_name":"","players":null},{"server_id":50,"name":"Uncletopia | Warsaw | 2 | One Thousand Uncles","name_short":"waw-2","host":"waw-1.pl.uncletopia.com","port":27025,"enabled":true,"region":"eu","cc":"pl","latitude":52.2297,"longitude":21.017532,"reserved":0,"last_update":"0001-01-01T00:00:00Z","name_a2s":"Uncletopia | Warsaw | 2 | One Thousand Uncles","protocol":17,"map":"pl_badwater","folder":"tf","game":"Team Fortress","app_id":440,"player_count":0,"max_players":32,"Bots":0,"server_type":"Dedicated","server_os":"Linux","password":true,"vac":true,"version":"7961495","steam_id":85568392925397851,"keywords":["alltalk","danepve","increased_maxplayers","norespawntime","payload","uncletopia"],"game_id":440,"stv_port":0,"stv_name":"","players":null},{"server_id":51,"name":"Uncletopia | Warsaw | 3 | All Maps","name_short":"waw-3","host":"waw-1.pl.uncletopia.com","port":27035,"enabled":true,"region":"eu","cc":"pl","latitude":52.2297,"longitude":21.017532,"reserved":0,"last_update":"0001-01-01T00:00:00Z","name_a2s":"Uncletopia | Warsaw | 3 | All Maps","protocol":17,"map":"cp_mountainlab","folder":"tf","game":"Team Fortress","app_id":440,"player_count":0,"max_players":24,"Bots":0,"server_type":"Dedicated","server_os":"Linux","password":true,"vac":true,"version":"7961495","steam_id":85568392925397852,"keywords":["cp","nocrits","nodmgspread","uncletopia"],"game_id":440,"stv_port":27036,"stv_name":"Uncletopia | Warsaw | 3 | All Maps | STV","players":null},{"server_id":52,"name":"Uncletopia | Warsaw | 4 | All Maps","name_short":"waw-4","host":"waw-1.pl.uncletopia.com","port":27045,"enabled":true,"region":"eu","cc":"pl","latitude":52.2297,"longitude":21.017532,"reserved":0,"last_update":"0001-01-01T00:00:00Z","name_a2s":"Uncletopia | Warsaw | 4 | All Maps","protocol":17,"map":"koth_lakeside_final","folder":"tf","game":"Team Fortress","app_id":440,"player_count":0,"max_players":24,"Bots":0,"server_type":"Dedicated","server_os":"Linux","password":true,"vac":true,"version":"7961495","steam_id":85568392925397853,"keywords":["cp","nocrits","nodmgspread","uncletopia"],"game_id":440,"stv_port":27046,"stv_name":"Uncletopia | Warsaw | 4 | All Maps | STV","players":null},{"server_id":53,"name":"Uncletopia | Warsaw | 5 | Stopwatch","name_short":"waw-5","host":"waw-1.pl.uncletopia.com","port":27055,"enabled":true,"region":"eu","cc":"pl","latitude":52.2297,"longitude":21.017532,"reserved":0,"last_update":"0001-01-01T00:00:00Z","name_a2s":"Uncletopia | Warsaw | 5 | Stopwatch","protocol":17,"map":"workshop/pl_badwater_pro_v12.ugc2142942074","folder":"tf","game":"Team Fortress","app_id":440,"player_count":0,"max_players":24,"Bots":0,"server_type":"Dedicated","server_os":"Linux","password":true,"vac":true,"version":"7961495","steam_id":85568392925397854,"keywords":["nocrits","nodmgspread","payload","uncletopia"],"game_id":440,"stv_port":27056,"stv_name":"Uncletopia | Warsaw | 5 | Stopwatch | STV","players":null},{"server_id":54,"name":"Uncletopia | Warsaw | 6 | Community","name_short":"waw-6","host":"waw-1.pl.uncletopia.com","port":27065,"enabled":true,"region":"eu","cc":"pl","latitude":52.2297,"longitude":21.017532,"reserved":0,"last_update":"0001-01-01T00:00:00Z","name_a2s":"Uncletopia | Warsaw | 6 | Community","protocol":17,"map":"workshop/koth_trenchfoot_ab1.ugc731436616","folder":"tf","game":"Team Fortress","app_id":440,"player_count":0,"max_players":24,"Bots":0,"server_type":"Dedicated","server_os":"Linux","password":true,"vac":true,"version":"7961495","steam_id":85568392925397856,"keywords":["cp","nocrits","nodmgspread","uncletopia"],"game_id":440,"stv_port":27066,"stv_name":"Uncletopia | Warsaw | 6 | Community | STV","players":null}]}