{"status":true,"message":"","result":[{"server_id":9,"name":"Uncletopia | Atlanta | 1 | All Maps","name_short":"atl-1","host":"atl-1.us.uncletopia.com","port":27015,"enabled":true,"region":"us-east","cc":"us","latitude":33.753746,"longitude":-84.38633,"reserved":0,"last_update":"0001-01-01T00:00:00Z","name_a2s":"Uncletopia | Atlanta | 1 | All Maps","protocol":17,"map":"cp_dustbowl","folder":"tf","game":"Team Fortress","app_id":440,"player_count":24,"max_players":24,"Bots":0,"server_type":"Dedicated","server_os":"Linux","password":true,"vac":true,"version":"7882260","steam_id":85568392924469982,"keywords":["cp","nocrits","nodmgspread","uncletopia"],"game_id":440,"stv_port":27016,"stv_name":"Uncletopia | Atlanta | 1 | All Maps | STV","players":[{"user_id":472,"name":"Eazy_Peazy16","steam_id":76561198079056194,"connected_time":2490000000000,"state":"active","ping":67},{"user_id":465,"name":"nomad","steam_id":76561197998740399,"connected_time":2911000000000,"state":"active","ping":63},{"user_id":462,"name":"Sophie","steam_id":76561198170408057,"connected_time":2940000000000,"state":"active","ping":47},{"user_id":487,"name":"Waffle Wannabe","steam_id":76561198064510650,"connected_time":755000000000,"state":"active","ping":69},{"user_id":289,"name":"LUM","steam_id":76561198069976825,"connected_time":14092000000000,"state":"active","ping":85},{"user_id":464,"name":"eish","steam_id":76561198089463603,"connected_time":2915000000000,"state":"active","ping":118},{"user_id":469,"name":"Am da Best","steam_id":76561198163825955,"connected_time":2579000000000,"state":"active","ping":101},{"user_id":498,"name":"Insane","steam_id":76561198134325939,"connected_time":45000000000,"state":"active","ping":79},{"user_id":481,"name":"Bale","steam_id":76561198093034439,"connected_time":1225000000000,"state":"active","ping":102},{"user_id":445,"name":"emilee (evil)","steam_id":76561198061455664,"connected_time":4332000000000,"state":"active","ping":62},{"user_id":494,"name":"Crystron","steam_id":76561198880437428,"connected_time":450000000000,"state":"active","ping":77},{"user_id":427,"name":"Yam Jazzy Jim","steam_id":76561198000788950,"connected_time":5571000000000,"state":"active","ping":75},{"user_id":452,"name":"shploopie","steam_id":76561198264289810,"connected_time":3751000000000,"state":"active","ping":85},{"user_id":474,"name":"--_Cook_--","steam_id":76561198080855748,"connected_time":1970000000000,"state":"active","ping":46},{"user_id":476,"name":"V!CT!M","steam_id":76561198962721502,"connected_time":1940000000000,"state":"active","ping":95},{"user_id":473,"name":"ShadowDragon0125","steam_id":76561198343849022,"connected_time":2469000000000,"state":"active","ping":106},{"user_id":495,"name":"Sableye","steam_id":76561198061247147,"connected_time":449000000000,"state":"active","ping":73},{"user_id":483,"name":"ShnozBerry","steam_id":76561198011917278,"connected_time":1008000000000,"state":"active","ping":55},{"user_id":493,"name":"zefir","steam_id":76561198041348890,"connected_time":457000000000,"state":"active","ping":64},{"user_id":492,"name":"mkl","steam_id":76561197986401685,"connected_time":466000000000,"state":"active","ping":87},{"user_id":449,"name":"Toonice","steam_id":76561198402994885,"connected_time":3929000000000,"state":"active","ping":87},{"user_id":497,"name":"Oddball","steam_id":76561198040440984,"connected_time":109000000000,"state":"active","ping":100},{"user_id":475,"name":"Mastery of Rectal Prolapse","steam_id":76561198277198222,"connected_time":1957000000000,"state":"active","ping":58},{"user_id":490,"name":"skinny pete","steam_id":76561198801608576,"connected_time":517000000000,"state":"active","ping":71}]},{"server_id":104,"name":"Uncletopia | Atlanta | 2 | All Maps","name_short":"atl-2","host":"atl-1.us.uncletopia.com","port":27025,"enabled":true,"region":"us-east","cc":"us","latitude":33.753746,"longitude":-84.38633,"reserved":0,"last_update":"0001-01-01T00:00:00Z","name_a2s":"Uncletopia | Atlanta | 2 | All Maps","protocol":17,"map":"pl_barnblitz","folder":"tf","game":"Team Fortress","app_id":440,"player_count":23,"max_players":24,"Bots":0,"server_type":"Dedicated","server_os":"Linux","password":true,"vac":true,"version":"7882260","steam_id":85568392924469983,"keywords":["nocrits","nodmgspread","payload","uncletopia"],"game_id":440,"stv_port":27026,"stv_name":"Uncletopia | Atlanta | 2 | All Maps | STV","players":[{"user_id":413,"name":"FEARSUM ENDJINN","steam_id":76561197984273698,"connected_time":564000000000,"state":"active","ping":87},{"user_id":366,"name":"Doomagedden","steam_id":76561198272589475,"connected_time":4247000000000,"state":"active","ping":73},{"user_id":406,"name":"wwhg","steam_id":76561198140658919,"connected_time":1175000000000,"state":"active","ping":65},{"user_id":397,"name":"WHAT","steam_id":76561198082336619,"connected_time":1427000000000,"state":"active","ping":73},{"user_id":415,"name":"LunarrD","steam_id":76561198811220107,"connected_time":422000000000,"state":"active","ping":79},{"user_id":411,"name":"AverageRundownJoe","steam_id":76561198059359620,"connected_time":882000000000,"state":"active","ping":89},{"user_id":394,"name":"Cosmic sR","steam_id":76561198081738675,"connected_time":1567000000000,"state":"active","ping":70},{"user_id":398,"name":"Rusted Cake","steam_id":76561198209755931,"connected_time":1423000000000,"state":"active","ping":87},{"user_id":420,"name":"AWPtimist","steam_id":76561198073011368,"connected_time":22000000000,"state":"spawning","ping":76},{"user_id":421,"name":"perma stoned","steam_id":76561198042156241,"connected_time":7000000000,"state":"spawning","ping":59},{"user_id":386,"name":"Thonk","steam_id":76561198131530521,"connected_time":2364000000000,"state":"active","ping":58},{"user_id":402,"name":"The Horselords and Animal Gods","steam_id":76561197975094050,"connected_time":1270000000000,"state":"active","ping":104},{"user_id":403,"name":"superad1","steam_id":76561198067001129,"connected_time":1249000000000,"state":"active","ping":78},{"user_id":396,"name":"Cheese","steam_id":76561199207081299,"connected_time":1476000000000,"state":"active","ping":97},{"user_id":301,"name":"EndlessSpace45","steam_id":76561198081117820,"connected_time":9409000000000,"state":"active","ping":82},{"user_id":404,"name":"xavier","steam_id":76561198210294852,"connected_time":1236000000000,"state":"active","ping":74},{"user_id":389,"name":"Jevilthejoker","steam_id":76561199002367480,"connected_time":1938000000000,"state":"active","ping":115},{"user_id":409,"name":"vortexgamer","steam_id":76561197999435527,"connected_time":1063000000000,"state":"active","ping":103},{"user_id":414,"name":"Mattron1","steam_id":76561198012270524,"connected_time":515000000000,"state":"active","ping":76},{"user_id":306,"name":"SaLt_VauLt","steam_id":76561199096277985,"connected_time":9190000000000,"state":"active","ping":68},{"user_id":212,"name":"aisu","steam_id":76561198043768507,"connected_time":16209000000000,"state":"active","ping":76},{"user_id":417,"name":"tux","steam_id":76561198167746330,"connected_time":182000000000,"state":"active","ping":59},{"user_id":410,"name":"Dr. Dingus PhD","steam_id":76561199209834538,"connected_time":1041000000000,"state":"active","ping":58}]},{"server_id":400,"name":"Uncletopia | Atlanta | 3 | Community","name_short":"atl-3","host":"atl-1.us.uncletopia.com","port":27035,"enabled":true,"region":"us-east","cc":"us","latitude":33.753746,"longitude":-84.38633,"reserved":0,"last_update":"0001-01-01T00:00:00Z","name_a2s":"Uncletopia | Atlanta | 3 | Community","protocol":17,"map":"workshop/koth_kemptown_rc1.ugc767410655","folder":"tf","game":"Team Fortress","app_id":440,"player_count":0,"max_players":24,"Bots":0,"server_type":"Dedicated","server_os":"Linux","password":true,"vac":true,"version":"7882260","steam_id":85568392924515187,"keywords":["cp","nocrits","nodmgspread","uncletopia"],"game_id":440,"stv_port":27036,"stv_name":"Uncletopia | Atlanta | 3 | Community | STV","players":null},{"server_id":401,"name":"Uncletopia | Atlanta | 4 | No Payload","name_short":"atl-4","host":"atl-1.us.uncletopia.com","port":27045,"enabled":true,"region":"us-east","cc":"us","latitude":33.753746,"longitude":-84.38633,"reserved":0,"last_update":"0001-01-01T00:00:00Z","name_a2s":"","protocol":0,"map":"","folder":"","game":"","app_id":0,"player_count":0,"max_players":0,"Bots":0,"server_type":"","server_os":"","password":false,"vac":false,"version":"","steam_id":0,"keywords":null,"game_id":0,"stv_port":0,"stv_name":"","players":null},{"server_id":2,"name":"Uncletopia | Chicago | 1 | All Maps","name_short":"chi-1","host":"chi-1.us.uncletopia.com","port":27015,"enabled":true,"region":"us-central","cc":"us","latitude":41.881832,"longitude":-87.62318,"reserved":0,"last_update":"0001-01-01T00:00:00Z","name_a2s":"Uncletopia | Chicago | 1 | All Maps","protocol":17,"map":"cp_dustbowl","folder":"tf","game":"Team Fortress","app_id":440,"player_count":24,"max_players":24,"Bots":0,"server_type":"Dedicated","server_os":"Linux","password":true,"vac":true,"version":"7882260","steam_id":85568392924469984,"keywords":["cp","nocrits","nodmgspread","uncletopia"],"game_id":440,"stv_port":27016,"stv_name":"Uncletopia | Chicago | 1 | All Maps | STV","players":[{"user_id":475,"name":"TeeTree","steam_id":76561198862307874,"connected_time":1027000000000,"state":"active","ping":56},{"user_id":484,"name":"Jak(i)","steam_id":76561198076823144,"connected_time":28000000000,"state":"active","ping":68},{"user_id":378,"name":"b3afy","steam_id":76561198084208649,"connected_time":10186000000000,"state":"active","ping":91},{"user_id":456,"name":"waltuh","steam_id":76561198363541736,"connected_time":3273000000000,"state":"active","ping":90},{"user_id":465,"name":"Frozone","steam_id":76561198259380127,"connected_time":2460000000000,"state":"active","ping":65},{"user_id":427,"name":"Alpharious","steam_id":76561197970289529,"connected_time":6149000000000,"state":"active","ping":68},{"user_id":476,"name":"Thundermonkey (SMOKE)","steam_id":76561198017631728,"connected_time":1004000000000,"state":"active","ping":63},{"user_id":477,"name":"ShockinglyCaucasian","steam_id":76561198076775164,"connected_time":998000000000,"state":"active","ping":58},{"user_id":411,"name":"Filthy Acts at Reasonable Price","steam_id":76561198354615890,"connected_time":7828000000000,"state":"active","ping":98},{"user_id":479,"name":"Dieu-Sama","steam_id":76561198002075862,"connected_time":947000000000,"state":"active","ping":94},{"user_id":413,"name":"MankTKO","steam_id":76561198189421005,"connected_time":7354000000000,"state":"active","ping":46},{"user_id":473,"name":"Lost","steam_id":76561198093713427,"connected_time":1295000000000,"state":"active","ping":60},{"user_id":421,"name":"worker","steam_id":76561198039608940,"connected_time":7090000000000,"state":"active","ping":116},{"user_id":469,"name":"Spy Gaming","steam_id":76561198453295613,"connected_time":1584000000000,"state":"active","ping":111},{"user_id":455,"name":"DinoGoof","steam_id":76561198998427283,"connected_time":3285000000000,"state":"active","ping":72},{"user_id":446,"name":"blob","steam_id":76561198122375328,"connected_time":4457000000000,"state":"active","ping":58},{"user_id":481,"name":"Sone","steam_id":76561198069601032,"connected_time":498000000000,"state":"active","ping":80},{"user_id":444,"name":"Zoot","steam_id":76561198121944243,"connected_time":4524000000000,"state":"active","ping":84},{"user_id":377,"name":"Praise_to_the_Flashlight!","steam_id":76561199001728789,"connected_time":10324000000000,"state":"active","ping":52},{"user_id":471,"name":"Doublebagel47","steam_id":76561198832021744,"connected_time":1571000000000,"state":"active","ping":77},{"user_id":445,"name":".JIFF","steam_id":76561198045181760,"connected_time":4493000000000,"state":"active","ping":58},{"user_id":478,"name":"moe","steam_id":76561198929586245,"connected_time":983000000000,"state":"active","ping":104},{"user_id":468,"name":"Gnarly Shark Bite","steam_id":76561198004058342,"connected_time":1771000000000,"state":"active","ping":81},{"user_id":483,"name":"Adam (Cursed Confetti Creature)","steam_id":76561198317690197,"connected_time":411000000000,"state":"active","ping":45}]},{"server_id":106,"name":"Uncletopia | Chicago | 2 | All Maps","name_short":"chi-2","host":"chi-1.us.uncletopia.com","port":27025,"enabled":true,"region":"us-central","cc":"us","latitude":41.881832,"longitude":-87.62318,"reserved":0,"last_update":"0001-01-01T00:00:00Z","name_a2s":"Uncletopia | Chicago | 2 | All Maps","protocol":17,"map":"pl_snowycoast","folder":"tf","game":"Team Fortress","app_id":440,"player_count":24,"max_players":24,"Bots":0,"server_type":"Dedicated","server_os":"Linux","password":true,"vac":true,"version":"7882260","steam_id":85568392924469985,"keywords":["nocrits","nodmgspread","payload","uncletopia"],"game_id":440,"stv_port":27026,"stv_name":"Uncletopia | Chicago | 2 | All Maps | STV","players":[{"user_id":714,"name":"totoro","steam_id":76561198210420871,"connected_time":104000000000,"state":"active","ping":45},{"user_id":718,"name":"Strangelove","steam_id":76561198353773611,"connected_time":54000000000,"state":"active","ping":89},{"user_id":713,"name":"Bawower","steam_id":76561198347769261,"connected_time":226000000000,"state":"active","ping":68},{"user_id":715,"name":"Deimos","steam_id":76561198254665780,"connected_time":84000000000,"state":"active","ping":99},{"user_id":694,"name":"Cargoshorts Johnny","steam_id":76561198281732417,"connected_time":674000000000,"state":"active","ping":82},{"user_id":695,"name":"dr sex, md (sexologist)","steam_id":76561198115874625,"connected_time":670000000000,"state":"active","ping":82},{"user_id":704,"name":"cave johnson","steam_id":76561199389283507,"connected_time":549000000000,"state":"active","ping":77},{"user_id":669,"name":"captain Damien","steam_id":76561198813245551,"connected_time":2714000000000,"state":"active","ping":106},{"user_id":712,"name":"Boinker!","steam_id":76561198272961376,"connected_time":246000000000,"state":"active","ping":74},{"user_id":710,"name":"jimmyfnaf172198yay","steam_id":76561198311446636,"connected_time":469000000000,"state":"active","ping":66},{"user_id":716,"name":"‚ù§[CandySwirl]‚ù§","steam_id":76561198817361963,"connected_time":80000000000,"state":"active","ping":108},{"user_id":680,"name":"Phat Cat","steam_id":76561198123017274,"connected_time":2102000000000,"state":"active","ping":58},{"user_id":698,"name":"‚ô°a femboy‚ô°","steam_id":76561199212971864,"connected_time":647000000000,"state":"active","ping":81},{"user_id":705,"name":"LemonZest","steam_id":76561199196369249,"connected_time":540000000000,"state":"active","ping":73},{"user_id":673,"name":"Takyon","steam_id":76561198172075186,"connected_time":2571000000000,"state":"active","ping":170},{"user_id":671,"name":"BurakkiHitsu","steam_id":76561198314156737,"connected_time":2655000000000,"state":"active","ping":85},{"user_id":681,"name":"Sean Bae","steam_id":76561198036909521,"connected_time":2069000000000,"state":"active","ping":60},{"user_id":717,"name":"wroh2801","steam_id":76561199103292218,"connected_time":66000000000,"state":"active","ping":58},{"user_id":706,"name":"footoftheday","steam_id":76561198052712449,"connected_time":530000000000,"state":"active","ping":76},{"user_id":648,"name":"Brian","steam_id":76561198144650969,"connected_time":4291000000000,"state":"active","ping":72},{"user_id":672,"name":"evnobev","steam_id":76561198038966462,"connected_time":2647000000000,"state":"active","ping":57},{"user_id":686,"name":"eat Pant","steam_id":76561197974965536,"connected_time":1705000000000,"state":"active","ping":92},{"user_id":689,"name":"tidal47","steam_id":76561198219084819,"connected_time":1108000000000,"state":"active","ping":105},{"user_id":707,"name":"‚ô¨‚ô´smorgus cat‚ô™‚ô¨","steam_id":76561199099979065,"connected_time":524000000000,"state":"active","ping":71}]},{"server_id":402,"name":"Uncletopia | Chicago | 3 | All Maps","name_short":"chi-3","host":"chi-1.us.uncletopia.com","port":27035,"enabled":true,"region":"us-central","cc":"us","latitude":41.881832,"longitude":-87.62318,"reserved":0,"last_update":"0001-01-01T00:00:00Z","name_a2s":"Uncletopia | Chicago | 3 | All Maps","protocol":17,"map":"cp_dustbowl","folder":"tf","game":"Team Fortress","app_id":440,"player_count":24,"max_players":24,"Bots":0,"server_type":"Dedicated","server_os":"Linux","password":true,"vac":true,"version":"7882260","steam_id":85568392924515191,"keywords":["cp","nocrits","nodmgspread","uncletopia"],"game_id":440,"stv_port":27036,"stv_name":"Uncletopia | Chicago | 3 | All Maps | STV","players":[{"user_id":620,"name":"Fatcat.win(false) ;","steam_id":76561198069007806,"connected_time":1980000000000,"state":"active","ping":61},{"user_id":601,"name":"let me cook","steam_id":76561198075858067,"connected_time":3314000000000,"state":"active","ping":59},{"user_id":612,"name":"claeb :)","steam_id":76561198028761580,"connected_time":2334000000000,"state":"active","ping":68},{"user_id":627,"name":"hank suckle","steam_id":76561198122622916,"connected_time":1464000000000,"state":"active","ping":51},{"user_id":641,"name":"Worldstarhiphop Mike","steam_id":76561198053967778,"connected_time":700000000000,"state":"active","ping":75},{"user_id":634,"name":"‚ä∞Aero‚ä±","steam_id":76561198084648457,"connected_time":1338000000000,"state":"active","ping":64},{"user_id":621,"name":"Tusked","steam_id":76561198078473398,"connected_time":1960000000000,"state":"active","ping":161},{"user_id":624,"name":"Doctor Glocktorpus [NGC]","steam_id":76561198049194645,"connected_time":1752000000000,"state":"active","ping":71},{"user_id":625,"name":"MYBRANNNND","steam_id":76561197986292563,"connected_time":1652000000000,"state":"active","ping":84},{"user_id":628,"name":"shalankawanak","steam_id":76561198987719376,"connected_time":1462000000000,"state":"active","ping":50},{"user_id":570,"name":"Wild_Rumpus","steam_id":76561198066393719,"connected_time":4916000000000,"state":"active","ping":67},{"user_id":623,"name":"ZellaAmarisIolana","steam_id":76561198147614868,"connected_time":1906000000000,"state":"active","ping":77},{"user_id":581,"name":"cucumper","steam_id":76561198079504588,"connected_time":4189000000000,"state":"active","ping":73},{"user_id":629,"name":"BarrowBaron","steam_id":76561198013633236,"connected_time":1459000000000,"state":"active","ping":71},{"user_id":573,"name":"bane","steam_id":76561198196769297,"connected_time":4444000000000,"state":"active","ping":55},{"user_id":644,"name":"DeeZ NutZ","steam_id":76561199210527899,"connected_time":192000000000,"state":"active","ping":62},{"user_id":574,"name":"Vapor Man","steam_id":76561198210173112,"connected_time":4398000000000,"state":"active","ping":151},{"user_id":631,"name":"igotmail","steam_id":76561198070631899,"connected_time":1396000000000,"state":"active","ping":78},{"user_id":632,"name":"Comfy Monkey","steam_id":76561197998434936,"connected_time":1365000000000,"state":"active","ping":48},{"user_id":633,"name":"fatass","steam_id":76561199439477857,"connected_time":1352000000000,"state":"active","ping":67},{"user_id":645,"name":"Sage","steam_id":76561198143101697,"connected_time":161000000000,"state":"active","ping":97},{"user_id":636,"name":"StealthyZeroTwo","steam_id":76561198942692649,"connected_time":1254000000000,"state":"active","ping":88},{"user_id":637,"name":"Meat Mans Meat","steam_id":76561198062149455,"connected_time":1253000000000,"state":"active","ping":59},{"user_id":643,"name":"K","steam_id":76561198157492580,"connected_time":463000000000,"state":"active","ping":50}]},{"server_id":403,"name":"Uncletopia | Chicago | 4 | All Maps","name_short":"chi-4","host":"chi-1.us.uncletopia.com","port":27045,"enabled":true,"region":"us-central","cc":"us","latitude":41.881832,"longitude":-87.62318,"reserved":0,"last_update":"0001-01-01T00:00:00Z","name_a2s":"Uncletopia | Chicago | 4 | All Maps","protocol":17,"map":"ctf_doublecross","folder":"tf","game":"Team Fortress","app_id":440,"player_count":24,"max_players":24,"Bots":0,"server_type":"Dedicated","server_os":"Linux","password":true,"vac":true,"version":"7882260","steam_id":85568392924515193,"keywords":["ctf","nocrits","nodmgspread","uncletopia"],"game_id":440,"stv_port":27046,"stv_name":"Uncletopia | Chicago | 4 | All Maps | STV","players":[{"user_id":312,"name":"goopshit","steam_id":76561198126489501,"connected_time":129000000000,"state":"active","ping":44},{"user_id":269,"name":"Ok then","steam_id":76561198891914787,"connected_time":2463000000000,"state":"active","ping":113},{"user_id":300,"name":"Dead Face","steam_id":76561198857643139,"connected_time":1033000000000,"state":"active","ping":69},{"user_id":304,"name":"TankDozer","steam_id":76561199073510041,"connected_time":949000000000,"state":"active","ping":64},{"user_id":199,"name":"toxicpeck @@yahoocum","steam_id":76561198213385439,"connected_time":8206000000000,"state":"active","ping":116},{"user_id":290,"name":"RiverEgg","steam_id":76561198888913405,"connected_time":1318000000000,"state":"active","ping":51},{"user_id":305,"name":"Crispy Waffle","steam_id":76561198306945757,"connected_time":745000000000,"state":"active","ping":60},{"user_id":314,"name":"Aad","steam_id":76561198126263769,"connected_time":74000000000,"state":"active","ping":49},{"user_id":310,"name":"tesagi","steam_id":76561198026664629,"connected_time":174000000000,"state":"active","ping":47},{"user_id":295,"name":"Toastie","steam_id":76561198246760934,"connected_time":1133000000000,"state":"active","ping":55},{"user_id":306,"name":"Varveer","steam_id":76561198218897383,"connected_time":566000000000,"state":"active","ping":67},{"user_id":286,"name":"Brass beast in my pants","steam_id":76561199132214008,"connected_time":1490000000000,"state":"active","ping":98},{"user_id":307,"name":"king dedede","steam_id":76561198965562679,"connected_time":521000000000,"state":"active","ping":84},{"user_id":224,"name":"Skeleton Dad","steam_id":76561198021489595,"connected_time":6111000000000,"state":"active","ping":87},{"user_id":297,"name":"Carmaggedon","steam_id":76561198098744340,"connected_time":1099000000000,"state":"active","ping":75},{"user_id":313,"name":"the comedian","steam_id":76561198984762462,"connected_time":126000000000,"state":"active","ping":101},{"user_id":298,"name":"Granny Business","steam_id":76561198044005706,"connected_time":1099000000000,"state":"active","ping":73},{"user_id":274,"name":"Jello","steam_id":76561198047795233,"connected_time":2267000000000,"state":"active","ping":31},{"user_id":299,"name":"dak","steam_id":76561198076596506,"connected_time":1097000000000,"state":"active","ping":70},{"user_id":280,"name":"[El Fail] MR.BadassMCLee","steam_id":76561198043787818,"connected_time":1641000000000,"state":"active","ping":117},{"user_id":226,"name":"carrot cake","steam_id":76561198055174915,"connected_time":5997000000000,"state":"active","ping":62},{"user_id":272,"name":"Kazmirl | Youtuber","steam_id":76561198116008410,"connected_time":2447000000000,"state":"active","ping":106},{"user_id":233,"name":"We Ball","steam_id":76561199122315920,"connected_time":5748000000000,"state":"active","ping":61},{"user_id":303,"name":"carbuzz","steam_id":76561198129361580,"connected_time":982000000000,"state":"active","ping":146}]},{"server_id":36,"name":"Uncletopia | Chicago | 5 | All Maps","name_short":"chi-5","host":"chi-2.us.uncletopia.com","port":27015,"enabled":true,"region":"us-central","cc":"us","latitude":41.881832,"longitude":-87.62318,"reserved":0,"last_update":"0001-01-01T00:00:00Z","name_a2s":"Uncletopia | Chicago | 5 | All Maps","protocol":17,"map":"cp_dustbowl","folder":"tf","game":"Team Fortress","app_id":440,"player_count":23,"max_players":24,"Bots":0,"server_type":"Dedicated","server_os":"Linux","password":true,"vac":true,"version":"7882260","steam_id":85568392924866362,"keywords":["cp","nocrits","nodmgspread","uncletopia"],"game_id":440,"stv_port":27016,"stv_name":"Uncletopia | Chicago | 5 | All Maps | STV","players":[{"user_id":446,"name":"WHATISYOURNAME","steam_id":76561198342560783,"connected_time":3882000000000,"state":"active","ping":55},{"user_id":452,"name":"BeanLordGamer","steam_id":76561199466512390,"connected_time":3597000000000,"state":"active","ping":84},{"user_id":493,"name":"basil smoking weed","steam_id":76561198119590214,"connected_time":148000000000,"state":"active","ping":64},{"user_id":485,"name":"cornships","steam_id":76561199220411023,"connected_time":826000000000,"state":"active","ping":39},{"user_id":465,"name":"The Fiend","steam_id":76561199229771413,"connected_time":1804000000000,"state":"active","ping":87},{"user_id":481,"name":"Cake-TEC","steam_id":76561198195351298,"connected_time":1070000000000,"state":"active","ping":60},{"user_id":486,"name":"Samitch","steam_id":76561198038247982,"connected_time":821000000000,"state":"active","ping":60},{"user_id":372,"name":"[GUT] RiDiK¬Æ","steam_id":76561197969756446,"connected_time":8681000000000,"state":"active","ping":58},{"user_id":491,"name":"Double Dip","steam_id":76561198067483536,"connected_time":175000000000,"state":"active","ping":47},{"user_id":488,"name":"Gentoo Linux Gaming","steam_id":76561197999657118,"connected_time":395000000000,"state":"active","ping":85},{"user_id":474,"name":"DootPatrol","steam_id":76561198067483854,"connected_time":1358000000000,"state":"active","ping":102},{"user_id":438,"name":"too funky ·óúÀ¨·óú","steam_id":76561199120399776,"connected_time":4593000000000,"state":"active","ping":69},{"user_id":427,"name":"Angry Ginger","steam_id":76561198256929349,"connected_time":5028000000000,"state":"active","ping":57},{"user_id":469,"name":"gwy","steam_id":76561198277458653,"connected_time":1649000000000,"state":"active","ping":90},{"user_id":415,"name":"Sleepy","steam_id":76561198273471153,"connected_time":5899000000000,"state":"active","ping":83},{"user_id":470,"name":"Foxiee","steam_id":76561198271681809,"connected_time":1646000000000,"state":"active","ping":68},{"user_id":484,"name":"Rix FPV","steam_id":76561198299320893,"connected_time":911000000000,"state":"active","ping":64},{"user_id":461,"name":"BetoelAff es","steam_id":76561198377842585,"connected_time":2469000000000,"state":"active","ping":119},{"user_id":471,"name":"w1ppy","steam_id":76561198324695896,"connected_time":1646000000000,"state":"active","ping":83},{"user_id":482,"name":"Jax","steam_id":76561198251160282,"connected_time":1065000000000,"state":"active","ping":120},{"user_id":489,"name":"Blueghost555","steam_id":76561198379198065,"connected_time":280000000000,"state":"active","ping":118},{"user_id":487,"name":"Norriss","steam_id":76561198920296293,"connected_time":707000000000,"state":"active","ping":92},{"user_id":494,"name":"RonaldKun","steam_id":76561198113841433,"connected_time":41000000000,"state":"active","ping":51}]},{"server_id":37,"name":"Uncletopia | Chicago | 6 | All Maps","name_short":"chi-6","host":"chi-2.us.uncletopia.com","port":27025,"enabled":true,"region":"us-central","cc":"us","latitude":41.881832,"longitude":-87.62318,"reserved":0,"last_update":"0001-01-01T00:00:00Z","name_a2s":"Uncletopia | Chicago | 6 | All Maps","protocol":17,"map":"cp_snakewater_final1","folder":"tf","game":"Team Fortress","app_id":440,"player_count":24,"max_players":24,"Bots":0,"server_type":"Dedicated","server_os":"Linux","password":true,"vac":true,"version":"7882260","steam_id":85568392924866363,"keywords":["cp","nocrits","nodmgspread","uncletopia"],"game_id":440,"stv_port":27026,"stv_name":"Uncletopia | Chicago | 6 | All Maps | STV","players":[{"user_id":468,"name":"thecal","steam_id":76561198307893384,"connected_time":429000000000,"state":"active","ping":49},{"user_id":448,"name":"Grify","steam_id":76561198012292317,"connected_time":1352000000000,"state":"active","ping":85},{"user_id":449,"name":"professional sucker double gawk","steam_id":76561199039152146,"connected_time":1343000000000,"state":"active","ping":69},{"user_id":423,"name":"great uncle Terry","steam_id":76561198001488041,"connected_time":3177000000000,"state":"active","ping":86},{"user_id":461,"name":"0nix","steam_id":76561199122448182,"connected_time":1158000000000,"state":"active","ping":60},{"user_id":402,"name":"sky walker","steam_id":76561198937717599,"connected_time":4611000000000,"state":"active","ping":67},{"user_id":465,"name":"demoknight tf2","steam_id":76561198070393998,"connected_time":711000000000,"state":"active","ping":60},{"user_id":444,"name":"[live] ttv/lilirouxxx","steam_id":76561198000522179,"connected_time":1973000000000,"state":"active","ping":65},{"user_id":451,"name":"Scut","steam_id":76561198973734291,"connected_time":1263000000000,"state":"active","ping":94},{"user_id":469,"name":"Blitzy","steam_id":76561198149472890,"connected_time":426000000000,"state":"active","ping":73},{"user_id":438,"name":"happy :)","steam_id":76561198188722751,"connected_time":2268000000000,"state":"active","ping":90},{"user_id":470,"name":"ratie","steam_id":76561198059399661,"connected_time":421000000000,"state":"active","ping":84},{"user_id":452,"name":"Thomas Sowell","steam_id":76561198047168548,"connected_time":1252000000000,"state":"active","ping":103},{"user_id":455,"name":"Scottygofast","steam_id":76561199140785887,"connected_time":1209000000000,"state":"active","ping":95},{"user_id":436,"name":"PeesTi2","steam_id":76561199016865192,"connected_time":2359000000000,"state":"active","ping":182},{"user_id":453,"name":"Captain Caber","steam_id":76561199157498505,"connected_time":1239000000000,"state":"active","ping":109},{"user_id":472,"name":"Gorgon Freeman","steam_id":76561198000367036,"connected_time":252000000000,"state":"active","ping":57},{"user_id":437,"name":"Raptortastic","steam_id":76561198105613110,"connected_time":2344000000000,"state":"active","ping":60},{"user_id":464,"name":"Kartyac","steam_id":76561197991069005,"connected_time":794000000000,"state":"active","ping":76},{"user_id":372,"name":"Ata","steam_id":76561198349085545,"connected_time":6771000000000,"state":"active","ping":78},{"user_id":473,"name":"MICHAEL","steam_id":76561197965374009,"connected_time":224000000000,"state":"active","ping":71},{"user_id":442,"name":"BDCMaverick","steam_id":76561198222232532,"connected_time":2153000000000,"state":"active","ping":70},{"user_id":434,"name":"AreYouMyMummy?","steam_id":76561197995101745,"connected_time":2409000000000,"state":"active","ping":67},{"user_id":447,"name":"who up wit worms in they brain","steam_id":76561198095313463,"connected_time":1497000000000,"state":"active","ping":69}]},{"server_id":38,"name":"Uncletopia | Chicago | 7 | Stopwatch Beta","name_short":"chi-7","host":"chi-2.us.uncletopia.com","port":27035,"enabled":true,"region":"us-central","cc":"us","latitude":41.881832,"longitude":-87.62318,"reserved":0,"last_update":"0001-01-01T00:00:00Z","name_a2s":"Uncletopia | Chicago | 7 | Stopwatch Beta","protocol":17,"map":"pl_borneo","folder":"tf","game":"Team Fortress","app_id":440,"player_count":1,"max_players":24,"Bots":0,"server_type":"Dedicated","server_os":"Linux","password":true,"vac":true,"version":"7882260","steam_id":85568392924866364,"keywords":["nocrits","nodmgspread","payload","uncletopia"],"game_id":440,"stv_port":27036,"stv_name":"Uncletopia | Chicago | 7 | Stopwatch Beta | STV","players":[{"user_id":7,"name":"gimpter","steam_id":76561199229601553,"connected_time":8000000000,"state":"spawning","ping":46}]},{"server_id":39,"name":"Uncletopia | Chicago | 8 | Community","name_short":"chi-8","host":"chi-2.us.uncletopia.com","port":27045,"enabled":true,"region":"us-central","cc":"us","latitude":41.881832,"longitude":-87.62318,"reserved":0,"last_update":"0001-01-01T00:00:00Z","name_a2s":"Uncletopia | Chicago | 8 | Community","protocol":17,"map":"workshop/koth_trenchfoot_b1a.ugc731436616","folder":"tf","game":"Team Fortress","app_id":440,"player_count":0,"max_players":24,"Bots":0,"server_type":"Dedicated","server_os":"Linux","password":true,"vac":true,"version":"7882260","steam_id":85568392924866365,"keywords":["cp","nocrits","nodmgspread","uncletopia"],"game_id":440,"stv_port":27046,"stv_name":"Uncletopia | Chicago | 8 | Community | STV","players":null},{"server_id":8,"name":"Uncletopia | Dallas | 1 | All Maps","name_short":"dal-1","host":"dal-1.us.uncletopia.com","port":27015,"enabled":true,"region":"us-central","cc":"us","latitude":32.779167,"longitude":-96.80889,"reserved":0,"last_update":"0001-01-01T00:00:00Z","name_a2s":"Uncletopia | Dallas | 1 | All Maps","protocol":17,"map":"cp_altitude","folder":"tf","game":"Team Fortress","app_id":440,"player_count":24,"max_players":24,"Bots":0,"server_type":"Dedicated","server_os":"Linux","password":true,"vac":true,"version":"7882260","steam_id":85568392924469986,"keywords":["cp","nocrits","nodmgspread","uncletopia"],"game_id":440,"stv_port":27016,"stv_name":"Uncletopia | Dallas | 1 | All Maps | STV","players":[{"user_id":435,"name":"Ros","steam_id":76561199055963822,"connected_time":1851000000000,"state":"active","ping":68},{"user_id":423,"name":"Still Alive","steam_id":76561198042523000,"connected_time":2855000000000,"state":"active","ping":66},{"user_id":465,"name":"üéÑAndreaJinglingüéÑ","steam_id":76561198198658783,"connected_time":447000000000,"state":"active","ping":132},{"user_id":448,"name":"MrStinkyCat","steam_id":76561198141354002,"connected_time":1302000000000,"state":"active","ping":135},{"user_id":436,"name":"kibsta","steam_id":76561198991982630,"connected_time":1846000000000,"state":"active","ping":77},{"user_id":458,"name":"Ace","steam_id":76561198878661482,"connected_time":646000000000,"state":"active","ping":37},{"user_id":329,"name":"motherofdragons96","steam_id":76561198864779097,"connected_time":8473000000000,"state":"active","ping":81},{"user_id":453,"name":"Rohi Mig","steam_id":76561198113623627,"connected_time":1161000000000,"state":"active","ping":86},{"user_id":450,"name":"Fart Sniffer","steam_id":76561198377835843,"connected_time":1230000000000,"state":"active","ping":76},{"user_id":451,"name":"Tanuki in your attic.","steam_id":76561198027487285,"connected_time":1207000000000,"state":"active","ping":93},{"user_id":404,"name":"Liebestr√§ume","steam_id":76561198038862034,"connected_time":3855000000000,"state":"active","ping":73},{"user_id":438,"name":"Jester","steam_id":76561198153102922,"connected_time":1787000000000,"state":"active","ping":59},{"user_id":459,"name":"Bread Zoo","steam_id":76561198013732450,"connected_time":638000000000,"state":"active","ping":66},{"user_id":468,"name":"IvanIsGreek","steam_id":76561199467716273,"connected_time":335000000000,"state":"active","ping":66},{"user_id":456,"name":"dog","steam_id":76561198263873491,"connected_time":1104000000000,"state":"active","ping":61},{"user_id":441,"name":"Seduce!_!Me_!213","steam_id":76561198857556368,"connected_time":1686000000000,"state":"active","ping":74},{"user_id":472,"name":"ogrelord","steam_id":76561199121830457,"connected_time":105000000000,"state":"active","ping":68},{"user_id":464,"name":"toastylotus","steam_id":76561198060043969,"connected_time":494000000000,"state":"active","ping":87},{"user_id":440,"name":"bolainassr0","steam_id":76561199079078845,"connected_time":1780000000000,"state":"active","ping":90},{"user_id":408,"name":"Killroy NQP ‚ù§","steam_id":76561198006983771,"connected_time":3705000000000,"state":"active","ping":82},{"user_id":434,"name":"Oceandusk","steam_id":76561198263047409,"connected_time":1931000000000,"state":"active","ping":83},{"user_id":398,"name":"CreativeCoffeeCake","steam_id":76561198323542875,"connected_time":4341000000000,"state":"active","ping":68},{"user_id":442,"name":"LossNonsense","steam_id":76561198077167840,"connected_time":1633000000000,"state":"active","ping":64},{"user_id":470,"name":"TheRiGuy21","steam_id":76561199466243640,"connected_time":242000000000,"state":"active","ping":79}]},{"server_id":108,"name":"Uncletopia | Dallas | 2 | All Maps","name_short":"dal-2","host":"dal-1.us.uncletopia.com","port":27025,"enabled":true,"region":"us-central","cc":"us","latitude":32.779167,"longitude":-96.80889,"reserved":0,"last_update":"0001-01-01T00:00:00Z","name_a2s":"Uncletopia | Dallas | 2 | All Maps","protocol":17,"map":"pl_swiftwater_final1","folder":"tf","game":"Team Fortress","app_id":440,"player_count":24,"max_players":24,"Bots":0,"server_type":"Dedicated","server_os":"Linux","password":true,"vac":true,"version":"7882260","steam_id":85568392924469988,"keywords":["nocrits","nodmgspread","payload","uncletopia"],"game_id":440,"stv_port":27026,"stv_name":"Uncletopia | Dallas | 2 | All Maps | STV","players":[{"user_id":240,"name":"D(b) Hell","steam_id":76561198067869016,"connected_time":11374000000000,"state":"active","ping":73},{"user_id":385,"name":"WishedFuzzball","steam_id":76561198055642827,"connected_time":390000000000,"state":"active","ping":73},{"user_id":377,"name":"Winter the Witchie | B-DAY","steam_id":76561198151971178,"connected_time":1256000000000,"state":"active","ping":86},{"user_id":386,"name":"meo ‚ô•","steam_id":76561197992719272,"connected_time":195000000000,"state":"active","ping":74},{"user_id":359,"name":"DragonHeart","steam_id":76561198013245625,"connected_time":2021000000000,"state":"active","ping":74},{"user_id":370,"name":"she turn my life ******* off","steam_id":76561198202240772,"connected_time":1647000000000,"state":"active","ping":55},{"user_id":368,"name":"java","steam_id":76561198030276792,"connected_time":1841000000000,"state":"active","ping":61},{"user_id":378,"name":"coheedhead","steam_id":76561198149813133,"connected_time":1114000000000,"state":"active","ping":53},{"user_id":376,"name":"Mudd","steam_id":76561199220612917,"connected_time":1277000000000,"state":"active","ping":95},{"user_id":346,"name":"TeriyakiDynamite","steam_id":76561198050049346,"connected_time":2989000000000,"state":"active","ping":85},{"user_id":387,"name":"rumes","steam_id":76561198349219467,"connected_time":152000000000,"state":"active","ping":66},{"user_id":373,"name":"bladees saddest, realest verse","steam_id":76561198098099826,"connected_time":1439000000000,"state":"active","ping":87},{"user_id":374,"name":"Poop_toast","steam_id":76561199251933053,"connected_time":1431000000000,"state":"active","ping":104},{"user_id":345,"name":"s a d b o y s","steam_id":76561198037481669,"connected_time":3031000000000,"state":"active","ping":79},{"user_id":363,"name":"PhobixTheThing","steam_id":76561199059009386,"connected_time":1926000000000,"state":"active","ping":64},{"user_id":388,"name":"Cinnifox","steam_id":76561198068773971,"connected_time":149000000000,"state":"active","ping":75},{"user_id":379,"name":"Villain","steam_id":76561199063907319,"connected_time":1109000000000,"state":"active","ping":55},{"user_id":350,"name":"vi","steam_id":76561198388123421,"connected_time":2941000000000,"state":"active","ping":89},{"user_id":366,"name":"sithreis","steam_id":76561198000564263,"connected_time":1875000000000,"state":"active","ping":74},{"user_id":380,"name":"Nyplestheclown","steam_id":76561198028600291,"connected_time":1029000000000,"state":"active","ping":50},{"user_id":382,"name":"white woman","steam_id":76561199116679777,"connected_time":817000000000,"state":"active","ping":77},{"user_id":294,"name":"walmart","steam_id":76561199051524205,"connected_time":7236000000000,"state":"active","ping":35},{"user_id":367,"name":"lanoc","steam_id":76561198055415367,"connected_time":1865000000000,"state":"active","ping":59},{"user_id":384,"name":"horsie ·É¶","steam_id":76561198323217150,"connected_time":528000000000,"state":"active","ping":45}]},{"server_id":5,"name":"Uncletopia | Frankfurt | 1 | All Maps","name_short":"frk-1","host":"frk-1.de.uncletopia.com","port":27015,"enabled":true,"region":"eu","cc":"de","latitude":50.110924,"longitude":8.682127,"reserved":0,"last_update":"0001-01-01T00:00:00Z","name_a2s":"Uncletopia | Frankfurt | 1 | All Maps","protocol":17,"map":"pl_barnblitz","folder":"tf","game":"Team Fortress","app_id":440,"player_count":0,"max_players":24,"Bots":0,"server_type":"Dedicated","server_os":"Linux","password":true,"vac":true,"version":"7882260","steam_id":85568392924469989,"keywords":["nocrits","nodmgspread","payload","uncletopia"],"game_id":440,"stv_port":27016,"stv_name":"Uncletopia | Frankfurt | 1 | All Maps | STV","players":null},{"server_id":110,"name":"Uncletopia | Frankfurt | 2 | All Maps","name_short":"frk-2","host":"frk-1.de.uncletopia.com","port":27025,"enabled":true,"region":"eu","cc":"de","latitude":50.110924,"longitude":8.682127,"reserved":0,"last_update":"0001-01-01T00:00:00Z","name_a2s":"Uncletopia | Frankfurt | 2 | All Maps","protocol":17,"map":"koth_viaduct","folder":"tf","game":"Team Fortress","app_id":440,"player_count":0,"max_players":24,"Bots":0,"server_type":"Dedicated","server_os":"Linux","password":true,"vac":true,"version":"7882260","steam_id":85568392924469990,"keywords":["cp","nocrits","nodmgspread","uncletopia"],"game_id":440,"stv_port":27026,"stv_name":"Uncletopia | Frankfurt | 2 | All Maps | STV","players":null},{"server_id":308,"name":"Uncletopia | Frankfurt | 3 | All Maps","name_short":"frk-3","host":"frk-1.de.uncletopia.com","port":27035,"enabled":true,"region":"eu","cc":"de","latitude":50.110924,"longitude":8.682127,"reserved":0,"last_update":"0001-01-01T00:00:00Z","name_a2s":"Uncletopia | Frankfurt | 3 | All Maps","protocol":17,"map":"ctf_well","folder":"tf","game":"Team Fortress","app_id":440,"player_count":22,"max_players":24,"Bots":0,"server_type":"Dedicated","server_os":"Linux","password":true,"vac":true,"version":"7882260","steam_id":85568392924504274,"keywords":["ctf","nocrits","nodmgspread","uncletopia"],"game_id":440,"stv_port":27036,"stv_name":"Uncletopia | Frankfurt | 3 | All Maps | STV","players":[{"user_id":589,"name":"Yo Mama OFFICIAL","steam_id":76561198070093602,"connected_time":344000000000,"state":"active","ping":80},{"user_id":586,"name":"Jucatron","steam_id":76561198044259577,"connected_time":552000000000,"state":"active","ping":90},{"user_id":542,"name":"ShovelHero","steam_id":76561198086869029,"connected_time":3417000000000,"state":"active","ping":49},{"user_id":545,"name":"LIGHTWEIGHT BABY","steam_id":76561198002761980,"connected_time":3207000000000,"state":"active","ping":59},{"user_id":585,"name":"BLACKBIRD CLOSE [she/her]","steam_id":76561198262910410,"connected_time":627000000000,"state":"active","ping":90},{"user_id":576,"name":"\u003c3","steam_id":76561199429407130,"connected_time":1369000000000,"state":"active","ping":86},{"user_id":592,"name":"Vehk","steam_id":76561198839658910,"connected_time":168000000000,"state":"active","ping":54},{"user_id":553,"name":"why rum gone","steam_id":76561198158484784,"connected_time":2780000000000,"state":"active","ping":60},{"user_id":528,"name":"Matteo Il Biondo","steam_id":76561198315389475,"connected_time":4509000000000,"state":"active","ping":81},{"user_id":583,"name":"Jargo","steam_id":76561198064231790,"connected_time":958000000000,"state":"active","ping":86},{"user_id":541,"name":"Intruder","steam_id":76561198156128173,"connected_time":3668000000000,"state":"active","ping":77},{"user_id":590,"name":"Chucken","steam_id":76561198063067396,"connected_time":302000000000,"state":"active","ping":72},{"user_id":587,"name":"Hleno","steam_id":76561198060442619,"connected_time":545000000000,"state":"active","ping":45},{"user_id":555,"name":"Raufaser","steam_id":76561199266632227,"connected_time":2726000000000,"state":"active","ping":55},{"user_id":558,"name":"Real Lad‚Ñ¢","steam_id":76561198053730933,"connected_time":2609000000000,"state":"active","ping":72},{"user_id":584,"name":"SHARA–ìA","steam_id":76561198145055526,"connected_time":815000000000,"state":"active","ping":107},{"user_id":557,"name":"OREO","steam_id":76561199229118371,"connected_time":2695000000000,"state":"active","ping":120},{"user_id":591,"name":"3igen3ggy","steam_id":76561197989548015,"connected_time":242000000000,"state":"active","ping":66},{"user_id":574,"name":"Orbit","steam_id":76561198242999878,"connected_time":1787000000000,"state":"active","ping":68},{"user_id":539,"name":"BoBunny McGlitter","steam_id":76561198057403817,"connected_time":4095000000000,"state":"active","ping":71},{"user_id":575,"name":"Floris","steam_id":76561198001717422,"connected_time":1786000000000,"state":"active","ping":66},{"user_id":544,"name":"Spectral Sloth","steam_id":76561198170083139,"connected_time":3278000000000,"state":"active","ping":85}]},{"server_id":309,"name":"Uncletopia | Frankfurt | 4 | All Maps","name_short":"frk-4","host":"frk-1.de.uncletopia.com","port":27045,"enabled":true,"region":"eu","cc":"de","latitude":50.110924,"longitude":8.682127,"reserved":0,"last_update":"0001-01-01T00:00:00Z","name_a2s":"Uncletopia | Frankfurt | 4 | All Maps","protocol":17,"map":"cp_altitude","folder":"tf","game":"Team Fortress","app_id":440,"player_count":0,"max_players":24,"Bots":0,"server_type":"Dedicated","server_os":"Linux","password":true,"vac":true,"version":"7882260","steam_id":85568392924504275,"keywords":["cp","nocrits","nodmgspread","uncletopia"],"game_id":440,"stv_port":27046,"stv_name":"Uncletopia | Frankfurt | 4 | All Maps | STV","players":null},{"server_id":310,"name":"Uncletopia | Frankfurt | 5 | All Maps","name_short":"frk-5","host":"frk-1.de.uncletopia.com","port":27055,"enabled":true,"region":"eu","cc":"de","latitude":50.110924,"longitude":8.682127,"reserved":0,"last_update":"0001-01-01T00:00:00Z","name_a2s":"Uncletopia | Frankfurt | 5 | All Maps","protocol":17,"map":"pl_frontier_final","folder":"tf","game":"Team Fortress","app_id":440,"player_count":24,"max_players":24,"Bots":0,"server_type":"Dedicated","server_os":"Linux","password":true,"vac":true,"version":"7882260","steam_id":85568392924504277,"keywords":["nocrits","nodmgspread","payload","uncletopia"],"game_id":440,"stv_port":27056,"stv_name":"Uncletopia | Frankfurt | 5 | All Maps | STV","players":[{"user_id":472,"name":"Krocon","steam_id":76561198084906316,"connected_time":5661000000000,"state":"active","ping":76},{"user_id":469,"name":"woop","steam_id":76561198985105074,"connected_time":5778000000000,"state":"active","ping":78},{"user_id":508,"name":"pvtemback","steam_id":76561198887302382,"connected_time":3787000000000,"state":"active","ping":81},{"user_id":545,"name":"madijo","steam_id":76561198012617400,"connected_time":1496000000000,"state":"active","ping":59},{"user_id":420,"name":"Ostara","steam_id":76561198200054489,"connected_time":8185000000000,"state":"active","ping":69},{"user_id":421,"name":"Kelpy G gaming","steam_id":76561198056995633,"connected_time":8177000000000,"state":"active","ping":73},{"user_id":536,"name":"Kick a duck","steam_id":76561198048604631,"connected_time":1781000000000,"state":"active","ping":67},{"user_id":557,"name":"Gene Takovic","steam_id":76561198202990635,"connected_time":500000000000,"state":"active","ping":61},{"user_id":540,"name":"unnamed","steam_id":76561199149307190,"connected_time":1679000000000,"state":"active","ping":75},{"user_id":547,"name":"Agman","steam_id":76561198117646311,"connected_time":1454000000000,"state":"active","ping":80},{"user_id":446,"name":"Droy","steam_id":76561198065854668,"connected_time":7539000000000,"state":"active","ping":60},{"user_id":558,"name":"Reague","steam_id":76561199092175631,"connected_time":269000000000,"state":"active","ping":180},{"user_id":531,"name":"Tin","steam_id":76561198022201818,"connected_time":2265000000000,"state":"active","ping":55},{"user_id":542,"name":"Palp","steam_id":76561198055297549,"connected_time":1597000000000,"state":"active","ping":79},{"user_id":539,"name":"Clubje Be","steam_id":76561198011557774,"connected_time":1707000000000,"state":"active","ping":70},{"user_id":559,"name":"I Bleed Butter","steam_id":76561198130814770,"connected_time":237000000000,"state":"active","ping":76},{"user_id":521,"name":"Steen","steam_id":76561198122992510,"connected_time":3006000000000,"state":"active","ping":45},{"user_id":552,"name":"inebriation of the senses","steam_id":76561198977420882,"connected_time":1074000000000,"state":"active","ping":49},{"user_id":553,"name":"fisch","steam_id":76561198382833003,"connected_time":863000000000,"state":"active","ping":62},{"user_id":543,"name":"Charles Darwin","steam_id":76561197973496139,"connected_time":1526000000000,"state":"active","ping":60},{"user_id":544,"name":"VampiuS","steam_id":76561197998827007,"connected_time":1520000000000,"state":"active","ping":58},{"user_id":546,"name":"teufort resident","steam_id":76561199061893308,"connected_time":1473000000000,"state":"active","ping":96},{"user_id":548,"name":"Mr_Pulse_","steam_id":76561198095001602,"connected_time":1442000000000,"state":"active","ping":96},{"user_id":556,"name":"lacurio","steam_id":76561198059701776,"connected_time":567000000000,"state":"active","ping":47}]},{"server_id":311,"name":"Uncletopia | Frankfurt | 6 | All Maps","name_short":"frk-6","host":"frk-1.de.uncletopia.com","port":27065,"enabled":true,"region":"eu","cc":"de","latitude":50.110924,"longitude":8.682127,"reserved":0,"last_update":"0001-01-01T00:00:00Z","name_a2s":"Uncletopia | Frankfurt | 6 | All Maps","protocol":17,"map":"koth_cascade","folder":"tf","game":"Team Fortress","app_id":440,"player_count":0,"max_players":24,"Bots":0,"server_type":"Dedicated","server_os":"Linux","password":true,"vac":true,"version":"7882260","steam_id":85568392924504278,"keywords":["cp","nocrits","nodmgspread","uncletopia"],"game_id":440,"stv_port":27066,"stv_name":"Uncletopia | Frankfurt | 6 | All Maps | STV","players":null},{"server_id":23,"name":"Uncletopia | Frankfurt | 7 | Stopwatch Beta","name_short":"frk-7","host":"frk-1.de.uncletopia.com","port":27075,"enabled":true,"region":"eu","cc":"de","latitude":50.110924,"longitude":8.682127,"reserved":0,"last_update":"0001-01-01T00:00:00Z","name_a2s":"Uncletopia | Frankfurt | 7 | Stopwatch Beta","protocol":17,"map":"workshop/koth_ashville_final.ugc2130459942","folder":"tf","game":"Team Fortress","app_id":440,"player_count":0,"max_players":24,"Bots":0,"server_type":"Dedicated","server_os":"Linux","password":true,"vac":true,"version":"7882260","steam_id":85568392924742827,"keywords":["cp","nocrits","nodmgspread","uncletopia"],"game_id":440,"stv_port":27076,"stv_name":"Uncletopia | Frankfurt | 7 | Stopwatch Beta | STV","players":null},{"server_id":24,"name":"Uncletopia | Frankfurt | 8 | Community","name_short":"frk-8","host":"frk-1.de.uncletopia.com","port":27085,"enabled":true,"region":"eu","cc":"de","latitude":50.110924,"longitude":8.682127,"reserved":0,"last_update":"0001-01-01T00:00:00Z","name_a2s":"Uncletopia | Frankfurt | 8 | Community","protocol":17,"map":"workshop/pl_emerge_rc2.ugc888027758","folder":"tf","game":"Team Fortress","app_id":440,"player_count":0,"max_players":24,"Bots":0,"server_type":"Dedicated","server_os":"Linux","password":true,"vac":true,"version":"7882260","steam_id":85568392924742828,"keywords":["nocrits","nodmgspread","payload","uncletopia"],"game_id":440,"stv_port":27086,"stv_name":"Uncletopia | Frankfurt | 8 | Community | STV","players":null},{"server_id":202,"name":"Uncletopia | Hong Kong | 1 | All Maps","name_short":"hgk-1","host":"hgk-1.hk.uncletopia.com","port":27015,"enabled":true,"region":"asia","cc":"hk","latitude":22.302711,"longitude":114.177216,"reserved":0,"last_update":"0001-01-01T00:00:00Z","name_a2s":"Uncletopia | Hong Kong | 1 | All Maps","protocol":17,"map":"koth_cascade","folder":"tf","game":"Team Fortress","app_id":440,"player_count":0,"max_players":24,"Bots":0,"server_type":"Dedicated","server_os":"Linux","password":true,"vac":true,"version":"7882260","steam_id":85568392924494504,"keywords":["cp","nocrits","nodmgspread","uncletopia"],"game_id":440,"stv_port":27016,"stv_name":"Uncletopia | Hong Kong | 1 | All Maps | STV","players":null},{"server_id":1,"name":"Uncletopia | Los Angeles | 1 | All Maps","name_short":"lax-1","host":"lax-1.us.uncletopia.com","port":27015,"enabled":true,"region":"us-west","cc":"us","latitude":33.94279,"longitude":-118.41004,"reserved":0,"last_update":"0001-01-01T00:00:00Z","name_a2s":"Uncletopia | Los Angeles | 1 | All Maps","protocol":17,"map":"pl_badwater","folder":"tf","game":"Team Fortress","app_id":440,"player_count":24,"max_players":24,"Bots":0,"server_type":"Dedicated","server_os":"Linux","password":true,"vac":true,"version":"7882260","steam_id":85568392924469991,"keywords":["nocrits","nodmgspread","payload","uncletopia"],"game_id":440,"stv_port":27016,"stv_name":"Uncletopia | Los Angeles | 1 | All Maps | STV","players":[{"user_id":292,"name":"pandoRA","steam_id":76561198075490385,"connected_time":303000000000,"state":"active","ping":45},{"user_id":291,"name":"loader","steam_id":76561199196442823,"connected_time":728000000000,"state":"active","ping":118},{"user_id":234,"name":"rimble","steam_id":76561198150137369,"connected_time":4690000000000,"state":"active","ping":48},{"user_id":282,"name":"confused","steam_id":76561199391930993,"connected_time":1607000000000,"state":"active","ping":45},{"user_id":273,"name":"gumcuzzler","steam_id":76561198118644686,"connected_time":1847000000000,"state":"active","ping":47},{"user_id":160,"name":"ejschild745","steam_id":76561199013388867,"connected_time":12230000000000,"state":"active","ping":103},{"user_id":278,"name":"Honeybunch","steam_id":76561198014850580,"connected_time":1698000000000,"state":"active","ping":69},{"user_id":274,"name":"NotAWeeb","steam_id":76561198165530739,"connected_time":1845000000000,"state":"active","ping":58},{"user_id":293,"name":"Jellojiggler","steam_id":76561198094320477,"connected_time":301000000000,"state":"active","ping":81},{"user_id":172,"name":"Slim Charles","steam_id":76561197981687895,"connected_time":11848000000000,"state":"active","ping":59},{"user_id":266,"name":"SolarusD","steam_id":76561198029279861,"connected_time":2857000000000,"state":"active","ping":51},{"user_id":248,"name":"meisNate","steam_id":76561198215261695,"connected_time":3642000000000,"state":"active","ping":71},{"user_id":254,"name":"Captain Underbelly","steam_id":76561198811270935,"connected_time":3307000000000,"state":"active","ping":84},{"user_id":283,"name":"Supervillain Theme.","steam_id":76561198868600487,"connected_time":1589000000000,"state":"active","ping":103},{"user_id":251,"name":"Gm_Trash","steam_id":76561199445091548,"connected_time":3524000000000,"state":"active","ping":69},{"user_id":252,"name":"MeAmJosh","steam_id":76561198064983436,"connected_time":3439000000000,"state":"active","ping":90},{"user_id":181,"name":"Taunter of Snipers","steam_id":76561198202254225,"connected_time":10490000000000,"state":"active","ping":87},{"user_id":287,"name":"Emm","steam_id":76561198114140235,"connected_time":1181000000000,"state":"active","ping":59},{"user_id":286,"name":"Outer","steam_id":76561199121781498,"connected_time":1468000000000,"state":"active","ping":120},{"user_id":285,"name":"BUSY","steam_id":76561198047532250,"connected_time":1543000000000,"state":"active","ping":80},{"user_id":280,"name":"Sticky","steam_id":76561198031581547,"connected_time":1678000000000,"state":"active","ping":39},{"user_id":281,"name":"franky","steam_id":76561198070903328,"connected_time":1672000000000,"state":"active","ping":111},{"user_id":288,"name":"Jimmy","steam_id":76561198857959855,"connected_time":1149000000000,"state":"active","ping":50},{"user_id":271,"name":"‚òÜAtomic Waffle‚òÜ","steam_id":76561198100385184,"connected_time":2147000000000,"state":"active","ping":64}]},{"server_id":112,"name":"Uncletopia | Los Angeles | 2 | All Maps","name_short":"lax-2","host":"lax-1.us.uncletopia.com","port":27025,"enabled":true,"region":"us-west","cc":"us","latitude":33.94279,"longitude":-118.41004,"reserved":0,"last_update":"0001-01-01T00:00:00Z","name_a2s":"Uncletopia | Los Angeles | 2 | All Maps","protocol":17,"map":"cp_snakewater_final1","folder":"tf","game":"Team Fortress","app_id":440,"player_count":24,"max_players":24,"Bots":0,"server_type":"Dedicated","server_os":"Linux","password":true,"vac":true,"version":"7882260","steam_id":85568392924469992,"keywords":["cp","nocrits","nodmgspread","uncletopia"],"game_id":440,"stv_port":27026,"stv_name":"Uncletopia | Los Angeles | 2 | All Maps | STV","players":[{"user_id":42,"name":"firestabber","steam_id":76561198057055577,"connected_time":20921000000000,"state":"active","ping":65},{"user_id":341,"name":"lasagnalarry12","steam_id":76561198162688146,"connected_time":2073000000000,"state":"active","ping":55},{"user_id":318,"name":"dave.","steam_id":76561198112350449,"connected_time":4189000000000,"state":"active","ping":100},{"user_id":364,"name":"A Can of Arizona Green Tea","steam_id":76561198062481133,"connected_time":893000000000,"state":"active","ping":82},{"user_id":342,"name":"Joe Biden TF2","steam_id":76561198837570484,"connected_time":2068000000000,"state":"active","ping":49},{"user_id":343,"name":"Dog","steam_id":76561198450992953,"connected_time":2058000000000,"state":"active","ping":54},{"user_id":378,"name":"glue","steam_id":76561198382076026,"connected_time":203000000000,"state":"active","ping":49},{"user_id":375,"name":"nav","steam_id":76561198872608266,"connected_time":515000000000,"state":"active","ping":114},{"user_id":321,"name":"Lord Scrubling","steam_id":76561198263744445,"connected_time":3830000000000,"state":"active","ping":74},{"user_id":377,"name":"4903726023","steam_id":76561199384861214,"connected_time":275000000000,"state":"active","ping":117},{"user_id":373,"name":"Ekyanso","steam_id":76561198204993920,"connected_time":585000000000,"state":"active","ping":102},{"user_id":366,"name":"yahweh","steam_id":76561198347225801,"connected_time":864000000000,"state":"active","ping":86},{"user_id":358,"name":"themadlad67","steam_id":76561199309554436,"connected_time":1153000000000,"state":"active","ping":67},{"user_id":346,"name":"KOJAKK","steam_id":76561199060841878,"connected_time":2013000000000,"state":"active","ping":69},{"user_id":374,"name":"Phan","steam_id":76561199016230960,"connected_time":583000000000,"state":"active","ping":64},{"user_id":348,"name":"FI LO","steam_id":76561198976530881,"connected_time":1989000000000,"state":"active","ping":43},{"user_id":349,"name":"PENGEST","steam_id":76561198202605381,"connected_time":1987000000000,"state":"active","ping":45},{"user_id":380,"name":"Chapsan","steam_id":76561198272663952,"connected_time":9000000000,"state":"spawning","ping":195},{"user_id":351,"name":"your local birb","steam_id":76561198094522490,"connected_time":1953000000000,"state":"active","ping":69},{"user_id":379,"name":"indyjacob","steam_id":76561198065158713,"connected_time":134000000000,"state":"active","ping":65},{"user_id":367,"name":"jeff_fan","steam_id":76561198086420687,"connected_time":862000000000,"state":"active","ping":87},{"user_id":328,"name":"John Wick's puppy","steam_id":76561198064662875,"connected_time":3404000000000,"state":"active","ping":51},{"user_id":368,"name":"please stand still plz","steam_id":76561198206922028,"connected_time":857000000000,"state":"active","ping":52},{"user_id":376,"name":"Mikeonut","steam_id":76561198305752102,"connected_time":505000000000,"state":"active","ping":54}]},{"server_id":324,"name":"Uncletopia | Los Angeles | 3 | All Maps","name_short":"lax-3","host":"lax-1.us.uncletopia.com","port":27035,"enabled":true,"region":"us-west","cc":"us","latitude":33.94279,"longitude":-118.41004,"reserved":0,"last_update":"0001-01-01T00:00:00Z","name_a2s":"Uncletopia | Los Angeles | 3 | All Maps","protocol":17,"map":"koth_lakeside_final","folder":"tf","game":"Team Fortress","app_id":440,"player_count":0,"max_players":24,"Bots":0,"server_type":"Dedicated","server_os":"Linux","password":true,"vac":true,"version":"7882260","steam_id":85568392924510198,"keywords":["cp","nocrits","nodmgspread","uncletopia"],"game_id":440,"stv_port":27036,"stv_name":"Uncletopia | Los Angeles | 3 | All Maps | STV","players":null},{"server_id":25,"name":"Uncletopia | Los Angeles | 4 | Stopwatch Beta","name_short":"lax-4","host":"lax-1.us.uncletopia.com","port":27045,"enabled":true,"region":"us-west","cc":"us","latitude":33.94279,"longitude":-118.41004,"reserved":0,"last_update":"0001-01-01T00:00:00Z","name_a2s":"Uncletopia | Los Angeles | 4 | Stopwatch Beta","protocol":17,"map":"koth_lakeside_final","folder":"tf","game":"Team Fortress","app_id":440,"player_count":0,"max_players":24,"Bots":0,"server_type":"Dedicated","server_os":"Linux","password":true,"vac":true,"version":"7882260","steam_id":85568392924510199,"keywords":["cp","nocrits","nodmgspread","uncletopia"],"game_id":440,"stv_port":27046,"stv_name":"Uncletopia | Los Angeles | 4 | Stopwatch Beta | STV","players":null},{"server_id":11,"name":"Uncletopia | London | 1 | All Maps","name_short":"lon-1","host":"lon-1.uk.uncletopia.com","port":27015,"enabled":true,"region":"eu","cc":"gb","latitude":51.509865,"longitude":-0.118092,"reserved":0,"last_update":"0001-01-01T00:00:00Z","name_a2s":"Uncletopia | London | 1 | All Maps","protocol":17,"map":"pl_frontier_final","folder":"tf","game":"Team Fortress","app_id":440,"player_count":23,"max_players":24,"Bots":0,"server_type":"Dedicated","server_os":"Linux","password":true,"vac":true,"version":"7882260","steam_id":85568392924367362,"keywords":["nocrits","nodmgspread","payload","uncletopia"],"game_id":440,"stv_port":27016,"stv_name":"Uncletopia | London | 1 | All Maps | STV","players":[{"user_id":758,"name":"sora :3","steam_id":76561198096547662,"connected_time":4694000000000,"state":"active","ping":58},{"user_id":795,"name":"nikkielmao","steam_id":76561198086229832,"connected_time":2419000000000,"state":"active","ping":60},{"user_id":802,"name":"JimBow","steam_id":76561197999788359,"connected_time":1957000000000,"state":"active","ping":70},{"user_id":813,"name":"Aroo","steam_id":76561198132601368,"connected_time":768000000000,"state":"active","ping":76},{"user_id":814,"name":"Anri Okita's Massive Milkers","steam_id":76561199186352720,"connected_time":747000000000,"state":"active","ping":59},{"user_id":816,"name":"Caerot","steam_id":76561198839000676,"connected_time":698000000000,"state":"active","ping":74},{"user_id":763,"name":"Hoff","steam_id":76561198026537318,"connected_time":4177000000000,"state":"active","ping":38},{"user_id":811,"name":"Maya","steam_id":76561198128616615,"connected_time":890000000000,"state":"active","ping":74},{"user_id":812,"name":"Moon","steam_id":76561198808108594,"connected_time":851000000000,"state":"active","ping":92},{"user_id":777,"name":"KittyKate ‚ù§","steam_id":76561198116340817,"connected_time":3431000000000,"state":"active","ping":60},{"user_id":815,"name":"Adrheus","steam_id":76561198149775630,"connected_time":742000000000,"state":"active","ping":75},{"user_id":791,"name":"teddy","steam_id":76561198007436837,"connected_time":2686000000000,"state":"active","ping":45},{"user_id":790,"name":"Aaron","steam_id":76561197990046953,"connected_time":2688000000000,"state":"active","ping":53},{"user_id":817,"name":"raxy","steam_id":76561199034686718,"connected_time":673000000000,"state":"active","ping":53},{"user_id":739,"name":"Eidolon","steam_id":76561198043919565,"connected_time":5964000000000,"state":"active","ping":68},{"user_id":799,"name":"sriracha..","steam_id":76561198005560221,"connected_time":2171000000000,"state":"active","ping":85},{"user_id":779,"name":"BuzzBees ‚ù§","steam_id":76561198101502273,"connected_time":3410000000000,"state":"active","ping":60},{"user_id":805,"name":"vadr","steam_id":76561198334528186,"connected_time":1841000000000,"state":"active","ping":45},{"user_id":734,"name":"something","steam_id":76561198198581615,"connected_time":6220000000000,"state":"active","ping":59},{"user_id":757,"name":"BreadBubbles","steam_id":76561198174332826,"connected_time":4776000000000,"state":"active","ping":63},{"user_id":768,"name":"JeanCorben","steam_id":76561197965133561,"connected_time":3950000000000,"state":"active","ping":41},{"user_id":796,"name":"Acbh","steam_id":76561198158271672,"connected_time":2340000000000,"state":"active","ping":74},{"user_id":807,"name":"SERIAL_CODE","steam_id":76561197981488663,"connected_time":1424000000000,"state":"active","ping":47}]},{"server_id":114,"name":"Uncletopia | London | 2 | All Maps","name_short":"lon-2","host":"lon-1.uk.uncletopia.com","port":27025,"enabled":true,"region":"eu","cc":"gb","latitude":51.509865,"longitude":-0.118092,"reserved":0,"last_update":"0001-01-01T00:00:00Z","name_a2s":"Uncletopia | London | 2 | All Maps","protocol":17,"map":"pl_swiftwater_final1","folder":"tf","game":"Team Fortress","app_id":440,"player_count":24,"max_players":24,"Bots":0,"server_type":"Dedicated","server_os":"Linux","password":true,"vac":true,"version":"7882260","steam_id":85568392924470941,"keywords":["nocrits","nodmgspread","payload","uncletopia"],"game_id":440,"stv_port":27026,"stv_name":"Uncletopia | London | 2 | All Maps | STV","players":[{"user_id":685,"name":"dotdotdot","steam_id":76561198057628751,"connected_time":740000000000,"state":"active","ping":65},{"user_id":695,"name":"batman gaming","steam_id":76561198120569764,"connected_time":198000000000,"state":"active","ping":131},{"user_id":679,"name":"harryhux","steam_id":76561198228052940,"connected_time":834000000000,"state":"active","ping":23},{"user_id":688,"name":"tralalaOuiOui","steam_id":76561197963471507,"connected_time":372000000000,"state":"active","ping":50},{"user_id":689,"name":"pigswill","steam_id":76561197999081865,"connected_time":368000000000,"state":"active","ping":135},{"user_id":692,"name":"0lloe","steam_id":76561198070861443,"connected_time":233000000000,"state":"active","ping":54},{"user_id":669,"name":"Yelowchy","steam_id":76561198199416121,"connected_time":2572000000000,"state":"active","ping":73},{"user_id":649,"name":"rets","steam_id":76561198061551392,"connected_time":5059000000000,"state":"active","ping":57},{"user_id":670,"name":"Laylakikio","steam_id":76561198090146457,"connected_time":2567000000000,"state":"active","ping":42},{"user_id":699,"name":"Spee","steam_id":76561199228878227,"connected_time":103000000000,"state":"active","ping":101},{"user_id":638,"name":"Orange :p","steam_id":76561198963378933,"connected_time":5795000000000,"state":"active","ping":43},{"user_id":677,"name":"Rigel","steam_id":76561197993641284,"connected_time":901000000000,"state":"active","ping":45},{"user_id":700,"name":"klaus","steam_id":76561198150394201,"connected_time":75000000000,"state":"active","ping":85},{"user_id":697,"name":"svantezch","steam_id":76561198373831657,"connected_time":180000000000,"state":"active","ping":90},{"user_id":654,"name":"nuke_de","steam_id":76561198859193688,"connected_time":4242000000000,"state":"active","ping":62},{"user_id":461,"name":"Rappin' Sebastian","steam_id":76561198453928256,"connected_time":17522000000000,"state":"active","ping":64},{"user_id":682,"name":"jiggy","steam_id":76561198084559686,"connected_time":799000000000,"state":"active","ping":49},{"user_id":657,"name":"THE SASQUATCH","steam_id":76561198197606282,"connected_time":4108000000000,"state":"active","ping":38},{"user_id":634,"name":"Brian","steam_id":76561198077756206,"connected_time":5827000000000,"state":"active","ping":44},{"user_id":672,"name":"Well, off to hang myself","steam_id":76561198053374944,"connected_time":1971000000000,"state":"active","ping":67},{"user_id":666,"name":"tone","steam_id":76561197975301462,"connected_time":2703000000000,"state":"active","ping":54},{"user_id":696,"name":"Cleaner 0-1 | Ichinose Asuna","steam_id":76561198985309519,"connected_time":198000000000,"state":"active","ping":62},{"user_id":628,"name":"WE HAVE MR HIGHLANDER","steam_id":76561198798803845,"connected_time":6383000000000,"state":"active","ping":45},{"user_id":698,"name":"Accident","steam_id":76561198037232641,"connected_time":168000000000,"state":"active","ping":66}]},{"server_id":320,"name":"Uncletopia | London | 3 | All Maps","name_short":"lon-3","host":"lon-1.uk.uncletopia.com","port":27035,"enabled":true,"region":"eu","cc":"gb","latitude":51.509865,"longitude":-0.118092,"reserved":0,"last_update":"0001-01-01T00:00:00Z","name_a2s":"Uncletopia | London | 3 | All Maps","protocol":17,"map":"pl_upward","folder":"tf","game":"Team Fortress","app_id":440,"player_count":23,"max_players":24,"Bots":0,"server_type":"Dedicated","server_os":"Linux","password":true,"vac":true,"version":"7882260","steam_id":85568392924510192,"keywords":["nocrits","nodmgspread","payload","uncletopia"],"game_id":440,"stv_port":27036,"stv_name":"Uncletopia | London | 3 | All Maps | STV","players":[{"user_id":629,"name":"Sentry Man","steam_id":76561198088417596,"connected_time":1261000000000,"state":"active","ping":69},{"user_id":630,"name":"GrassHopper","steam_id":76561198201371821,"connected_time":1189000000000,"state":"active","ping":65},{"user_id":659,"name":"Homebound","steam_id":76561198531978435,"connected_time":138000000000,"state":"active","ping":85},{"user_id":637,"name":"Joel!","steam_id":76561198155422742,"connected_time":1010000000000,"state":"active","ping":60},{"user_id":660,"name":"Yann","steam_id":76561198119514073,"connected_time":103000000000,"state":"active","ping":80},{"user_id":625,"name":"FADe","steam_id":76561197960400908,"connected_time":1627000000000,"state":"active","ping":43},{"user_id":626,"name":"WOW i'm dead","steam_id":76561199082267619,"connected_time":1610000000000,"state":"active","ping":105},{"user_id":627,"name":"Ran33","steam_id":76561197991474499,"connected_time":1563000000000,"state":"active","ping":84},{"user_id":643,"name":"Nipsu","steam_id":76561198127660207,"connected_time":760000000000,"state":"active","ping":78},{"user_id":661,"name":"Rizzatoni","steam_id":76561199122039328,"connected_time":84000000000,"state":"active","ping":160},{"user_id":641,"name":"ElElliot","steam_id":76561198842278840,"connected_time":804000000000,"state":"active","ping":116},{"user_id":607,"name":"Sta≈Ñczyk","steam_id":76561197998906563,"connected_time":4035000000000,"state":"active","ping":41},{"user_id":662,"name":"threesystem","steam_id":76561198092435877,"connected_time":82000000000,"state":"spawning","ping":44},{"user_id":635,"name":"sHIFTINGvORTEX","steam_id":76561198231648332,"connected_time":1074000000000,"state":"active","ping":60},{"user_id":645,"name":"Mael\u003c3","steam_id":76561197996852498,"connected_time":756000000000,"state":"active","ping":62},{"user_id":639,"name":"LMB_10000","steam_id":76561198009780203,"connected_time":886000000000,"state":"active","ping":85},{"user_id":656,"name":"Shut yo goat mouth ass up","steam_id":76561198045005030,"connected_time":500000000000,"state":"active","ping":161},{"user_id":646,"name":"Mr.killer","steam_id":76561198290584189,"connected_time":756000000000,"state":"active","ping":81},{"user_id":649,"name":"The Looker","steam_id":76561198197055371,"connected_time":629000000000,"state":"active","ping":167},{"user_id":663,"name":"Auro","steam_id":76561198224421624,"connected_time":70000000000,"state":"active","ping":45},{"user_id":664,"name":"Yonas","steam_id":76561199441196540,"connected_time":48000000000,"state":"active","ping":65},{"user_id":665,"name":"clcraven","steam_id":76561198004637699,"connected_time":37000000000,"state":"active","ping":47},{"user_id":654,"name":"jonbob","steam_id":76561197963506620,"connected_time":555000000000,"state":"active","ping":49}]},{"server_id":321,"name":"Uncletopia | London | 4 | All Maps","name_short":"lon-4","host":"lon-1.uk.uncletopia.com","port":27045,"enabled":true,"region":"eu","cc":"gb","latitude":51.509865,"longitude":-0.118092,"reserved":0,"last_update":"0001-01-01T00:00:00Z","name_a2s":"Uncletopia | London | 4 | All Maps","protocol":17,"map":"koth_highpass","folder":"tf","game":"Team Fortress","app_id":440,"player_count":0,"max_players":24,"Bots":0,"server_type":"Dedicated","server_os":"Linux","password":true,"vac":true,"version":"7882260","steam_id":85568392924510193,"keywords":["cp","nocrits","nodmgspread","uncletopia"],"game_id":440,"stv_port":27046,"stv_name":"Uncletopia | London | 4 | All Maps | STV","players":null},{"server_id":21,"name":"Uncletopia | London | 5 | All Maps","name_short":"lon-5","host":"lon-1.uk.uncletopia.com","port":27055,"enabled":true,"region":"eu","cc":"gb","latitude":51.509865,"longitude":-0.118092,"reserved":0,"last_update":"0001-01-01T00:00:00Z","name_a2s":"Uncletopia | London | 5 | All Maps","protocol":17,"map":"pl_thundermountain","folder":"tf","game":"Team Fortress","app_id":440,"player_count":24,"max_players":24,"Bots":0,"server_type":"Dedicated","server_os":"Linux","password":true,"vac":true,"version":"7882260","steam_id":85568392924742829,"keywords":["nocrits","nodmgspread","payload","uncletopia"],"game_id":440,"stv_port":27056,"stv_name":"Uncletopia | London | 5 | All Maps | STV","players":[{"user_id":533,"name":"Dakeyras","steam_id":76561198057069564,"connected_time":3960000000000,"state":"active","ping":99},{"user_id":535,"name":"ScaryTree","steam_id":76561199384362833,"connected_time":3888000000000,"state":"active","ping":55},{"user_id":528,"name":"Nugget","steam_id":76561198338916407,"connected_time":4243000000000,"state":"active","ping":72},{"user_id":552,"name":"49belowzero","steam_id":76561198108177252,"connected_time":1991000000000,"state":"active","ping":171},{"user_id":474,"name":"rob","steam_id":76561198122211848,"connected_time":7125000000000,"state":"active","ping":90},{"user_id":561,"name":"Agartha Dweller","steam_id":76561198076881381,"connected_time":1154000000000,"state":"active","ping":72},{"user_id":530,"name":"I LOVE POLAND","steam_id":76561198871136698,"connected_time":4207000000000,"state":"active","ping":44},{"user_id":542,"name":"Famous Anus","steam_id":76561198413675639,"connected_time":3571000000000,"state":"active","ping":68},{"user_id":566,"name":"hungry little man","steam_id":76561199229110612,"connected_time":16000000000,"state":"active","ping":55},{"user_id":560,"name":"Jude!","steam_id":76561197983597798,"connected_time":1254000000000,"state":"active","ping":39},{"user_id":559,"name":"Bounter","steam_id":76561198072614188,"connected_time":1298000000000,"state":"active","ping":76},{"user_id":563,"name":"Mabert","steam_id":76561198436058407,"connected_time":285000000000,"state":"active","ping":81},{"user_id":564,"name":"Marquis de Hoto","steam_id":76561198080687708,"connected_time":266000000000,"state":"active","ping":78},{"user_id":565,"name":"U1F","steam_id":76561198053700703,"connected_time":222000000000,"state":"active","ping":40},{"user_id":532,"name":"Ixsus\u003c3","steam_id":76561198094756869,"connected_time":4038000000000,"state":"active","ping":60},{"user_id":562,"name":"=flashpoint=","steam_id":76561197976774456,"connected_time":1073000000000,"state":"active","ping":45},{"user_id":520,"name":"SoupER","steam_id":76561198063056668,"connected_time":4502000000000,"state":"active","ping":51},{"user_id":554,"name":"Lucan","steam_id":76561198219195135,"connected_time":1965000000000,"state":"active","ping":49},{"user_id":553,"name":"Carol Olston","steam_id":76561198080257273,"connected_time":1978000000000,"state":"active","ping":37},{"user_id":548,"name":"Antifaschistischer","steam_id":76561198452588605,"connected_time":3074000000000,"state":"active","ping":67},{"user_id":558,"name":"Aleyway","steam_id":76561198799137475,"connected_time":1399000000000,"state":"active","ping":56},{"user_id":524,"name":"Finn","steam_id":76561198179960193,"connected_time":4367000000000,"state":"active","ping":39},{"user_id":525,"name":"sarii ‚òÜ","steam_id":76561199155102111,"connected_time":4347000000000,"state":"active","ping":82},{"user_id":538,"name":"shadow39344","steam_id":76561198090639618,"connected_time":3838000000000,"state":"active","ping":66}]},{"server_id":22,"name":"Uncletopia | London | 6 | All Maps","name_short":"lon-6","host":"lon-1.uk.uncletopia.com","port":27065,"enabled":true,"region":"eu","cc":"gb","latitude":51.509865,"longitude":-0.118092,"reserved":0,"last_update":"0001-01-01T00:00:00Z","name_a2s":"Uncletopia | London | 6 | All Maps","protocol":17,"map":"pl_snowycoast","folder":"tf","game":"Team Fortress","app_id":440,"player_count":12,"max_players":24,"Bots":0,"server_type":"Dedicated","server_os":"Linux","password":true,"vac":true,"version":"7882260","steam_id":85568392924742830,"keywords":["nocrits","nodmgspread","payload","uncletopia"],"game_id":440,"stv_port":27066,"stv_name":"Uncletopia | London | 6 | All Maps | STV","players":[{"user_id":792,"name":"Kahvi","steam_id":76561198723244199,"connected_time":1426000000000,"state":"active","ping":73},{"user_id":809,"name":"murf","steam_id":76561199184831395,"connected_time":1000000000,"state":"spawning","ping":32},{"user_id":805,"name":"LxZurk","steam_id":76561198114054978,"connected_time":1060000000000,"state":"active","ping":61},{"user_id":791,"name":"UGH!","steam_id":76561198004335297,"connected_time":1507000000000,"state":"active","ping":53},{"user_id":788,"name":"‚ô¶YankeeWithNoBrim‚ô¶","steam_id":76561199029000960,"connected_time":1868000000000,"state":"active","ping":59},{"user_id":797,"name":"Rizz","steam_id":76561198192135953,"connected_time":1314000000000,"state":"active","ping":74},{"user_id":806,"name":"Captain Scrumpe","steam_id":76561198032206577,"connected_time":1020000000000,"state":"active","ping":81},{"user_id":784,"name":"Mi Manchi","steam_id":76561198171573129,"connected_time":2889000000000,"state":"active","ping":60},{"user_id":785,"name":"big carrot field. growing well","steam_id":76561198069649097,"connected_time":2886000000000,"state":"connecting","ping":140},{"user_id":801,"name":"Overhealing Gay","steam_id":76561198325518460,"connected_time":1276000000000,"state":"active","ping":59},{"user_id":749,"name":"Into Extra Icky","steam_id":76561198067204908,"connected_time":7467000000000,"state":"active","ping":53},{"user_id":780,"name":"Xiqui","steam_id":76561198818386611,"connected_time":3353000000000,"state":"active","ping":79}]},{"server_id":40,"name":"Uncletopia | London | 7 | No Payload","name_short":"lon-7","host":"lon-1.uk.uncletopia.com","port":27075,"enabled":true,"region":"eu","cc":"gb","latitude":51.509865,"longitude":-0.118092,"reserved":0,"last_update":"0001-01-01T00:00:00Z","name_a2s":"Uncletopia | London | 7 | No Payload","protocol":17,"map":"koth_lazarus","folder":"tf","game":"Team Fortress","app_id":440,"player_count":23,"max_players":24,"Bots":0,"server_type":"Dedicated","server_os":"Linux","password":true,"vac":true,"version":"7882260","steam_id":85568392924964314,"keywords":["cp","nocrits","nodmgspread","uncletopia"],"game_id":440,"stv_port":27076,"stv_name":"Uncletopia | London | 7 | No Payload | STV","players":[{"user_id":744,"name":"Gimli","steam_id":76561198004149706,"connected_time":5473000000000,"state":"active","ping":65},{"user_id":791,"name":"Garoiop","steam_id":76561198082326459,"connected_time":1207000000000,"state":"active","ping":34},{"user_id":793,"name":"Drunk mann","steam_id":76561199240999139,"connected_time":837000000000,"state":"active","ping":62},{"user_id":794,"name":"Have A Blessed Day","steam_id":76561198030956814,"connected_time":817000000000,"state":"active","ping":77},{"user_id":795,"name":"Plow cheese","steam_id":76561198142478067,"connected_time":729000000000,"state":"active","ping":78},{"user_id":796,"name":"Alpha","steam_id":76561198133229149,"connected_time":708000000000,"state":"active","ping":96},{"user_id":801,"name":"nicco","steam_id":76561198046217866,"connected_time":533000000000,"state":"active","ping":59},{"user_id":790,"name":"Kibby","steam_id":76561197990056450,"connected_time":1292000000000,"state":"active","ping":54},{"user_id":761,"name":"Gnomes","steam_id":76561198093510773,"connected_time":3059000000000,"state":"active","ping":54},{"user_id":762,"name":"JonnyBain","steam_id":76561198090080911,"connected_time":3043000000000,"state":"active","ping":69},{"user_id":763,"name":"CLAPPER","steam_id":76561199061808252,"connected_time":3026000000000,"state":"active","ping":58},{"user_id":785,"name":"Ê°ì ‡∂û¬Æ","steam_id":76561198106121110,"connected_time":1841000000000,"state":"active","ping":67},{"user_id":802,"name":"[BGS] B—óv—ósUA ·óúÀ¨·óú","steam_id":76561198029932939,"connected_time":174000000000,"state":"active","ping":96},{"user_id":773,"name":"An_Evil_Donut","steam_id":76561198209195408,"connected_time":2580000000000,"state":"active","ping":68},{"user_id":799,"name":"Conan","steam_id":76561198158321202,"connected_time":660000000000,"state":"active","ping":64},{"user_id":784,"name":"Prem Nintendogs Player","steam_id":76561197970114051,"connected_time":2005000000000,"state":"active","ping":43},{"user_id":772,"name":"MxQuiteGood","steam_id":76561198069780233,"connected_time":2625000000000,"state":"active","ping":51},{"user_id":800,"name":"OutOfDucks","steam_id":76561198166376227,"connected_time":649000000000,"state":"active","ping":56},{"user_id":788,"name":"Kyan","steam_id":76561198046566697,"connected_time":1575000000000,"state":"active","ping":57},{"user_id":778,"name":"The Subway Scientist","steam_id":76561198193757646,"connected_time":2394000000000,"state":"active","ping":59},{"user_id":728,"name":"Birdseye","steam_id":76561198025852216,"connected_time":6856000000000,"state":"active","ping":60},{"user_id":786,"name":"Dezmin Enjoyer","steam_id":76561198274671599,"connected_time":1707000000000,"state":"active","ping":75},{"user_id":783,"name":"Femboy Portal Radio Uncompresse","steam_id":76561198072320671,"connected_time":2039000000000,"state":"active","ping":34}]},{"server_id":41,"name":"Uncletopia | London | 8 | Community","name_short":"lon-8","host":"lon-1.uk.uncletopia.com","port":27085,"enabled":true,"region":"eu","cc":"gb","latitude":51.509865,"longitude":-0.118092,"reserved":0,"last_update":"0001-01-01T00:00:00Z","name_a2s":"Uncletopia | London | 8 | Community","protocol":17,"map":"workshop/koth_trenchfoot_b1a.ugc731436616","folder":"tf","game":"Team Fortress","app_id":440,"player_count":9,"max_players":24,"Bots":0,"server_type":"Dedicated","server_os":"Linux","password":true,"vac":true,"version":"7882260","steam_id":85568392924964315,"keywords":["cp","nocrits","nodmgspread","uncletopia"],"game_id":440,"stv_port":27086,"stv_name":"Uncletopia | London | 8 | Community | STV","players":[{"user_id":268,"name":"Snowy","steam_id":76561198246544682,"connected_time":638000000000,"state":"active","ping":48},{"user_id":269,"name":"Dave_LTD","steam_id":76561199444506292,"connected_time":465000000000,"state":"active","ping":51},{"user_id":271,"name":"Shnezzberry","steam_id":76561198129615850,"connected_time":5000000000,"state":"spawning","ping":67},{"user_id":199,"name":"Zionel","steam_id":76561198202442224,"connected_time":5831000000000,"state":"active","ping":66},{"user_id":193,"name":"ProDG","steam_id":76561198087728099,"connected_time":6206000000000,"state":"active","ping":51},{"user_id":194,"name":"SolidB_","steam_id":76561198035626468,"connected_time":6169000000000,"state":"active","ping":57},{"user_id":258,"name":"Ramen Kun","steam_id":76561198100070668,"connected_time":1287000000000,"state":"active","ping":83},{"user_id":200,"name":"D4","steam_id":76561198021159800,"connected_time":5810000000000,"state":"active","ping":76},{"user_id":260,"name":"Too toxic","steam_id":76561198189075275,"connected_time":1265000000000,"state":"active","ping":91}]},{"server_id":300,"name":"Uncletopia | Montr√©al | 1 | All Maps","name_short":"mtl-1","host":"mtl-1.ca.uncletopia.com","port":27015,"enabled":true,"region":"us-east","cc":"ca","latitude":45.50889,"longitude":-73.56167,"reserved":0,"last_update":"0001-01-01T00:00:00Z","name_a2s":"Uncletopia | Montr√©al | 1 | All Maps","protocol":17,"map":"pl_borneo","folder":"tf","game":"Team Fortress","app_id":440,"player_count":20,"max_players":24,"Bots":0,"server_type":"Dedicated","server_os":"Linux","password":true,"vac":true,"version":"7882260","steam_id":85568392924500087,"keywords":["nocrits","nodmgspread","payload","uncletopia"],"game_id":440,"stv_port":27016,"stv_name":"Uncletopia | Montr√©al | 1 | All Maps | STV","players":[{"user_id":216,"name":"captain red","steam_id":76561198191587983,"connected_time":3994000000000,"state":"active","ping":112},{"user_id":236,"name":"hashmap","steam_id":76561198043794014,"connected_time":1617000000000,"state":"active","ping":45},{"user_id":248,"name":"SONICHEDGEHOG423","steam_id":76561198070923665,"connected_time":138000000000,"state":"active","ping":94},{"user_id":231,"name":"Muromasa","steam_id":76561198069883531,"connected_time":2303000000000,"state":"active","ping":71},{"user_id":249,"name":"Jimothy Pickens","steam_id":76561199020884797,"connected_time":102000000000,"state":"active","ping":58},{"user_id":247,"name":"DJ Chalice","steam_id":76561197974872458,"connected_time":145000000000,"state":"active","ping":67},{"user_id":237,"name":"tacofever","steam_id":76561198010966507,"connected_time":1611000000000,"state":"active","ping":119},{"user_id":234,"name":"WhoIsFrosty","steam_id":76561198880588117,"connected_time":2116000000000,"state":"active","ping":74},{"user_id":225,"name":"Theodore Roosevelt","steam_id":76561197993295656,"connected_time":3039000000000,"state":"active","ping":61},{"user_id":226,"name":"Doubting Dave","steam_id":76561198066410749,"connected_time":3017000000000,"state":"active","ping":75},{"user_id":246,"name":"burt","steam_id":76561198137548311,"connected_time":311000000000,"state":"active","ping":76},{"user_id":250,"name":"bigtrucker55649","steam_id":76561198288604502,"connected_time":98000000000,"state":"active","ping":69},{"user_id":252,"name":"Gas Can","steam_id":76561198162853003,"connected_time":80000000000,"state":"active","ping":90},{"user_id":239,"name":"Temujin","steam_id":76561198030936583,"connected_time":1448000000000,"state":"active","ping":56},{"user_id":189,"name":"bouncyballs.com","steam_id":76561198236166288,"connected_time":6296000000000,"state":"active","ping":54},{"user_id":240,"name":"xFactr","steam_id":76561198129007422,"connected_time":1415000000000,"state":"active","ping":42},{"user_id":152,"name":"Yep","steam_id":76561198041437251,"connected_time":8183000000000,"state":"active","ping":69},{"user_id":218,"name":"TheGuyWhoPlays","steam_id":76561198277363002,"connected_time":3905000000000,"state":"active","ping":59},{"user_id":233,"name":"Monsieur l'INGENIEUR","steam_id":76561198090504334,"connected_time":2157000000000,"state":"active","ping":62},{"user_id":206,"name":"Phone","steam_id":76561198334357092,"connected_time":5281000000000,"state":"active","ping":78}]},{"server_id":301,"name":"Uncletopia | Montr√©al | 2 | All Maps","name_short":"mtl-2","host":"mtl-1.ca.uncletopia.com","port":27025,"enabled":true,"region":"us-east","cc":"ca","latitude":45.50889,"longitude":-73.56167,"reserved":0,"last_update":"0001-01-01T00:00:00Z","name_a2s":"Uncletopia | Montr√©al | 2 | All Maps","protocol":17,"map":"koth_cascade","folder":"tf","game":"Team Fortress","app_id":440,"player_count":0,"max_players":24,"Bots":0,"server_type":"Dedicated","server_os":"Linux","password":true,"vac":true,"version":"7882260","steam_id":85568392924500088,"keywords":["cp","nocrits","nodmgspread","uncletopia"],"game_id":440,"stv_port":27026,"stv_name":"Uncletopia | Montr√©al | 2 | All Maps | STV","players":null},{"server_id":302,"name":"Uncletopia | Montr√©al | 3 | All Maps","name_short":"mtl-3","host":"mtl-1.ca.uncletopia.com","port":27035,"enabled":true,"region":"us-east","cc":"ca","latitude":45.50889,"longitude":-73.56167,"reserved":0,"last_update":"0001-01-01T00:00:00Z","name_a2s":"Uncletopia | Montr√©al | 3 | All Maps","protocol":17,"map":"koth_highpass","folder":"tf","game":"Team Fortress","app_id":440,"player_count":0,"max_players":24,"Bots":0,"server_type":"Dedicated","server_os":"Linux","password":true,"vac":true,"version":"7882260","steam_id":85568392924500089,"keywords":["cp","nocrits","nodmgspread","uncletopia"],"game_id":440,"stv_port":27036,"stv_name":"Uncletopia | Montr√©al | 3 | All Maps | STV","players":null},{"server_id":303,"name":"Uncletopia | Montr√©al | 4 | No Payload","name_short":"mtl-4","host":"mtl-1.ca.uncletopia.com","port":27045,"enabled":true,"region":"us-east","cc":"ca","latitude":45.50889,"longitude":-73.56167,"reserved":0,"last_update":"0001-01-01T00:00:00Z","name_a2s":"Uncletopia | Montr√©al | 4 | No Payload","protocol":17,"map":"cp_altitude","folder":"tf","game":"Team Fortress","app_id":440,"player_count":0,"max_players":24,"Bots":0,"server_type":"Dedicated","server_os":"Linux","password":true,"vac":true,"version":"7882260","steam_id":85568392924500090,"keywords":["cp","nocrits","nodmgspread","uncletopia"],"game_id":440,"stv_port":27046,"stv_name":"Uncletopia | Montr√©al | 4 | No Payload | STV","players":null},{"server_id":13,"name":"Uncletopia | New York City | 1 | All Maps","name_short":"nyc-1","host":"nyc-1.us.uncletopia.com","port":27015,"enabled":true,"region":"us-east","cc":"us","latitude":40.73061,"longitude":-73.93524,"reserved":0,"last_update":"0001-01-01T00:00:00Z","name_a2s":"Uncletopia | New York City | 1 | All Maps","protocol":17,"map":"pl_frontier_final","folder":"tf","game":"Team Fortress","app_id":440,"player_count":20,"max_players":24,"Bots":0,"server_type":"Dedicated","server_os":"Linux","password":true,"vac":true,"version":"7882260","steam_id":85568392924469993,"keywords":["nocrits","nodmgspread","payload","uncletopia"],"game_id":440,"stv_port":27016,"stv_name":"Uncletopia | New York City | 1 | All Maps | STV","players":[{"user_id":631,"name":"Midlife Crisis Jotaro","steam_id":76561199023562280,"connected_time":869000000000,"state":"active","ping":60},{"user_id":639,"name":"you forgot the sauce","steam_id":76561198387016713,"connected_time":399000000000,"state":"active","ping":62},{"user_id":633,"name":"Rex","steam_id":76561198138365053,"connected_time":705000000000,"state":"active","ping":116},{"user_id":634,"name":"TheHiddenBlade","steam_id":76561199129787866,"connected_time":662000000000,"state":"active","ping":83},{"user_id":647,"name":"champion  turkey","steam_id":76561198151338482,"connected_time":198000000000,"state":"active","ping":50},{"user_id":607,"name":"10KO!","steam_id":76561199134895220,"connected_time":2041000000000,"state":"active","ping":54},{"user_id":640,"name":"Marcel","steam_id":76561199079200901,"connected_time":378000000000,"state":"active","ping":87},{"user_id":649,"name":"average engineer on frontier","steam_id":76561199472362085,"connected_time":154000000000,"state":"active","ping":182},{"user_id":644,"name":"Benis Gonzalez","steam_id":76561198799391259,"connected_time":228000000000,"state":"active","ping":136},{"user_id":645,"name":"Sgt. Satire","steam_id":76561198104193483,"connected_time":226000000000,"state":"active","ping":131},{"user_id":650,"name":"Erectile Dysfunction Gaming","steam_id":76561198349437251,"connected_time":90000000000,"state":"active","ping":55},{"user_id":648,"name":"Shrug","steam_id":76561199188651825,"connected_time":191000000000,"state":"active","ping":108},{"user_id":651,"name":"Slime","steam_id":76561199175440452,"connected_time":87000000000,"state":"active","ping":69},{"user_id":652,"name":"Arthur Morgan","steam_id":76561199185692465,"connected_time":77000000000,"state":"active","ping":58},{"user_id":653,"name":"reatardhole","steam_id":76561198141217941,"connected_time":61000000000,"state":"active","ping":70},{"user_id":654,"name":"theloneflute","steam_id":76561198109316816,"connected_time":59000000000,"state":"active","ping":66},{"user_id":655,"name":"NOTWALTER","steam_id":76561198125464744,"connected_time":53000000000,"state":"active","ping":65},{"user_id":656,"name":"Arty","steam_id":76561198064047186,"connected_time":35000000000,"state":"active","ping":44},{"user_id":657,"name":"SubZeroDestruction","steam_id":76561198145082209,"connected_time":2000000000,"state":"spawning","ping":46},{"user_id":658,"name":"Wiener Hole Paper Cut","steam_id":76561198000808203,"connected_time":1000000000,"state":"spawning","ping":44}]},{"server_id":14,"name":"Uncletopia | New York City | 2 | All Maps","name_short":"nyc-2","host":"nyc-1.us.uncletopia.com","port":27025,"enabled":true,"region":"us-east","cc":"us","latitude":40.73061,"longitude":-73.93524,"reserved":0,"last_update":"0001-01-01T00:00:00Z","name_a2s":"Uncletopia | New York City | 2 | All Maps","protocol":17,"map":"koth_viaduct","folder":"tf","game":"Team Fortress","app_id":440,"player_count":23,"max_players":24,"Bots":0,"server_type":"Dedicated","server_os":"Linux","password":true,"vac":true,"version":"7882260","steam_id":85568392924469994,"keywords":["cp","nocrits","nodmgspread","uncletopia"],"game_id":440,"stv_port":27026,"stv_name":"Uncletopia | New York City | 2 | All Maps | STV","players":[{"user_id":164,"name":"Ugzugzug The Bucket Mann","steam_id":76561198836624330,"connected_time":6970000000000,"state":"active","ping":78},{"user_id":244,"name":"Chiki","steam_id":76561198063590320,"connected_time":1322000000000,"state":"active","ping":73},{"user_id":262,"name":"Person","steam_id":76561198093244204,"connected_time":897000000000,"state":"active","ping":64},{"user_id":242,"name":"Lexabyte","steam_id":76561198065032237,"connected_time":1709000000000,"state":"active","ping":60},{"user_id":248,"name":"Mr. Call You Back","steam_id":76561198025172811,"connected_time":1232000000000,"state":"active","ping":42},{"user_id":247,"name":"0","steam_id":76561198046055673,"connected_time":1246000000000,"state":"active","ping":55},{"user_id":266,"name":"lexi","steam_id":76561198176299759,"connected_time":129000000000,"state":"active","ping":78},{"user_id":265,"name":"Sensitive Shooter","steam_id":76561198041439581,"connected_time":401000000000,"state":"active","ping":57},{"user_id":264,"name":"Johnny Lawrence #JohnnyMaxxing","steam_id":76561199367141671,"connected_time":786000000000,"state":"active","ping":45},{"user_id":251,"name":"That Desert Ranger","steam_id":76561198067702754,"connected_time":1133000000000,"state":"active","ping":74},{"user_id":270,"name":"FliturbiousRex","steam_id":76561199217583334,"connected_time":41000000000,"state":"active","ping":59},{"user_id":253,"name":"Peepster","steam_id":76561198297854733,"connected_time":1087000000000,"state":"active","ping":83},{"user_id":194,"name":"Ferguson","steam_id":76561198121349387,"connected_time":4813000000000,"state":"active","ping":84},{"user_id":255,"name":"ApertureCity","steam_id":76561198004153607,"connected_time":1054000000000,"state":"active","ping":90},{"user_id":215,"name":"Uriel Ruthven #saveTF2","steam_id":76561198004169379,"connected_time":3326000000000,"state":"active","ping":135},{"user_id":268,"name":"Grilled Jizo","steam_id":76561199250875340,"connected_time":101000000000,"state":"active","ping":97},{"user_id":256,"name":"Sysadmin Stress Release","steam_id":76561197997326384,"connected_time":1039000000000,"state":"active","ping":73},{"user_id":230,"name":"Lucille_Bluth","steam_id":76561198206133916,"connected_time":2663000000000,"state":"active","ping":63},{"user_id":204,"name":"Kona","steam_id":76561199026563078,"connected_time":3858000000000,"state":"active","ping":76},{"user_id":205,"name":"Vervain","steam_id":76561198269642607,"connected_time":3838000000000,"state":"active","ping":118},{"user_id":261,"name":"Mika  Laakso","steam_id":76561198115035132,"connected_time":941000000000,"state":"active","ping":74},{"user_id":257,"name":"Whole Wheat Lemon","steam_id":76561199025265182,"connected_time":1036000000000,"state":"active","ping":58},{"user_id":269,"name":"flr","steam_id":76561198249327786,"connected_time":101000000000,"state":"active","ping":126}]},{"server_id":15,"name":"Uncletopia | New York City | 3 | Stopwatch Beta","name_short":"nyc-3","host":"nyc-1.us.uncletopia.com","port":27035,"enabled":true,"region":"us-east","cc":"us","latitude":40.73061,"longitude":-73.93524,"reserved":0,"last_update":"0001-01-01T00:00:00Z","name_a2s":"Uncletopia | New York City | 3 | Stopwatch Beta","protocol":17,"map":"cp_metalworks","folder":"tf","game":"Team Fortress","app_id":440,"player_count":0,"max_players":24,"Bots":0,"server_type":"Dedicated","server_os":"Linux","password":true,"vac":true,"version":"7882260","steam_id":85568392924742820,"keywords":["cp","nocrits","nodmgspread","uncletopia"],"game_id":440,"stv_port":27036,"stv_name":"Uncletopia | New York City | 3 | Stopwatch Beta | STV","players":null},{"server_id":16,"name":"Uncletopia | New York City | 4 | Community","name_short":"nyc-4","host":"nyc-1.us.uncletopia.com","port":27045,"enabled":true,"region":"us-east","cc":"us","latitude":40.73061,"longitude":-73.93524,"reserved":0,"last_update":"0001-01-01T00:00:00Z","name_a2s":"Uncletopia | New York City | 4 | Community","protocol":17,"map":"workshop/koth_product_final.ugc454272353","folder":"tf","game":"Team Fortress","app_id":440,"player_count":0,"max_players":24,"Bots":0,"server_type":"Dedicated","server_os":"Linux","password":true,"vac":true,"version":"7882260","steam_id":85568392924742821,"keywords":["cp","nocrits","nodmgspread","uncletopia"],"game_id":440,"stv_port":27046,"stv_name":"Uncletopia | New York City | 4 | Community | STV","players":null},{"server_id":142,"name":"Uncletopia | S√£o Paulo | 1 | All Maps","name_short":"sao-1","host":"sao-1.br.uncletopia.com","port":27015,"enabled":true,"region":"sa","cc":"br","latitude":-23.533773,"longitude":-46.62529,"reserved":0,"last_update":"0001-01-01T00:00:00Z","name_a2s":"Uncletopia | S√£o Paulo | 1 | All Maps","protocol":17,"map":"pl_frontier_final","folder":"tf","game":"Team Fortress","app_id":440,"player_count":0,"max_players":24,"Bots":0,"server_type":"Dedicated","server_os":"Linux","password":true,"vac":true,"version":"7882260","steam_id":85568392924469996,"keywords":["nocrits","nodmgspread","payload","uncletopia"],"game_id":440,"stv_port":27016,"stv_name":"Uncletopia | S√£o Paulo | 1 | All Maps | STV","players":null},{"server_id":143,"name":"Uncletopia | S√£o Paulo | 2 | All Maps","name_short":"sao-2","host":"sao-2.br.uncletopia.com","port":27015,"enabled":true,"region":"sa","cc":"br","latitude":-23.533773,"longitude":-46.62529,"reserved":0,"last_update":"0001-01-01T00:00:00Z","name_a2s":"Uncletopia | S√£o Paulo | 2 | All Maps","protocol":17,"map":"koth_cascade","folder":"tf","game":"Team Fortress","app_id":440,"player_count":15,"max_players":24,"Bots":0,"server_type":"Dedicated","server_os":"Linux","password":true,"vac":true,"version":"7882260","steam_id":85568392924485349,"keywords":["cp","nocrits","nodmgspread","uncletopia"],"game_id":440,"stv_port":27016,"stv_name":"Uncletopia | S√£o Paulo | 2 | All Maps | STV","players":[{"user_id":288,"name":"Brawmario","steam_id":76561198025313430,"connected_time":1332000000000,"state":"active","ping":36},{"user_id":230,"name":"stuwpid pyo maim","steam_id":76561199246901712,"connected_time":8194000000000,"state":"active","ping":48},{"user_id":289,"name":"in-game","steam_id":76561198309404084,"connected_time":1202000000000,"state":"active","ping":59},{"user_id":290,"name":"Fen1x","steam_id":76561198993295543,"connected_time":1084000000000,"state":"active","ping":87},{"user_id":260,"name":"eDot","steam_id":76561199076298530,"connected_time":3242000000000,"state":"active","ping":53},{"user_id":292,"name":"starm0nster","steam_id":76561199016975635,"connected_time":1041000000000,"state":"active","ping":46},{"user_id":293,"name":"wooden house","steam_id":76561199177055367,"connected_time":989000000000,"state":"active","ping":83},{"user_id":238,"name":"Zaparol","steam_id":76561198971733797,"connected_time":6812000000000,"state":"active","ping":67},{"user_id":256,"name":"vacaloca25","steam_id":76561198082683352,"connected_time":3699000000000,"state":"active","ping":58},{"user_id":294,"name":"agathokakological","steam_id":76561198811097127,"connected_time":791000000000,"state":"active","ping":75},{"user_id":296,"name":"q1b Vortex‚ú®","steam_id":76561197960679316,"connected_time":493000000000,"state":"active","ping":83},{"user_id":259,"name":"anaheisenberg","steam_id":76561198304847307,"connected_time":3337000000000,"state":"active","ping":60},{"user_id":298,"name":"m00n","steam_id":76561199136509500,"connected_time":296000000000,"state":"active","ping":88},{"user_id":300,"name":"brg","steam_id":76561198049993814,"connected_time":180000000000,"state":"active","ping":48},{"user_id":302,"name":"paranoid","steam_id":76561199277539061,"connected_time":39000000000,"state":"active","ping":63}]},{"server_id":7,"name":"Uncletopia | Seattle | 1 | All Maps","name_short":"sea-1","host":"sea-1.us.uncletopia.com","port":27015,"enabled":true,"region":"us-west","cc":"us","latitude":47.608013,"longitude":-122.33517,"reserved":0,"last_update":"0001-01-01T00:00:00Z","name_a2s":"Uncletopia | Seattle | 1 | All Maps","protocol":17,"map":"pl_borneo","folder":"tf","game":"Team Fortress","app_id":440,"player_count":24,"max_players":24,"Bots":0,"server_type":"Dedicated","server_os":"Linux","password":true,"vac":true,"version":"7882260","steam_id":85568392924469997,"keywords":["nocrits","nodmgspread","payload","uncletopia"],"game_id":440,"stv_port":27016,"stv_name":"Uncletopia | Seattle | 1 | All Maps | STV","players":[{"user_id":450,"name":"Spooky","steam_id":76561198030817605,"connected_time":1847000000000,"state":"active","ping":31},{"user_id":413,"name":"Geram","steam_id":76561198061979840,"connected_time":4662000000000,"state":"active","ping":85},{"user_id":371,"name":"Bishuhp","steam_id":76561198015062850,"connected_time":7181000000000,"state":"active","ping":53},{"user_id":465,"name":"Cordial_Lump","steam_id":76561198027777950,"connected_time":228000000000,"state":"active","ping":120},{"user_id":460,"name":"Griffin","steam_id":76561198159339442,"connected_time":774000000000,"state":"active","ping":123},{"user_id":440,"name":"SadFapping","steam_id":76561198076651049,"connected_time":2252000000000,"state":"active","ping":58},{"user_id":458,"name":"MeatShield 2000","steam_id":76561199375192850,"connected_time":926000000000,"state":"active","ping":109},{"user_id":423,"name":"mer5277","steam_id":76561198192171041,"connected_time":3873000000000,"state":"active","ping":151},{"user_id":421,"name":"Igrium","steam_id":76561198119549811,"connected_time":4080000000000,"state":"active","ping":76},{"user_id":455,"name":"Fargo","steam_id":76561198044703931,"connected_time":1392000000000,"state":"active","ping":71},{"user_id":459,"name":"What_Zen","steam_id":76561198254022149,"connected_time":901000000000,"state":"active","ping":60},{"user_id":457,"name":"One Canadian Derg","steam_id":76561198212687343,"connected_time":936000000000,"state":"active","ping":80},{"user_id":439,"name":"RainboomCrash","steam_id":76561198065612273,"connected_time":2262000000000,"state":"active","ping":51},{"user_id":368,"name":"colespudzo","steam_id":76561198051127147,"connected_time":7226000000000,"state":"active","ping":45},{"user_id":463,"name":"{FITH}‚Ñ¢ SmittyWun {FM}","steam_id":76561198079531938,"connected_time":453000000000,"state":"active","ping":120},{"user_id":454,"name":"Capitalism","steam_id":76561198068677316,"connected_time":1431000000000,"state":"active","ping":58},{"user_id":452,"name":"Also UbeR","steam_id":76561198166926843,"connected_time":1639000000000,"state":"active","ping":79},{"user_id":444,"name":"Dingelsmurf the Orange","steam_id":76561198212489267,"connected_time":2206000000000,"state":"active","ping":96},{"user_id":445,"name":"Gunspy In Training","steam_id":76561198169484186,"connected_time":2199000000000,"state":"active","ping":59},{"user_id":461,"name":"aoka","steam_id":76561198838294547,"connected_time":756000000000,"state":"active","ping":56},{"user_id":462,"name":"Your childhood","steam_id":76561198799385466,"connected_time":738000000000,"state":"active","ping":112},{"user_id":448,"name":"Themasterman75","steam_id":76561199385573293,"connected_time":1958000000000,"state":"active","ping":74},{"user_id":434,"name":"Reggie","steam_id":76561198835737236,"connected_time":3033000000000,"state":"active","ping":118},{"user_id":409,"name":"merkury731","steam_id":76561198110565430,"connected_time":4783000000000,"state":"active","ping":117}]},{"server_id":119,"name":"Uncletopia | Seattle | 2 | All Maps","name_short":"sea-2","host":"sea-1.us.uncletopia.com","port":27025,"enabled":true,"region":"us-west","cc":"us","latitude":47.608013,"longitude":-122.33517,"reserved":0,"last_update":"0001-01-01T00:00:00Z","name_a2s":"Uncletopia | Seattle | 2 | All Maps","protocol":17,"map":"pl_thundermountain","folder":"tf","game":"Team Fortress","app_id":440,"player_count":23,"max_players":24,"Bots":0,"server_type":"Dedicated","server_os":"Linux","password":true,"vac":true,"version":"7882260","steam_id":85568392924469998,"keywords":["nocrits","nodmgspread","payload","uncletopia"],"game_id":440,"stv_port":27026,"stv_name":"Uncletopia | Seattle | 2 | All Maps | STV","players":[{"user_id":249,"name":"laggy mcstab","steam_id":76561198106379962,"connected_time":2164000000000,"state":"active","ping":59},{"user_id":276,"name":"havarti gaming","steam_id":76561198069895678,"connected_time":171000000000,"state":"active","ping":71},{"user_id":238,"name":"Eraser cat","steam_id":76561199045570463,"connected_time":2964000000000,"state":"active","ping":46},{"user_id":217,"name":"Jacobzeba01","steam_id":76561198131808718,"connected_time":5558000000000,"state":"active","ping":65},{"user_id":229,"name":"soup","steam_id":76561198043209046,"connected_time":4067000000000,"state":"active","ping":83},{"user_id":30,"name":"knot quite","steam_id":76561198042913843,"connected_time":18072000000000,"state":"active","ping":60},{"user_id":259,"name":"Cr0w!","steam_id":76561198178437265,"connected_time":1180000000000,"state":"active","ping":56},{"user_id":277,"name":"Algibruh","steam_id":76561199221599415,"connected_time":149000000000,"state":"active","ping":46},{"user_id":272,"name":"LilNpls","steam_id":76561198127428015,"connected_time":532000000000,"state":"active","ping":57},{"user_id":247,"name":"The dreaded jar","steam_id":76561199087010656,"connected_time":2235000000000,"state":"active","ping":58},{"user_id":278,"name":"Seesawz","steam_id":76561199222588200,"connected_time":145000000000,"state":"active","ping":67},{"user_id":250,"name":"Owl Of Delos","steam_id":76561198437116566,"connected_time":2045000000000,"state":"active","ping":65},{"user_id":279,"name":"Rafl","steam_id":76561198055222756,"connected_time":139000000000,"state":"active","ping":99},{"user_id":120,"name":"Flores","steam_id":76561198106938500,"connected_time":12030000000000,"state":"active","ping":78},{"user_id":230,"name":"Y2K","steam_id":76561199191855486,"connected_time":4032000000000,"state":"active","ping":42},{"user_id":263,"name":"Rowmaster","steam_id":76561198271659574,"connected_time":916000000000,"state":"active","ping":108},{"user_id":243,"name":"Mico (Mico)","steam_id":76561198125462953,"connected_time":2606000000000,"state":"active","ping":47},{"user_id":264,"name":"Seico Bass","steam_id":76561198123498500,"connected_time":908000000000,"state":"active","ping":78},{"user_id":192,"name":"oo","steam_id":76561198119626492,"connected_time":7539000000000,"state":"active","ping":68},{"user_id":274,"name":"doomshroom","steam_id":76561198092827250,"connected_time":246000000000,"state":"active","ping":60},{"user_id":280,"name":"team foolery 2","steam_id":76561199118049168,"connected_time":128000000000,"state":"active","ping":75},{"user_id":281,"name":"I ran over 32 senior citizens","steam_id":76561199244114198,"connected_time":93000000000,"state":"active","ping":84},{"user_id":269,"name":"Vincent Van Bro","steam_id":76561197966919802,"connected_time":851000000000,"state":"active","ping":60}]},{"server_id":406,"name":"Uncletopia | Seattle | 3 | Stopwatch Beta","name_short":"sea-3","host":"sea-1.us.uncletopia.com","port":27035,"enabled":true,"region":"us-west","cc":"us","latitude":47.608013,"longitude":-122.33517,"reserved":0,"last_update":"0001-01-01T00:00:00Z","name_a2s":"Uncletopia | Seattle | 3 | Stopwatch Beta","protocol":17,"map":"workshop/koth_ramjam_rc1.ugc459778887","folder":"tf","game":"Team Fortress","app_id":440,"player_count":0,"max_players":24,"Bots":0,"server_type":"Dedicated","server_os":"Linux","password":true,"vac":true,"version":"7882260","steam_id":85568392924515217,"keywords":["cp","nocrits","nodmgspread","uncletopia"],"game_id":440,"stv_port":27036,"stv_name":"Uncletopia | Seattle | 3 | Stopwatch Beta | STV","players":null},{"server_id":17,"name":"Uncletopia | San Francisco | 1 | All Maps","name_short":"sfo-1","host":"sfo-1.us.uncletopia.com","port":27015,"enabled":true,"region":"us-west","cc":"us","latitude":37.77397,"longitude":-122.4313,"reserved":0,"last_update":"0001-01-01T00:00:00Z","name_a2s":"Uncletopia | San Francisco | 1 | All Maps","protocol":17,"map":"pl_badwater","folder":"tf","game":"Team Fortress","app_id":440,"player_count":24,"max_players":24,"Bots":0,"server_type":"Dedicated","server_os":"Linux","password":true,"vac":true,"version":"7882260","steam_id":85568392924469999,"keywords":["nocrits","nodmgspread","payload","uncletopia"],"game_id":440,"stv_port":27016,"stv_name":"Uncletopia | San Francisco | 1 | All Maps | STV","players":[{"user_id":26,"name":"Alkimia","steam_id":76561198385763137,"connected_time":3969000000000,"state":"active","ping":104},{"user_id":63,"name":"DOPEam1ne","steam_id":76561198112204774,"connected_time":1443000000000,"state":"active","ping":46},{"user_id":73,"name":"Smellbow McArmpit","steam_id":76561198109445099,"connected_time":422000000000,"state":"active","ping":63},{"user_id":62,"name":"ikaes","steam_id":76561198834496029,"connected_time":1888000000000,"state":"active","ping":116},{"user_id":71,"name":"monkey squirts","steam_id":76561197983101644,"connected_time":600000000000,"state":"active","ping":47},{"user_id":23,"name":"DawnNannas","steam_id":76561198042915117,"connected_time":4338000000000,"state":"active","ping":72},{"user_id":68,"name":"Lawnmower","steam_id":76561198186680197,"connected_time":1051000000000,"state":"active","ping":39},{"user_id":64,"name":"Bork Bork","steam_id":76561198045081654,"connected_time":1403000000000,"state":"active","ping":73},{"user_id":74,"name":"Gull","steam_id":76561198161560332,"connected_time":348000000000,"state":"active","ping":71},{"user_id":70,"name":"Bagoool","steam_id":76561198065368286,"connected_time":873000000000,"state":"active","ping":86},{"user_id":66,"name":"cringy","steam_id":76561198323000455,"connected_time":1264000000000,"state":"active","ping":70},{"user_id":75,"name":"Duh Slug God","steam_id":76561198347280079,"connected_time":320000000000,"state":"active","ping":53},{"user_id":41,"name":"Flyingcat9000","steam_id":76561198179561797,"connected_time":2820000000000,"state":"active","ping":32},{"user_id":76,"name":"kamaal","steam_id":76561198278955774,"connected_time":307000000000,"state":"active","ping":94},{"user_id":77,"name":"Jovo","steam_id":76561197993265970,"connected_time":287000000000,"state":"active","ping":58},{"user_id":44,"name":"Carthage (TRANSRIGHTS)","steam_id":76561198049001571,"connected_time":2752000000000,"state":"active","ping":91},{"user_id":78,"name":"Carpetspill","steam_id":76561198240023406,"connected_time":276000000000,"state":"active","ping":121},{"user_id":72,"name":"‚ù§MICHIMOMOS‚ù§","steam_id":76561199221395732,"connected_time":595000000000,"state":"active","ping":89},{"user_id":47,"name":"Avem","steam_id":76561198058763710,"connected_time":2721000000000,"state":"active","ping":48},{"user_id":57,"name":"Balls Insurance","steam_id":76561198005860388,"connected_time":2162000000000,"state":"active","ping":53},{"user_id":50,"name":"chocky","steam_id":76561198057491296,"connected_time":2663000000000,"state":"active","ping":60},{"user_id":58,"name":"how do i control my guy?","steam_id":76561198158855211,"connected_time":2023000000000,"state":"active","ping":71},{"user_id":65,"name":"SpringIvan","steam_id":76561199133179509,"connected_time":1312000000000,"state":"active","ping":43},{"user_id":79,"name":"Green_GarBear","steam_id":76561199468912415,"connected_time":32000000000,"state":"active","ping":55}]},{"server_id":18,"name":"Uncletopia | San Francisco | 2 | All Maps","name_short":"sfo-2","host":"sfo-1.us.uncletopia.com","port":27025,"enabled":true,"region":"us-west","cc":"us","latitude":37.77397,"longitude":-122.4313,"reserved":0,"last_update":"0001-01-01T00:00:00Z","name_a2s":"Uncletopia | San Francisco | 2 | All Maps","protocol":17,"map":"cp_mountainlab","folder":"tf","game":"Team Fortress","app_id":440,"player_count":0,"max_players":24,"Bots":0,"server_type":"Dedicated","server_os":"Linux","password":true,"vac":true,"version":"7882260","steam_id":85568392924470000,"keywords":["cp","nocrits","nodmgspread","uncletopia"],"game_id":440,"stv_port":27026,"stv_name":"Uncletopia | San Francisco | 2 | All Maps | STV","players":null},{"server_id":19,"name":"Uncletopia | San Francisco | 3 | Stopwatch Beta","name_short":"sfo-3","host":"sfo-1.us.uncletopia.com","port":27035,"enabled":true,"region":"us-west","cc":"us","latitude":37.77397,"longitude":-122.4313,"reserved":0,"last_update":"0001-01-01T00:00:00Z","name_a2s":"Uncletopia | San Francisco | 3 | Stopwatch Beta","protocol":17,"map":"pl_frontier_final","folder":"tf","game":"Team Fortress","app_id":440,"player_count":0,"max_players":24,"Bots":0,"server_type":"Dedicated","server_os":"Linux","password":true,"vac":true,"version":"7882260","steam_id":85568392924742824,"keywords":["nocrits","nodmgspread","payload","uncletopia"],"game_id":440,"stv_port":27036,"stv_name":"Uncletopia | San Francisco | 3 | Stopwatch Beta | STV","players":null},{"server_id":20,"name":"Uncletopia | San Francisco | 4 | Community","name_short":"sfo-4","host":"sfo-1.us.uncletopia.com","port":27045,"enabled":true,"region":"us-west","cc":"us","latitude":37.77397,"longitude":-122.4313,"reserved":0,"last_update":"0001-01-01T00:00:00Z","name_a2s":"Uncletopia | San Francisco | 4 | Community","protocol":17,"map":"workshop/koth_bagel_rc6.ugc2514036946","folder":"tf","game":"Team Fortress","app_id":440,"player_count":0,"max_players":24,"Bots":0,"server_type":"Dedicated","server_os":"Linux","password":true,"vac":true,"version":"7882260","steam_id":85568392924742826,"keywords":["cp","nocrits","nodmgspread","uncletopia"],"game_id":440,"stv_port":27046,"stv_name":"Uncletopia | San Francisco | 4 | Community | STV","players":null},{"server_id":141,"name":"Uncletopia | Sydney | 1 | All Maps","name_short":"syd-1","host":"syd-1.au.uncletopia.com","port":27015,"enabled":true,"region":"au","cc":"au","latitude":-33.865143,"longitude":151.2099,"reserved":0,"last_update":"0001-01-01T00:00:00Z","name_a2s":"Uncletopia | Sydney | 1 | All Maps","protocol":17,"map":"cp_freight_final1","folder":"tf","game":"Team Fortress","app_id":440,"player_count":0,"max_players":24,"Bots":0,"server_type":"Dedicated","server_os":"Linux","password":true,"vac":true,"version":"7882260","steam_id":85568392924470001,"keywords":["cp","nocrits","nodmgspread","uncletopia"],"game_id":440,"stv_port":27016,"stv_name":"Uncletopia | Sydney | 1 | All Maps | STV","players":null},{"server_id":123,"name":"Uncletopia | Sydney | 2 | All Maps","name_short":"syd-2","host":"syd-1.au.uncletopia.com","port":27025,"enabled":true,"region":"au","cc":"au","latitude":-33.865143,"longitude":151.2099,"reserved":0,"last_update":"0001-01-01T00:00:00Z","name_a2s":"Uncletopia | Sydney | 2 | All Maps","protocol":17,"map":"koth_highpass","folder":"tf","game":"Team Fortress","app_id":440,"player_count":0,"max_players":24,"Bots":0,"server_type":"Dedicated","server_os":"Linux","password":true,"vac":true,"version":"7882260","steam_id":85568392924470002,"keywords":["cp","nocrits","nodmgspread","uncletopia"],"game_id":440,"stv_port":27026,"stv_name":"Uncletopia | Sydney | 2 | All Maps | STV","players":null},{"server_id":395,"name":"Uncletopia | Sydney | 3 | All Maps","name_short":"syd-3","host":"syd-1.au.uncletopia.com","port":27035,"enabled":true,"region":"au","cc":"au","latitude":-33.865143,"longitude":151.2099,"reserved":0,"last_update":"0001-01-01T00:00:00Z","name_a2s":"Uncletopia | Sydney | 3 | All Maps","protocol":17,"map":"pl_badwater","folder":"tf","game":"Team Fortress","app_id":440,"player_count":0,"max_players":24,"Bots":0,"server_type":"Dedicated","server_os":"Linux","password":true,"vac":true,"version":"7882260","steam_id":85568392925194467,"keywords":["nocrits","nodmgspread","payload","uncletopia"],"game_id":440,"stv_port":27036,"stv_name":"Uncletopia | Sydney | 3 | All Maps | STV","players":null},{"server_id":396,"name":"Uncletopia | Sydney | 4 | All Maps","name_short":"syd-4","host":"syd-1.au.uncletopia.com","port":27045,"enabled":true,"region":"au","cc":"au","latitude":-33.865143,"longitude":151.2099,"reserved":0,"last_update":"0001-01-01T00:00:00Z","name_a2s":"Uncletopia | Sydney | 4 | All Maps","protocol":17,"map":"pl_swiftwater_final1","folder":"tf","game":"Team Fortress","app_id":440,"player_count":0,"max_players":24,"Bots":0,"server_type":"Dedicated","server_os":"Linux","password":true,"vac":true,"version":"7882260","steam_id":85568392925397958,"keywords":["nocrits","nodmgspread","payload","uncletopia"],"game_id":440,"stv_port":27046,"stv_name":"Uncletopia | Sydney | 4 | All Maps | STV","players":null},{"server_id":58,"name":"Uncletopia | Sydney | 5 | Stopwatch Beta","name_short":"syd-5","host":"syd-1.au.uncletopia.com","port":27055,"enabled":true,"region":"au","cc":"au","latitude":-33.865143,"longitude":151.2099,"reserved":0,"last_update":"0001-01-01T00:00:00Z","name_a2s":"Uncletopia | Sydney | 5 | Stopwatch Beta","protocol":17,"map":"workshop/pl_vigil_rc9.ugc1266210012","folder":"tf","game":"Team Fortress","app_id":440,"player_count":0,"max_players":24,"Bots":0,"server_type":"Dedicated","server_os":"Linux","password":true,"vac":true,"version":"7882260","steam_id":85568392925397959,"keywords":["nocrits","nodmgspread","payload","uncletopia"],"game_id":440,"stv_port":27056,"stv_name":"Uncletopia | Sydney | 5 | Stopwatch Beta | STV","players":null},{"server_id":59,"name":"Uncletopia | Sydney | 6 | Community","name_short":"syd-6","host":"syd-1.au.uncletopia.com","port":27065,"enabled":true,"region":"au","cc":"au","latitude":-33.865143,"longitude":151.2099,"reserved":0,"last_update":"0001-01-01T00:00:00Z","name_a2s":"Uncletopia | Sydney | 6 | Community","protocol":17,"map":"pl_snowycoast","folder":"tf","game":"Team Fortress","app_id":440,"player_count":0,"max_players":24,"Bots":0,"server_type":"Dedicated","server_os":"Linux","password":true,"vac":true,"version":"7882260","steam_id":85568392925397960,"keywords":["nocrits","nodmgspread","payload","uncletopia"],"game_id":440,"stv_port":27066,"stv_name":"Uncletopia | Sydney | 6 | Community | STV","players":null},{"server_id":49,"name":"Uncletopia | Warsaw | 1 | All Maps","name_short":"waw-1","host":"waw-1.pl.uncletopia.com","port":27015,"enabled":true,"region":"eu","cc":"pl","latitude":52.2297,"longitude":21.017532,"reserved":0,"last_update":"0001-01-01T00:00:00Z","name_a2s":"","protocol":0,"map":"","folder":"","game":"","app_id":0,"player_count":0,"max_players":0,"Bots":0,"server_type":"","server_os":"","password":false,"vac":false,"version":"","steam_id":0,"keywords":null,"game_id":0,"stv_port":0,"stv_name":"","players":null},{"server_id":50,"name":"Uncletopia | Warsaw | 2 | All Maps","name_short":"waw-2","host":"waw-1.pl.uncletopia.com","port":27025,"enabled":true,"region":"eu","cc":"pl","latitude":52.2297,"longitude":21.017532,"reserved":0,"last_update":"0001-01-01T00:00:00Z","name_a2s":"Uncletopia | Warsaw | 2 | All Maps","protocol":17,"map":"cp_snakewater_final1","folder":"tf","game":"Team Fortress","app_id":440,"player_count":0,"max_players":24,"Bots":0,"server_type":"Dedicated","server_os":"Linux","password":true,"vac":true,"version":"7882260","steam_id":85568392925397851,"keywords":["cp","nocrits","nodmgspread","uncletopia"],"game_id":440,"stv_port":27026,"stv_name":"Uncletopia | Warsaw | 2 | All Maps | STV","players":null},{"server_id":51,"name":"Uncletopia | Warsaw | 3 | All Maps","name_short":"waw-3","host":"waw-1.pl.uncletopia.com","port":27035,"enabled":true,"region":"eu","cc":"pl","latitude":52.2297,"longitude":21.017532,"reserved":0,"last_update":"0001-01-01T00:00:00Z","name_a2s":"Uncletopia | Warsaw | 3 | All Maps","protocol":17,"map":"koth_viaduct","folder":"tf","game":"Team Fortress","app_id":440,"player_count":2,"max_players":24,"Bots":0,"server_type":"Dedicated","server_os":"Linux","password":true,"vac":true,"version":"7882260","steam_id":85568392925397852,"keywords":["cp","nocrits","nodmgspread","uncletopia"],"game_id":440,"stv_port":27036,"stv_name":"Uncletopia | Warsaw | 3 | All Maps | STV","players":[{"user_id":22,"name":"Kiz","steam_id":76561198811732820,"connected_time":852000000000,"state":"active","ping":92},{"user_id":19,"name":"DicyPicky","steam_id":76561198078873335,"connected_time":1667000000000,"state":"active","ping":69}]},{"server_id":52,"name":"Uncletopia | Warsaw | 4 | All Maps","name_short":"waw-4","host":"waw-1.pl.uncletopia.com","port":27045,"enabled":true,"region":"eu","cc":"pl","latitude":52.2297,"longitude":21.017532,"reserved":0,"last_update":"0001-01-01T00:00:00Z","name_a2s":"Uncletopia | Warsaw | 4 | All Maps","protocol":17,"map":"koth_cascade","folder":"tf","game":"Team Fortress","app_id":440,"player_count":0,"max_players":24,"Bots":0,"server_type":"Dedicated","server_os":"Linux","password":true,"vac":true,"version":"7882260","steam_id":85568392925397853,"keywords":["cp","nocrits","nodmgspread","uncletopia"],"game_id":440,"stv_port":27046,"stv_name":"Uncletopia | Warsaw | 4 | All Maps | STV","players":null},{"server_id":53,"name":"Uncletopia | Warsaw | 5 | Stopwatch Beta","name_short":"waw-5","host":"waw-1.pl.uncletopia.com","port":27055,"enabled":true,"region":"eu","cc":"pl","latitude":52.2297,"longitude":21.017532,"reserved":0,"last_update":"0001-01-01T00:00:00Z","name_a2s":"Uncletopia | Warsaw | 5 | Stopwatch Beta","protocol":17,"map":"cp_mountainlab","folder":"tf","game":"Team Fortress","app_id":440,"player_count":0,"max_players":24,"Bots":0,"server_type":"Dedicated","server_os":"Linux","password":true,"vac":true,"version":"7882260","steam_id":85568392925397854,"keywords":["cp","nocrits","nodmgspread","uncletopia"],"game_id":440,"stv_port":27056,"stv_name":"Uncletopia | Warsaw | 5 | Stopwatch Beta | STV","players":null},{"server_id":54,"name":"Uncletopia | Warsaw | 6 | Community","name_short":"waw-6","host":"waw-1.pl.uncletopia.com","port":27065,"enabled":true,"region":"eu","cc":"pl","latitude":52.2297,"longitude":21.017532,"reserved":0,"last_update":"0001-01-01T00:00:00Z","name_a2s":"Uncletopia | Warsaw | 6 | Community","protocol":17,"map":"workshop/cp_indulge.ugc528106646","folder":"tf","game":"Team Fortress","app_id":440,"player_count":0,"max_players":24,"Bots":0,"server_type":"Dedicated","server_os":"Linux","password":true,"vac":true,"version":"7882260","steam_id":85568392925397856,"keywords":["cp","nocrits","nodmgspread","uncletopia"],"game_id":440,"stv_port":27066,"stv_name":"Uncletopia | Warsaw | 6 | Community | STV","players":null}]}