{"status":true,"message":"","result":[{"server_id":9,"name":"Uncletopia | Atlanta | 1 | All Maps","name_short":"atl-1","host":"atl-1.us.uncletopia.com","port":27015,"enabled":true,"region":"us-east","cc":"us","latitude":33.753746,"longitude":-84.38633,"reserved":0,"last_update":"0001-01-01T00:00:00Z","name_a2s":"Uncletopia | Atlanta | 1 | All Maps","protocol":17,"map":"pl_badwater","folder":"tf","game":"Team Fortress","app_id":440,"player_count":24,"max_players":24,"Bots":0,"server_type":"Dedicated","server_os":"Linux","password":true,"vac":true,"version":"7742253","steam_id":85568392924469982,"keywords":["nocrits","nodmgspread","payload","uncletopia"],"game_id":440,"stv_port":27016,"stv_name":"Uncletopia | Atlanta | 1 | All Maps | STV","players":[{"user_id":77,"name":"indi","steam_id":76561198045917538,"connected_time":2383000000000,"state":"active","ping":61},{"user_id":100,"name":"Pharaxer","steam_id":76561198051236069,"connected_time":250000000000,"state":"active","ping":147},{"user_id":86,"name":"Riboflavin","steam_id":76561198077328593,"connected_time":1884000000000,"state":"active","ping":92},{"user_id":99,"name":"melancholy","steam_id":76561198024301465,"connected_time":266000000000,"state":"active","ping":62},{"user_id":101,"name":"Giant","steam_id":76561198851536991,"connected_time":217000000000,"state":"active","ping":115},{"user_id":19,"name":"Pisser12434","steam_id":76561198835144780,"connected_time":6479000000000,"state":"active","ping":72},{"user_id":27,"name":"GW4D","steam_id":76561198268791283,"connected_time":6108000000000,"state":"active","ping":112},{"user_id":96,"name":"the invincible medic","steam_id":76561198160174097,"connected_time":301000000000,"state":"active","ping":84},{"user_id":107,"name":"funyon2","steam_id":76561198338778699,"connected_time":7000000000,"state":"spawning","ping":56},{"user_id":98,"name":"Fredfredfood","steam_id":76561198072824802,"connected_time":270000000000,"state":"active","ping":73},{"user_id":102,"name":"✪Atl4s","steam_id":76561198873209311,"connected_time":184000000000,"state":"active","ping":169},{"user_id":89,"name":"Royal_tm","steam_id":76561198319509387,"connected_time":1517000000000,"state":"active","ping":62},{"user_id":63,"name":"Laelaps","steam_id":76561198100061416,"connected_time":3798000000000,"state":"active","ping":65},{"user_id":79,"name":"thomasdee725","steam_id":76561199189526173,"connected_time":2376000000000,"state":"active","ping":103},{"user_id":103,"name":"GrantTheMedicYT","steam_id":76561199077176696,"connected_time":181000000000,"state":"active","ping":83},{"user_id":91,"name":"Tabby","steam_id":76561199043429385,"connected_time":647000000000,"state":"active","ping":88},{"user_id":106,"name":"sansa musa","steam_id":76561198163723555,"connected_time":82000000000,"state":"active","ping":101},{"user_id":35,"name":"ATL1 | to4st","steam_id":76561198981009008,"connected_time":5885000000000,"state":"active","ping":73},{"user_id":88,"name":"Machina Gayming","steam_id":76561198171026678,"connected_time":1883000000000,"state":"active","ping":71},{"user_id":97,"name":"Jeremiah","steam_id":76561198143602486,"connected_time":279000000000,"state":"active","ping":80},{"user_id":104,"name":"The Potato Romancer","steam_id":76561198204197648,"connected_time":168000000000,"state":"active","ping":102},{"user_id":94,"name":"moron, son of boron","steam_id":76561198081681647,"connected_time":392000000000,"state":"active","ping":84},{"user_id":105,"name":"Dabbledornk","steam_id":76561198065241300,"connected_time":142000000000,"state":"active","ping":52},{"user_id":75,"name":"ch","steam_id":76561198012566405,"connected_time":2669000000000,"state":"active","ping":83}]},{"server_id":400,"name":"Uncletopia | Atlanta | 3 | Stopwatch Beta","name_short":"atl-3","host":"atl-1.us.uncletopia.com","port":27035,"enabled":true,"region":"us-east","cc":"us","latitude":33.753746,"longitude":-84.38633,"reserved":0,"last_update":"0001-01-01T00:00:00Z","name_a2s":"Uncletopia | Atlanta | 3 | Stopwatch Beta","protocol":17,"map":"pl_pier","folder":"tf","game":"Team Fortress","app_id":440,"player_count":0,"max_players":24,"Bots":0,"server_type":"Dedicated","server_os":"Linux","password":true,"vac":true,"version":"7742253","steam_id":85568392924515187,"keywords":["nocrits","nodmgspread","payload","uncletopia"],"game_id":440,"stv_port":27036,"stv_name":"Uncletopia | Atlanta | 3 | Stopwatch Beta | STV","players":null},{"server_id":401,"name":"Uncletopia | Atlanta | 4 | No Payload","name_short":"atl-4","host":"atl-1.us.uncletopia.com","port":27045,"enabled":true,"region":"us-east","cc":"us","latitude":33.753746,"longitude":-84.38633,"reserved":0,"last_update":"0001-01-01T00:00:00Z","name_a2s":"Uncletopia | Atlanta | 4 | No Payload","protocol":17,"map":"pl_pier","folder":"tf","game":"Team Fortress","app_id":440,"player_count":0,"max_players":24,"Bots":0,"server_type":"Dedicated","server_os":"Linux","password":true,"vac":true,"version":"7723704","steam_id":85568392924515188,"keywords":["nocrits","nodmgspread","payload","uncletopia"],"game_id":440,"stv_port":27046,"stv_name":"Uncletopia | Atlanta | 4 | No Payload | STV","players":null},{"server_id":2,"name":"Uncletopia | Chicago | 1 | All Maps","name_short":"chi-1","host":"chi-1.us.uncletopia.com","port":27015,"enabled":true,"region":"us-central","cc":"us","latitude":41.881832,"longitude":-87.62318,"reserved":0,"last_update":"0001-01-01T00:00:00Z","name_a2s":"Uncletopia | Chicago | 1 | All Maps","protocol":17,"map":"koth_lakeside_final","folder":"tf","game":"Team Fortress","app_id":440,"player_count":0,"max_players":24,"Bots":0,"server_type":"Dedicated","server_os":"Linux","password":true,"vac":true,"version":"7742253","steam_id":85568392924469984,"keywords":["cp","nocrits","nodmgspread","uncletopia"],"game_id":440,"stv_port":27016,"stv_name":"Uncletopia | Chicago | 1 | All Maps | STV","players":null},{"server_id":106,"name":"Uncletopia | Chicago | 2 | All Maps","name_short":"chi-2","host":"chi-1.us.uncletopia.com","port":27025,"enabled":true,"region":"us-central","cc":"us","latitude":41.881832,"longitude":-87.62318,"reserved":0,"last_update":"0001-01-01T00:00:00Z","name_a2s":"Uncletopia | Chicago | 2 | All Maps","protocol":17,"map":"cp_snakewater_final1","folder":"tf","game":"Team Fortress","app_id":440,"player_count":24,"max_players":24,"Bots":0,"server_type":"Dedicated","server_os":"Linux","password":true,"vac":true,"version":"7742253","steam_id":85568392924469985,"keywords":["cp","nocrits","nodmgspread","uncletopia"],"game_id":440,"stv_port":27026,"stv_name":"Uncletopia | Chicago | 2 | All Maps | STV","players":[{"user_id":6,"name":"Hello Everybody My Name is Mark","steam_id":76561199376015852,"connected_time":2239000000000,"state":"active","ping":68},{"user_id":4,"name":"Mr Abomination","steam_id":76561199109727495,"connected_time":2297000000000,"state":"active","ping":86},{"user_id":41,"name":"charm quark","steam_id":76561198098770777,"connected_time":129000000000,"state":"active","ping":101},{"user_id":25,"name":"TheRkey","steam_id":76561198989187114,"connected_time":1110000000000,"state":"active","ping":75},{"user_id":42,"name":"Commodore_Perry","steam_id":76561197986675784,"connected_time":94000000000,"state":"active","ping":67},{"user_id":10,"name":"steel_v41","steam_id":76561199014781716,"connected_time":1504000000000,"state":"active","ping":172},{"user_id":11,"name":"YellerImp","steam_id":76561199221805167,"connected_time":1441000000000,"state":"active","ping":49},{"user_id":12,"name":"Casual Costanza","steam_id":76561198024409325,"connected_time":1424000000000,"state":"active","ping":60},{"user_id":13,"name":"Amphetamine Gun","steam_id":76561199029189825,"connected_time":1408000000000,"state":"active","ping":69},{"user_id":14,"name":"A Lost CAWs","steam_id":76561198127120212,"connected_time":1397000000000,"state":"active","ping":110},{"user_id":15,"name":"Solaire","steam_id":76561198035762837,"connected_time":1380000000000,"state":"active","ping":91},{"user_id":16,"name":"Banana","steam_id":76561198321485249,"connected_time":1301000000000,"state":"active","ping":115},{"user_id":40,"name":"auts","steam_id":76561198055198646,"connected_time":138000000000,"state":"active","ping":74},{"user_id":39,"name":"Soda","steam_id":76561198219209367,"connected_time":258000000000,"state":"active","ping":65},{"user_id":43,"name":"Red","steam_id":76561197998285162,"connected_time":14000000000,"state":"spawning","ping":100},{"user_id":20,"name":"Koishi","steam_id":76561198054541054,"connected_time":1261000000000,"state":"active","ping":54},{"user_id":27,"name":"supamajikunicorn","steam_id":76561198152596322,"connected_time":1007000000000,"state":"active","ping":81},{"user_id":22,"name":"Dust","steam_id":76561198063959574,"connected_time":1211000000000,"state":"active","ping":82},{"user_id":28,"name":"Kraftlos","steam_id":76561198074350350,"connected_time":1005000000000,"state":"active","ping":71},{"user_id":24,"name":"Rin \"Hindwing\" Redtail","steam_id":76561199074865638,"connected_time":1136000000000,"state":"active","ping":72},{"user_id":29,"name":"heywaitasecond","steam_id":76561199064548292,"connected_time":971000000000,"state":"active","ping":67},{"user_id":30,"name":"Rugbmilk","steam_id":76561199389283507,"connected_time":959000000000,"state":"active","ping":61},{"user_id":31,"name":"Bottle","steam_id":76561198044031558,"connected_time":954000000000,"state":"active","ping":65},{"user_id":36,"name":"DJ Absolute Garbage","steam_id":76561198068000747,"connected_time":496000000000,"state":"active","ping":64}]},{"server_id":402,"name":"Uncletopia | Chicago | 3 | All Maps","name_short":"chi-3","host":"chi-1.us.uncletopia.com","port":27035,"enabled":true,"region":"us-central","cc":"us","latitude":41.881832,"longitude":-87.62318,"reserved":0,"last_update":"0001-01-01T00:00:00Z","name_a2s":"Uncletopia | Chicago | 3 | All Maps","protocol":17,"map":"pl_swiftwater_final1","folder":"tf","game":"Team Fortress","app_id":440,"player_count":22,"max_players":24,"Bots":0,"server_type":"Dedicated","server_os":"Linux","password":true,"vac":true,"version":"7742253","steam_id":85568392924515191,"keywords":["nocrits","nodmgspread","payload","uncletopia"],"game_id":440,"stv_port":27036,"stv_name":"Uncletopia | Chicago | 3 | All Maps | STV","players":[{"user_id":143,"name":"Chezburgures","steam_id":76561198173043730,"connected_time":74000000000,"state":"active","ping":116},{"user_id":142,"name":"{0} trader","steam_id":76561198099509834,"connected_time":450000000000,"state":"active","ping":70},{"user_id":133,"name":"Gaming123","steam_id":76561198801780168,"connected_time":1094000000000,"state":"active","ping":64},{"user_id":144,"name":"SirTaxEvasion","steam_id":76561199117781098,"connected_time":44000000000,"state":"active","ping":65},{"user_id":145,"name":"jumpy.cfg","steam_id":76561198199808295,"connected_time":31000000000,"state":"spawning","ping":45},{"user_id":130,"name":"mocha","steam_id":76561198825658971,"connected_time":1172000000000,"state":"active","ping":92},{"user_id":49,"name":"Samsiel","steam_id":76561198094134951,"connected_time":6307000000000,"state":"active","ping":82},{"user_id":127,"name":"PanCAKEEE","steam_id":76561198237489544,"connected_time":1646000000000,"state":"active","ping":106},{"user_id":52,"name":"Lemonty","steam_id":76561198163812778,"connected_time":6281000000000,"state":"active","ping":66},{"user_id":140,"name":"thebestman982","steam_id":76561199001698710,"connected_time":474000000000,"state":"active","ping":79},{"user_id":123,"name":"Quentin","steam_id":76561198032941413,"connected_time":1945000000000,"state":"active","ping":65},{"user_id":105,"name":"[F2P] Chionophile Princess","steam_id":76561198082693090,"connected_time":3094000000000,"state":"active","ping":73},{"user_id":63,"name":"I don't blast air around here","steam_id":76561198039763676,"connected_time":5448000000000,"state":"active","ping":61},{"user_id":134,"name":"Pancreas Enjoyer","steam_id":76561199438598904,"connected_time":1076000000000,"state":"active","ping":100},{"user_id":126,"name":"BeeMoe","steam_id":76561198002100697,"connected_time":1693000000000,"state":"active","ping":52},{"user_id":109,"name":"George Washington","steam_id":76561197993295656,"connected_time":3060000000000,"state":"active","ping":46},{"user_id":74,"name":"CAdaverOusPRophet","steam_id":76561198045304110,"connected_time":4899000000000,"state":"active","ping":47},{"user_id":137,"name":"jae are","steam_id":76561198027906463,"connected_time":935000000000,"state":"active","ping":49},{"user_id":138,"name":"NubKat","steam_id":76561199132262158,"connected_time":744000000000,"state":"active","ping":54},{"user_id":139,"name":"Azy","steam_id":76561198006772346,"connected_time":723000000000,"state":"active","ping":84},{"user_id":135,"name":"\u003c`)))))\u003c fish","steam_id":76561198410078962,"connected_time":1056000000000,"state":"active","ping":96},{"user_id":115,"name":"his flatulence","steam_id":76561198799404824,"connected_time":2529000000000,"state":"active","ping":69}]},{"server_id":403,"name":"Uncletopia | Chicago | 4 | All Maps","name_short":"chi-4","host":"chi-1.us.uncletopia.com","port":27045,"enabled":true,"region":"us-central","cc":"us","latitude":41.881832,"longitude":-87.62318,"reserved":0,"last_update":"0001-01-01T00:00:00Z","name_a2s":"Uncletopia | Chicago | 4 | All Maps","protocol":17,"map":"koth_lakeside_final","folder":"tf","game":"Team Fortress","app_id":440,"player_count":0,"max_players":24,"Bots":0,"server_type":"Dedicated","server_os":"Linux","password":true,"vac":true,"version":"7742253","steam_id":85568392924515193,"keywords":["cp","nocrits","nodmgspread","uncletopia"],"game_id":440,"stv_port":27046,"stv_name":"Uncletopia | Chicago | 4 | All Maps | STV","players":null},{"server_id":36,"name":"Uncletopia | Chicago | 5 | All Maps","name_short":"chi-5","host":"chi-2.us.uncletopia.com","port":27015,"enabled":true,"region":"us-central","cc":"us","latitude":41.881832,"longitude":-87.62318,"reserved":0,"last_update":"0001-01-01T00:00:00Z","name_a2s":"Uncletopia | Chicago | 5 | All Maps","protocol":17,"map":"pl_swiftwater_final1","folder":"tf","game":"Team Fortress","app_id":440,"player_count":24,"max_players":24,"Bots":0,"server_type":"Dedicated","server_os":"Linux","password":true,"vac":true,"version":"7742253","steam_id":85568392924866362,"keywords":["nocrits","nodmgspread","payload","uncletopia"],"game_id":440,"stv_port":27016,"stv_name":"Uncletopia | Chicago | 5 | All Maps | STV","players":[{"user_id":108,"name":"Scita","steam_id":76561198066861559,"connected_time":124000000000,"state":"active","ping":69},{"user_id":94,"name":"Aster","steam_id":76561198037920420,"connected_time":1770000000000,"state":"active","ping":106},{"user_id":109,"name":"Navigatxr","steam_id":76561199185153789,"connected_time":118000000000,"state":"active","ping":85},{"user_id":89,"name":"Whoa","steam_id":76561197970353496,"connected_time":2376000000000,"state":"active","ping":75},{"user_id":86,"name":"bikerkid207","steam_id":76561198390782783,"connected_time":2628000000000,"state":"active","ping":63},{"user_id":81,"name":"finn (he/him)","steam_id":76561198257531708,"connected_time":3356000000000,"state":"active","ping":54},{"user_id":82,"name":"ccat","steam_id":76561198281773224,"connected_time":3313000000000,"state":"active","ping":86},{"user_id":104,"name":"judesro","steam_id":76561198352244888,"connected_time":760000000000,"state":"active","ping":66},{"user_id":83,"name":"beatrix-mas","steam_id":76561199057103062,"connected_time":3224000000000,"state":"active","ping":97},{"user_id":90,"name":"Awildrock","steam_id":76561198040401086,"connected_time":2196000000000,"state":"active","ping":77},{"user_id":46,"name":"❤Dumpster Cat❤","steam_id":76561199200969139,"connected_time":6853000000000,"state":"active","ping":119},{"user_id":107,"name":"Hypothetic_","steam_id":76561199379149738,"connected_time":598000000000,"state":"active","ping":86},{"user_id":100,"name":"Ifrit","steam_id":76561198044730782,"connected_time":1253000000000,"state":"active","ping":88},{"user_id":106,"name":"PlanetSheenFan2007","steam_id":76561198154774185,"connected_time":715000000000,"state":"active","ping":70},{"user_id":57,"name":"ella guru","steam_id":76561198287124402,"connected_time":5992000000000,"state":"active","ping":83},{"user_id":110,"name":"Merach","steam_id":76561197994544587,"connected_time":25000000000,"state":"active","ping":71},{"user_id":36,"name":"Drachma","steam_id":76561198007310514,"connected_time":8068000000000,"state":"active","ping":69},{"user_id":88,"name":"Pixler544","steam_id":76561198240575132,"connected_time":2585000000000,"state":"active","ping":87},{"user_id":99,"name":"garfield","steam_id":76561198114119308,"connected_time":1496000000000,"state":"active","ping":68},{"user_id":25,"name":"Razz","steam_id":76561198158027533,"connected_time":8837000000000,"state":"active","ping":56},{"user_id":26,"name":"Wilhelmktx","steam_id":76561198158102295,"connected_time":8833000000000,"state":"active","ping":60},{"user_id":80,"name":"SmokeyGalaxy","steam_id":76561198118780516,"connected_time":3457000000000,"state":"active","ping":88},{"user_id":87,"name":"kritik","steam_id":76561198075216115,"connected_time":2590000000000,"state":"active","ping":158},{"user_id":93,"name":"Pickle Chips","steam_id":76561198271951504,"connected_time":2023000000000,"state":"active","ping":69}]},{"server_id":37,"name":"Uncletopia | Chicago | 6 | All Maps","name_short":"chi-6","host":"chi-2.us.uncletopia.com","port":27025,"enabled":true,"region":"us-central","cc":"us","latitude":41.881832,"longitude":-87.62318,"reserved":0,"last_update":"0001-01-01T00:00:00Z","name_a2s":"Uncletopia | Chicago | 6 | All Maps","protocol":17,"map":"pl_badwater","folder":"tf","game":"Team Fortress","app_id":440,"player_count":22,"max_players":24,"Bots":0,"server_type":"Dedicated","server_os":"Linux","password":true,"vac":true,"version":"7742253","steam_id":85568392924866363,"keywords":["nocrits","nodmgspread","payload","uncletopia"],"game_id":440,"stv_port":27026,"stv_name":"Uncletopia | Chicago | 6 | All Maps | STV","players":[{"user_id":62,"name":"грустный","steam_id":76561198274550638,"connected_time":101000000000,"state":"active","ping":60},{"user_id":61,"name":"LIFE IS A FUCK","steam_id":76561198025668771,"connected_time":155000000000,"state":"active","ping":135},{"user_id":63,"name":"footoftheday","steam_id":76561198052712449,"connected_time":57000000000,"state":"active","ping":68},{"user_id":6,"name":"AmirKhaan","steam_id":76561198992403254,"connected_time":4256000000000,"state":"active","ping":61},{"user_id":59,"name":"MagicGnome","steam_id":76561198060886742,"connected_time":627000000000,"state":"active","ping":82},{"user_id":46,"name":"qjkxkcd","steam_id":76561198035922283,"connected_time":1764000000000,"state":"active","ping":62},{"user_id":64,"name":"peashootwak","steam_id":76561199433389178,"connected_time":47000000000,"state":"active","ping":261},{"user_id":14,"name":"srv","steam_id":76561198026589960,"connected_time":3732000000000,"state":"active","ping":48},{"user_id":65,"name":"vinny6","steam_id":76561198386735728,"connected_time":28000000000,"state":"active","ping":63},{"user_id":44,"name":"dogboy irl","steam_id":76561198210322871,"connected_time":2050000000000,"state":"active","ping":102},{"user_id":18,"name":"XX_gamer2001_XxX","steam_id":76561198105405869,"connected_time":3572000000000,"state":"active","ping":76},{"user_id":49,"name":"no","steam_id":76561198248853140,"connected_time":1458000000000,"state":"active","ping":51},{"user_id":53,"name":"HellRaiser","steam_id":76561199051660033,"connected_time":1076000000000,"state":"active","ping":78},{"user_id":41,"name":"DIYspaceship17","steam_id":76561199042640810,"connected_time":3012000000000,"state":"active","ping":104},{"user_id":48,"name":"thelegend28","steam_id":76561198954987923,"connected_time":1511000000000,"state":"active","ping":66},{"user_id":57,"name":"Magneto","steam_id":76561199151206130,"connected_time":808000000000,"state":"active","ping":60},{"user_id":56,"name":"maS","steam_id":76561198033846407,"connected_time":923000000000,"state":"active","ping":40},{"user_id":26,"name":"teamspeakisbeter","steam_id":76561198994349483,"connected_time":3287000000000,"state":"active","ping":101},{"user_id":58,"name":"watchfull","steam_id":76561198433266742,"connected_time":757000000000,"state":"active","ping":103},{"user_id":37,"name":"Gay Annihilator","steam_id":76561198132567000,"connected_time":3084000000000,"state":"active","ping":62},{"user_id":38,"name":"memes","steam_id":76561198000627159,"connected_time":3074000000000,"state":"active","ping":69},{"user_id":54,"name":"nalezinik","steam_id":76561198030026119,"connected_time":1022000000000,"state":"active","ping":60}]},{"server_id":38,"name":"Uncletopia | Chicago | 7 | Stopwatch Beta","name_short":"chi-7","host":"chi-2.us.uncletopia.com","port":27035,"enabled":true,"region":"us-central","cc":"us","latitude":41.881832,"longitude":-87.62318,"reserved":0,"last_update":"0001-01-01T00:00:00Z","name_a2s":"Uncletopia | Chicago | 7 | Stopwatch Beta","protocol":17,"map":"workshop/koth_ramjam_rc1.ugc459778887","folder":"tf","game":"Team Fortress","app_id":440,"player_count":0,"max_players":24,"Bots":0,"server_type":"Dedicated","server_os":"Linux","password":true,"vac":true,"version":"7742253","steam_id":85568392924866364,"keywords":["cp","nocrits","nodmgspread","uncletopia"],"game_id":440,"stv_port":27036,"stv_name":"Uncletopia | Chicago | 7 | Stopwatch Beta | STV","players":null},{"server_id":39,"name":"Uncletopia | Chicago | 8 | Community","name_short":"chi-8","host":"chi-2.us.uncletopia.com","port":27045,"enabled":true,"region":"us-central","cc":"us","latitude":41.881832,"longitude":-87.62318,"reserved":0,"last_update":"0001-01-01T00:00:00Z","name_a2s":"Uncletopia | Chicago | 8 | Community","protocol":17,"map":"koth_lakeside_final","folder":"tf","game":"Team Fortress","app_id":440,"player_count":0,"max_players":24,"Bots":0,"server_type":"Dedicated","server_os":"Linux","password":true,"vac":true,"version":"7742253","steam_id":85568392924866365,"keywords":["cp","nocrits","nodmgspread","uncletopia"],"game_id":440,"stv_port":27046,"stv_name":"Uncletopia | Chicago | 8 | Community | STV","players":null},{"server_id":8,"name":"Uncletopia | Dallas | 1 | All Maps","name_short":"dal-1","host":"dal-1.us.uncletopia.com","port":27015,"enabled":true,"region":"us-central","cc":"us","latitude":32.779167,"longitude":-96.80889,"reserved":0,"last_update":"0001-01-01T00:00:00Z","name_a2s":"Uncletopia | Dallas | 1 | All Maps","protocol":17,"map":"pl_upward","folder":"tf","game":"Team Fortress","app_id":440,"player_count":0,"max_players":24,"Bots":0,"server_type":"Dedicated","server_os":"Linux","password":true,"vac":true,"version":"7742253","steam_id":85568392924469986,"keywords":["nocrits","nodmgspread","payload","uncletopia"],"game_id":440,"stv_port":27016,"stv_name":"Uncletopia | Dallas | 1 | All Maps | STV","players":null},{"server_id":108,"name":"Uncletopia | Dallas | 2 | All Maps","name_short":"dal-2","host":"dal-1.us.uncletopia.com","port":27025,"enabled":true,"region":"us-central","cc":"us","latitude":32.779167,"longitude":-96.80889,"reserved":0,"last_update":"0001-01-01T00:00:00Z","name_a2s":"Uncletopia | Dallas | 2 | All Maps","protocol":17,"map":"plr_hightower","folder":"tf","game":"Team Fortress","app_id":440,"player_count":0,"max_players":24,"Bots":0,"server_type":"Dedicated","server_os":"Linux","password":true,"vac":true,"version":"7742253","steam_id":85568392924469988,"keywords":["nocrits","nodmgspread","payload","uncletopia"],"game_id":440,"stv_port":27026,"stv_name":"Uncletopia | Dallas | 2 | All Maps | STV","players":null},{"server_id":5,"name":"Uncletopia | Frankfurt | 1 | All Maps","name_short":"frk-1","host":"frk-1.de.uncletopia.com","port":27015,"enabled":true,"region":"eu","cc":"de","latitude":50.110924,"longitude":8.682127,"reserved":0,"last_update":"0001-01-01T00:00:00Z","name_a2s":"Uncletopia | Frankfurt | 1 | All Maps","protocol":17,"map":"pl_swiftwater_final1","folder":"tf","game":"Team Fortress","app_id":440,"player_count":20,"max_players":24,"Bots":0,"server_type":"Dedicated","server_os":"Linux","password":true,"vac":true,"version":"7742253","steam_id":85568392924469989,"keywords":["nocrits","nodmgspread","payload","uncletopia"],"game_id":440,"stv_port":27016,"stv_name":"Uncletopia | Frankfurt | 1 | All Maps | STV","players":[{"user_id":432,"name":"Soya Suki","steam_id":76561197998106435,"connected_time":8000000000,"state":"spawning","ping":57},{"user_id":389,"name":"Mean Green Peen","steam_id":76561198228455736,"connected_time":3521000000000,"state":"active","ping":61},{"user_id":424,"name":"Dieu-Sama","steam_id":76561198002075862,"connected_time":1028000000000,"state":"active","ping":62},{"user_id":423,"name":"Litsuw","steam_id":76561198081785898,"connected_time":1303000000000,"state":"active","ping":61},{"user_id":388,"name":"Andreus","steam_id":76561199403926001,"connected_time":3525000000000,"state":"active","ping":68},{"user_id":386,"name":"kostaslgr7","steam_id":76561198261981295,"connected_time":3995000000000,"state":"active","ping":67},{"user_id":422,"name":"Julez","steam_id":76561198045505082,"connected_time":1531000000000,"state":"active","ping":74},{"user_id":426,"name":"VWave","steam_id":76561198123841262,"connected_time":922000000000,"state":"active","ping":78},{"user_id":430,"name":"Old Beavis","steam_id":76561198065951617,"connected_time":476000000000,"state":"active","ping":61},{"user_id":403,"name":"ZazyLou_","steam_id":76561198411134617,"connected_time":2725000000000,"state":"active","ping":63},{"user_id":412,"name":"Gabriel Masa","steam_id":76561198211455375,"connected_time":1862000000000,"state":"active","ping":75},{"user_id":411,"name":"tikitaki","steam_id":76561199154384606,"connected_time":1887000000000,"state":"active","ping":67},{"user_id":378,"name":"Realist 40","steam_id":76561198052476979,"connected_time":4456000000000,"state":"active","ping":74},{"user_id":408,"name":"Blo","steam_id":76561198161651469,"connected_time":1951000000000,"state":"active","ping":52},{"user_id":370,"name":"꧁༒Xenon༒꧂","steam_id":76561198120502313,"connected_time":4811000000000,"state":"active","ping":68},{"user_id":371,"name":"UNO, The Ubisoft Original","steam_id":76561198846784757,"connected_time":4743000000000,"state":"active","ping":67},{"user_id":431,"name":"Exe_Red","steam_id":76561198154952759,"connected_time":332000000000,"state":"active","ping":80},{"user_id":406,"name":"Joe Byron","steam_id":76561198044465070,"connected_time":2324000000000,"state":"active","ping":89},{"user_id":414,"name":"DrJeb","steam_id":76561198123592400,"connected_time":1841000000000,"state":"active","ping":79},{"user_id":417,"name":"waluigi","steam_id":76561198215809251,"connected_time":1773000000000,"state":"active","ping":53}]},{"server_id":110,"name":"Uncletopia | Frankfurt | 2 | All Maps","name_short":"frk-2","host":"frk-1.de.uncletopia.com","port":27025,"enabled":true,"region":"eu","cc":"de","latitude":50.110924,"longitude":8.682127,"reserved":0,"last_update":"0001-01-01T00:00:00Z","name_a2s":"Uncletopia | Frankfurt | 2 | All Maps","protocol":17,"map":"pl_badwater","folder":"tf","game":"Team Fortress","app_id":440,"player_count":24,"max_players":24,"Bots":0,"server_type":"Dedicated","server_os":"Linux","password":true,"vac":true,"version":"7742253","steam_id":85568392924469990,"keywords":["nocrits","nodmgspread","payload","uncletopia"],"game_id":440,"stv_port":27026,"stv_name":"Uncletopia | Frankfurt | 2 | All Maps | STV","players":[{"user_id":373,"name":"4","steam_id":76561197964945192,"connected_time":684000000000,"state":"active","ping":52},{"user_id":361,"name":"Hey, I´m Andy!","steam_id":76561198060337777,"connected_time":1678000000000,"state":"active","ping":61},{"user_id":374,"name":"Dragonmitri","steam_id":76561198144683775,"connected_time":683000000000,"state":"active","ping":67},{"user_id":347,"name":"nytronytronytro","steam_id":76561198080496833,"connected_time":2075000000000,"state":"active","ping":84},{"user_id":328,"name":"Zateske","steam_id":76561198047446276,"connected_time":4595000000000,"state":"active","ping":58},{"user_id":382,"name":"kilo","steam_id":76561198015641339,"connected_time":259000000000,"state":"active","ping":70},{"user_id":234,"name":"Boycie","steam_id":76561198179116027,"connected_time":9569000000000,"state":"active","ping":69},{"user_id":380,"name":"Majami","steam_id":76561198054365738,"connected_time":394000000000,"state":"active","ping":88},{"user_id":349,"name":"Rocket.Blade","steam_id":76561198063104145,"connected_time":2041000000000,"state":"active","ping":60},{"user_id":383,"name":"Krabs","steam_id":76561198161679477,"connected_time":216000000000,"state":"active","ping":60},{"user_id":376,"name":"Seail_M","steam_id":76561198002405605,"connected_time":681000000000,"state":"active","ping":52},{"user_id":377,"name":"Klarck_Freeman","steam_id":76561198843669287,"connected_time":676000000000,"state":"active","ping":94},{"user_id":351,"name":"jge","steam_id":76561198123186387,"connected_time":1987000000000,"state":"active","ping":58},{"user_id":359,"name":"brat_wurst","steam_id":76561198265402305,"connected_time":1829000000000,"state":"active","ping":64},{"user_id":342,"name":"spillr-.-","steam_id":76561198031330889,"connected_time":3212000000000,"state":"active","ping":65},{"user_id":343,"name":"TH3 V1CT0R","steam_id":76561198007025172,"connected_time":3022000000000,"state":"active","ping":64},{"user_id":378,"name":"Yata","steam_id":76561198195284171,"connected_time":672000000000,"state":"active","ping":126},{"user_id":360,"name":":weary:","steam_id":76561198075539799,"connected_time":1781000000000,"state":"active","ping":59},{"user_id":353,"name":"trite","steam_id":76561197983765323,"connected_time":1962000000000,"state":"active","ping":58},{"user_id":363,"name":"Gordon Birdman","steam_id":76561198013382324,"connected_time":1565000000000,"state":"active","ping":75},{"user_id":367,"name":"Jedi Knight","steam_id":76561198039030709,"connected_time":909000000000,"state":"active","ping":50},{"user_id":365,"name":"Cheshireycat","steam_id":76561198067204908,"connected_time":1469000000000,"state":"active","ping":70},{"user_id":384,"name":"zoro","steam_id":76561198083657017,"connected_time":172000000000,"state":"active","ping":90},{"user_id":369,"name":"On the run","steam_id":76561198879330791,"connected_time":764000000000,"state":"active","ping":74}]},{"server_id":308,"name":"Uncletopia | Frankfurt | 3 | All Maps","name_short":"frk-3","host":"frk-1.de.uncletopia.com","port":27035,"enabled":true,"region":"eu","cc":"de","latitude":50.110924,"longitude":8.682127,"reserved":0,"last_update":"0001-01-01T00:00:00Z","name_a2s":"Uncletopia | Frankfurt | 3 | All Maps","protocol":17,"map":"pl_pier","folder":"tf","game":"Team Fortress","app_id":440,"player_count":3,"max_players":24,"Bots":0,"server_type":"Dedicated","server_os":"Linux","password":true,"vac":true,"version":"7742253","steam_id":85568392924504274,"keywords":["nocrits","nodmgspread","payload","uncletopia"],"game_id":440,"stv_port":27036,"stv_name":"Uncletopia | Frankfurt | 3 | All Maps | STV","players":[{"user_id":18,"name":"fried","steam_id":76561198307522022,"connected_time":640000000000,"state":"active","ping":50},{"user_id":19,"name":"lugiagaurdien","steam_id":76561198894274440,"connected_time":138000000000,"state":"active","ping":58},{"user_id":20,"name":"SoupER","steam_id":76561198063056668,"connected_time":131000000000,"state":"active","ping":45}]},{"server_id":309,"name":"Uncletopia | Frankfurt | 4 | All Maps","name_short":"frk-4","host":"frk-1.de.uncletopia.com","port":27045,"enabled":true,"region":"eu","cc":"de","latitude":50.110924,"longitude":8.682127,"reserved":0,"last_update":"0001-01-01T00:00:00Z","name_a2s":"Uncletopia | Frankfurt | 4 | All Maps","protocol":17,"map":"pl_borneo","folder":"tf","game":"Team Fortress","app_id":440,"player_count":23,"max_players":24,"Bots":0,"server_type":"Dedicated","server_os":"Linux","password":true,"vac":true,"version":"7742253","steam_id":85568392924504275,"keywords":["nocrits","nodmgspread","payload","uncletopia"],"game_id":440,"stv_port":27046,"stv_name":"Uncletopia | Frankfurt | 4 | All Maps | STV","players":[{"user_id":339,"name":"crolee","steam_id":76561198865817316,"connected_time":94000000000,"state":"active","ping":52},{"user_id":318,"name":"󠀡󠀡","steam_id":76561198406469995,"connected_time":1875000000000,"state":"active","ping":58},{"user_id":319,"name":"luma","steam_id":76561198081649669,"connected_time":1756000000000,"state":"active","ping":60},{"user_id":334,"name":"SvbK","steam_id":76561198201478866,"connected_time":359000000000,"state":"active","ping":84},{"user_id":340,"name":"NickiCheetah","steam_id":76561198980540766,"connected_time":89000000000,"state":"active","ping":61},{"user_id":296,"name":"average f2p","steam_id":76561199136308055,"connected_time":3742000000000,"state":"active","ping":65},{"user_id":260,"name":"mohemmedmokhter2005","steam_id":76561199197650506,"connected_time":5991000000000,"state":"active","ping":106},{"user_id":331,"name":"soggy ramen","steam_id":76561198058012525,"connected_time":899000000000,"state":"active","ping":74},{"user_id":309,"name":"binba","steam_id":76561198108809727,"connected_time":2830000000000,"state":"active","ping":54},{"user_id":342,"name":"Use The Finger","steam_id":76561198050203563,"connected_time":80000000000,"state":"active","ping":74},{"user_id":322,"name":"Daenny","steam_id":76561198053088822,"connected_time":1710000000000,"state":"active","ping":41},{"user_id":348,"name":"Löysä Masa","steam_id":76561198343396172,"connected_time":46000000000,"state":"spawning","ping":89},{"user_id":338,"name":"den Jagger","steam_id":76561198048502058,"connected_time":97000000000,"state":"active","ping":63},{"user_id":349,"name":"bruh","steam_id":76561198109262927,"connected_time":29000000000,"state":"active","ping":63},{"user_id":323,"name":"AHKrzych","steam_id":76561198012688555,"connected_time":1680000000000,"state":"active","ping":87},{"user_id":304,"name":"sussy kong","steam_id":76561199116882319,"connected_time":3324000000000,"state":"active","ping":57},{"user_id":332,"name":"leonardini.w #SaveTF2","steam_id":76561199097963071,"connected_time":580000000000,"state":"active","ping":89},{"user_id":298,"name":"DaVitsChi","steam_id":76561199035895096,"connected_time":3640000000000,"state":"active","ping":59},{"user_id":335,"name":"j0nn","steam_id":76561198797219403,"connected_time":186000000000,"state":"active","ping":78},{"user_id":293,"name":"StabbyKnife","steam_id":76561198094010004,"connected_time":3859000000000,"state":"active","ping":84},{"user_id":273,"name":"YeetusFeetus","steam_id":76561199043598948,"connected_time":5780000000000,"state":"active","ping":115},{"user_id":330,"name":"KingVoker","steam_id":76561198039602539,"connected_time":938000000000,"state":"active","ping":60},{"user_id":346,"name":"Vincenzo","steam_id":76561198154097414,"connected_time":71000000000,"state":"active","ping":48}]},{"server_id":310,"name":"Uncletopia | Frankfurt | 5 | All Maps","name_short":"frk-5","host":"frk-1.de.uncletopia.com","port":27055,"enabled":true,"region":"eu","cc":"de","latitude":50.110924,"longitude":8.682127,"reserved":0,"last_update":"0001-01-01T00:00:00Z","name_a2s":"Uncletopia | Frankfurt | 5 | All Maps","protocol":17,"map":"pl_badwater","folder":"tf","game":"Team Fortress","app_id":440,"player_count":24,"max_players":24,"Bots":0,"server_type":"Dedicated","server_os":"Linux","password":true,"vac":true,"version":"7742253","steam_id":85568392924504277,"keywords":["nocrits","nodmgspread","payload","uncletopia"],"game_id":440,"stv_port":27056,"stv_name":"Uncletopia | Frankfurt | 5 | All Maps | STV","players":[{"user_id":594,"name":"DEANDEMOCRACY","steam_id":76561198141588857,"connected_time":1360000000000,"state":"active","ping":45},{"user_id":593,"name":"Chrikin","steam_id":76561198416301532,"connected_time":1465000000000,"state":"active","ping":134},{"user_id":615,"name":"r0la","steam_id":76561198128315340,"connected_time":562000000000,"state":"active","ping":82},{"user_id":589,"name":"Kenny Savage","steam_id":76561199049383900,"connected_time":1588000000000,"state":"active","ping":74},{"user_id":604,"name":"ricorno","steam_id":76561199441603388,"connected_time":1159000000000,"state":"active","ping":79},{"user_id":624,"name":"KLAMA  ❤","steam_id":76561198351549661,"connected_time":7000000000,"state":"spawning","ping":75},{"user_id":546,"name":"Sneaky boi","steam_id":76561199195985387,"connected_time":4473000000000,"state":"active","ping":86},{"user_id":616,"name":"GGabesz","steam_id":76561198117199068,"connected_time":534000000000,"state":"active","ping":70},{"user_id":571,"name":"rummy","steam_id":76561197997573379,"connected_time":3041000000000,"state":"active","ping":63},{"user_id":617,"name":"cappy","steam_id":76561198231859236,"connected_time":524000000000,"state":"active","ping":84},{"user_id":608,"name":"A Cat","steam_id":76561198221549132,"connected_time":967000000000,"state":"active","ping":48},{"user_id":592,"name":"Greyhunter","steam_id":76561197960884202,"connected_time":1485000000000,"state":"active","ping":46},{"user_id":618,"name":"frost^","steam_id":76561198167675482,"connected_time":483000000000,"state":"active","ping":76},{"user_id":596,"name":"Pvt. Grichmann","steam_id":76561197977589522,"connected_time":1307000000000,"state":"active","ping":75},{"user_id":613,"name":"Ledze Shuns Dope","steam_id":76561198049945010,"connected_time":820000000000,"state":"active","ping":58},{"user_id":557,"name":"johncook2","steam_id":76561198102436055,"connected_time":3971000000000,"state":"active","ping":79},{"user_id":623,"name":"CODE ANSWER (˘▾˘)","steam_id":76561198248485840,"connected_time":213000000000,"state":"active","ping":66},{"user_id":620,"name":"LExyйCH[1R#]","steam_id":76561199223041669,"connected_time":473000000000,"state":"active","ping":67},{"user_id":581,"name":"Something Original","steam_id":76561199092162448,"connected_time":2400000000000,"state":"active","ping":120},{"user_id":528,"name":"Spajro","steam_id":76561198257383813,"connected_time":5518000000000,"state":"active","ping":55},{"user_id":621,"name":"Lukanorizer","steam_id":76561198969857029,"connected_time":464000000000,"state":"active","ping":83},{"user_id":622,"name":"Rob Rotten","steam_id":76561198170543542,"connected_time":461000000000,"state":"active","ping":158},{"user_id":602,"name":"kbbq","steam_id":76561198346638308,"connected_time":1183000000000,"state":"active","ping":61},{"user_id":542,"name":"washed up","steam_id":76561198148115584,"connected_time":4805000000000,"state":"active","ping":71}]},{"server_id":311,"name":"Uncletopia | Frankfurt | 6 | All Maps","name_short":"frk-6","host":"frk-1.de.uncletopia.com","port":27065,"enabled":true,"region":"eu","cc":"de","latitude":50.110924,"longitude":8.682127,"reserved":0,"last_update":"0001-01-01T00:00:00Z","name_a2s":"Uncletopia | Frankfurt | 6 | All Maps","protocol":17,"map":"koth_lakeside_final","folder":"tf","game":"Team Fortress","app_id":440,"player_count":0,"max_players":24,"Bots":0,"server_type":"Dedicated","server_os":"Linux","password":true,"vac":true,"version":"7742253","steam_id":85568392924504278,"keywords":["cp","nocrits","nodmgspread","uncletopia"],"game_id":440,"stv_port":27066,"stv_name":"Uncletopia | Frankfurt | 6 | All Maps | STV","players":null},{"server_id":23,"name":"Uncletopia | Frankfurt | 7 | Stopwatch Beta","name_short":"frk-7","host":"frk-1.de.uncletopia.com","port":27075,"enabled":true,"region":"eu","cc":"de","latitude":50.110924,"longitude":8.682127,"reserved":0,"last_update":"0001-01-01T00:00:00Z","name_a2s":"Uncletopia | Frankfurt | 7 | Stopwatch Beta","protocol":17,"map":"pl_badwater","folder":"tf","game":"Team Fortress","app_id":440,"player_count":0,"max_players":24,"Bots":0,"server_type":"Dedicated","server_os":"Linux","password":true,"vac":true,"version":"7742253","steam_id":85568392924742827,"keywords":["nocrits","nodmgspread","payload","uncletopia"],"game_id":440,"stv_port":27076,"stv_name":"Uncletopia | Frankfurt | 7 | Stopwatch Beta | STV","players":null},{"server_id":24,"name":"Uncletopia | Frankfurt | 8 | Community","name_short":"frk-8","host":"frk-1.de.uncletopia.com","port":27085,"enabled":true,"region":"eu","cc":"de","latitude":50.110924,"longitude":8.682127,"reserved":0,"last_update":"0001-01-01T00:00:00Z","name_a2s":"Uncletopia | Frankfurt | 8 | Community","protocol":17,"map":"workshop/pl_barnblitz_pro7.ugc582280235","folder":"tf","game":"Team Fortress","app_id":440,"player_count":24,"max_players":24,"Bots":0,"server_type":"Dedicated","server_os":"Linux","password":true,"vac":true,"version":"7742253","steam_id":85568392924742828,"keywords":["nocrits","nodmgspread","payload","uncletopia"],"game_id":440,"stv_port":27086,"stv_name":"Uncletopia | Frankfurt | 8 | Community | STV","players":[{"user_id":112,"name":"Yessirskiii","steam_id":76561198179324075,"connected_time":109000000000,"state":"active","ping":74},{"user_id":107,"name":"neutron1331","steam_id":76561198831066757,"connected_time":371000000000,"state":"active","ping":73},{"user_id":30,"name":"DOMINOS","steam_id":76561198334591211,"connected_time":3139000000000,"state":"active","ping":77},{"user_id":103,"name":"AwterSix","steam_id":76561198042561678,"connected_time":550000000000,"state":"active","ping":54},{"user_id":108,"name":"Cipher Guy","steam_id":76561198987064749,"connected_time":355000000000,"state":"active","ping":80},{"user_id":99,"name":"Leibeigener","steam_id":76561199275478305,"connected_time":884000000000,"state":"active","ping":36},{"user_id":88,"name":"simonjohna646","steam_id":76561199403481880,"connected_time":1118000000000,"state":"active","ping":110},{"user_id":70,"name":"LegitACarWithAGun","steam_id":76561198081742337,"connected_time":1747000000000,"state":"active","ping":89},{"user_id":102,"name":"chocolate flavoured femboy","steam_id":76561198819353867,"connected_time":602000000000,"state":"active","ping":49},{"user_id":72,"name":"I SMOKE PCP","steam_id":76561198129866997,"connected_time":1636000000000,"state":"active","ping":78},{"user_id":32,"name":"gmem","steam_id":76561198070006725,"connected_time":3093000000000,"state":"active","ping":62},{"user_id":109,"name":"Fortezza","steam_id":76561198972539903,"connected_time":351000000000,"state":"active","ping":51},{"user_id":51,"name":"Irbynx","steam_id":76561197980421195,"connected_time":2591000000000,"state":"active","ping":89},{"user_id":97,"name":"Mana_Kaktus","steam_id":76561198110468307,"connected_time":968000000000,"state":"active","ping":181},{"user_id":83,"name":"levnemcev","steam_id":76561198057205970,"connected_time":1374000000000,"state":"active","ping":86},{"user_id":89,"name":"Blake Carrington (real)","steam_id":76561199106110824,"connected_time":1112000000000,"state":"active","ping":72},{"user_id":92,"name":"GigaGuenther","steam_id":76561198257633868,"connected_time":1059000000000,"state":"active","ping":65},{"user_id":100,"name":"Michał","steam_id":76561198320346362,"connected_time":818000000000,"state":"active","ping":62},{"user_id":110,"name":"Deputy Dog","steam_id":76561197960441667,"connected_time":338000000000,"state":"active","ping":167},{"user_id":111,"name":"don't care","steam_id":76561199042470246,"connected_time":335000000000,"state":"active","ping":51},{"user_id":104,"name":"Pet354","steam_id":76561198867294144,"connected_time":547000000000,"state":"active","ping":57},{"user_id":66,"name":"My left foot itches","steam_id":76561198078411001,"connected_time":2103000000000,"state":"active","ping":82},{"user_id":101,"name":"holykyckling","steam_id":76561198040661615,"connected_time":762000000000,"state":"active","ping":75},{"user_id":96,"name":"viktor610126","steam_id":76561198386462300,"connected_time":1002000000000,"state":"active","ping":106}]},{"server_id":202,"name":"Uncletopia | Hong Kong | 1 | All Maps","name_short":"hgk-1","host":"hgk-1.hk.uncletopia.com","port":27015,"enabled":true,"region":"asia","cc":"hk","latitude":22.302711,"longitude":114.177216,"reserved":0,"last_update":"0001-01-01T00:00:00Z","name_a2s":"Uncletopia | Hong Kong | 1 | All Maps","protocol":17,"map":"pl_badwater","folder":"tf","game":"Team Fortress","app_id":440,"player_count":0,"max_players":24,"Bots":0,"server_type":"Dedicated","server_os":"Linux","password":true,"vac":true,"version":"7742253","steam_id":85568392924494504,"keywords":["nocrits","nodmgspread","payload","uncletopia"],"game_id":440,"stv_port":27016,"stv_name":"Uncletopia | Hong Kong | 1 | All Maps | STV","players":null},{"server_id":1,"name":"Uncletopia | Los Angeles | 1 | All Maps","name_short":"lax-1","host":"lax-1.us.uncletopia.com","port":27015,"enabled":true,"region":"us-west","cc":"us","latitude":33.94279,"longitude":-118.41004,"reserved":0,"last_update":"0001-01-01T00:00:00Z","name_a2s":"Uncletopia | Los Angeles | 1 | All Maps","protocol":17,"map":"cp_dustbowl","folder":"tf","game":"Team Fortress","app_id":440,"player_count":0,"max_players":24,"Bots":0,"server_type":"Dedicated","server_os":"Linux","password":true,"vac":true,"version":"7742253","steam_id":85568392924469991,"keywords":["cp","nocrits","nodmgspread","uncletopia"],"game_id":440,"stv_port":27016,"stv_name":"Uncletopia | Los Angeles | 1 | All Maps | STV","players":null},{"server_id":112,"name":"Uncletopia | Los Angeles | 2 | All Maps","name_short":"lax-2","host":"lax-1.us.uncletopia.com","port":27025,"enabled":true,"region":"us-west","cc":"us","latitude":33.94279,"longitude":-118.41004,"reserved":0,"last_update":"0001-01-01T00:00:00Z","name_a2s":"Uncletopia | Los Angeles | 2 | All Maps","protocol":17,"map":"pl_frontier_final","folder":"tf","game":"Team Fortress","app_id":440,"player_count":0,"max_players":24,"Bots":0,"server_type":"Dedicated","server_os":"Linux","password":true,"vac":true,"version":"7742253","steam_id":85568392924469992,"keywords":["nocrits","nodmgspread","payload","uncletopia"],"game_id":440,"stv_port":27026,"stv_name":"Uncletopia | Los Angeles | 2 | All Maps | STV","players":null},{"server_id":324,"name":"Uncletopia | Los Angeles | 3 | All Maps","name_short":"lax-3","host":"lax-1.us.uncletopia.com","port":27035,"enabled":true,"region":"us-west","cc":"us","latitude":33.94279,"longitude":-118.41004,"reserved":0,"last_update":"0001-01-01T00:00:00Z","name_a2s":"Uncletopia | Los Angeles | 3 | All Maps","protocol":17,"map":"pl_swiftwater_final1","folder":"tf","game":"Team Fortress","app_id":440,"player_count":0,"max_players":24,"Bots":0,"server_type":"Dedicated","server_os":"Linux","password":true,"vac":true,"version":"7742253","steam_id":85568392924510198,"keywords":["nocrits","nodmgspread","payload","uncletopia"],"game_id":440,"stv_port":27036,"stv_name":"Uncletopia | Los Angeles | 3 | All Maps | STV","players":null},{"server_id":25,"name":"Uncletopia | Los Angeles | 4 | Stopwatch Beta","name_short":"lax-4","host":"lax-1.us.uncletopia.com","port":27045,"enabled":true,"region":"us-west","cc":"us","latitude":33.94279,"longitude":-118.41004,"reserved":0,"last_update":"0001-01-01T00:00:00Z","name_a2s":"Uncletopia | Los Angeles | 4 | Stopwatch Beta","protocol":17,"map":"cp_snakewater_final1","folder":"tf","game":"Team Fortress","app_id":440,"player_count":0,"max_players":24,"Bots":0,"server_type":"Dedicated","server_os":"Linux","password":true,"vac":true,"version":"7742253","steam_id":85568392924510199,"keywords":["cp","nocrits","nodmgspread","uncletopia"],"game_id":440,"stv_port":27046,"stv_name":"Uncletopia | Los Angeles | 4 | Stopwatch Beta | STV","players":null},{"server_id":11,"name":"Uncletopia | London | 1 | All Maps","name_short":"lon-1","host":"lon-1.uk.uncletopia.com","port":27015,"enabled":true,"region":"eu","cc":"gb","latitude":51.509865,"longitude":-0.118092,"reserved":0,"last_update":"0001-01-01T00:00:00Z","name_a2s":"Uncletopia | London | 1 | All Maps","protocol":17,"map":"pl_badwater","folder":"tf","game":"Team Fortress","app_id":440,"player_count":22,"max_players":24,"Bots":0,"server_type":"Dedicated","server_os":"Linux","password":true,"vac":true,"version":"7742253","steam_id":85568392924367362,"keywords":["nocrits","nodmgspread","payload","uncletopia"],"game_id":440,"stv_port":27016,"stv_name":"Uncletopia | London | 1 | All Maps | STV","players":[{"user_id":388,"name":"kackboon","steam_id":76561198044189114,"connected_time":2903000000000,"state":"connecting","ping":72},{"user_id":399,"name":"Welder","steam_id":76561198355300561,"connected_time":2104000000000,"state":"connecting","ping":88},{"user_id":387,"name":"Cheeli","steam_id":76561198150704425,"connected_time":3087000000000,"state":"connecting","ping":109},{"user_id":436,"name":"Boyarishnik","steam_id":76561198986324207,"connected_time":142000000000,"state":"connecting","ping":107},{"user_id":420,"name":"paska","steam_id":76561198128841501,"connected_time":1090000000000,"state":"connecting","ping":111},{"user_id":319,"name":"Cloudberry","steam_id":76561198035612538,"connected_time":7136000000000,"state":"connecting","ping":68},{"user_id":433,"name":"Le Bon Toutou","steam_id":76561198300902712,"connected_time":348000000000,"state":"connecting","ping":71},{"user_id":366,"name":"Pyrolander","steam_id":76561198050785450,"connected_time":4581000000000,"state":"connecting","ping":64},{"user_id":421,"name":"Gryoss","steam_id":76561197999837111,"connected_time":1067000000000,"state":"connecting","ping":110},{"user_id":437,"name":"chrissy","steam_id":76561198096547662,"connected_time":37000000000,"state":"connecting","ping":54},{"user_id":417,"name":"Smilez","steam_id":76561197999353870,"connected_time":1510000000000,"state":"connecting","ping":55},{"user_id":395,"name":"Zoran Snajper","steam_id":76561198312564061,"connected_time":2327000000000,"state":"connecting","ping":87},{"user_id":434,"name":"Smokio","steam_id":76561198069650580,"connected_time":214000000000,"state":"connecting","ping":108},{"user_id":386,"name":"Phiphler","steam_id":76561197994055715,"connected_time":3101000000000,"state":"connecting","ping":75},{"user_id":426,"name":"Alexander The Great","steam_id":76561198839909755,"connected_time":921000000000,"state":"connecting","ping":102},{"user_id":410,"name":"jones","steam_id":76561198073975078,"connected_time":1816000000000,"state":"connecting","ping":50},{"user_id":423,"name":"Florua","steam_id":76561198182297846,"connected_time":975000000000,"state":"connecting","ping":104},{"user_id":419,"name":"Где море?","steam_id":76561197979625544,"connected_time":1213000000000,"state":"connecting","ping":113},{"user_id":430,"name":"монолит","steam_id":76561198070994564,"connected_time":707000000000,"state":"connecting","ping":210},{"user_id":402,"name":"Potato","steam_id":76561198883934935,"connected_time":2061000000000,"state":"connecting","ping":95},{"user_id":438,"name":"HaZ","steam_id":76561198441043969,"connected_time":36000000000,"state":"connecting","ping":47},{"user_id":355,"name":"✪ J","steam_id":76561198094911581,"connected_time":5206000000000,"state":"connecting","ping":50}]},{"server_id":114,"name":"Uncletopia | London | 2 | All Maps","name_short":"lon-2","host":"lon-1.uk.uncletopia.com","port":27025,"enabled":true,"region":"eu","cc":"gb","latitude":51.509865,"longitude":-0.118092,"reserved":0,"last_update":"0001-01-01T00:00:00Z","name_a2s":"Uncletopia | London | 2 | All Maps","protocol":17,"map":"pl_barnblitz","folder":"tf","game":"Team Fortress","app_id":440,"player_count":24,"max_players":24,"Bots":0,"server_type":"Dedicated","server_os":"Linux","password":true,"vac":true,"version":"7742253","steam_id":85568392924470941,"keywords":["nocrits","nodmgspread","payload","uncletopia"],"game_id":440,"stv_port":27026,"stv_name":"Uncletopia | London | 2 | All Maps | STV","players":[{"user_id":314,"name":"tactical783","steam_id":76561199051688560,"connected_time":9303000000000,"state":"active","ping":61},{"user_id":459,"name":"Marc","steam_id":76561198869851742,"connected_time":478000000000,"state":"active","ping":78},{"user_id":435,"name":"BladedBloom4611","steam_id":76561198416655215,"connected_time":1516000000000,"state":"active","ping":60},{"user_id":455,"name":"Joseph Stalin LFT","steam_id":76561198033199746,"connected_time":720000000000,"state":"active","ping":51},{"user_id":436,"name":"ӋԼן.maS","steam_id":76561198114953928,"connected_time":1512000000000,"state":"active","ping":75},{"user_id":437,"name":"dafydd","steam_id":76561198052200325,"connected_time":1507000000000,"state":"active","ping":85},{"user_id":438,"name":"Albertzero9 #SaveTF2","steam_id":76561199089134345,"connected_time":1503000000000,"state":"active","ping":57},{"user_id":439,"name":"Distant Skies","steam_id":76561198168929678,"connected_time":1482000000000,"state":"active","ping":76},{"user_id":454,"name":"Equinox","steam_id":76561199055592635,"connected_time":729000000000,"state":"active","ping":58},{"user_id":457,"name":"Panda","steam_id":76561198176342325,"connected_time":531000000000,"state":"active","ping":90},{"user_id":451,"name":"Nyarley","steam_id":76561197961152751,"connected_time":1222000000000,"state":"active","ping":58},{"user_id":432,"name":"MAJAX","steam_id":76561198254828632,"connected_time":1968000000000,"state":"active","ping":48},{"user_id":397,"name":"Elegance","steam_id":76561199196164451,"connected_time":4087000000000,"state":"active","ping":80},{"user_id":372,"name":"Mr.Cupcake","steam_id":76561198152711174,"connected_time":6145000000000,"state":"active","ping":70},{"user_id":441,"name":"Barry","steam_id":76561198351154533,"connected_time":1470000000000,"state":"active","ping":54},{"user_id":447,"name":"Frazzles","steam_id":76561199228009586,"connected_time":1333000000000,"state":"active","ping":56},{"user_id":433,"name":"Jughead","steam_id":76561198000355410,"connected_time":1861000000000,"state":"active","ping":36},{"user_id":394,"name":"burial","steam_id":76561198009115060,"connected_time":4365000000000,"state":"active","ping":75},{"user_id":443,"name":"One armed fiddle enthusiast","steam_id":76561198045847051,"connected_time":1410000000000,"state":"active","ping":59},{"user_id":444,"name":"Dolcelatte","steam_id":76561198038501770,"connected_time":1408000000000,"state":"active","ping":60},{"user_id":456,"name":"ShawnDawn2","steam_id":76561198165013522,"connected_time":717000000000,"state":"active","ping":40},{"user_id":453,"name":"t0ksi","steam_id":76561198107240798,"connected_time":1008000000000,"state":"active","ping":75},{"user_id":460,"name":"Doxy","steam_id":76561198023051032,"connected_time":460000000000,"state":"active","ping":136},{"user_id":450,"name":"Bargon","steam_id":76561198964641940,"connected_time":1252000000000,"state":"active","ping":75}]},{"server_id":320,"name":"Uncletopia | London | 3 | All Maps","name_short":"lon-3","host":"lon-1.uk.uncletopia.com","port":27035,"enabled":true,"region":"eu","cc":"gb","latitude":51.509865,"longitude":-0.118092,"reserved":0,"last_update":"0001-01-01T00:00:00Z","name_a2s":"Uncletopia | London | 3 | All Maps","protocol":17,"map":"cp_dustbowl","folder":"tf","game":"Team Fortress","app_id":440,"player_count":24,"max_players":24,"Bots":0,"server_type":"Dedicated","server_os":"Linux","password":true,"vac":true,"version":"7742253","steam_id":85568392924510192,"keywords":["cp","nocrits","nodmgspread","uncletopia"],"game_id":440,"stv_port":27036,"stv_name":"Uncletopia | London | 3 | All Maps | STV","players":[{"user_id":197,"name":"MtnDew The (Fem)Pyro Main","steam_id":76561199100059743,"connected_time":3848000000000,"state":"active","ping":112},{"user_id":274,"name":"riis","steam_id":76561198176343442,"connected_time":787000000000,"state":"active","ping":61},{"user_id":187,"name":"Circular","steam_id":76561198001536710,"connected_time":4811000000000,"state":"active","ping":43},{"user_id":286,"name":"Penis Contortionist","steam_id":76561198073663784,"connected_time":284000000000,"state":"active","ping":32},{"user_id":256,"name":"Nyanzey","steam_id":76561198872362188,"connected_time":1336000000000,"state":"active","ping":57},{"user_id":250,"name":"meatsoupcube","steam_id":76561198276802249,"connected_time":1920000000000,"state":"active","ping":102},{"user_id":263,"name":"latch LF FEMBOY","steam_id":76561198064878900,"connected_time":1089000000000,"state":"active","ping":75},{"user_id":290,"name":"iagimru","steam_id":76561198110145844,"connected_time":49000000000,"state":"active","ping":191},{"user_id":270,"name":"Lunar","steam_id":76561199077495290,"connected_time":905000000000,"state":"active","ping":71},{"user_id":265,"name":"still overextending?","steam_id":76561198073639489,"connected_time":1048000000000,"state":"active","ping":55},{"user_id":259,"name":"jaydonis","steam_id":76561199401113825,"connected_time":1123000000000,"state":"active","ping":78},{"user_id":285,"name":"d00bie","steam_id":76561198025295218,"connected_time":301000000000,"state":"active","ping":72},{"user_id":282,"name":"Kahvi","steam_id":76561198723244199,"connected_time":483000000000,"state":"active","ping":75},{"user_id":222,"name":"poliakov.noam","steam_id":76561199259322961,"connected_time":2965000000000,"state":"active","ping":99},{"user_id":284,"name":"casper","steam_id":76561198869567040,"connected_time":399000000000,"state":"active","ping":108},{"user_id":281,"name":"Sandvich Gaming","steam_id":76561199079493666,"connected_time":542000000000,"state":"active","ping":95},{"user_id":257,"name":"Binky Den","steam_id":76561198164035863,"connected_time":1318000000000,"state":"active","ping":121},{"user_id":241,"name":"frosty","steam_id":76561198094560834,"connected_time":2217000000000,"state":"active","ping":53},{"user_id":252,"name":"jillcollinson197","steam_id":76561198017278769,"connected_time":1642000000000,"state":"active","ping":45},{"user_id":271,"name":"kwasny","steam_id":76561199033981024,"connected_time":887000000000,"state":"active","ping":55},{"user_id":287,"name":"Vince","steam_id":76561199103000131,"connected_time":275000000000,"state":"active","ping":45},{"user_id":277,"name":"the rizzler","steam_id":76561198070664114,"connected_time":712000000000,"state":"active","ping":72},{"user_id":188,"name":"cinny","steam_id":76561198832112629,"connected_time":4670000000000,"state":"active","ping":87},{"user_id":280,"name":"Ferrfrei_","steam_id":76561199171545365,"connected_time":566000000000,"state":"active","ping":104}]},{"server_id":321,"name":"Uncletopia | London | 4 | All Maps","name_short":"lon-4","host":"lon-1.uk.uncletopia.com","port":27045,"enabled":true,"region":"eu","cc":"gb","latitude":51.509865,"longitude":-0.118092,"reserved":0,"last_update":"0001-01-01T00:00:00Z","name_a2s":"Uncletopia | London | 4 | All Maps","protocol":17,"map":"koth_highpass","folder":"tf","game":"Team Fortress","app_id":440,"player_count":0,"max_players":24,"Bots":0,"server_type":"Dedicated","server_os":"Linux","password":true,"vac":true,"version":"7742253","steam_id":85568392924510193,"keywords":["cp","nocrits","nodmgspread","uncletopia"],"game_id":440,"stv_port":27046,"stv_name":"Uncletopia | London | 4 | All Maps | STV","players":null},{"server_id":21,"name":"Uncletopia | London | 5 | All Maps","name_short":"lon-5","host":"lon-1.uk.uncletopia.com","port":27055,"enabled":true,"region":"eu","cc":"gb","latitude":51.509865,"longitude":-0.118092,"reserved":0,"last_update":"0001-01-01T00:00:00Z","name_a2s":"Uncletopia | London | 5 | All Maps","protocol":17,"map":"pl_borneo","folder":"tf","game":"Team Fortress","app_id":440,"player_count":21,"max_players":24,"Bots":0,"server_type":"Dedicated","server_os":"Linux","password":true,"vac":true,"version":"7742253","steam_id":85568392924742829,"keywords":["nocrits","nodmgspread","payload","uncletopia"],"game_id":440,"stv_port":27056,"stv_name":"Uncletopia | London | 5 | All Maps | STV","players":[{"user_id":209,"name":"SlonkyDonky","steam_id":76561198425787528,"connected_time":121000000000,"state":"active","ping":67},{"user_id":207,"name":"banrab","steam_id":76561198083615367,"connected_time":577000000000,"state":"active","ping":37},{"user_id":154,"name":"Sgreff","steam_id":76561198036304365,"connected_time":4538000000000,"state":"active","ping":51},{"user_id":212,"name":"scoggan42","steam_id":76561199206140567,"connected_time":20000000000,"state":"spawning","ping":151},{"user_id":197,"name":"Trioud","steam_id":76561198093992054,"connected_time":1283000000000,"state":"active","ping":66},{"user_id":181,"name":"Rask","steam_id":76561198052934944,"connected_time":2257000000000,"state":"active","ping":90},{"user_id":198,"name":"Burpman","steam_id":76561198022897937,"connected_time":1241000000000,"state":"active","ping":61},{"user_id":164,"name":"walking plane","steam_id":76561198146779559,"connected_time":3895000000000,"state":"active","ping":81},{"user_id":213,"name":"Littleyoshifan","steam_id":76561198445491045,"connected_time":16000000000,"state":"active","ping":44},{"user_id":174,"name":"Signor_UpB","steam_id":76561199145637231,"connected_time":2934000000000,"state":"spawning","ping":119},{"user_id":199,"name":"CEO of Pen Island","steam_id":76561198037212191,"connected_time":1204000000000,"state":"active","ping":64},{"user_id":184,"name":"F1-M","steam_id":76561198198409875,"connected_time":2113000000000,"state":"active","ping":129},{"user_id":214,"name":"DoctorTopLeL","steam_id":76561198088533595,"connected_time":16000000000,"state":"spawning","ping":192},{"user_id":187,"name":":)","steam_id":76561198039964082,"connected_time":1930000000000,"state":"active","ping":70},{"user_id":202,"name":"I LOVE THE HIGH GROUND","steam_id":76561198989449047,"connected_time":1111000000000,"state":"spawning","ping":125},{"user_id":158,"name":"Annie the discharge enjoyer","steam_id":76561198241529554,"connected_time":4443000000000,"state":"spawning","ping":301},{"user_id":196,"name":"chekvanovartem","steam_id":76561199418182680,"connected_time":1677000000000,"state":"active","ping":83},{"user_id":135,"name":"subway vergil","steam_id":76561199110064166,"connected_time":5603000000000,"state":"active","ping":86},{"user_id":211,"name":"G(RIZZ)LY","steam_id":76561197973234203,"connected_time":114000000000,"state":"active","ping":49},{"user_id":203,"name":"night.s","steam_id":76561198326287823,"connected_time":1104000000000,"state":"active","ping":77},{"user_id":206,"name":"0xDEADBEEF","steam_id":76561199075416111,"connected_time":1042000000000,"state":"spawning","ping":91}]},{"server_id":22,"name":"Uncletopia | London | 6 | All Maps","name_short":"lon-6","host":"lon-1.uk.uncletopia.com","port":27065,"enabled":true,"region":"eu","cc":"gb","latitude":51.509865,"longitude":-0.118092,"reserved":0,"last_update":"0001-01-01T00:00:00Z","name_a2s":"Uncletopia | London | 6 | All Maps","protocol":17,"map":"koth_cascade","folder":"tf","game":"Team Fortress","app_id":440,"player_count":9,"max_players":24,"Bots":0,"server_type":"Dedicated","server_os":"Linux","password":true,"vac":true,"version":"7742253","steam_id":85568392924742830,"keywords":["cp","nocrits","nodmgspread","uncletopia"],"game_id":440,"stv_port":27066,"stv_name":"Uncletopia | London | 6 | All Maps | STV","players":[{"user_id":21,"name":"kickflip","steam_id":76561199245051414,"connected_time":885000000000,"state":"active","ping":51},{"user_id":35,"name":"torn","steam_id":76561198223003236,"connected_time":13000000000,"state":"spawning","ping":60},{"user_id":23,"name":"TheFox.tf","steam_id":76561197996851702,"connected_time":464000000000,"state":"active","ping":80},{"user_id":25,"name":"FoguDashy","steam_id":76561199155682408,"connected_time":322000000000,"state":"active","ping":75},{"user_id":26,"name":"Polaris","steam_id":76561198007076931,"connected_time":289000000000,"state":"active","ping":58},{"user_id":34,"name":"The Trimp Squire","steam_id":76561198367203640,"connected_time":94000000000,"state":"active","ping":48},{"user_id":28,"name":"name420","steam_id":76561198129374525,"connected_time":260000000000,"state":"active","ping":145},{"user_id":33,"name":"[Insert Oneshot refrence]","steam_id":76561198951206047,"connected_time":169000000000,"state":"active","ping":91},{"user_id":31,"name":"UsawMed","steam_id":76561198045106141,"connected_time":199000000000,"state":"active","ping":59}]},{"server_id":40,"name":"Uncletopia | London | 7 | No Payload","name_short":"lon-7","host":"lon-1.uk.uncletopia.com","port":27075,"enabled":true,"region":"eu","cc":"gb","latitude":51.509865,"longitude":-0.118092,"reserved":0,"last_update":"0001-01-01T00:00:00Z","name_a2s":"Uncletopia | London | 7 | No Payload","protocol":17,"map":"koth_viaduct","folder":"tf","game":"Team Fortress","app_id":440,"player_count":2,"max_players":24,"Bots":0,"server_type":"Dedicated","server_os":"Linux","password":true,"vac":true,"version":"7742253","steam_id":85568392924964314,"keywords":["cp","nocrits","nodmgspread","uncletopia"],"game_id":440,"stv_port":27076,"stv_name":"Uncletopia | London | 7 | No Payload | STV","players":[{"user_id":16,"name":"Percival","steam_id":76561198130848472,"connected_time":104000000000,"state":"active","ping":151},{"user_id":17,"name":"類Ken","steam_id":76561198448339863,"connected_time":58000000000,"state":"active","ping":115}]},{"server_id":41,"name":"Uncletopia | London | 8 | Community","name_short":"lon-8","host":"lon-1.uk.uncletopia.com","port":27085,"enabled":true,"region":"eu","cc":"gb","latitude":51.509865,"longitude":-0.118092,"reserved":0,"last_update":"0001-01-01T00:00:00Z","name_a2s":"Uncletopia | London | 8 | Community","protocol":17,"map":"cp_altitude","folder":"tf","game":"Team Fortress","app_id":440,"player_count":4,"max_players":24,"Bots":0,"server_type":"Dedicated","server_os":"Linux","password":true,"vac":true,"version":"7742253","steam_id":85568392924964315,"keywords":["cp","nocrits","nodmgspread","uncletopia"],"game_id":440,"stv_port":27086,"stv_name":"Uncletopia | London | 8 | Community | STV","players":[{"user_id":20,"name":"luigiu739","steam_id":76561199097178350,"connected_time":283000000000,"state":"active","ping":117},{"user_id":17,"name":"FakeBot","steam_id":76561197961193303,"connected_time":580000000000,"state":"active","ping":209},{"user_id":21,"name":"FoxtrotTheFirst","steam_id":76561199082399636,"connected_time":259000000000,"state":"active","ping":57},{"user_id":11,"name":"Mars","steam_id":76561198846610729,"connected_time":1115000000000,"state":"active","ping":153}]},{"server_id":300,"name":"Uncletopia | Montréal | 1 | All Maps","name_short":"mtl-1","host":"mtl-1.ca.uncletopia.com","port":27015,"enabled":true,"region":"us-east","cc":"ca","latitude":45.50889,"longitude":-73.56167,"reserved":0,"last_update":"0001-01-01T00:00:00Z","name_a2s":"Uncletopia | Montréal | 1 | All Maps","protocol":17,"map":"koth_highpass","folder":"tf","game":"Team Fortress","app_id":440,"player_count":0,"max_players":24,"Bots":0,"server_type":"Dedicated","server_os":"Linux","password":true,"vac":true,"version":"7742253","steam_id":85568392924500087,"keywords":["cp","nocrits","nodmgspread","uncletopia"],"game_id":440,"stv_port":27016,"stv_name":"Uncletopia | Montréal | 1 | All Maps | STV","players":null},{"server_id":301,"name":"Uncletopia | Montréal | 2 | All Maps","name_short":"mtl-2","host":"mtl-1.ca.uncletopia.com","port":27025,"enabled":true,"region":"us-east","cc":"ca","latitude":45.50889,"longitude":-73.56167,"reserved":0,"last_update":"0001-01-01T00:00:00Z","name_a2s":"Uncletopia | Montréal | 2 | All Maps","protocol":17,"map":"koth_highpass","folder":"tf","game":"Team Fortress","app_id":440,"player_count":0,"max_players":24,"Bots":0,"server_type":"Dedicated","server_os":"Linux","password":true,"vac":true,"version":"7742253","steam_id":85568392924500088,"keywords":["cp","nocrits","nodmgspread","uncletopia"],"game_id":440,"stv_port":27026,"stv_name":"Uncletopia | Montréal | 2 | All Maps | STV","players":null},{"server_id":302,"name":"Uncletopia | Montréal | 3 | All Maps","name_short":"mtl-3","host":"mtl-1.ca.uncletopia.com","port":27035,"enabled":true,"region":"us-east","cc":"ca","latitude":45.50889,"longitude":-73.56167,"reserved":0,"last_update":"0001-01-01T00:00:00Z","name_a2s":"Uncletopia | Montréal | 3 | All Maps","protocol":17,"map":"cp_mountainlab","folder":"tf","game":"Team Fortress","app_id":440,"player_count":0,"max_players":24,"Bots":0,"server_type":"Dedicated","server_os":"Linux","password":true,"vac":true,"version":"7742253","steam_id":85568392924500089,"keywords":["cp","nocrits","nodmgspread","uncletopia"],"game_id":440,"stv_port":27036,"stv_name":"Uncletopia | Montréal | 3 | All Maps | STV","players":null},{"server_id":303,"name":"Uncletopia | Montréal | 4 | No Payload","name_short":"mtl-4","host":"mtl-1.ca.uncletopia.com","port":27045,"enabled":true,"region":"us-east","cc":"ca","latitude":45.50889,"longitude":-73.56167,"reserved":0,"last_update":"0001-01-01T00:00:00Z","name_a2s":"Uncletopia | Montréal | 4 | No Payload","protocol":17,"map":"cp_snakewater_final1","folder":"tf","game":"Team Fortress","app_id":440,"player_count":0,"max_players":24,"Bots":0,"server_type":"Dedicated","server_os":"Linux","password":true,"vac":true,"version":"7742253","steam_id":85568392924500090,"keywords":["cp","nocrits","nodmgspread","uncletopia"],"game_id":440,"stv_port":27046,"stv_name":"Uncletopia | Montréal | 4 | No Payload | STV","players":null},{"server_id":13,"name":"Uncletopia | New York City | 1 | All Maps","name_short":"nyc-1","host":"nyc-1.us.uncletopia.com","port":27015,"enabled":true,"region":"us-east","cc":"us","latitude":40.73061,"longitude":-73.93524,"reserved":0,"last_update":"0001-01-01T00:00:00Z","name_a2s":"Uncletopia | New York City | 1 | All Maps","protocol":17,"map":"pl_upward","folder":"tf","game":"Team Fortress","app_id":440,"player_count":23,"max_players":24,"Bots":0,"server_type":"Dedicated","server_os":"Linux","password":true,"vac":true,"version":"7742253","steam_id":85568392924469993,"keywords":["nocrits","nodmgspread","payload","uncletopia"],"game_id":440,"stv_port":27016,"stv_name":"Uncletopia | New York City | 1 | All Maps | STV","players":[{"user_id":50,"name":"lapi","steam_id":76561198302976864,"connected_time":534000000000,"state":"active","ping":73},{"user_id":48,"name":"shadysessions","steam_id":76561198032464781,"connected_time":546000000000,"state":"active","ping":71},{"user_id":43,"name":"JustcallmeLuke.","steam_id":76561198383725283,"connected_time":1514000000000,"state":"active","ping":96},{"user_id":46,"name":"meinsword","steam_id":76561198272653535,"connected_time":1004000000000,"state":"active","ping":65},{"user_id":13,"name":"Samus","steam_id":76561198121933439,"connected_time":3045000000000,"state":"active","ping":51},{"user_id":18,"name":"Help Me","steam_id":76561198133851467,"connected_time":2467000000000,"state":"active","ping":105},{"user_id":16,"name":"Japanese Rabbit Enthusiast","steam_id":76561199134895220,"connected_time":2857000000000,"state":"active","ping":54},{"user_id":20,"name":"Chaotic Rushu","steam_id":76561198170054407,"connected_time":2399000000000,"state":"active","ping":67},{"user_id":52,"name":"hola","steam_id":76561198873043242,"connected_time":362000000000,"state":"active","ping":126},{"user_id":23,"name":"Ass Blaster, Disaster Master","steam_id":76561197997774469,"connected_time":2351000000000,"state":"active","ping":105},{"user_id":24,"name":"Red Scientist","steam_id":76561198151349793,"connected_time":2321000000000,"state":"active","ping":83},{"user_id":53,"name":"schwicky shwag","steam_id":76561198037921140,"connected_time":140000000000,"state":"active","ping":106},{"user_id":26,"name":"Dramatic","steam_id":76561199012990268,"connected_time":2280000000000,"state":"active","ping":45},{"user_id":28,"name":"Kinbo2487","steam_id":76561198184714198,"connected_time":2271000000000,"state":"active","ping":84},{"user_id":49,"name":"Windowed Envelope","steam_id":76561198811526365,"connected_time":543000000000,"state":"active","ping":45},{"user_id":30,"name":"lllllllll","steam_id":76561198415484497,"connected_time":2214000000000,"state":"active","ping":181},{"user_id":31,"name":"shotgun king has a knife now","steam_id":76561199233433896,"connected_time":2194000000000,"state":"active","ping":99},{"user_id":54,"name":"dontsingofficial","steam_id":76561199455559827,"connected_time":118000000000,"state":"active","ping":61},{"user_id":33,"name":"Muffin","steam_id":76561199156302434,"connected_time":2173000000000,"state":"active","ping":65},{"user_id":41,"name":"TAKE ME TO YOUR LEADER","steam_id":76561198328109873,"connected_time":1827000000000,"state":"active","ping":58},{"user_id":45,"name":"CRAZY engineer","steam_id":76561198887937902,"connected_time":1109000000000,"state":"active","ping":65},{"user_id":37,"name":"Menace to Sobriety","steam_id":76561198245103000,"connected_time":2105000000000,"state":"active","ping":49},{"user_id":38,"name":"Hobocop","steam_id":76561198076321907,"connected_time":2097000000000,"state":"active","ping":94}]},{"server_id":14,"name":"Uncletopia | New York City | 2 | All Maps","name_short":"nyc-2","host":"nyc-1.us.uncletopia.com","port":27025,"enabled":true,"region":"us-east","cc":"us","latitude":40.73061,"longitude":-73.93524,"reserved":0,"last_update":"0001-01-01T00:00:00Z","name_a2s":"Uncletopia | New York City | 2 | All Maps","protocol":17,"map":"cp_altitude","folder":"tf","game":"Team Fortress","app_id":440,"player_count":0,"max_players":24,"Bots":0,"server_type":"Dedicated","server_os":"Linux","password":true,"vac":true,"version":"7742253","steam_id":85568392924469994,"keywords":["cp","nocrits","nodmgspread","uncletopia"],"game_id":440,"stv_port":27026,"stv_name":"Uncletopia | New York City | 2 | All Maps | STV","players":null},{"server_id":15,"name":"Uncletopia | New York City | 3 | Stopwatch Beta","name_short":"nyc-3","host":"nyc-1.us.uncletopia.com","port":27035,"enabled":true,"region":"us-east","cc":"us","latitude":40.73061,"longitude":-73.93524,"reserved":0,"last_update":"0001-01-01T00:00:00Z","name_a2s":"Uncletopia | New York City | 3 | Stopwatch Beta","protocol":17,"map":"pl_pier","folder":"tf","game":"Team Fortress","app_id":440,"player_count":0,"max_players":24,"Bots":0,"server_type":"Dedicated","server_os":"Linux","password":true,"vac":true,"version":"7742253","steam_id":85568392924742820,"keywords":["nocrits","nodmgspread","payload","uncletopia"],"game_id":440,"stv_port":27036,"stv_name":"Uncletopia | New York City | 3 | Stopwatch Beta | STV","players":null},{"server_id":16,"name":"Uncletopia | New York City | 4 | Community","name_short":"nyc-4","host":"nyc-1.us.uncletopia.com","port":27045,"enabled":true,"region":"us-east","cc":"us","latitude":40.73061,"longitude":-73.93524,"reserved":0,"last_update":"0001-01-01T00:00:00Z","name_a2s":"Uncletopia | New York City | 4 | Community","protocol":17,"map":"koth_viaduct","folder":"tf","game":"Team Fortress","app_id":440,"player_count":0,"max_players":24,"Bots":0,"server_type":"Dedicated","server_os":"Linux","password":true,"vac":true,"version":"7742253","steam_id":85568392924742821,"keywords":["cp","nocrits","nodmgspread","uncletopia"],"game_id":440,"stv_port":27046,"stv_name":"Uncletopia | New York City | 4 | Community | STV","players":null},{"server_id":142,"name":"Uncletopia | São Paulo | 1 | All Maps","name_short":"sao-1","host":"sao-1.br.uncletopia.com","port":27015,"enabled":true,"region":"sa","cc":"br","latitude":-23.533773,"longitude":-46.62529,"reserved":0,"last_update":"0001-01-01T00:00:00Z","name_a2s":"Uncletopia | São Paulo | 1 | All Maps","protocol":17,"map":"koth_viaduct","folder":"tf","game":"Team Fortress","app_id":440,"player_count":0,"max_players":24,"Bots":0,"server_type":"Dedicated","server_os":"Linux","password":true,"vac":true,"version":"7742253","steam_id":85568392924469996,"keywords":["cp","nocrits","nodmgspread","uncletopia"],"game_id":440,"stv_port":27016,"stv_name":"Uncletopia | São Paulo | 1 | All Maps | STV","players":null},{"server_id":143,"name":"Uncletopia | São Paulo | 2 | All Maps","name_short":"sao-2","host":"sao-2.br.uncletopia.com","port":27015,"enabled":true,"region":"sa","cc":"br","latitude":-23.533773,"longitude":-46.62529,"reserved":0,"last_update":"0001-01-01T00:00:00Z","name_a2s":"Uncletopia | São Paulo | 2 | All Maps","protocol":17,"map":"pl_upward","folder":"tf","game":"Team Fortress","app_id":440,"player_count":0,"max_players":24,"Bots":0,"server_type":"Dedicated","server_os":"Linux","password":true,"vac":true,"version":"7742253","steam_id":85568392924485349,"keywords":["nocrits","nodmgspread","payload","uncletopia"],"game_id":440,"stv_port":27016,"stv_name":"Uncletopia | São Paulo | 2 | All Maps | STV","players":null},{"server_id":7,"name":"Uncletopia | Seattle | 1 | All Maps","name_short":"sea-1","host":"sea-1.us.uncletopia.com","port":27015,"enabled":true,"region":"us-west","cc":"us","latitude":47.608013,"longitude":-122.33517,"reserved":0,"last_update":"0001-01-01T00:00:00Z","name_a2s":"Uncletopia | Seattle | 1 | All Maps","protocol":17,"map":"cp_process_final","folder":"tf","game":"Team Fortress","app_id":440,"player_count":0,"max_players":24,"Bots":0,"server_type":"Dedicated","server_os":"Linux","password":true,"vac":true,"version":"7742253","steam_id":85568392924469997,"keywords":["cp","nocrits","nodmgspread","uncletopia"],"game_id":440,"stv_port":27016,"stv_name":"Uncletopia | Seattle | 1 | All Maps | STV","players":null},{"server_id":119,"name":"Uncletopia | Seattle | 2 | All Maps","name_short":"sea-2","host":"sea-1.us.uncletopia.com","port":27025,"enabled":true,"region":"us-west","cc":"us","latitude":47.608013,"longitude":-122.33517,"reserved":0,"last_update":"0001-01-01T00:00:00Z","name_a2s":"Uncletopia | Seattle | 2 | All Maps","protocol":17,"map":"cp_snakewater_final1","folder":"tf","game":"Team Fortress","app_id":440,"player_count":0,"max_players":24,"Bots":0,"server_type":"Dedicated","server_os":"Linux","password":true,"vac":true,"version":"7742253","steam_id":85568392924469998,"keywords":["cp","nocrits","nodmgspread","uncletopia"],"game_id":440,"stv_port":27026,"stv_name":"Uncletopia | Seattle | 2 | All Maps | STV","players":null},{"server_id":406,"name":"Uncletopia | Seattle | 3 | Stopwatch Beta","name_short":"sea-3","host":"sea-1.us.uncletopia.com","port":27035,"enabled":true,"region":"us-west","cc":"us","latitude":47.608013,"longitude":-122.33517,"reserved":0,"last_update":"0001-01-01T00:00:00Z","name_a2s":"Uncletopia | Seattle | 3 | Stopwatch Beta","protocol":17,"map":"cp_altitude","folder":"tf","game":"Team Fortress","app_id":440,"player_count":0,"max_players":24,"Bots":0,"server_type":"Dedicated","server_os":"Linux","password":true,"vac":true,"version":"7742253","steam_id":85568392924515217,"keywords":["cp","nocrits","nodmgspread","uncletopia"],"game_id":440,"stv_port":27036,"stv_name":"Uncletopia | Seattle | 3 | Stopwatch Beta | STV","players":null},{"server_id":17,"name":"Uncletopia | San Francisco | 1 | All Maps","name_short":"sfo-1","host":"sfo-1.us.uncletopia.com","port":27015,"enabled":true,"region":"us-west","cc":"us","latitude":37.77397,"longitude":-122.4313,"reserved":0,"last_update":"0001-01-01T00:00:00Z","name_a2s":"Uncletopia | San Francisco | 1 | All Maps","protocol":17,"map":"pl_snowycoast","folder":"tf","game":"Team Fortress","app_id":440,"player_count":0,"max_players":24,"Bots":0,"server_type":"Dedicated","server_os":"Linux","password":true,"vac":true,"version":"7742253","steam_id":85568392924469999,"keywords":["nocrits","nodmgspread","payload","uncletopia"],"game_id":440,"stv_port":27016,"stv_name":"Uncletopia | San Francisco | 1 | All Maps | STV","players":null},{"server_id":18,"name":"Uncletopia | San Francisco | 2 | All Maps","name_short":"sfo-2","host":"sfo-1.us.uncletopia.com","port":27025,"enabled":true,"region":"us-west","cc":"us","latitude":37.77397,"longitude":-122.4313,"reserved":0,"last_update":"0001-01-01T00:00:00Z","name_a2s":"Uncletopia | San Francisco | 2 | All Maps","protocol":17,"map":"cp_altitude","folder":"tf","game":"Team Fortress","app_id":440,"player_count":0,"max_players":24,"Bots":0,"server_type":"Dedicated","server_os":"Linux","password":true,"vac":true,"version":"7742253","steam_id":85568392924470000,"keywords":["cp","nocrits","nodmgspread","uncletopia"],"game_id":440,"stv_port":27026,"stv_name":"Uncletopia | San Francisco | 2 | All Maps | STV","players":null},{"server_id":19,"name":"Uncletopia | San Francisco | 3 | Stopwatch Beta","name_short":"sfo-3","host":"sfo-1.us.uncletopia.com","port":27035,"enabled":true,"region":"us-west","cc":"us","latitude":37.77397,"longitude":-122.4313,"reserved":0,"last_update":"0001-01-01T00:00:00Z","name_a2s":"Uncletopia | San Francisco | 3 | Stopwatch Beta","protocol":17,"map":"koth_lakeside_final","folder":"tf","game":"Team Fortress","app_id":440,"player_count":0,"max_players":24,"Bots":0,"server_type":"Dedicated","server_os":"Linux","password":true,"vac":true,"version":"7742253","steam_id":85568392924742824,"keywords":["cp","nocrits","nodmgspread","uncletopia"],"game_id":440,"stv_port":27036,"stv_name":"Uncletopia | San Francisco | 3 | Stopwatch Beta | STV","players":null},{"server_id":20,"name":"Uncletopia | San Francisco | 4 | Community","name_short":"sfo-4","host":"sfo-1.us.uncletopia.com","port":27045,"enabled":true,"region":"us-west","cc":"us","latitude":37.77397,"longitude":-122.4313,"reserved":0,"last_update":"0001-01-01T00:00:00Z","name_a2s":"Uncletopia | San Francisco | 4 | Community","protocol":17,"map":"workshop/cp_villa_b19.ugc2113052569","folder":"tf","game":"Team Fortress","app_id":440,"player_count":0,"max_players":24,"Bots":0,"server_type":"Dedicated","server_os":"Linux","password":true,"vac":true,"version":"7742253","steam_id":85568392924742826,"keywords":["cp","nocrits","nodmgspread","uncletopia"],"game_id":440,"stv_port":27046,"stv_name":"Uncletopia | San Francisco | 4 | Community | STV","players":null},{"server_id":141,"name":"Uncletopia | Sydney | 1 | All Maps","name_short":"syd-1","host":"syd-1.au.uncletopia.com","port":27015,"enabled":true,"region":"au","cc":"au","latitude":-33.865143,"longitude":151.2099,"reserved":0,"last_update":"0001-01-01T00:00:00Z","name_a2s":"Uncletopia | Sydney | 1 | All Maps","protocol":17,"map":"cp_snakewater_final1","folder":"tf","game":"Team Fortress","app_id":440,"player_count":0,"max_players":24,"Bots":0,"server_type":"Dedicated","server_os":"Linux","password":true,"vac":true,"version":"7742253","steam_id":85568392924470001,"keywords":["cp","nocrits","nodmgspread","uncletopia"],"game_id":440,"stv_port":27016,"stv_name":"Uncletopia | Sydney | 1 | All Maps | STV","players":null},{"server_id":123,"name":"Uncletopia | Sydney | 2 | All Maps","name_short":"syd-2","host":"syd-1.au.uncletopia.com","port":27025,"enabled":true,"region":"au","cc":"au","latitude":-33.865143,"longitude":151.2099,"reserved":0,"last_update":"0001-01-01T00:00:00Z","name_a2s":"Uncletopia | Sydney | 2 | All Maps","protocol":17,"map":"koth_lakeside_final","folder":"tf","game":"Team Fortress","app_id":440,"player_count":0,"max_players":24,"Bots":0,"server_type":"Dedicated","server_os":"Linux","password":true,"vac":true,"version":"7742253","steam_id":85568392924470002,"keywords":["cp","nocrits","nodmgspread","uncletopia"],"game_id":440,"stv_port":27026,"stv_name":"Uncletopia | Sydney | 2 | All Maps | STV","players":null},{"server_id":395,"name":"Uncletopia | Sydney | 3 | All Maps","name_short":"syd-3","host":"syd-1.au.uncletopia.com","port":27035,"enabled":true,"region":"au","cc":"au","latitude":-33.865143,"longitude":151.2099,"reserved":0,"last_update":"0001-01-01T00:00:00Z","name_a2s":"Uncletopia | Sydney | 3 | All Maps","protocol":17,"map":"koth_king","folder":"tf","game":"Team Fortress","app_id":440,"player_count":0,"max_players":24,"Bots":0,"server_type":"Dedicated","server_os":"Linux","password":true,"vac":true,"version":"7742253","steam_id":85568392925194467,"keywords":["cp","nocrits","nodmgspread","uncletopia"],"game_id":440,"stv_port":27036,"stv_name":"Uncletopia | Sydney | 3 | All Maps | STV","players":null},{"server_id":396,"name":"Uncletopia | Sydney | 4 | All Maps","name_short":"syd-4","host":"syd-1.au.uncletopia.com","port":27045,"enabled":true,"region":"au","cc":"au","latitude":-33.865143,"longitude":151.2099,"reserved":0,"last_update":"0001-01-01T00:00:00Z","name_a2s":"Uncletopia | Sydney | 4 | All Maps","protocol":17,"map":"pl_frontier_final","folder":"tf","game":"Team Fortress","app_id":440,"player_count":0,"max_players":24,"Bots":0,"server_type":"Dedicated","server_os":"Linux","password":true,"vac":true,"version":"7742253","steam_id":85568392925397958,"keywords":["nocrits","nodmgspread","payload","uncletopia"],"game_id":440,"stv_port":27046,"stv_name":"Uncletopia | Sydney | 4 | All Maps | STV","players":null},{"server_id":58,"name":"Uncletopia | Sydney | 5 | Stopwatch Beta","name_short":"syd-5","host":"syd-1.au.uncletopia.com","port":27055,"enabled":true,"region":"au","cc":"au","latitude":-33.865143,"longitude":151.2099,"reserved":0,"last_update":"0001-01-01T00:00:00Z","name_a2s":"Uncletopia | Sydney | 5 | Stopwatch Beta","protocol":17,"map":"workshop/pl_summercoast_rc8e.ugc1761528829","folder":"tf","game":"Team Fortress","app_id":440,"player_count":0,"max_players":24,"Bots":0,"server_type":"Dedicated","server_os":"Linux","password":true,"vac":true,"version":"7742253","steam_id":85568392925397959,"keywords":["nocrits","nodmgspread","payload","uncletopia"],"game_id":440,"stv_port":27056,"stv_name":"Uncletopia | Sydney | 5 | Stopwatch Beta | STV","players":null},{"server_id":59,"name":"Uncletopia | Sydney | 6 | Community","name_short":"syd-6","host":"syd-1.au.uncletopia.com","port":27065,"enabled":true,"region":"au","cc":"au","latitude":-33.865143,"longitude":151.2099,"reserved":0,"last_update":"0001-01-01T00:00:00Z","name_a2s":"Uncletopia | Sydney | 6 | Community","protocol":17,"map":"workshop/koth_ramjam_rc1.ugc459778887","folder":"tf","game":"Team Fortress","app_id":440,"player_count":0,"max_players":24,"Bots":0,"server_type":"Dedicated","server_os":"Linux","password":true,"vac":true,"version":"7742253","steam_id":85568392925397960,"keywords":["cp","nocrits","nodmgspread","uncletopia"],"game_id":440,"stv_port":27066,"stv_name":"Uncletopia | Sydney | 6 | Community | STV","players":null},{"server_id":49,"name":"Uncletopia | Warsaw | 1 | All Maps","name_short":"waw-1","host":"waw-1.pl.uncletopia.com","port":27015,"enabled":true,"region":"eu","cc":"pl","latitude":52.2297,"longitude":21.017532,"reserved":0,"last_update":"0001-01-01T00:00:00Z","name_a2s":"","protocol":0,"map":"","folder":"","game":"","app_id":0,"player_count":0,"max_players":0,"Bots":0,"server_type":"","server_os":"","password":false,"vac":false,"version":"","steam_id":0,"keywords":null,"game_id":0,"stv_port":0,"stv_name":"","players":null},{"server_id":50,"name":"Uncletopia | Warsaw | 2 | All Maps","name_short":"waw-2","host":"waw-1.pl.uncletopia.com","port":27025,"enabled":true,"region":"eu","cc":"pl","latitude":52.2297,"longitude":21.017532,"reserved":0,"last_update":"0001-01-01T00:00:00Z","name_a2s":"Uncletopia | Warsaw | 2 | All Maps","protocol":17,"map":"pl_borneo","folder":"tf","game":"Team Fortress","app_id":440,"player_count":0,"max_players":24,"Bots":0,"server_type":"Dedicated","server_os":"Linux","password":true,"vac":true,"version":"7742253","steam_id":85568392925397851,"keywords":["nocrits","nodmgspread","payload","uncletopia"],"game_id":440,"stv_port":27026,"stv_name":"Uncletopia | Warsaw | 2 | All Maps | STV","players":null},{"server_id":51,"name":"Uncletopia | Warsaw | 3 | All Maps","name_short":"waw-3","host":"waw-1.pl.uncletopia.com","port":27035,"enabled":true,"region":"eu","cc":"pl","latitude":52.2297,"longitude":21.017532,"reserved":0,"last_update":"0001-01-01T00:00:00Z","name_a2s":"Uncletopia | Warsaw | 3 | All Maps","protocol":17,"map":"koth_lakeside_final","folder":"tf","game":"Team Fortress","app_id":440,"player_count":0,"max_players":24,"Bots":0,"server_type":"Dedicated","server_os":"Linux","password":true,"vac":true,"version":"7742253","steam_id":85568392925397852,"keywords":["cp","nocrits","nodmgspread","uncletopia"],"game_id":440,"stv_port":27036,"stv_name":"Uncletopia | Warsaw | 3 | All Maps | STV","players":null},{"server_id":52,"name":"Uncletopia | Warsaw | 4 | All Maps","name_short":"waw-4","host":"waw-1.pl.uncletopia.com","port":27045,"enabled":true,"region":"eu","cc":"pl","latitude":52.2297,"longitude":21.017532,"reserved":0,"last_update":"0001-01-01T00:00:00Z","name_a2s":"Uncletopia | Warsaw | 4 | All Maps","protocol":17,"map":"koth_king","folder":"tf","game":"Team Fortress","app_id":440,"player_count":0,"max_players":24,"Bots":0,"server_type":"Dedicated","server_os":"Linux","password":true,"vac":true,"version":"7742253","steam_id":85568392925397853,"keywords":["cp","nocrits","nodmgspread","uncletopia"],"game_id":440,"stv_port":27046,"stv_name":"Uncletopia | Warsaw | 4 | All Maps | STV","players":null},{"server_id":53,"name":"Uncletopia | Warsaw | 5 | Stopwatch Beta","name_short":"waw-5","host":"waw-1.pl.uncletopia.com","port":27055,"enabled":true,"region":"eu","cc":"pl","latitude":52.2297,"longitude":21.017532,"reserved":0,"last_update":"0001-01-01T00:00:00Z","name_a2s":"Uncletopia | Warsaw | 5 | Stopwatch Beta","protocol":17,"map":"pl_swiftwater_final1","folder":"tf","game":"Team Fortress","app_id":440,"player_count":0,"max_players":24,"Bots":0,"server_type":"Dedicated","server_os":"Linux","password":true,"vac":true,"version":"7742253","steam_id":85568392925397854,"keywords":["nocrits","nodmgspread","payload","uncletopia"],"game_id":440,"stv_port":27056,"stv_name":"Uncletopia | Warsaw | 5 | Stopwatch Beta | STV","players":null},{"server_id":54,"name":"Uncletopia | Warsaw | 6 | Community","name_short":"waw-6","host":"waw-1.pl.uncletopia.com","port":27065,"enabled":true,"region":"eu","cc":"pl","latitude":52.2297,"longitude":21.017532,"reserved":0,"last_update":"0001-01-01T00:00:00Z","name_a2s":"Uncletopia | Warsaw | 6 | Community","protocol":17,"map":"koth_highpass","folder":"tf","game":"Team Fortress","app_id":440,"player_count":0,"max_players":24,"Bots":0,"server_type":"Dedicated","server_os":"Linux","password":true,"vac":true,"version":"7742253","steam_id":85568392925397856,"keywords":["cp","nocrits","nodmgspread","uncletopia"],"game_id":440,"stv_port":27066,"stv_name":"Uncletopia | Warsaw | 6 | Community | STV","players":null}]}