{"status":true,"message":"","result":[{"server_id":9,"name":"Uncletopia | Atlanta | 1 | All Maps","name_short":"atl-1","host":"atl-1.us.uncletopia.com","port":27015,"enabled":true,"region":"us-east","cc":"us","latitude":33.753746,"longitude":-84.38633,"reserved":0,"last_update":"0001-01-01T00:00:00Z","name_a2s":"Uncletopia | Atlanta | 1 | All Maps","protocol":17,"map":"pl_barnblitz","folder":"tf","game":"Team Fortress","app_id":440,"player_count":19,"max_players":24,"Bots":0,"server_type":"Dedicated","server_os":"Linux","password":true,"vac":true,"version":"7882260","steam_id":85568392924469982,"keywords":["nocrits","nodmgspread","payload","uncletopia"],"game_id":440,"stv_port":27016,"stv_name":"Uncletopia | Atlanta | 1 | All Maps | STV","players":[{"user_id":755,"name":"The Cool Man","steam_id":76561198096420556,"connected_time":1214000000000,"state":"active","ping":112},{"user_id":763,"name":"Epicdud42","steam_id":76561198358974675,"connected_time":989000000000,"state":"active","ping":98},{"user_id":780,"name":"xFactr","steam_id":76561198129007422,"connected_time":547000000000,"state":"active","ping":86},{"user_id":606,"name":"Hydrochlorination","steam_id":76561198369241423,"connected_time":5095000000000,"state":"active","ping":81},{"user_id":784,"name":"Thingy","steam_id":76561198140161202,"connected_time":349000000000,"state":"active","ping":88},{"user_id":782,"name":"illious","steam_id":76561198169925494,"connected_time":449000000000,"state":"active","ping":86},{"user_id":769,"name":"how to fly?","steam_id":76561198064255155,"connected_time":761000000000,"state":"active","ping":68},{"user_id":314,"name":"Tree45","steam_id":76561198143698408,"connected_time":11799000000000,"state":"active","ping":105},{"user_id":742,"name":"(◎﹏◎)","steam_id":76561198007464245,"connected_time":1462000000000,"state":"active","ping":83},{"user_id":674,"name":"not an A319","steam_id":76561198872440595,"connected_time":3448000000000,"state":"active","ping":105},{"user_id":669,"name":"The Sydney Sleeper Itself","steam_id":76561198180251763,"connected_time":3554000000000,"state":"active","ping":102},{"user_id":727,"name":"dark souls boss","steam_id":76561198316610724,"connected_time":2024000000000,"state":"active","ping":121},{"user_id":783,"name":"Komrade","steam_id":76561198309064450,"connected_time":385000000000,"state":"active","ping":111},{"user_id":785,"name":"WyvexTIA","steam_id":76561198018887264,"connected_time":342000000000,"state":"active","ping":103},{"user_id":537,"name":"TOYSIPO2","steam_id":76561198042183304,"connected_time":7600000000000,"state":"active","ping":97},{"user_id":791,"name":"TimTamPlays","steam_id":76561198353943374,"connected_time":17000000000,"state":"spawning","ping":97},{"user_id":788,"name":"Wan Shi Tong","steam_id":76561198076441225,"connected_time":75000000000,"state":"active","ping":95},{"user_id":792,"name":"Neko9000","steam_id":76561198054278268,"connected_time":3000000000,"state":"spawning","ping":81},{"user_id":790,"name":"i farted.","steam_id":76561199059257565,"connected_time":71000000000,"state":"active","ping":103}]},{"server_id":104,"name":"Uncletopia | Atlanta | 2 | All Maps","name_short":"atl-2","host":"atl-1.us.uncletopia.com","port":27025,"enabled":true,"region":"us-east","cc":"us","latitude":33.753746,"longitude":-84.38633,"reserved":0,"last_update":"0001-01-01T00:00:00Z","name_a2s":"Uncletopia | Atlanta | 2 | All Maps","protocol":17,"map":"cp_altitude","folder":"tf","game":"Team Fortress","app_id":440,"player_count":4,"max_players":24,"Bots":0,"server_type":"Dedicated","server_os":"Linux","password":true,"vac":true,"version":"7882260","steam_id":85568392924469983,"keywords":["cp","nocrits","nodmgspread","uncletopia"],"game_id":440,"stv_port":27026,"stv_name":"Uncletopia | Atlanta | 2 | All Maps | STV","players":[{"user_id":492,"name":"Lantzel0t","steam_id":76561198155000869,"connected_time":706000000000,"state":"active","ping":72},{"user_id":493,"name":"Lordwolf5","steam_id":76561198077437401,"connected_time":655000000000,"state":"active","ping":62},{"user_id":494,"name":"Jreamur","steam_id":76561198059661459,"connected_time":648000000000,"state":"active","ping":107},{"user_id":495,"name":"Music God","steam_id":76561198078130115,"connected_time":558000000000,"state":"active","ping":64}]},{"server_id":400,"name":"Uncletopia | Atlanta | 3 | Community","name_short":"atl-3","host":"atl-1.us.uncletopia.com","port":27035,"enabled":true,"region":"us-east","cc":"us","latitude":33.753746,"longitude":-84.38633,"reserved":0,"last_update":"0001-01-01T00:00:00Z","name_a2s":"Uncletopia | Atlanta | 3 | Community","protocol":17,"map":"workshop/pl_fifthcurve_rc1.ugc648227046","folder":"tf","game":"Team Fortress","app_id":440,"player_count":0,"max_players":24,"Bots":0,"server_type":"Dedicated","server_os":"Linux","password":true,"vac":true,"version":"7882260","steam_id":85568392924515187,"keywords":["nocrits","nodmgspread","payload","uncletopia"],"game_id":440,"stv_port":27036,"stv_name":"Uncletopia | Atlanta | 3 | Community | STV","players":null},{"server_id":401,"name":"Uncletopia | Atlanta | 4 | No Payload","name_short":"atl-4","host":"atl-1.us.uncletopia.com","port":27045,"enabled":true,"region":"us-east","cc":"us","latitude":33.753746,"longitude":-84.38633,"reserved":0,"last_update":"0001-01-01T00:00:00Z","name_a2s":"","protocol":0,"map":"","folder":"","game":"","app_id":0,"player_count":0,"max_players":0,"Bots":0,"server_type":"","server_os":"","password":false,"vac":false,"version":"","steam_id":0,"keywords":null,"game_id":0,"stv_port":0,"stv_name":"","players":null},{"server_id":2,"name":"Uncletopia | Chicago | 1 | All Maps","name_short":"chi-1","host":"chi-1.us.uncletopia.com","port":27015,"enabled":true,"region":"us-central","cc":"us","latitude":41.881832,"longitude":-87.62318,"reserved":0,"last_update":"0001-01-01T00:00:00Z","name_a2s":"Uncletopia | Chicago | 1 | All Maps","protocol":17,"map":"cp_metalworks","folder":"tf","game":"Team Fortress","app_id":440,"player_count":23,"max_players":24,"Bots":0,"server_type":"Dedicated","server_os":"Linux","password":true,"vac":true,"version":"7882260","steam_id":85568392924469984,"keywords":["cp","nocrits","nodmgspread","uncletopia"],"game_id":440,"stv_port":27016,"stv_name":"Uncletopia | Chicago | 1 | All Maps | STV","players":[{"user_id":654,"name":"lanoc","steam_id":76561198055415367,"connected_time":1335000000000,"state":"active","ping":50},{"user_id":649,"name":"sithreis","steam_id":76561198000564263,"connected_time":2371000000000,"state":"active","ping":64},{"user_id":657,"name":"Snoopy","steam_id":76561198273735974,"connected_time":1302000000000,"state":"active","ping":99},{"user_id":674,"name":"gome","steam_id":76561198080784921,"connected_time":373000000000,"state":"active","ping":54},{"user_id":673,"name":"Isilawuli","steam_id":76561198084150503,"connected_time":581000000000,"state":"active","ping":55},{"user_id":623,"name":"lost in spaaaaace","steam_id":76561199085974120,"connected_time":3944000000000,"state":"active","ping":71},{"user_id":660,"name":"minty","steam_id":76561198096347625,"connected_time":1084000000000,"state":"active","ping":76},{"user_id":662,"name":"Elena Manetta","steam_id":76561197998344054,"connected_time":1077000000000,"state":"active","ping":58},{"user_id":566,"name":"Astoriae!","steam_id":76561199090168858,"connected_time":9052000000000,"state":"active","ping":70},{"user_id":648,"name":"wise","steam_id":76561198030066204,"connected_time":2485000000000,"state":"active","ping":56},{"user_id":663,"name":"Goofball","steam_id":76561198074189084,"connected_time":1077000000000,"state":"active","ping":47},{"user_id":656,"name":"wsg","steam_id":76561197967761806,"connected_time":1323000000000,"state":"active","ping":160},{"user_id":670,"name":"Apricot","steam_id":76561198355699935,"connected_time":903000000000,"state":"active","ping":68},{"user_id":595,"name":"BB Lorexav","steam_id":76561198207565988,"connected_time":6138000000000,"state":"active","ping":79},{"user_id":653,"name":"come to butthead","steam_id":76561198020322241,"connected_time":1841000000000,"state":"active","ping":75},{"user_id":671,"name":"Ender0S","steam_id":76561199102985277,"connected_time":690000000000,"state":"active","ping":96},{"user_id":650,"name":"blood-filled sac","steam_id":76561198010019214,"connected_time":2365000000000,"state":"active","ping":58},{"user_id":672,"name":"\u003e:3","steam_id":76561198068586634,"connected_time":685000000000,"state":"active","ping":54},{"user_id":668,"name":"Wheaties","steam_id":76561198060909578,"connected_time":948000000000,"state":"active","ping":100},{"user_id":617,"name":"spiritual surcharge","steam_id":76561198164460801,"connected_time":4085000000000,"state":"active","ping":75},{"user_id":669,"name":"sqerkbo","steam_id":76561198080012700,"connected_time":931000000000,"state":"active","ping":60},{"user_id":639,"name":"kree","steam_id":76561197979960008,"connected_time":3556000000000,"state":"active","ping":47},{"user_id":651,"name":"lanoc sucks","steam_id":76561198042444734,"connected_time":2355000000000,"state":"active","ping":74}]},{"server_id":106,"name":"Uncletopia | Chicago | 2 | All Maps","name_short":"chi-2","host":"chi-1.us.uncletopia.com","port":27025,"enabled":true,"region":"us-central","cc":"us","latitude":41.881832,"longitude":-87.62318,"reserved":0,"last_update":"0001-01-01T00:00:00Z","name_a2s":"Uncletopia | Chicago | 2 | All Maps","protocol":17,"map":"cp_process_final","folder":"tf","game":"Team Fortress","app_id":440,"player_count":24,"max_players":24,"Bots":0,"server_type":"Dedicated","server_os":"Linux","password":true,"vac":true,"version":"7882260","steam_id":85568392924469985,"keywords":["cp","nocrits","nodmgspread","uncletopia"],"game_id":440,"stv_port":27026,"stv_name":"Uncletopia | Chicago | 2 | All Maps | STV","players":[{"user_id":585,"name":"_Lusty_","steam_id":76561198876948142,"connected_time":4964000000000,"state":"active","ping":62},{"user_id":634,"name":"chicken wit dah eggrow","steam_id":76561198115458307,"connected_time":1967000000000,"state":"active","ping":105},{"user_id":638,"name":"steakfarmasian","steam_id":76561198212754036,"connected_time":1473000000000,"state":"active","ping":56},{"user_id":650,"name":"nicksunboro","steam_id":76561198057506946,"connected_time":1141000000000,"state":"active","ping":60},{"user_id":651,"name":"CthulhusBSack","steam_id":76561199067224131,"connected_time":1027000000000,"state":"active","ping":61},{"user_id":618,"name":"ZOOMERGROOMER69","steam_id":76561198027102212,"connected_time":2950000000000,"state":"active","ping":74},{"user_id":640,"name":"mu","steam_id":76561197997530228,"connected_time":1437000000000,"state":"active","ping":105},{"user_id":657,"name":"Fraudulent Tuna","steam_id":76561197972268728,"connected_time":275000000000,"state":"active","ping":75},{"user_id":592,"name":"incompetentmedic","steam_id":76561199466073856,"connected_time":4730000000000,"state":"active","ping":64},{"user_id":647,"name":"WinkyBaby28","steam_id":76561198044844522,"connected_time":1295000000000,"state":"active","ping":67},{"user_id":648,"name":"Twitch.tv/markblood2023tm","steam_id":76561198171746702,"connected_time":1292000000000,"state":"active","ping":63},{"user_id":637,"name":"JD","steam_id":76561198202669250,"connected_time":1491000000000,"state":"active","ping":74},{"user_id":642,"name":"Shinies","steam_id":76561198169459631,"connected_time":1393000000000,"state":"active","ping":62},{"user_id":620,"name":"Monochi","steam_id":76561198093093118,"connected_time":2884000000000,"state":"active","ping":84},{"user_id":630,"name":"Dot.","steam_id":76561198149463984,"connected_time":2378000000000,"state":"active","ping":50},{"user_id":659,"name":"bog","steam_id":76561198086008437,"connected_time":158000000000,"state":"active","ping":71},{"user_id":588,"name":"m yfrogs","steam_id":76561198371149432,"connected_time":4757000000000,"state":"active","ping":45},{"user_id":654,"name":"Wiggle Wiggle","steam_id":76561199053447896,"connected_time":593000000000,"state":"active","ping":84},{"user_id":653,"name":"Baby gaming","steam_id":76561198867319323,"connected_time":691000000000,"state":"active","ping":63},{"user_id":660,"name":"john fitzgerald kennedy","steam_id":76561199087667270,"connected_time":153000000000,"state":"active","ping":105},{"user_id":661,"name":"leonardo doujinshi","steam_id":76561198025810326,"connected_time":122000000000,"state":"active","ping":75},{"user_id":636,"name":"Triggered","steam_id":76561198301212874,"connected_time":1818000000000,"state":"active","ping":86},{"user_id":655,"name":"gundog","steam_id":76561198063240044,"connected_time":488000000000,"state":"active","ping":70},{"user_id":645,"name":"musicfan99","steam_id":76561198046033522,"connected_time":1369000000000,"state":"active","ping":90}]},{"server_id":402,"name":"Uncletopia | Chicago | 3 | All Maps","name_short":"chi-3","host":"chi-1.us.uncletopia.com","port":27035,"enabled":true,"region":"us-central","cc":"us","latitude":41.881832,"longitude":-87.62318,"reserved":0,"last_update":"0001-01-01T00:00:00Z","name_a2s":"Uncletopia | Chicago | 3 | All Maps","protocol":17,"map":"pl_borneo","folder":"tf","game":"Team Fortress","app_id":440,"player_count":20,"max_players":24,"Bots":0,"server_type":"Dedicated","server_os":"Linux","password":true,"vac":true,"version":"7882260","steam_id":85568392924515191,"keywords":["nocrits","nodmgspread","payload","uncletopia"],"game_id":440,"stv_port":27036,"stv_name":"Uncletopia | Chicago | 3 | All Maps | STV","players":[{"user_id":757,"name":"KING KONG","steam_id":76561198927517471,"connected_time":526000000000,"state":"active","ping":69},{"user_id":715,"name":"Knight Minson","steam_id":76561198091567396,"connected_time":3485000000000,"state":"active","ping":52},{"user_id":752,"name":"Vibe Check","steam_id":76561198087326826,"connected_time":638000000000,"state":"active","ping":71},{"user_id":745,"name":"Alan","steam_id":76561198977083959,"connected_time":1275000000000,"state":"active","ping":99},{"user_id":727,"name":"CheeseCake488","steam_id":76561199407617942,"connected_time":2921000000000,"state":"active","ping":131},{"user_id":737,"name":"Sophie","steam_id":76561198170408057,"connected_time":1999000000000,"state":"active","ping":60},{"user_id":746,"name":"aleksei","steam_id":76561199061380038,"connected_time":1269000000000,"state":"active","ping":60},{"user_id":738,"name":"Melody","steam_id":76561198407789232,"connected_time":1998000000000,"state":"active","ping":126},{"user_id":747,"name":"The GEESE","steam_id":76561198062763756,"connected_time":1260000000000,"state":"active","ping":47},{"user_id":750,"name":"Dr. Dingus PhD","steam_id":76561199209834538,"connected_time":1183000000000,"state":"active","ping":53},{"user_id":720,"name":"D4NMAR","steam_id":76561198056453091,"connected_time":3044000000000,"state":"active","ping":46},{"user_id":759,"name":"Soph The Dark Elf","steam_id":76561198294426385,"connected_time":69000000000,"state":"active","ping":62},{"user_id":755,"name":"Frank Forearms.","steam_id":76561198225910596,"connected_time":566000000000,"state":"active","ping":53},{"user_id":749,"name":"ooc","steam_id":76561198069979962,"connected_time":1204000000000,"state":"active","ping":104},{"user_id":744,"name":"fuckwit","steam_id":76561198342160837,"connected_time":1316000000000,"state":"active","ping":60},{"user_id":735,"name":"Broccoli","steam_id":76561198838851836,"connected_time":2216000000000,"state":"active","ping":61},{"user_id":736,"name":"nomad","steam_id":76561197998740399,"connected_time":2095000000000,"state":"active","ping":63},{"user_id":758,"name":"LORDO","steam_id":76561198044824675,"connected_time":79000000000,"state":"active","ping":74},{"user_id":733,"name":"Fercho Mo","steam_id":76561198168935077,"connected_time":2225000000000,"state":"active","ping":107},{"user_id":742,"name":"rose","steam_id":76561198048882285,"connected_time":1865000000000,"state":"active","ping":70}]},{"server_id":403,"name":"Uncletopia | Chicago | 4 | All Maps","name_short":"chi-4","host":"chi-1.us.uncletopia.com","port":27045,"enabled":true,"region":"us-central","cc":"us","latitude":41.881832,"longitude":-87.62318,"reserved":0,"last_update":"0001-01-01T00:00:00Z","name_a2s":"Uncletopia | Chicago | 4 | All Maps","protocol":17,"map":"cp_dustbowl","folder":"tf","game":"Team Fortress","app_id":440,"player_count":25,"max_players":24,"Bots":0,"server_type":"Dedicated","server_os":"Linux","password":true,"vac":true,"version":"7882260","steam_id":85568392924515193,"keywords":["cp","nocrits","nodmgspread","uncletopia"],"game_id":440,"stv_port":27046,"stv_name":"Uncletopia | Chicago | 4 | All Maps | STV","players":[{"user_id":544,"name":"BigOrca54","steam_id":76561198181360271,"connected_time":1305000000000,"state":"active","ping":55},{"user_id":547,"name":"The Horselords and Animal Gods","steam_id":76561197975094050,"connected_time":614000000000,"state":"active","ping":110},{"user_id":528,"name":"MeatBall","steam_id":76561199055196261,"connected_time":2696000000000,"state":"active","ping":60},{"user_id":538,"name":"June","steam_id":76561198211858204,"connected_time":2356000000000,"state":"active","ping":120},{"user_id":553,"name":"Nathan","steam_id":76561199132214008,"connected_time":522000000000,"state":"active","ping":80},{"user_id":517,"name":"paetho YT","steam_id":76561198152690003,"connected_time":4594000000000,"state":"active","ping":58},{"user_id":500,"name":"hashmap","steam_id":76561198043794014,"connected_time":5733000000000,"state":"active","ping":54},{"user_id":524,"name":"Jabawakai","steam_id":76561198088881254,"connected_time":3586000000000,"state":"active","ping":55},{"user_id":552,"name":"Excalibrine","steam_id":76561198129312118,"connected_time":536000000000,"state":"active","ping":90},{"user_id":485,"name":"C Papi","steam_id":76561198027779564,"connected_time":6216000000000,"state":"active","ping":53},{"user_id":554,"name":"Exio","steam_id":76561198218639325,"connected_time":510000000000,"state":"active","ping":91},{"user_id":542,"name":"Fever Dreams","steam_id":76561198116614620,"connected_time":1696000000000,"state":"active","ping":76},{"user_id":555,"name":"Wizard Raccoon","steam_id":76561198072562591,"connected_time":442000000000,"state":"active","ping":82},{"user_id":526,"name":"Der Krieger105","steam_id":76561197978384609,"connected_time":3462000000000,"state":"active","ping":84},{"user_id":562,"name":"Yoloisnotded","steam_id":76561198995043589,"connected_time":17000000000,"state":"spawning","ping":95},{"user_id":519,"name":"Grand","steam_id":76561198290143399,"connected_time":4569000000000,"state":"active","ping":71},{"user_id":557,"name":"HanakoToast","steam_id":76561198045233131,"connected_time":365000000000,"state":"active","ping":115},{"user_id":558,"name":"vepis","steam_id":76561198015884720,"connected_time":335000000000,"state":"active","ping":61},{"user_id":561,"name":"Sticks","steam_id":76561199013914575,"connected_time":213000000000,"state":"active","ping":67},{"user_id":494,"name":"TheGhostThatWas","steam_id":76561198055836483,"connected_time":6041000000000,"state":"active","ping":61},{"user_id":540,"name":"OrangeSodaMachine","steam_id":76561198079230156,"connected_time":1878000000000,"state":"active","ping":83},{"user_id":508,"name":"Piyono","steam_id":76561197962188504,"connected_time":5026000000000,"state":"active","ping":65},{"user_id":546,"name":"cringe oomfie","steam_id":76561198000522179,"connected_time":1020000000000,"state":"active","ping":81},{"user_id":521,"name":"Truffles","steam_id":76561198095868800,"connected_time":4448000000000,"state":"active","ping":82},{"user_id":563,"name":"Gustavo","steam_id":76561198190288063,"connected_time":17000000000,"state":"spawning","ping":80}]},{"server_id":36,"name":"Uncletopia | Chicago | 5 | All Maps","name_short":"chi-5","host":"chi-2.us.uncletopia.com","port":27015,"enabled":true,"region":"us-central","cc":"us","latitude":41.881832,"longitude":-87.62318,"reserved":0,"last_update":"0001-01-01T00:00:00Z","name_a2s":"Uncletopia | Chicago | 5 | All Maps","protocol":17,"map":"cp_snakewater_final1","folder":"tf","game":"Team Fortress","app_id":440,"player_count":0,"max_players":24,"Bots":0,"server_type":"Dedicated","server_os":"Linux","password":true,"vac":true,"version":"7882260","steam_id":85568392924866362,"keywords":["cp","nocrits","nodmgspread","uncletopia"],"game_id":440,"stv_port":27016,"stv_name":"Uncletopia | Chicago | 5 | All Maps | STV","players":null},{"server_id":37,"name":"Uncletopia | Chicago | 6 | All Maps","name_short":"chi-6","host":"chi-2.us.uncletopia.com","port":27025,"enabled":true,"region":"us-central","cc":"us","latitude":41.881832,"longitude":-87.62318,"reserved":0,"last_update":"0001-01-01T00:00:00Z","name_a2s":"Uncletopia | Chicago | 6 | All Maps","protocol":17,"map":"pl_goldrush","folder":"tf","game":"Team Fortress","app_id":440,"player_count":23,"max_players":24,"Bots":0,"server_type":"Dedicated","server_os":"Linux","password":true,"vac":true,"version":"7882260","steam_id":85568392924866363,"keywords":["nocrits","nodmgspread","payload","uncletopia"],"game_id":440,"stv_port":27026,"stv_name":"Uncletopia | Chicago | 6 | All Maps | STV","players":[{"user_id":523,"name":"cyber.genius","steam_id":76561198034121017,"connected_time":5264000000000,"state":"active","ping":71},{"user_id":580,"name":"shitass | troutsupply.net","steam_id":76561198210572481,"connected_time":645000000000,"state":"active","ping":87},{"user_id":584,"name":"ThatOneGuy831","steam_id":76561198000422558,"connected_time":611000000000,"state":"active","ping":75},{"user_id":585,"name":"FemFem","steam_id":76561198100162199,"connected_time":599000000000,"state":"active","ping":75},{"user_id":586,"name":"Chadwick Basedman","steam_id":76561198045284875,"connected_time":589000000000,"state":"active","ping":98},{"user_id":555,"name":"Furious George","steam_id":76561198405111646,"connected_time":3039000000000,"state":"active","ping":99},{"user_id":533,"name":"Mastermind","steam_id":76561198127783432,"connected_time":4657000000000,"state":"active","ping":73},{"user_id":487,"name":"Bag","steam_id":76561198012395490,"connected_time":8909000000000,"state":"active","ping":61},{"user_id":472,"name":"Heathcliff","steam_id":76561198044288534,"connected_time":11421000000000,"state":"active","ping":91},{"user_id":587,"name":"El Güey","steam_id":76561197970450546,"connected_time":468000000000,"state":"active","ping":117},{"user_id":520,"name":"Snoopy","steam_id":76561198065339248,"connected_time":5468000000000,"state":"active","ping":92},{"user_id":572,"name":"Clumsy","steam_id":76561198056345245,"connected_time":2294000000000,"state":"active","ping":69},{"user_id":559,"name":"Peter Popoff","steam_id":76561198027171160,"connected_time":2764000000000,"state":"active","ping":40},{"user_id":569,"name":"YouR dad","steam_id":76561198044013623,"connected_time":2387000000000,"state":"active","ping":70},{"user_id":579,"name":"punks troutsupply.net","steam_id":76561199140940650,"connected_time":1242000000000,"state":"active","ping":60},{"user_id":589,"name":"Katy","steam_id":76561198079395814,"connected_time":421000000000,"state":"active","ping":59},{"user_id":574,"name":"Hou Tou Gu","steam_id":76561198041196591,"connected_time":2288000000000,"state":"active","ping":75},{"user_id":566,"name":"blorp","steam_id":76561198054677742,"connected_time":2499000000000,"state":"active","ping":108},{"user_id":575,"name":"Pub Davinci","steam_id":76561198083975056,"connected_time":2283000000000,"state":"active","ping":177},{"user_id":590,"name":"SHADY SWEATER SALESMAN","steam_id":76561198014616865,"connected_time":392000000000,"state":"active","ping":63},{"user_id":593,"name":"Medic Boyfriend","steam_id":76561198104086771,"connected_time":139000000000,"state":"active","ping":99},{"user_id":594,"name":"Blackbird","steam_id":76561198127818333,"connected_time":124000000000,"state":"active","ping":50},{"user_id":591,"name":"Rocky","steam_id":76561198048158539,"connected_time":383000000000,"state":"active","ping":76}]},{"server_id":38,"name":"Uncletopia | Chicago | 7 | Stopwatch Beta","name_short":"chi-7","host":"chi-2.us.uncletopia.com","port":27035,"enabled":true,"region":"us-central","cc":"us","latitude":41.881832,"longitude":-87.62318,"reserved":0,"last_update":"0001-01-01T00:00:00Z","name_a2s":"Uncletopia | Chicago | 7 | Stopwatch Beta","protocol":17,"map":"koth_lakeside_final","folder":"tf","game":"Team Fortress","app_id":440,"player_count":0,"max_players":24,"Bots":0,"server_type":"Dedicated","server_os":"Linux","password":true,"vac":true,"version":"7882260","steam_id":85568392924866364,"keywords":["cp","nocrits","nodmgspread","uncletopia"],"game_id":440,"stv_port":27036,"stv_name":"Uncletopia | Chicago | 7 | Stopwatch Beta | STV","players":null},{"server_id":39,"name":"Uncletopia | Chicago | 8 | Community","name_short":"chi-8","host":"chi-2.us.uncletopia.com","port":27045,"enabled":true,"region":"us-central","cc":"us","latitude":41.881832,"longitude":-87.62318,"reserved":0,"last_update":"0001-01-01T00:00:00Z","name_a2s":"Uncletopia | Chicago | 8 | Community","protocol":17,"map":"workshop/pl_highwood_b13.ugc1769496557","folder":"tf","game":"Team Fortress","app_id":440,"player_count":20,"max_players":24,"Bots":0,"server_type":"Dedicated","server_os":"Linux","password":true,"vac":true,"version":"7882260","steam_id":85568392924866365,"keywords":["nocrits","nodmgspread","payload","uncletopia"],"game_id":440,"stv_port":27046,"stv_name":"Uncletopia | Chicago | 8 | Community | STV","players":[{"user_id":278,"name":"rept","steam_id":76561198022100969,"connected_time":1918000000000,"state":"active","ping":44},{"user_id":265,"name":"Dynamo","steam_id":76561198057875639,"connected_time":3391000000000,"state":"active","ping":90},{"user_id":299,"name":"Etzan","steam_id":76561198026897084,"connected_time":269000000000,"state":"active","ping":102},{"user_id":288,"name":"APOTATO","steam_id":76561198118199858,"connected_time":806000000000,"state":"active","ping":89},{"user_id":263,"name":"Snoozey","steam_id":76561198017120466,"connected_time":3594000000000,"state":"active","ping":76},{"user_id":300,"name":"Gilgamesh","steam_id":76561198317113179,"connected_time":248000000000,"state":"active","ping":58},{"user_id":266,"name":"erm what the scallop","steam_id":76561198983069721,"connected_time":3385000000000,"state":"active","ping":69},{"user_id":302,"name":"yosh.wav","steam_id":76561199127755834,"connected_time":194000000000,"state":"active","ping":85},{"user_id":219,"name":"Hindmost","steam_id":76561199081837220,"connected_time":6747000000000,"state":"active","ping":84},{"user_id":303,"name":"Gay Mushroom","steam_id":76561198151549658,"connected_time":175000000000,"state":"active","ping":81},{"user_id":273,"name":"High Caliber Triangle","steam_id":76561197999059241,"connected_time":2585000000000,"state":"active","ping":91},{"user_id":252,"name":"Infinitytacos","steam_id":76561198884260211,"connected_time":4550000000000,"state":"active","ping":45},{"user_id":304,"name":"J197382645","steam_id":76561198014742440,"connected_time":95000000000,"state":"active","ping":76},{"user_id":291,"name":"e7","steam_id":76561198154265084,"connected_time":693000000000,"state":"active","ping":87},{"user_id":293,"name":"Golurk with some bitches","steam_id":76561198085888959,"connected_time":586000000000,"state":"active","ping":51},{"user_id":281,"name":"platinum","steam_id":76561198038599536,"connected_time":1528000000000,"state":"active","ping":73},{"user_id":162,"name":"dairy delinquent","steam_id":76561198971552734,"connected_time":10407000000000,"state":"active","ping":75},{"user_id":215,"name":"brussy (f2p)","steam_id":76561199218128725,"connected_time":6910000000000,"state":"active","ping":86},{"user_id":243,"name":"Kyle H. McCloud","steam_id":76561198025050432,"connected_time":5288000000000,"state":"active","ping":85},{"user_id":264,"name":"perc 10","steam_id":76561198116471653,"connected_time":3564000000000,"state":"active","ping":123}]},{"server_id":8,"name":"Uncletopia | Dallas | 1 | All Maps","name_short":"dal-1","host":"dal-1.us.uncletopia.com","port":27015,"enabled":true,"region":"us-central","cc":"us","latitude":32.779167,"longitude":-96.80889,"reserved":0,"last_update":"0001-01-01T00:00:00Z","name_a2s":"Uncletopia | Dallas | 1 | All Maps","protocol":17,"map":"cp_dustbowl","folder":"tf","game":"Team Fortress","app_id":440,"player_count":20,"max_players":24,"Bots":0,"server_type":"Dedicated","server_os":"Linux","password":true,"vac":true,"version":"7882260","steam_id":85568392924469986,"keywords":["cp","nocrits","nodmgspread","uncletopia"],"game_id":440,"stv_port":27016,"stv_name":"Uncletopia | Dallas | 1 | All Maps | STV","players":[{"user_id":767,"name":"elyina","steam_id":76561198035310295,"connected_time":1607000000000,"state":"active","ping":74},{"user_id":766,"name":"damiankiller1243","steam_id":76561198868885090,"connected_time":1634000000000,"state":"active","ping":59},{"user_id":788,"name":"hoOmIN","steam_id":76561198334947079,"connected_time":333000000000,"state":"active","ping":75},{"user_id":793,"name":"Pastor John","steam_id":76561198216484412,"connected_time":164000000000,"state":"active","ping":88},{"user_id":790,"name":"LucentOwl","steam_id":76561198140978957,"connected_time":283000000000,"state":"active","ping":47},{"user_id":791,"name":"Argon","steam_id":76561199254804349,"connected_time":249000000000,"state":"active","ping":79},{"user_id":739,"name":"great1photo","steam_id":76561198085481933,"connected_time":3603000000000,"state":"active","ping":99},{"user_id":733,"name":"Bread Makes you Fat","steam_id":76561198985126532,"connected_time":4416000000000,"state":"active","ping":45},{"user_id":724,"name":"Icarus the legend","steam_id":76561199013250091,"connected_time":5269000000000,"state":"active","ping":58},{"user_id":720,"name":"Bamboo","steam_id":76561198043139553,"connected_time":5880000000000,"state":"active","ping":92},{"user_id":761,"name":"Yongle","steam_id":76561198068591156,"connected_time":2323000000000,"state":"active","ping":73},{"user_id":776,"name":"CoziestGlobe","steam_id":76561198199237735,"connected_time":869000000000,"state":"active","ping":89},{"user_id":794,"name":"Quietsharp","steam_id":76561198277968438,"connected_time":152000000000,"state":"active","ping":86},{"user_id":759,"name":"larguu","steam_id":76561197994336210,"connected_time":2451000000000,"state":"active","ping":74},{"user_id":782,"name":"Lumberjane37 (She/Her)","steam_id":76561198014841793,"connected_time":617000000000,"state":"active","ping":88},{"user_id":797,"name":"EvilPigglet","steam_id":76561197987243470,"connected_time":6000000000,"state":"spawning","ping":74},{"user_id":796,"name":"zam","steam_id":76561198295713840,"connected_time":118000000000,"state":"active","ping":71},{"user_id":784,"name":"Chauncey","steam_id":76561198012885060,"connected_time":517000000000,"state":"active","ping":74},{"user_id":765,"name":"Lincs","steam_id":76561198049851872,"connected_time":1646000000000,"state":"active","ping":83},{"user_id":779,"name":"Jones","steam_id":76561198046037216,"connected_time":723000000000,"state":"active","ping":135}]},{"server_id":108,"name":"Uncletopia | Dallas | 2 | All Maps","name_short":"dal-2","host":"dal-1.us.uncletopia.com","port":27025,"enabled":true,"region":"us-central","cc":"us","latitude":32.779167,"longitude":-96.80889,"reserved":0,"last_update":"0001-01-01T00:00:00Z","name_a2s":"Uncletopia | Dallas | 2 | All Maps","protocol":17,"map":"koth_nucleus","folder":"tf","game":"Team Fortress","app_id":440,"player_count":24,"max_players":24,"Bots":0,"server_type":"Dedicated","server_os":"Linux","password":true,"vac":true,"version":"7882260","steam_id":85568392924469988,"keywords":["cp","nocrits","nodmgspread","uncletopia"],"game_id":440,"stv_port":27026,"stv_name":"Uncletopia | Dallas | 2 | All Maps | STV","players":[{"user_id":506,"name":"Double Salty McNasty","steam_id":76561198069065665,"connected_time":5181000000000,"state":"active","ping":59},{"user_id":524,"name":"bruised banana gaming","steam_id":76561198069600113,"connected_time":4011000000000,"state":"active","ping":75},{"user_id":577,"name":"Tibalt Nyahuma","steam_id":76561198034779431,"connected_time":2000000000,"state":"spawning","ping":65},{"user_id":567,"name":"Cliffigriff","steam_id":76561198121924499,"connected_time":628000000000,"state":"active","ping":58},{"user_id":570,"name":"☂Bliffenstimmers☂","steam_id":76561198059984896,"connected_time":402000000000,"state":"active","ping":62},{"user_id":556,"name":"Rafl","steam_id":76561198055222756,"connected_time":1638000000000,"state":"active","ping":44},{"user_id":559,"name":"Phosu","steam_id":76561198180162801,"connected_time":1155000000000,"state":"active","ping":65},{"user_id":571,"name":"LtK","steam_id":76561197993180943,"connected_time":374000000000,"state":"active","ping":45},{"user_id":572,"name":"never existed","steam_id":76561198054390505,"connected_time":345000000000,"state":"active","ping":69},{"user_id":557,"name":"Cubicle Gestapo","steam_id":76561198066671254,"connected_time":1604000000000,"state":"active","ping":76},{"user_id":573,"name":"Obama Nood","steam_id":76561198301526239,"connected_time":345000000000,"state":"active","ping":94},{"user_id":552,"name":"brian eno","steam_id":76561198109901138,"connected_time":1785000000000,"state":"active","ping":94},{"user_id":538,"name":"Woozy","steam_id":76561198008220735,"connected_time":2959000000000,"state":"active","ping":85},{"user_id":568,"name":"Jack from Jack in The Box","steam_id":76561199083594971,"connected_time":607000000000,"state":"active","ping":62},{"user_id":542,"name":"HOTDOG","steam_id":76561198120564627,"connected_time":2852000000000,"state":"active","ping":101},{"user_id":574,"name":"Your childhood","steam_id":76561198799385466,"connected_time":338000000000,"state":"active","ping":81},{"user_id":533,"name":"samb0","steam_id":76561198055876337,"connected_time":3563000000000,"state":"active","ping":65},{"user_id":537,"name":"Booty Woyer","steam_id":76561198168852050,"connected_time":3050000000000,"state":"active","ping":82},{"user_id":553,"name":"azucar","steam_id":76561198056543825,"connected_time":1777000000000,"state":"active","ping":89},{"user_id":575,"name":"GoiDimLi","steam_id":76561198053286433,"connected_time":278000000000,"state":"active","ping":151},{"user_id":555,"name":"Box from Jack in The Box","steam_id":76561198936412406,"connected_time":1706000000000,"state":"active","ping":81},{"user_id":576,"name":"jalapeno handjob","steam_id":76561198123298824,"connected_time":276000000000,"state":"active","ping":61},{"user_id":534,"name":"[BU773T\u003e","steam_id":76561197991671942,"connected_time":3369000000000,"state":"active","ping":77},{"user_id":566,"name":"leopardo123atl","steam_id":76561198872648238,"connected_time":639000000000,"state":"active","ping":78}]},{"server_id":5,"name":"Uncletopia | Frankfurt | 1 | All Maps","name_short":"frk-1","host":"frk-1.de.uncletopia.com","port":27015,"enabled":true,"region":"eu","cc":"de","latitude":50.110924,"longitude":8.682127,"reserved":0,"last_update":"0001-01-01T00:00:00Z","name_a2s":"Uncletopia | Frankfurt | 1 | All Maps","protocol":17,"map":"koth_highpass","folder":"tf","game":"Team Fortress","app_id":440,"player_count":0,"max_players":24,"Bots":0,"server_type":"Dedicated","server_os":"Linux","password":true,"vac":true,"version":"7882260","steam_id":85568392924469989,"keywords":["cp","nocrits","nodmgspread","uncletopia"],"game_id":440,"stv_port":27016,"stv_name":"Uncletopia | Frankfurt | 1 | All Maps | STV","players":null},{"server_id":110,"name":"Uncletopia | Frankfurt | 2 | All Maps","name_short":"frk-2","host":"frk-1.de.uncletopia.com","port":27025,"enabled":true,"region":"eu","cc":"de","latitude":50.110924,"longitude":8.682127,"reserved":0,"last_update":"0001-01-01T00:00:00Z","name_a2s":"Uncletopia | Frankfurt | 2 | All Maps","protocol":17,"map":"cp_sunshine","folder":"tf","game":"Team Fortress","app_id":440,"player_count":0,"max_players":24,"Bots":0,"server_type":"Dedicated","server_os":"Linux","password":true,"vac":true,"version":"7882260","steam_id":85568392924469990,"keywords":["cp","nocrits","nodmgspread","uncletopia"],"game_id":440,"stv_port":27026,"stv_name":"Uncletopia | Frankfurt | 2 | All Maps | STV","players":null},{"server_id":308,"name":"Uncletopia | Frankfurt | 3 | All Maps","name_short":"frk-3","host":"frk-1.de.uncletopia.com","port":27035,"enabled":true,"region":"eu","cc":"de","latitude":50.110924,"longitude":8.682127,"reserved":0,"last_update":"0001-01-01T00:00:00Z","name_a2s":"Uncletopia | Frankfurt | 3 | All Maps","protocol":17,"map":"koth_lakeside_final","folder":"tf","game":"Team Fortress","app_id":440,"player_count":0,"max_players":24,"Bots":0,"server_type":"Dedicated","server_os":"Linux","password":true,"vac":true,"version":"7882260","steam_id":85568392924504274,"keywords":["cp","nocrits","nodmgspread","uncletopia"],"game_id":440,"stv_port":27036,"stv_name":"Uncletopia | Frankfurt | 3 | All Maps | STV","players":null},{"server_id":309,"name":"Uncletopia | Frankfurt | 4 | All Maps","name_short":"frk-4","host":"frk-1.de.uncletopia.com","port":27045,"enabled":true,"region":"eu","cc":"de","latitude":50.110924,"longitude":8.682127,"reserved":0,"last_update":"0001-01-01T00:00:00Z","name_a2s":"Uncletopia | Frankfurt | 4 | All Maps","protocol":17,"map":"cp_altitude","folder":"tf","game":"Team Fortress","app_id":440,"player_count":0,"max_players":24,"Bots":0,"server_type":"Dedicated","server_os":"Linux","password":true,"vac":true,"version":"7882260","steam_id":85568392924504275,"keywords":["cp","nocrits","nodmgspread","uncletopia"],"game_id":440,"stv_port":27046,"stv_name":"Uncletopia | Frankfurt | 4 | All Maps | STV","players":null},{"server_id":310,"name":"Uncletopia | Frankfurt | 5 | All Maps","name_short":"frk-5","host":"frk-1.de.uncletopia.com","port":27055,"enabled":true,"region":"eu","cc":"de","latitude":50.110924,"longitude":8.682127,"reserved":0,"last_update":"0001-01-01T00:00:00Z","name_a2s":"Uncletopia | Frankfurt | 5 | All Maps","protocol":17,"map":"cp_sunshine","folder":"tf","game":"Team Fortress","app_id":440,"player_count":0,"max_players":24,"Bots":0,"server_type":"Dedicated","server_os":"Linux","password":true,"vac":true,"version":"7882260","steam_id":85568392924504277,"keywords":["cp","nocrits","nodmgspread","uncletopia"],"game_id":440,"stv_port":27056,"stv_name":"Uncletopia | Frankfurt | 5 | All Maps | STV","players":null},{"server_id":311,"name":"Uncletopia | Frankfurt | 6 | All Maps","name_short":"frk-6","host":"frk-1.de.uncletopia.com","port":27065,"enabled":true,"region":"eu","cc":"de","latitude":50.110924,"longitude":8.682127,"reserved":0,"last_update":"0001-01-01T00:00:00Z","name_a2s":"Uncletopia | Frankfurt | 6 | All Maps","protocol":17,"map":"koth_highpass","folder":"tf","game":"Team Fortress","app_id":440,"player_count":0,"max_players":24,"Bots":0,"server_type":"Dedicated","server_os":"Linux","password":true,"vac":true,"version":"7882260","steam_id":85568392924504278,"keywords":["cp","nocrits","nodmgspread","uncletopia"],"game_id":440,"stv_port":27066,"stv_name":"Uncletopia | Frankfurt | 6 | All Maps | STV","players":null},{"server_id":23,"name":"Uncletopia | Frankfurt | 7 | Stopwatch Beta","name_short":"frk-7","host":"frk-1.de.uncletopia.com","port":27075,"enabled":true,"region":"eu","cc":"de","latitude":50.110924,"longitude":8.682127,"reserved":0,"last_update":"0001-01-01T00:00:00Z","name_a2s":"Uncletopia | Frankfurt | 7 | Stopwatch Beta","protocol":17,"map":"pl_swiftwater_final1","folder":"tf","game":"Team Fortress","app_id":440,"player_count":0,"max_players":24,"Bots":0,"server_type":"Dedicated","server_os":"Linux","password":true,"vac":true,"version":"7882260","steam_id":85568392924742827,"keywords":["nocrits","nodmgspread","payload","uncletopia"],"game_id":440,"stv_port":27076,"stv_name":"Uncletopia | Frankfurt | 7 | Stopwatch Beta | STV","players":null},{"server_id":24,"name":"Uncletopia | Frankfurt | 8 | Community","name_short":"frk-8","host":"frk-1.de.uncletopia.com","port":27085,"enabled":true,"region":"eu","cc":"de","latitude":50.110924,"longitude":8.682127,"reserved":0,"last_update":"0001-01-01T00:00:00Z","name_a2s":"Uncletopia | Frankfurt | 8 | Community","protocol":17,"map":"workshop/koth_kemptown_rc1.ugc767410655","folder":"tf","game":"Team Fortress","app_id":440,"player_count":0,"max_players":24,"Bots":0,"server_type":"Dedicated","server_os":"Linux","password":true,"vac":true,"version":"7882260","steam_id":85568392924742828,"keywords":["cp","nocrits","nodmgspread","uncletopia"],"game_id":440,"stv_port":27086,"stv_name":"Uncletopia | Frankfurt | 8 | Community | STV","players":null},{"server_id":202,"name":"Uncletopia | Hong Kong | 1 | All Maps","name_short":"hgk-1","host":"hgk-1.hk.uncletopia.com","port":27015,"enabled":true,"region":"asia","cc":"hk","latitude":22.302711,"longitude":114.177216,"reserved":0,"last_update":"0001-01-01T00:00:00Z","name_a2s":"Uncletopia | Hong Kong | 1 | All Maps","protocol":17,"map":"cp_process_final","folder":"tf","game":"Team Fortress","app_id":440,"player_count":0,"max_players":24,"Bots":0,"server_type":"Dedicated","server_os":"Linux","password":true,"vac":true,"version":"7882260","steam_id":85568392924494504,"keywords":["cp","nocrits","nodmgspread","uncletopia"],"game_id":440,"stv_port":27016,"stv_name":"Uncletopia | Hong Kong | 1 | All Maps | STV","players":null},{"server_id":1,"name":"Uncletopia | Los Angeles | 1 | All Maps","name_short":"lax-1","host":"lax-1.us.uncletopia.com","port":27015,"enabled":true,"region":"us-west","cc":"us","latitude":33.94279,"longitude":-118.41004,"reserved":0,"last_update":"0001-01-01T00:00:00Z","name_a2s":"Uncletopia | Los Angeles | 1 | All Maps","protocol":17,"map":"pl_upward","folder":"tf","game":"Team Fortress","app_id":440,"player_count":23,"max_players":24,"Bots":0,"server_type":"Dedicated","server_os":"Linux","password":true,"vac":true,"version":"7882260","steam_id":85568392924469991,"keywords":["nocrits","nodmgspread","payload","uncletopia"],"game_id":440,"stv_port":27016,"stv_name":"Uncletopia | Los Angeles | 1 | All Maps | STV","players":[{"user_id":718,"name":"BajaBlast76","steam_id":76561198144272437,"connected_time":162000000000,"state":"active","ping":62},{"user_id":689,"name":"Trippy","steam_id":76561199090730294,"connected_time":2077000000000,"state":"active","ping":71},{"user_id":590,"name":"Zigadox","steam_id":76561198079813479,"connected_time":8585000000000,"state":"active","ping":119},{"user_id":692,"name":"Ranger Manger","steam_id":76561198313529027,"connected_time":1806000000000,"state":"active","ping":61},{"user_id":710,"name":"renewbot","steam_id":76561198149140645,"connected_time":497000000000,"state":"active","ping":102},{"user_id":716,"name":"Sarbanes-Oxley","steam_id":76561197975898479,"connected_time":187000000000,"state":"active","ping":81},{"user_id":704,"name":"Nugakku","steam_id":76561198082346219,"connected_time":1118000000000,"state":"active","ping":56},{"user_id":708,"name":"what da dog doin","steam_id":76561198090573639,"connected_time":886000000000,"state":"active","ping":41},{"user_id":697,"name":"Lukey Pookey | Ham Mafia |","steam_id":76561199095883827,"connected_time":1668000000000,"state":"active","ping":94},{"user_id":717,"name":"im high asf","steam_id":76561198198781598,"connected_time":175000000000,"state":"active","ping":46},{"user_id":668,"name":"cjetson","steam_id":76561198074482272,"connected_time":3688000000000,"state":"active","ping":56},{"user_id":651,"name":"Feel the bern","steam_id":76561198078824519,"connected_time":4320000000000,"state":"active","ping":47},{"user_id":659,"name":"?","steam_id":76561198077811162,"connected_time":4110000000000,"state":"active","ping":51},{"user_id":709,"name":"Monochrome | Cashmoney","steam_id":76561198377320040,"connected_time":761000000000,"state":"active","ping":112},{"user_id":712,"name":"Popasaurus","steam_id":76561198144115734,"connected_time":411000000000,"state":"active","ping":35},{"user_id":713,"name":"Squatter1","steam_id":76561198078987734,"connected_time":288000000000,"state":"active","ping":72},{"user_id":711,"name":"Sailor","steam_id":76561199081983517,"connected_time":463000000000,"state":"active","ping":88},{"user_id":664,"name":"Jimmy","steam_id":76561198857959855,"connected_time":3962000000000,"state":"active","ping":46},{"user_id":719,"name":"bobby","steam_id":76561198050767193,"connected_time":9000000000,"state":"active","ping":90},{"user_id":688,"name":"...","steam_id":76561198121508845,"connected_time":2121000000000,"state":"active","ping":66},{"user_id":705,"name":"zeplinnn","steam_id":76561198301300987,"connected_time":1085000000000,"state":"active","ping":70},{"user_id":687,"name":"TwoForFlinching","steam_id":76561198073814209,"connected_time":2295000000000,"state":"active","ping":100},{"user_id":707,"name":"FROYO b4nny","steam_id":76561197970669109,"connected_time":974000000000,"state":"active","ping":45}]},{"server_id":112,"name":"Uncletopia | Los Angeles | 2 | All Maps","name_short":"lax-2","host":"lax-1.us.uncletopia.com","port":27025,"enabled":true,"region":"us-west","cc":"us","latitude":33.94279,"longitude":-118.41004,"reserved":0,"last_update":"0001-01-01T00:00:00Z","name_a2s":"Uncletopia | Los Angeles | 2 | All Maps","protocol":17,"map":"pl_badwater","folder":"tf","game":"Team Fortress","app_id":440,"player_count":24,"max_players":24,"Bots":0,"server_type":"Dedicated","server_os":"Linux","password":true,"vac":true,"version":"7882260","steam_id":85568392924469992,"keywords":["nocrits","nodmgspread","payload","uncletopia"],"game_id":440,"stv_port":27026,"stv_name":"Uncletopia | Los Angeles | 2 | All Maps | STV","players":[{"user_id":429,"name":"Gentle Opp 3","steam_id":76561198150406851,"connected_time":2200000000000,"state":"active","ping":60},{"user_id":271,"name":"[ØWQJØ]chubacaalatake","steam_id":76561198136201697,"connected_time":13176000000000,"state":"active","ping":88},{"user_id":415,"name":"OmniMoto","steam_id":76561198091298557,"connected_time":2912000000000,"state":"active","ping":75},{"user_id":437,"name":"That Classy Cat","steam_id":76561198147130680,"connected_time":1137000000000,"state":"active","ping":64},{"user_id":424,"name":"bad player","steam_id":76561198957233710,"connected_time":2611000000000,"state":"active","ping":50},{"user_id":425,"name":"..flop","steam_id":76561197989058876,"connected_time":2576000000000,"state":"active","ping":70},{"user_id":394,"name":"Gm_Trash","steam_id":76561199445091548,"connected_time":4852000000000,"state":"active","ping":70},{"user_id":438,"name":"Ralph Kramden (Slim Charles)","steam_id":76561197981687895,"connected_time":1065000000000,"state":"active","ping":60},{"user_id":385,"name":"H _ N G M _ N","steam_id":76561198064662875,"connected_time":5517000000000,"state":"active","ping":51},{"user_id":414,"name":"i cant aim","steam_id":76561198065873462,"connected_time":3118000000000,"state":"active","ping":46},{"user_id":377,"name":"InvalidUserID","steam_id":76561198014177920,"connected_time":6065000000000,"state":"active","ping":34},{"user_id":431,"name":"Nylox","steam_id":76561198191196389,"connected_time":1934000000000,"state":"active","ping":58},{"user_id":403,"name":"culture shock","steam_id":76561198212421513,"connected_time":4326000000000,"state":"active","ping":45},{"user_id":388,"name":"MrManlet","steam_id":76561198148597989,"connected_time":5328000000000,"state":"active","ping":90},{"user_id":432,"name":"vampirebunii","steam_id":76561198091018788,"connected_time":1920000000000,"state":"active","ping":46},{"user_id":326,"name":"California Jew","steam_id":76561198914032112,"connected_time":8506000000000,"state":"active","ping":91},{"user_id":446,"name":"plsplsplslol","steam_id":76561198868084626,"connected_time":460000000000,"state":"active","ping":55},{"user_id":360,"name":"kelvin","steam_id":76561198121215313,"connected_time":7241000000000,"state":"active","ping":46},{"user_id":427,"name":"a chicken","steam_id":76561198313121580,"connected_time":2454000000000,"state":"active","ping":54},{"user_id":447,"name":"confused","steam_id":76561199391930993,"connected_time":393000000000,"state":"active","ping":53},{"user_id":433,"name":"Ryshy02","steam_id":76561198055425447,"connected_time":1919000000000,"state":"active","ping":83},{"user_id":445,"name":"Juan M. Maldacena","steam_id":76561198066883814,"connected_time":548000000000,"state":"active","ping":55},{"user_id":444,"name":"hosewater","steam_id":76561198023383126,"connected_time":599000000000,"state":"active","ping":78},{"user_id":344,"name":"THE PRODIGAL STUNNA","steam_id":76561198325613425,"connected_time":7897000000000,"state":"active","ping":74}]},{"server_id":324,"name":"Uncletopia | Los Angeles | 3 | All Maps","name_short":"lax-3","host":"lax-1.us.uncletopia.com","port":27035,"enabled":true,"region":"us-west","cc":"us","latitude":33.94279,"longitude":-118.41004,"reserved":0,"last_update":"0001-01-01T00:00:00Z","name_a2s":"Uncletopia | Los Angeles | 3 | All Maps","protocol":17,"map":"cp_steel","folder":"tf","game":"Team Fortress","app_id":440,"player_count":24,"max_players":24,"Bots":0,"server_type":"Dedicated","server_os":"Linux","password":true,"vac":true,"version":"7882260","steam_id":85568392924510198,"keywords":["cp","nocrits","nodmgspread","uncletopia"],"game_id":440,"stv_port":27036,"stv_name":"Uncletopia | Los Angeles | 3 | All Maps | STV","players":[{"user_id":226,"name":"Weiner Cleaner","steam_id":76561198147514577,"connected_time":1071000000000,"state":"active","ping":59},{"user_id":206,"name":"Seriously Bruh","steam_id":76561198070408485,"connected_time":2116000000000,"state":"active","ping":67},{"user_id":229,"name":"Dr. B Busta","steam_id":76561198206387303,"connected_time":529000000000,"state":"active","ping":35},{"user_id":179,"name":"Bhutch","steam_id":76561198145654275,"connected_time":3528000000000,"state":"active","ping":98},{"user_id":161,"name":"Takareer","steam_id":76561198001751765,"connected_time":4819000000000,"state":"active","ping":114},{"user_id":200,"name":"vioxynteris","steam_id":76561198161428666,"connected_time":2272000000000,"state":"active","ping":31},{"user_id":217,"name":"Balerion the Black Dread","steam_id":76561198003728369,"connected_time":1620000000000,"state":"active","ping":55},{"user_id":230,"name":"Myko_mocha","steam_id":76561198198256314,"connected_time":458000000000,"state":"active","ping":77},{"user_id":203,"name":"HOG RIDER","steam_id":76561198298589502,"connected_time":2167000000000,"state":"active","ping":51},{"user_id":204,"name":"Tele Co","steam_id":76561198041909269,"connected_time":2156000000000,"state":"active","ping":56},{"user_id":191,"name":"danger","steam_id":76561198000459165,"connected_time":2698000000000,"state":"active","ping":90},{"user_id":174,"name":"Owl_eyes","steam_id":76561198066199203,"connected_time":4075000000000,"state":"active","ping":60},{"user_id":231,"name":"jayce","steam_id":76561198079403345,"connected_time":448000000000,"state":"active","ping":90},{"user_id":221,"name":"PainInTheRuss","steam_id":76561197977960543,"connected_time":1319000000000,"state":"active","ping":52},{"user_id":207,"name":"SmallErection","steam_id":76561198071770147,"connected_time":2115000000000,"state":"active","ping":98},{"user_id":215,"name":"ejschild745","steam_id":76561199013388867,"connected_time":1835000000000,"state":"active","ping":104},{"user_id":209,"name":"Vàl","steam_id":76561198118751831,"connected_time":2095000000000,"state":"active","ping":86},{"user_id":232,"name":"smaerdevahot","steam_id":76561198369075257,"connected_time":361000000000,"state":"active","ping":89},{"user_id":213,"name":"Prof. Abedul","steam_id":76561198146171581,"connected_time":1912000000000,"state":"active","ping":166},{"user_id":211,"name":"SCUD missile up your ass","steam_id":76561198066452726,"connected_time":2015000000000,"state":"active","ping":45},{"user_id":223,"name":"A UsedNom","steam_id":76561198402832756,"connected_time":1274000000000,"state":"active","ping":47},{"user_id":218,"name":"Tideflat","steam_id":76561198179850851,"connected_time":1590000000000,"state":"active","ping":87},{"user_id":220,"name":"Smooth™","steam_id":76561197995866050,"connected_time":1499000000000,"state":"active","ping":128},{"user_id":169,"name":"Dr. Bubs","steam_id":76561198011696595,"connected_time":4574000000000,"state":"active","ping":48}]},{"server_id":25,"name":"Uncletopia | Los Angeles | 4 | Stopwatch Beta","name_short":"lax-4","host":"lax-1.us.uncletopia.com","port":27045,"enabled":true,"region":"us-west","cc":"us","latitude":33.94279,"longitude":-118.41004,"reserved":0,"last_update":"0001-01-01T00:00:00Z","name_a2s":"Uncletopia | Los Angeles | 4 | Stopwatch Beta","protocol":17,"map":"koth_viaduct","folder":"tf","game":"Team Fortress","app_id":440,"player_count":0,"max_players":24,"Bots":0,"server_type":"Dedicated","server_os":"Linux","password":true,"vac":true,"version":"7882260","steam_id":85568392924510199,"keywords":["cp","nocrits","nodmgspread","uncletopia"],"game_id":440,"stv_port":27046,"stv_name":"Uncletopia | Los Angeles | 4 | Stopwatch Beta | STV","players":null},{"server_id":11,"name":"Uncletopia | London | 1 | All Maps","name_short":"lon-1","host":"lon-1.uk.uncletopia.com","port":27015,"enabled":true,"region":"eu","cc":"gb","latitude":51.509865,"longitude":-0.118092,"reserved":0,"last_update":"0001-01-01T00:00:00Z","name_a2s":"Uncletopia | London | 1 | All Maps","protocol":17,"map":"pl_borneo","folder":"tf","game":"Team Fortress","app_id":440,"player_count":0,"max_players":24,"Bots":0,"server_type":"Dedicated","server_os":"Linux","password":true,"vac":true,"version":"7882260","steam_id":85568392924367362,"keywords":["nocrits","nodmgspread","payload","uncletopia"],"game_id":440,"stv_port":27016,"stv_name":"Uncletopia | London | 1 | All Maps | STV","players":null},{"server_id":114,"name":"Uncletopia | London | 2 | All Maps","name_short":"lon-2","host":"lon-1.uk.uncletopia.com","port":27025,"enabled":true,"region":"eu","cc":"gb","latitude":51.509865,"longitude":-0.118092,"reserved":0,"last_update":"0001-01-01T00:00:00Z","name_a2s":"Uncletopia | London | 2 | All Maps","protocol":17,"map":"pl_barnblitz","folder":"tf","game":"Team Fortress","app_id":440,"player_count":16,"max_players":24,"Bots":0,"server_type":"Dedicated","server_os":"Linux","password":true,"vac":true,"version":"7882260","steam_id":85568392924470941,"keywords":["nocrits","nodmgspread","payload","uncletopia"],"game_id":440,"stv_port":27026,"stv_name":"Uncletopia | London | 2 | All Maps | STV","players":[{"user_id":513,"name":"Arche234","steam_id":76561198302695001,"connected_time":1040000000000,"state":"active","ping":156},{"user_id":521,"name":"Grayson5525","steam_id":76561198828142855,"connected_time":482000000000,"state":"active","ping":145},{"user_id":491,"name":"Zylon","steam_id":76561198073269221,"connected_time":2621000000000,"state":"active","ping":56},{"user_id":528,"name":"Arti","steam_id":76561197983352845,"connected_time":5000000000,"state":"spawning","ping":45},{"user_id":494,"name":"Pogmanson","steam_id":76561198919953445,"connected_time":2384000000000,"state":"active","ping":41},{"user_id":497,"name":"snowycoast","steam_id":76561198346638308,"connected_time":1995000000000,"state":"active","ping":47},{"user_id":474,"name":"♥Femboy AMon♥","steam_id":76561198082470411,"connected_time":4258000000000,"state":"active","ping":76},{"user_id":518,"name":"KAISER OF KRIEG","steam_id":76561198011223050,"connected_time":575000000000,"state":"spawning","ping":33},{"user_id":519,"name":"David Asura","steam_id":76561198017852330,"connected_time":541000000000,"state":"active","ping":70},{"user_id":500,"name":"Pramanix is my only frien","steam_id":76561198325612834,"connected_time":1587000000000,"state":"active","ping":121},{"user_id":524,"name":"Qdarks","steam_id":76561198013391340,"connected_time":192000000000,"state":"active","ping":137},{"user_id":525,"name":"Pinochet","steam_id":76561198194042394,"connected_time":79000000000,"state":"active","ping":133},{"user_id":507,"name":"God Hates Mud Golems","steam_id":76561198044644878,"connected_time":1382000000000,"state":"spawning","ping":139},{"user_id":512,"name":"Xx_EpicGaymer_xX","steam_id":76561198846784757,"connected_time":1134000000000,"state":"active","ping":55},{"user_id":508,"name":"WhiteMilk","steam_id":76561198278442236,"connected_time":1378000000000,"state":"active","ping":134},{"user_id":509,"name":"Edith","steam_id":76561198867635722,"connected_time":1331000000000,"state":"active","ping":109}]},{"server_id":320,"name":"Uncletopia | London | 3 | All Maps","name_short":"lon-3","host":"lon-1.uk.uncletopia.com","port":27035,"enabled":true,"region":"eu","cc":"gb","latitude":51.509865,"longitude":-0.118092,"reserved":0,"last_update":"0001-01-01T00:00:00Z","name_a2s":"Uncletopia | London | 3 | All Maps","protocol":17,"map":"pl_borneo","folder":"tf","game":"Team Fortress","app_id":440,"player_count":0,"max_players":24,"Bots":0,"server_type":"Dedicated","server_os":"Linux","password":true,"vac":true,"version":"7882260","steam_id":85568392924510192,"keywords":["nocrits","nodmgspread","payload","uncletopia"],"game_id":440,"stv_port":27036,"stv_name":"Uncletopia | London | 3 | All Maps | STV","players":null},{"server_id":321,"name":"Uncletopia | London | 4 | All Maps","name_short":"lon-4","host":"lon-1.uk.uncletopia.com","port":27045,"enabled":true,"region":"eu","cc":"gb","latitude":51.509865,"longitude":-0.118092,"reserved":0,"last_update":"0001-01-01T00:00:00Z","name_a2s":"Uncletopia | London | 4 | All Maps","protocol":17,"map":"pl_frontier_final","folder":"tf","game":"Team Fortress","app_id":440,"player_count":0,"max_players":24,"Bots":0,"server_type":"Dedicated","server_os":"Linux","password":true,"vac":true,"version":"7882260","steam_id":85568392924510193,"keywords":["nocrits","nodmgspread","payload","uncletopia"],"game_id":440,"stv_port":27046,"stv_name":"Uncletopia | London | 4 | All Maps | STV","players":null},{"server_id":21,"name":"Uncletopia | London | 5 | All Maps","name_short":"lon-5","host":"lon-1.uk.uncletopia.com","port":27055,"enabled":true,"region":"eu","cc":"gb","latitude":51.509865,"longitude":-0.118092,"reserved":0,"last_update":"0001-01-01T00:00:00Z","name_a2s":"Uncletopia | London | 5 | All Maps","protocol":17,"map":"pl_frontier_final","folder":"tf","game":"Team Fortress","app_id":440,"player_count":0,"max_players":24,"Bots":0,"server_type":"Dedicated","server_os":"Linux","password":true,"vac":true,"version":"7882260","steam_id":85568392924742829,"keywords":["nocrits","nodmgspread","payload","uncletopia"],"game_id":440,"stv_port":27056,"stv_name":"Uncletopia | London | 5 | All Maps | STV","players":null},{"server_id":22,"name":"Uncletopia | London | 6 | All Maps","name_short":"lon-6","host":"lon-1.uk.uncletopia.com","port":27065,"enabled":true,"region":"eu","cc":"gb","latitude":51.509865,"longitude":-0.118092,"reserved":0,"last_update":"0001-01-01T00:00:00Z","name_a2s":"Uncletopia | London | 6 | All Maps","protocol":17,"map":"cp_mountainlab","folder":"tf","game":"Team Fortress","app_id":440,"player_count":0,"max_players":24,"Bots":0,"server_type":"Dedicated","server_os":"Linux","password":true,"vac":true,"version":"7882260","steam_id":85568392924742830,"keywords":["cp","nocrits","nodmgspread","uncletopia"],"game_id":440,"stv_port":27066,"stv_name":"Uncletopia | London | 6 | All Maps | STV","players":null},{"server_id":40,"name":"Uncletopia | London | 7 | No Payload","name_short":"lon-7","host":"lon-1.uk.uncletopia.com","port":27075,"enabled":true,"region":"eu","cc":"gb","latitude":51.509865,"longitude":-0.118092,"reserved":0,"last_update":"0001-01-01T00:00:00Z","name_a2s":"Uncletopia | London | 7 | No Payload","protocol":17,"map":"koth_suijin","folder":"tf","game":"Team Fortress","app_id":440,"player_count":0,"max_players":24,"Bots":0,"server_type":"Dedicated","server_os":"Linux","password":true,"vac":true,"version":"7882260","steam_id":85568392924964314,"keywords":["cp","nocrits","nodmgspread","uncletopia"],"game_id":440,"stv_port":27076,"stv_name":"Uncletopia | London | 7 | No Payload | STV","players":null},{"server_id":41,"name":"Uncletopia | London | 8 | Community","name_short":"lon-8","host":"lon-1.uk.uncletopia.com","port":27085,"enabled":true,"region":"eu","cc":"gb","latitude":51.509865,"longitude":-0.118092,"reserved":0,"last_update":"0001-01-01T00:00:00Z","name_a2s":"Uncletopia | London | 8 | Community","protocol":17,"map":"workshop/koth_slaughter_rc1.ugc1712845210","folder":"tf","game":"Team Fortress","app_id":440,"player_count":0,"max_players":24,"Bots":0,"server_type":"Dedicated","server_os":"Linux","password":true,"vac":true,"version":"7882260","steam_id":85568392924964315,"keywords":["cp","nocrits","nodmgspread","uncletopia"],"game_id":440,"stv_port":27086,"stv_name":"Uncletopia | London | 8 | Community | STV","players":null},{"server_id":300,"name":"Uncletopia | Montréal | 1 | All Maps","name_short":"mtl-1","host":"mtl-1.ca.uncletopia.com","port":27015,"enabled":true,"region":"us-east","cc":"ca","latitude":45.50889,"longitude":-73.56167,"reserved":0,"last_update":"0001-01-01T00:00:00Z","name_a2s":"Uncletopia | Montréal | 1 | All Maps","protocol":17,"map":"koth_viaduct","folder":"tf","game":"Team Fortress","app_id":440,"player_count":0,"max_players":24,"Bots":0,"server_type":"Dedicated","server_os":"Linux","password":true,"vac":true,"version":"7882260","steam_id":85568392924500087,"keywords":["cp","nocrits","nodmgspread","uncletopia"],"game_id":440,"stv_port":27016,"stv_name":"Uncletopia | Montréal | 1 | All Maps | STV","players":null},{"server_id":301,"name":"Uncletopia | Montréal | 2 | All Maps","name_short":"mtl-2","host":"mtl-1.ca.uncletopia.com","port":27025,"enabled":true,"region":"us-east","cc":"ca","latitude":45.50889,"longitude":-73.56167,"reserved":0,"last_update":"0001-01-01T00:00:00Z","name_a2s":"Uncletopia | Montréal | 2 | All Maps","protocol":17,"map":"koth_cascade","folder":"tf","game":"Team Fortress","app_id":440,"player_count":0,"max_players":24,"Bots":0,"server_type":"Dedicated","server_os":"Linux","password":true,"vac":true,"version":"7882260","steam_id":85568392924500088,"keywords":["cp","nocrits","nodmgspread","uncletopia"],"game_id":440,"stv_port":27026,"stv_name":"Uncletopia | Montréal | 2 | All Maps | STV","players":null},{"server_id":302,"name":"Uncletopia | Montréal | 3 | All Maps","name_short":"mtl-3","host":"mtl-1.ca.uncletopia.com","port":27035,"enabled":true,"region":"us-east","cc":"ca","latitude":45.50889,"longitude":-73.56167,"reserved":0,"last_update":"0001-01-01T00:00:00Z","name_a2s":"Uncletopia | Montréal | 3 | All Maps","protocol":17,"map":"cp_altitude","folder":"tf","game":"Team Fortress","app_id":440,"player_count":0,"max_players":24,"Bots":0,"server_type":"Dedicated","server_os":"Linux","password":true,"vac":true,"version":"7882260","steam_id":85568392924500089,"keywords":["cp","nocrits","nodmgspread","uncletopia"],"game_id":440,"stv_port":27036,"stv_name":"Uncletopia | Montréal | 3 | All Maps | STV","players":null},{"server_id":303,"name":"Uncletopia | Montréal | 4 | No Payload","name_short":"mtl-4","host":"mtl-1.ca.uncletopia.com","port":27045,"enabled":true,"region":"us-east","cc":"ca","latitude":45.50889,"longitude":-73.56167,"reserved":0,"last_update":"0001-01-01T00:00:00Z","name_a2s":"Uncletopia | Montréal | 4 | No Payload","protocol":17,"map":"koth_highpass","folder":"tf","game":"Team Fortress","app_id":440,"player_count":0,"max_players":24,"Bots":0,"server_type":"Dedicated","server_os":"Linux","password":true,"vac":true,"version":"7882260","steam_id":85568392924500090,"keywords":["cp","nocrits","nodmgspread","uncletopia"],"game_id":440,"stv_port":27046,"stv_name":"Uncletopia | Montréal | 4 | No Payload | STV","players":null},{"server_id":13,"name":"Uncletopia | New York City | 1 | All Maps","name_short":"nyc-1","host":"nyc-1.us.uncletopia.com","port":27015,"enabled":true,"region":"us-east","cc":"us","latitude":40.73061,"longitude":-73.93524,"reserved":0,"last_update":"0001-01-01T00:00:00Z","name_a2s":"Uncletopia | New York City | 1 | All Maps","protocol":17,"map":"pl_upward","folder":"tf","game":"Team Fortress","app_id":440,"player_count":24,"max_players":24,"Bots":0,"server_type":"Dedicated","server_os":"Linux","password":true,"vac":true,"version":"7882260","steam_id":85568392924469993,"keywords":["nocrits","nodmgspread","payload","uncletopia"],"game_id":440,"stv_port":27016,"stv_name":"Uncletopia | New York City | 1 | All Maps | STV","players":[{"user_id":480,"name":"HeavenHearst","steam_id":76561198066083947,"connected_time":2842000000000,"state":"active","ping":57},{"user_id":500,"name":"Takeover","steam_id":76561197996081461,"connected_time":1069000000000,"state":"active","ping":43},{"user_id":498,"name":"Lore","steam_id":76561198098407538,"connected_time":1148000000000,"state":"active","ping":62},{"user_id":512,"name":"honked off the bobo","steam_id":76561198123287268,"connected_time":677000000000,"state":"active","ping":61},{"user_id":414,"name":"Gentoo Linux Gaming","steam_id":76561197999657118,"connected_time":9043000000000,"state":"active","ping":68},{"user_id":501,"name":"froggy","steam_id":76561198079405234,"connected_time":1016000000000,"state":"active","ping":55},{"user_id":505,"name":"The Juice","steam_id":76561198065307144,"connected_time":851000000000,"state":"active","ping":65},{"user_id":490,"name":"@soexclusive12_","steam_id":76561198144909435,"connected_time":2352000000000,"state":"active","ping":120},{"user_id":503,"name":"Gayzebo","steam_id":76561198137433111,"connected_time":988000000000,"state":"active","ping":64},{"user_id":496,"name":"StarManMatt","steam_id":76561198125513574,"connected_time":1512000000000,"state":"active","ping":87},{"user_id":497,"name":"Mr. Durian","steam_id":76561198093813212,"connected_time":1456000000000,"state":"active","ping":66},{"user_id":484,"name":"twix","steam_id":76561198040912048,"connected_time":2619000000000,"state":"active","ping":59},{"user_id":511,"name":"DolphiN | RGL.gg","steam_id":76561198048614515,"connected_time":691000000000,"state":"active","ping":44},{"user_id":488,"name":"tyg","steam_id":76561198056246867,"connected_time":2542000000000,"state":"active","ping":57},{"user_id":507,"name":"LORD CANTI","steam_id":76561198254479725,"connected_time":838000000000,"state":"active","ping":57},{"user_id":513,"name":"marcie","steam_id":76561198170642407,"connected_time":612000000000,"state":"active","ping":59},{"user_id":386,"name":"Horrizan","steam_id":76561197965028480,"connected_time":10619000000000,"state":"active","ping":88},{"user_id":475,"name":"Bert.","steam_id":76561198140666346,"connected_time":3489000000000,"state":"active","ping":52},{"user_id":493,"name":"Casual Costanza","steam_id":76561198024409325,"connected_time":2127000000000,"state":"active","ping":64},{"user_id":508,"name":"NovaSc6ut","steam_id":76561198277163301,"connected_time":835000000000,"state":"active","ping":79},{"user_id":478,"name":"BluJay","steam_id":76561198044670560,"connected_time":2933000000000,"state":"active","ping":51},{"user_id":514,"name":"scrom doglin","steam_id":76561198073176682,"connected_time":606000000000,"state":"active","ping":76},{"user_id":464,"name":"chainsaw chains for teeth.","steam_id":76561198294013916,"connected_time":4353000000000,"state":"active","ping":46},{"user_id":479,"name":"Glorified Super Soaker","steam_id":76561199078324894,"connected_time":2933000000000,"state":"active","ping":67}]},{"server_id":14,"name":"Uncletopia | New York City | 2 | All Maps","name_short":"nyc-2","host":"nyc-1.us.uncletopia.com","port":27025,"enabled":true,"region":"us-east","cc":"us","latitude":40.73061,"longitude":-73.93524,"reserved":0,"last_update":"0001-01-01T00:00:00Z","name_a2s":"Uncletopia | New York City | 2 | All Maps","protocol":17,"map":"koth_cascade","folder":"tf","game":"Team Fortress","app_id":440,"player_count":0,"max_players":24,"Bots":0,"server_type":"Dedicated","server_os":"Linux","password":true,"vac":true,"version":"7882260","steam_id":85568392924469994,"keywords":["cp","nocrits","nodmgspread","uncletopia"],"game_id":440,"stv_port":27026,"stv_name":"Uncletopia | New York City | 2 | All Maps | STV","players":null},{"server_id":15,"name":"Uncletopia | New York City | 3 | Stopwatch Beta","name_short":"nyc-3","host":"nyc-1.us.uncletopia.com","port":27035,"enabled":true,"region":"us-east","cc":"us","latitude":40.73061,"longitude":-73.93524,"reserved":0,"last_update":"0001-01-01T00:00:00Z","name_a2s":"Uncletopia | New York City | 3 | Stopwatch Beta","protocol":17,"map":"pl_borneo","folder":"tf","game":"Team Fortress","app_id":440,"player_count":0,"max_players":24,"Bots":0,"server_type":"Dedicated","server_os":"Linux","password":true,"vac":true,"version":"7882260","steam_id":85568392924742820,"keywords":["nocrits","nodmgspread","payload","uncletopia"],"game_id":440,"stv_port":27036,"stv_name":"Uncletopia | New York City | 3 | Stopwatch Beta | STV","players":null},{"server_id":16,"name":"Uncletopia | New York City | 4 | Community","name_short":"nyc-4","host":"nyc-1.us.uncletopia.com","port":27045,"enabled":true,"region":"us-east","cc":"us","latitude":40.73061,"longitude":-73.93524,"reserved":0,"last_update":"0001-01-01T00:00:00Z","name_a2s":"Uncletopia | New York City | 4 | Community","protocol":17,"map":"workshop/koth_product_final.ugc454272353","folder":"tf","game":"Team Fortress","app_id":440,"player_count":5,"max_players":24,"Bots":0,"server_type":"Dedicated","server_os":"Linux","password":true,"vac":true,"version":"7882260","steam_id":85568392924742821,"keywords":["cp","nocrits","nodmgspread","uncletopia"],"game_id":440,"stv_port":27046,"stv_name":"Uncletopia | New York City | 4 | Community | STV","players":[{"user_id":291,"name":"IKOVKY/TTV","steam_id":76561198138035040,"connected_time":680000000000,"state":"active","ping":52},{"user_id":292,"name":"YEE","steam_id":76561198317068510,"connected_time":668000000000,"state":"active","ping":55},{"user_id":293,"name":"Slavocado","steam_id":76561198161381266,"connected_time":658000000000,"state":"active","ping":64},{"user_id":294,"name":"buh","steam_id":76561199421933900,"connected_time":572000000000,"state":"active","ping":125},{"user_id":297,"name":"Kuji Katsumi TTV ♡","steam_id":76561198165615964,"connected_time":241000000000,"state":"active","ping":63}]},{"server_id":142,"name":"Uncletopia | São Paulo | 1 | All Maps","name_short":"sao-1","host":"sao-1.br.uncletopia.com","port":27015,"enabled":true,"region":"sa","cc":"br","latitude":-23.533773,"longitude":-46.62529,"reserved":0,"last_update":"0001-01-01T00:00:00Z","name_a2s":"Uncletopia | São Paulo | 1 | All Maps","protocol":17,"map":"pl_badwater","folder":"tf","game":"Team Fortress","app_id":440,"player_count":0,"max_players":24,"Bots":0,"server_type":"Dedicated","server_os":"Linux","password":true,"vac":true,"version":"7882260","steam_id":85568392924469996,"keywords":["nocrits","nodmgspread","payload","uncletopia"],"game_id":440,"stv_port":27016,"stv_name":"Uncletopia | São Paulo | 1 | All Maps | STV","players":null},{"server_id":143,"name":"Uncletopia | São Paulo | 2 | All Maps","name_short":"sao-2","host":"sao-2.br.uncletopia.com","port":27015,"enabled":true,"region":"sa","cc":"br","latitude":-23.533773,"longitude":-46.62529,"reserved":0,"last_update":"0001-01-01T00:00:00Z","name_a2s":"Uncletopia | São Paulo | 2 | All Maps","protocol":17,"map":"pl_borneo","folder":"tf","game":"Team Fortress","app_id":440,"player_count":0,"max_players":24,"Bots":0,"server_type":"Dedicated","server_os":"Linux","password":true,"vac":true,"version":"7882260","steam_id":85568392924485349,"keywords":["nocrits","nodmgspread","payload","uncletopia"],"game_id":440,"stv_port":27016,"stv_name":"Uncletopia | São Paulo | 2 | All Maps | STV","players":null},{"server_id":7,"name":"Uncletopia | Seattle | 1 | All Maps","name_short":"sea-1","host":"sea-1.us.uncletopia.com","port":27015,"enabled":true,"region":"us-west","cc":"us","latitude":47.608013,"longitude":-122.33517,"reserved":0,"last_update":"0001-01-01T00:00:00Z","name_a2s":"Uncletopia | Seattle | 1 | All Maps","protocol":17,"map":"pl_upward","folder":"tf","game":"Team Fortress","app_id":440,"player_count":24,"max_players":24,"Bots":0,"server_type":"Dedicated","server_os":"Linux","password":true,"vac":true,"version":"7882260","steam_id":85568392924469997,"keywords":["nocrits","nodmgspread","payload","uncletopia"],"game_id":440,"stv_port":27016,"stv_name":"Uncletopia | Seattle | 1 | All Maps | STV","players":[{"user_id":750,"name":"Spruce","steam_id":76561198081684676,"connected_time":689000000000,"state":"active","ping":63},{"user_id":717,"name":"Johnny Testickle","steam_id":76561198032736600,"connected_time":3812000000000,"state":"active","ping":76},{"user_id":738,"name":"Arsonist Goose","steam_id":76561198147441830,"connected_time":1220000000000,"state":"active","ping":65},{"user_id":737,"name":"zZz","steam_id":76561198113083770,"connected_time":1246000000000,"state":"active","ping":112},{"user_id":748,"name":"Nea","steam_id":76561198408792773,"connected_time":761000000000,"state":"active","ping":52},{"user_id":743,"name":"louie, a conch guy now","steam_id":76561198168084763,"connected_time":789000000000,"state":"active","ping":45},{"user_id":624,"name":"rat gets the cheese","steam_id":76561198031234032,"connected_time":11645000000000,"state":"active","ping":95},{"user_id":705,"name":"Caqtus","steam_id":76561198025599356,"connected_time":4255000000000,"state":"active","ping":78},{"user_id":725,"name":"Byte The Protogen","steam_id":76561199229871383,"connected_time":2822000000000,"state":"active","ping":82},{"user_id":731,"name":"Day Man","steam_id":76561198067154807,"connected_time":2011000000000,"state":"active","ping":50},{"user_id":730,"name":"♥ Milo Stefferson ♥ (Soupca","steam_id":76561198056269538,"connected_time":2060000000000,"state":"active","ping":59},{"user_id":732,"name":"An Old Lady","steam_id":76561198047480318,"connected_time":1898000000000,"state":"active","ping":79},{"user_id":749,"name":"mike, has 3 baby mamas","steam_id":76561198225411004,"connected_time":759000000000,"state":"active","ping":71},{"user_id":744,"name":"shane","steam_id":76561198060491451,"connected_time":788000000000,"state":"active","ping":83},{"user_id":676,"name":"lusty","steam_id":76561198138478947,"connected_time":7693000000000,"state":"active","ping":42},{"user_id":733,"name":"gloobern","steam_id":76561198341190679,"connected_time":1806000000000,"state":"active","ping":65},{"user_id":740,"name":"makeshift_burrito","steam_id":76561198042510825,"connected_time":1162000000000,"state":"active","ping":73},{"user_id":734,"name":"NEЯO","steam_id":76561197965450216,"connected_time":1764000000000,"state":"active","ping":57},{"user_id":724,"name":"fwoov","steam_id":76561198129166260,"connected_time":2883000000000,"state":"active","ping":76},{"user_id":728,"name":"blinkerton city","steam_id":76561198054270410,"connected_time":2796000000000,"state":"active","ping":57},{"user_id":487,"name":"lili","steam_id":76561199391478575,"connected_time":22927000000000,"state":"active","ping":69},{"user_id":690,"name":"shiadyne","steam_id":76561198271939793,"connected_time":6844000000000,"state":"active","ping":50},{"user_id":693,"name":"quaq","steam_id":76561198059604047,"connected_time":6803000000000,"state":"active","ping":40},{"user_id":753,"name":"★Mayd★","steam_id":76561198291985932,"connected_time":325000000000,"state":"active","ping":79}]},{"server_id":119,"name":"Uncletopia | Seattle | 2 | All Maps","name_short":"sea-2","host":"sea-1.us.uncletopia.com","port":27025,"enabled":true,"region":"us-west","cc":"us","latitude":47.608013,"longitude":-122.33517,"reserved":0,"last_update":"0001-01-01T00:00:00Z","name_a2s":"Uncletopia | Seattle | 2 | All Maps","protocol":17,"map":"koth_viaduct","folder":"tf","game":"Team Fortress","app_id":440,"player_count":24,"max_players":24,"Bots":0,"server_type":"Dedicated","server_os":"Linux","password":true,"vac":true,"version":"7882260","steam_id":85568392924469998,"keywords":["cp","nocrits","nodmgspread","uncletopia"],"game_id":440,"stv_port":27026,"stv_name":"Uncletopia | Seattle | 2 | All Maps | STV","players":[{"user_id":359,"name":"Mayo Muncher","steam_id":76561198350246784,"connected_time":658000000000,"state":"active","ping":92},{"user_id":366,"name":"yeehaw","steam_id":76561198020475089,"connected_time":508000000000,"state":"active","ping":43},{"user_id":353,"name":"level 7 firemancer","steam_id":76561198209571677,"connected_time":1175000000000,"state":"active","ping":128},{"user_id":360,"name":"Zincian","steam_id":76561198055484259,"connected_time":657000000000,"state":"active","ping":55},{"user_id":347,"name":"Vruet","steam_id":76561198006311673,"connected_time":1881000000000,"state":"active","ping":99},{"user_id":348,"name":"Eraser cat","steam_id":76561199045570463,"connected_time":1335000000000,"state":"active","ping":48},{"user_id":320,"name":"i.love.ants.321","steam_id":76561198169755734,"connected_time":4811000000000,"state":"active","ping":68},{"user_id":361,"name":"pyrotechnic","steam_id":76561198043558709,"connected_time":655000000000,"state":"active","ping":47},{"user_id":362,"name":"Overvote","steam_id":76561198067641129,"connected_time":621000000000,"state":"active","ping":57},{"user_id":316,"name":"thunderous prophet","steam_id":76561198131166135,"connected_time":5538000000000,"state":"active","ping":42},{"user_id":260,"name":"Florist","steam_id":76561198009121060,"connected_time":9032000000000,"state":"active","ping":45},{"user_id":370,"name":"ed","steam_id":76561198080475712,"connected_time":312000000000,"state":"active","ping":74},{"user_id":367,"name":"rad killl raccoon","steam_id":76561198980975595,"connected_time":498000000000,"state":"active","ping":65},{"user_id":310,"name":"NEBULA","steam_id":76561198086878595,"connected_time":5763000000000,"state":"active","ping":75},{"user_id":368,"name":"Prop","steam_id":76561198253186509,"connected_time":438000000000,"state":"active","ping":101},{"user_id":372,"name":"Soda","steam_id":76561198219209367,"connected_time":55000000000,"state":"active","ping":57},{"user_id":317,"name":"Retesaurus","steam_id":76561198045189319,"connected_time":5329000000000,"state":"active","ping":48},{"user_id":352,"name":"resh","steam_id":76561198239598834,"connected_time":1291000000000,"state":"active","ping":134},{"user_id":346,"name":"rorywashere /ᐠ - ˕ -マ Ⳋ","steam_id":76561198065825165,"connected_time":2009000000000,"state":"active","ping":126},{"user_id":364,"name":"Lasagna Fan","steam_id":76561199169204754,"connected_time":591000000000,"state":"active","ping":60},{"user_id":355,"name":"jorts","steam_id":76561199041179985,"connected_time":816000000000,"state":"active","ping":65},{"user_id":369,"name":"e77","steam_id":76561198069309111,"connected_time":435000000000,"state":"active","ping":86},{"user_id":332,"name":"gorlab","steam_id":76561198025089694,"connected_time":2738000000000,"state":"active","ping":65},{"user_id":333,"name":"Shields","steam_id":76561198043216746,"connected_time":2738000000000,"state":"active","ping":65}]},{"server_id":406,"name":"Uncletopia | Seattle | 3 | Stopwatch Beta","name_short":"sea-3","host":"sea-1.us.uncletopia.com","port":27035,"enabled":true,"region":"us-west","cc":"us","latitude":47.608013,"longitude":-122.33517,"reserved":0,"last_update":"0001-01-01T00:00:00Z","name_a2s":"Uncletopia | Seattle | 3 | Stopwatch Beta","protocol":17,"map":"cp_process_final","folder":"tf","game":"Team Fortress","app_id":440,"player_count":22,"max_players":24,"Bots":0,"server_type":"Dedicated","server_os":"Linux","password":true,"vac":true,"version":"7882260","steam_id":85568392924515217,"keywords":["cp","nocrits","nodmgspread","uncletopia"],"game_id":440,"stv_port":27036,"stv_name":"Uncletopia | Seattle | 3 | Stopwatch Beta | STV","players":[{"user_id":276,"name":"miscellaneous","steam_id":76561199436642954,"connected_time":2176000000000,"state":"active","ping":63},{"user_id":275,"name":"goldhed","steam_id":76561198051751133,"connected_time":2462000000000,"state":"active","ping":73},{"user_id":302,"name":"catrinaisahuman","steam_id":76561198281355729,"connected_time":78000000000,"state":"active","ping":68},{"user_id":269,"name":"gadisboss","steam_id":76561198301704975,"connected_time":2697000000000,"state":"active","ping":96},{"user_id":277,"name":"NewGuy","steam_id":76561198968058652,"connected_time":1997000000000,"state":"active","ping":47},{"user_id":262,"name":"🅜🅔🅔🅚🅢🅣🅔\ufffd\ufffd\ufffd","steam_id":76561197999748343,"connected_time":2899000000000,"state":"active","ping":90},{"user_id":303,"name":"slude","steam_id":76561198065700596,"connected_time":43000000000,"state":"active","ping":101},{"user_id":304,"name":"LordMorphesus","steam_id":76561198026995104,"connected_time":14000000000,"state":"active","ping":106},{"user_id":289,"name":"Deathkillsme","steam_id":76561198059468746,"connected_time":1497000000000,"state":"active","ping":54},{"user_id":292,"name":"Blitzy","steam_id":76561198149472890,"connected_time":1170000000000,"state":"active","ping":68},{"user_id":295,"name":"Chopsticks789","steam_id":76561198448610633,"connected_time":1078000000000,"state":"active","ping":83},{"user_id":280,"name":"MeeM Medic","steam_id":76561198310121645,"connected_time":1901000000000,"state":"active","ping":115},{"user_id":265,"name":"Dongus","steam_id":76561197979056451,"connected_time":2852000000000,"state":"active","ping":44},{"user_id":266,"name":"Leaderofthe00fkins","steam_id":76561198281999872,"connected_time":2840000000000,"state":"active","ping":386},{"user_id":300,"name":"The Headhunter","steam_id":76561198389722871,"connected_time":632000000000,"state":"active","ping":93},{"user_id":290,"name":"Coowil","steam_id":76561198070985437,"connected_time":1478000000000,"state":"active","ping":43},{"user_id":281,"name":"self sufficient kitten","steam_id":76561197960592612,"connected_time":1866000000000,"state":"active","ping":48},{"user_id":291,"name":"afeel5004","steam_id":76561199273696662,"connected_time":1396000000000,"state":"active","ping":71},{"user_id":284,"name":"cofferhead","steam_id":76561199191108449,"connected_time":1709000000000,"state":"active","ping":87},{"user_id":299,"name":"Pah-Wraith Gul Dukat","steam_id":76561198033918106,"connected_time":638000000000,"state":"active","ping":80},{"user_id":297,"name":"euphoricfilth","steam_id":76561198100160865,"connected_time":992000000000,"state":"active","ping":117},{"user_id":287,"name":"CCNikova","steam_id":76561198398190933,"connected_time":1658000000000,"state":"active","ping":87}]},{"server_id":17,"name":"Uncletopia | San Francisco | 1 | All Maps","name_short":"sfo-1","host":"sfo-1.us.uncletopia.com","port":27015,"enabled":true,"region":"us-west","cc":"us","latitude":37.77397,"longitude":-122.4313,"reserved":0,"last_update":"0001-01-01T00:00:00Z","name_a2s":"Uncletopia | San Francisco | 1 | All Maps","protocol":17,"map":"cp_dustbowl","folder":"tf","game":"Team Fortress","app_id":440,"player_count":24,"max_players":24,"Bots":0,"server_type":"Dedicated","server_os":"Linux","password":true,"vac":true,"version":"7882260","steam_id":85568392924469999,"keywords":["cp","nocrits","nodmgspread","uncletopia"],"game_id":440,"stv_port":27016,"stv_name":"Uncletopia | San Francisco | 1 | All Maps | STV","players":[{"user_id":368,"name":"El Super Monkey Ball","steam_id":76561198135634819,"connected_time":1497000000000,"state":"active","ping":61},{"user_id":395,"name":"mechanicvirus","steam_id":76561198038161480,"connected_time":174000000000,"state":"active","ping":60},{"user_id":370,"name":"Medical Breakthrough","steam_id":76561198171718019,"connected_time":1476000000000,"state":"active","ping":67},{"user_id":380,"name":"steve","steam_id":76561198207881077,"connected_time":1282000000000,"state":"active","ping":81},{"user_id":381,"name":"That \"Spud\" Guy","steam_id":76561197997444126,"connected_time":1274000000000,"state":"active","ping":77},{"user_id":394,"name":"Jezzus","steam_id":76561199289676387,"connected_time":274000000000,"state":"active","ping":110},{"user_id":382,"name":"help","steam_id":76561198044689625,"connected_time":1268000000000,"state":"active","ping":64},{"user_id":375,"name":"yaoipilled","steam_id":76561198055486814,"connected_time":1358000000000,"state":"active","ping":65},{"user_id":376,"name":"JohnnyGitGud","steam_id":76561198401455467,"connected_time":1336000000000,"state":"active","ping":54},{"user_id":377,"name":"Scrux","steam_id":76561198129763115,"connected_time":1336000000000,"state":"active","ping":67},{"user_id":365,"name":"BIGWELDFROMROBOTS","steam_id":76561199275349806,"connected_time":1588000000000,"state":"active","ping":83},{"user_id":389,"name":"chilis baby back ribs","steam_id":76561198813516435,"connected_time":1063000000000,"state":"active","ping":47},{"user_id":361,"name":"CORGI.EXE","steam_id":76561198077093432,"connected_time":2012000000000,"state":"active","ping":106},{"user_id":391,"name":"chow (SFMTA)","steam_id":76561198331518769,"connected_time":883000000000,"state":"active","ping":58},{"user_id":385,"name":"Ice-Bit","steam_id":76561198820012519,"connected_time":1228000000000,"state":"active","ping":120},{"user_id":386,"name":"boggle","steam_id":76561197993584298,"connected_time":1223000000000,"state":"active","ping":85},{"user_id":354,"name":"Vriska","steam_id":76561198942104681,"connected_time":2431000000000,"state":"active","ping":64},{"user_id":337,"name":"SolarusD","steam_id":76561198029279861,"connected_time":4049000000000,"state":"active","ping":46},{"user_id":387,"name":"Kidjays","steam_id":76561198124941901,"connected_time":1216000000000,"state":"active","ping":90},{"user_id":358,"name":"MaDeuce","steam_id":76561198110732835,"connected_time":2248000000000,"state":"active","ping":75},{"user_id":393,"name":"Dullahan","steam_id":76561198119668908,"connected_time":355000000000,"state":"active","ping":45},{"user_id":348,"name":"i cry .","steam_id":76561199193020423,"connected_time":3128000000000,"state":"active","ping":67},{"user_id":388,"name":"Uluyo","steam_id":76561198065857148,"connected_time":1202000000000,"state":"active","ping":79},{"user_id":396,"name":"[ G R * T T Y ]","steam_id":76561198048986218,"connected_time":18000000000,"state":"active","ping":73}]},{"server_id":18,"name":"Uncletopia | San Francisco | 2 | All Maps","name_short":"sfo-2","host":"sfo-1.us.uncletopia.com","port":27025,"enabled":true,"region":"us-west","cc":"us","latitude":37.77397,"longitude":-122.4313,"reserved":0,"last_update":"0001-01-01T00:00:00Z","name_a2s":"Uncletopia | San Francisco | 2 | All Maps","protocol":17,"map":"pl_frontier_final","folder":"tf","game":"Team Fortress","app_id":440,"player_count":0,"max_players":24,"Bots":0,"server_type":"Dedicated","server_os":"Linux","password":true,"vac":true,"version":"7882260","steam_id":85568392924470000,"keywords":["nocrits","nodmgspread","payload","uncletopia"],"game_id":440,"stv_port":27026,"stv_name":"Uncletopia | San Francisco | 2 | All Maps | STV","players":null},{"server_id":19,"name":"Uncletopia | San Francisco | 3 | Stopwatch Beta","name_short":"sfo-3","host":"sfo-1.us.uncletopia.com","port":27035,"enabled":true,"region":"us-west","cc":"us","latitude":37.77397,"longitude":-122.4313,"reserved":0,"last_update":"0001-01-01T00:00:00Z","name_a2s":"Uncletopia | San Francisco | 3 | Stopwatch Beta","protocol":17,"map":"pl_snowycoast","folder":"tf","game":"Team Fortress","app_id":440,"player_count":0,"max_players":24,"Bots":0,"server_type":"Dedicated","server_os":"Linux","password":true,"vac":true,"version":"7882260","steam_id":85568392924742824,"keywords":["nocrits","nodmgspread","payload","uncletopia"],"game_id":440,"stv_port":27036,"stv_name":"Uncletopia | San Francisco | 3 | Stopwatch Beta | STV","players":null},{"server_id":20,"name":"Uncletopia | San Francisco | 4 | Community","name_short":"sfo-4","host":"sfo-1.us.uncletopia.com","port":27045,"enabled":true,"region":"us-west","cc":"us","latitude":37.77397,"longitude":-122.4313,"reserved":0,"last_update":"0001-01-01T00:00:00Z","name_a2s":"Uncletopia | San Francisco | 4 | Community","protocol":17,"map":"workshop/cp_kalinka_rc6a.ugc1272700588","folder":"tf","game":"Team Fortress","app_id":440,"player_count":0,"max_players":24,"Bots":0,"server_type":"Dedicated","server_os":"Linux","password":true,"vac":true,"version":"7882260","steam_id":85568392924742826,"keywords":["cp","nocrits","nodmgspread","uncletopia"],"game_id":440,"stv_port":27046,"stv_name":"Uncletopia | San Francisco | 4 | Community | STV","players":null},{"server_id":141,"name":"Uncletopia | Sydney | 1 | All Maps","name_short":"syd-1","host":"syd-1.au.uncletopia.com","port":27015,"enabled":true,"region":"au","cc":"au","latitude":-33.865143,"longitude":151.2099,"reserved":0,"last_update":"0001-01-01T00:00:00Z","name_a2s":"Uncletopia | Sydney | 1 | All Maps","protocol":17,"map":"pl_borneo","folder":"tf","game":"Team Fortress","app_id":440,"player_count":18,"max_players":24,"Bots":0,"server_type":"Dedicated","server_os":"Linux","password":true,"vac":true,"version":"7882260","steam_id":85568392924470001,"keywords":["nocrits","nodmgspread","payload","uncletopia"],"game_id":440,"stv_port":27016,"stv_name":"Uncletopia | Sydney | 1 | All Maps | STV","players":[{"user_id":100,"name":"jay","steam_id":76561198241303512,"connected_time":1942000000000,"state":"active","ping":54},{"user_id":92,"name":"Blondie","steam_id":76561198046977058,"connected_time":2812000000000,"state":"active","ping":64},{"user_id":110,"name":"Xodohtro","steam_id":76561197986660525,"connected_time":929000000000,"state":"active","ping":80},{"user_id":101,"name":"yewl","steam_id":76561198073922951,"connected_time":1565000000000,"state":"active","ping":38},{"user_id":93,"name":"meatenschlappen","steam_id":76561198048064049,"connected_time":2478000000000,"state":"active","ping":78},{"user_id":102,"name":"Johnny 2 pipes","steam_id":76561198971245592,"connected_time":1524000000000,"state":"active","ping":61},{"user_id":108,"name":"splurboingus wazoogort","steam_id":76561198063481761,"connected_time":1114000000000,"state":"active","ping":39},{"user_id":111,"name":"tea and biscuits","steam_id":76561198238031616,"connected_time":923000000000,"state":"active","ping":87},{"user_id":95,"name":"send me ur Gerrards","steam_id":76561198301282416,"connected_time":2453000000000,"state":"active","ping":56},{"user_id":96,"name":"horrid webbon ᘛ⁐̤ᕐᐷ","steam_id":76561198061998379,"connected_time":2073000000000,"state":"active","ping":47},{"user_id":103,"name":"local fella","steam_id":76561198000568803,"connected_time":1523000000000,"state":"active","ping":36},{"user_id":112,"name":"Flat White","steam_id":76561198410190974,"connected_time":914000000000,"state":"active","ping":86},{"user_id":115,"name":"Skeleton Onesie","steam_id":76561198026525069,"connected_time":662000000000,"state":"active","ping":92},{"user_id":120,"name":"Snake ATM","steam_id":76561197968304462,"connected_time":359000000000,"state":"active","ping":53},{"user_id":117,"name":"@theofficialshork","steam_id":76561198052781893,"connected_time":612000000000,"state":"active","ping":70},{"user_id":118,"name":"Shivu","steam_id":76561198006459867,"connected_time":477000000000,"state":"active","ping":60},{"user_id":122,"name":"The :)","steam_id":76561198958059883,"connected_time":299000000000,"state":"active","ping":82},{"user_id":124,"name":"¿eTheRealMe?","steam_id":76561198033297147,"connected_time":229000000000,"state":"active","ping":90}]},{"server_id":123,"name":"Uncletopia | Sydney | 2 | All Maps","name_short":"syd-2","host":"syd-1.au.uncletopia.com","port":27025,"enabled":true,"region":"au","cc":"au","latitude":-33.865143,"longitude":151.2099,"reserved":0,"last_update":"0001-01-01T00:00:00Z","name_a2s":"Uncletopia | Sydney | 2 | All Maps","protocol":17,"map":"pl_pier","folder":"tf","game":"Team Fortress","app_id":440,"player_count":0,"max_players":24,"Bots":0,"server_type":"Dedicated","server_os":"Linux","password":true,"vac":true,"version":"7882260","steam_id":85568392924470002,"keywords":["nocrits","nodmgspread","payload","uncletopia"],"game_id":440,"stv_port":27026,"stv_name":"Uncletopia | Sydney | 2 | All Maps | STV","players":null},{"server_id":395,"name":"Uncletopia | Sydney | 3 | All Maps","name_short":"syd-3","host":"syd-1.au.uncletopia.com","port":27035,"enabled":true,"region":"au","cc":"au","latitude":-33.865143,"longitude":151.2099,"reserved":0,"last_update":"0001-01-01T00:00:00Z","name_a2s":"Uncletopia | Sydney | 3 | All Maps","protocol":17,"map":"pl_badwater","folder":"tf","game":"Team Fortress","app_id":440,"player_count":0,"max_players":24,"Bots":0,"server_type":"Dedicated","server_os":"Linux","password":true,"vac":true,"version":"7882260","steam_id":85568392925194467,"keywords":["nocrits","nodmgspread","payload","uncletopia"],"game_id":440,"stv_port":27036,"stv_name":"Uncletopia | Sydney | 3 | All Maps | STV","players":null},{"server_id":396,"name":"Uncletopia | Sydney | 4 | All Maps","name_short":"syd-4","host":"syd-1.au.uncletopia.com","port":27045,"enabled":true,"region":"au","cc":"au","latitude":-33.865143,"longitude":151.2099,"reserved":0,"last_update":"0001-01-01T00:00:00Z","name_a2s":"Uncletopia | Sydney | 4 | All Maps","protocol":17,"map":"cp_altitude","folder":"tf","game":"Team Fortress","app_id":440,"player_count":0,"max_players":24,"Bots":0,"server_type":"Dedicated","server_os":"Linux","password":true,"vac":true,"version":"7882260","steam_id":85568392925397958,"keywords":["cp","nocrits","nodmgspread","uncletopia"],"game_id":440,"stv_port":27046,"stv_name":"Uncletopia | Sydney | 4 | All Maps | STV","players":null},{"server_id":58,"name":"Uncletopia | Sydney | 5 | Stopwatch Beta","name_short":"syd-5","host":"syd-1.au.uncletopia.com","port":27055,"enabled":true,"region":"au","cc":"au","latitude":-33.865143,"longitude":151.2099,"reserved":0,"last_update":"0001-01-01T00:00:00Z","name_a2s":"Uncletopia | Sydney | 5 | Stopwatch Beta","protocol":17,"map":"koth_viaduct","folder":"tf","game":"Team Fortress","app_id":440,"player_count":0,"max_players":24,"Bots":0,"server_type":"Dedicated","server_os":"Linux","password":true,"vac":true,"version":"7882260","steam_id":85568392925397959,"keywords":["cp","nocrits","nodmgspread","uncletopia"],"game_id":440,"stv_port":27056,"stv_name":"Uncletopia | Sydney | 5 | Stopwatch Beta | STV","players":null},{"server_id":59,"name":"Uncletopia | Sydney | 6 | Community","name_short":"syd-6","host":"syd-1.au.uncletopia.com","port":27065,"enabled":true,"region":"au","cc":"au","latitude":-33.865143,"longitude":151.2099,"reserved":0,"last_update":"0001-01-01T00:00:00Z","name_a2s":"Uncletopia | Sydney | 6 | Community","protocol":17,"map":"workshop/pl_emerge_rc2.ugc888027758","folder":"tf","game":"Team Fortress","app_id":440,"player_count":0,"max_players":24,"Bots":0,"server_type":"Dedicated","server_os":"Linux","password":true,"vac":true,"version":"7882260","steam_id":85568392925397960,"keywords":["nocrits","nodmgspread","payload","uncletopia"],"game_id":440,"stv_port":27066,"stv_name":"Uncletopia | Sydney | 6 | Community | STV","players":null},{"server_id":49,"name":"Uncletopia | Warsaw | 1 | All Maps","name_short":"waw-1","host":"waw-1.pl.uncletopia.com","port":27015,"enabled":true,"region":"eu","cc":"pl","latitude":52.2297,"longitude":21.017532,"reserved":0,"last_update":"0001-01-01T00:00:00Z","name_a2s":"","protocol":0,"map":"","folder":"","game":"","app_id":0,"player_count":0,"max_players":0,"Bots":0,"server_type":"","server_os":"","password":false,"vac":false,"version":"","steam_id":0,"keywords":null,"game_id":0,"stv_port":0,"stv_name":"","players":null},{"server_id":50,"name":"Uncletopia | Warsaw | 2 | All Maps","name_short":"waw-2","host":"waw-1.pl.uncletopia.com","port":27025,"enabled":true,"region":"eu","cc":"pl","latitude":52.2297,"longitude":21.017532,"reserved":0,"last_update":"0001-01-01T00:00:00Z","name_a2s":"Uncletopia | Warsaw | 2 | All Maps","protocol":17,"map":"koth_viaduct","folder":"tf","game":"Team Fortress","app_id":440,"player_count":0,"max_players":24,"Bots":0,"server_type":"Dedicated","server_os":"Linux","password":true,"vac":true,"version":"7882260","steam_id":85568392925397851,"keywords":["cp","nocrits","nodmgspread","uncletopia"],"game_id":440,"stv_port":27026,"stv_name":"Uncletopia | Warsaw | 2 | All Maps | STV","players":null},{"server_id":51,"name":"Uncletopia | Warsaw | 3 | All Maps","name_short":"waw-3","host":"waw-1.pl.uncletopia.com","port":27035,"enabled":true,"region":"eu","cc":"pl","latitude":52.2297,"longitude":21.017532,"reserved":0,"last_update":"0001-01-01T00:00:00Z","name_a2s":"Uncletopia | Warsaw | 3 | All Maps","protocol":17,"map":"pl_upward","folder":"tf","game":"Team Fortress","app_id":440,"player_count":0,"max_players":24,"Bots":0,"server_type":"Dedicated","server_os":"Linux","password":true,"vac":true,"version":"7882260","steam_id":85568392925397852,"keywords":["nocrits","nodmgspread","payload","uncletopia"],"game_id":440,"stv_port":27036,"stv_name":"Uncletopia | Warsaw | 3 | All Maps | STV","players":null},{"server_id":52,"name":"Uncletopia | Warsaw | 4 | All Maps","name_short":"waw-4","host":"waw-1.pl.uncletopia.com","port":27045,"enabled":true,"region":"eu","cc":"pl","latitude":52.2297,"longitude":21.017532,"reserved":0,"last_update":"0001-01-01T00:00:00Z","name_a2s":"Uncletopia | Warsaw | 4 | All Maps","protocol":17,"map":"pl_barnblitz","folder":"tf","game":"Team Fortress","app_id":440,"player_count":0,"max_players":24,"Bots":0,"server_type":"Dedicated","server_os":"Linux","password":true,"vac":true,"version":"7882260","steam_id":85568392925397853,"keywords":["nocrits","nodmgspread","payload","uncletopia"],"game_id":440,"stv_port":27046,"stv_name":"Uncletopia | Warsaw | 4 | All Maps | STV","players":null},{"server_id":53,"name":"Uncletopia | Warsaw | 5 | Stopwatch Beta","name_short":"waw-5","host":"waw-1.pl.uncletopia.com","port":27055,"enabled":true,"region":"eu","cc":"pl","latitude":52.2297,"longitude":21.017532,"reserved":0,"last_update":"0001-01-01T00:00:00Z","name_a2s":"Uncletopia | Warsaw | 5 | Stopwatch Beta","protocol":17,"map":"workshop/koth_ramjam_rc1.ugc459778887","folder":"tf","game":"Team Fortress","app_id":440,"player_count":0,"max_players":24,"Bots":0,"server_type":"Dedicated","server_os":"Linux","password":true,"vac":true,"version":"7882260","steam_id":85568392925397854,"keywords":["cp","nocrits","nodmgspread","uncletopia"],"game_id":440,"stv_port":27056,"stv_name":"Uncletopia | Warsaw | 5 | Stopwatch Beta | STV","players":null},{"server_id":54,"name":"Uncletopia | Warsaw | 6 | Community","name_short":"waw-6","host":"waw-1.pl.uncletopia.com","port":27065,"enabled":true,"region":"eu","cc":"pl","latitude":52.2297,"longitude":21.017532,"reserved":0,"last_update":"0001-01-01T00:00:00Z","name_a2s":"Uncletopia | Warsaw | 6 | Community","protocol":17,"map":"workshop/cp_reckoner_rc6.ugc674719999","folder":"tf","game":"Team Fortress","app_id":440,"player_count":0,"max_players":24,"Bots":0,"server_type":"Dedicated","server_os":"Linux","password":true,"vac":true,"version":"7882260","steam_id":85568392925397856,"keywords":["cp","nocrits","nodmgspread","uncletopia"],"game_id":440,"stv_port":27066,"stv_name":"Uncletopia | Warsaw | 6 | Community | STV","players":null}]}