{"status":true,"message":"","result":[{"server_id":9,"name":"Uncletopia | Atlanta | 1 | All Maps","name_short":"atl-1","host":"atl-1.us.uncletopia.com","port":27015,"enabled":true,"region":"us-east","cc":"us","latitude":33.753746,"longitude":-84.38633,"reserved":0,"last_update":"0001-01-01T00:00:00Z","name_a2s":"Uncletopia | Atlanta | 1 | All Maps","protocol":17,"map":"pl_snowycoast","folder":"tf","game":"Team Fortress","app_id":440,"player_count":24,"max_players":24,"Bots":0,"server_type":"Dedicated","server_os":"Linux","password":true,"vac":true,"version":"7757534","steam_id":85568392924469982,"keywords":["nocrits","nodmgspread","payload","uncletopia"],"game_id":440,"stv_port":27016,"stv_name":"Uncletopia | Atlanta | 1 | All Maps | STV","players":[{"user_id":61,"name":"DevSlashUser","steam_id":76561198805884205,"connected_time":3993000000000,"state":"active","ping":67},{"user_id":18,"name":"nUwUb","steam_id":76561198164984099,"connected_time":5914000000000,"state":"active","ping":74},{"user_id":74,"name":"bbbbbbbbbbbbbbbbbbbbbbbbbbbbbbb","steam_id":76561198339644583,"connected_time":2560000000000,"state":"active","ping":73},{"user_id":92,"name":"Thotimus Begonimus","steam_id":76561197970275938,"connected_time":943000000000,"state":"active","ping":41},{"user_id":19,"name":"Rexavier „Å∫„Åì","steam_id":76561198165699034,"connected_time":5891000000000,"state":"active","ping":72},{"user_id":100,"name":"e","steam_id":76561198131245396,"connected_time":333000000000,"state":"active","ping":76},{"user_id":93,"name":"C papi","steam_id":76561198027779564,"connected_time":792000000000,"state":"active","ping":49},{"user_id":87,"name":"D'Arby","steam_id":76561198973532174,"connected_time":1777000000000,"state":"active","ping":56},{"user_id":95,"name":"hunterbunney (TRUE BUT REAL)","steam_id":76561198070672899,"connected_time":630000000000,"state":"active","ping":45},{"user_id":101,"name":"PhobixTheThing","steam_id":76561199059009386,"connected_time":281000000000,"state":"active","ping":84},{"user_id":96,"name":"Thaumics","steam_id":76561198841773460,"connected_time":613000000000,"state":"active","ping":70},{"user_id":72,"name":"Deep Peepus","steam_id":76561198205395757,"connected_time":2959000000000,"state":"active","ping":98},{"user_id":98,"name":"WanderingGenji","steam_id":76561198965812987,"connected_time":579000000000,"state":"active","ping":61},{"user_id":55,"name":"Coffee with a Stranger","steam_id":76561198307422313,"connected_time":4207000000000,"state":"active","ping":65},{"user_id":66,"name":"Dude bro","steam_id":76561198249916746,"connected_time":3376000000000,"state":"active","ping":61},{"user_id":77,"name":"David De Bergerac","steam_id":76561198010306294,"connected_time":2438000000000,"state":"active","ping":82},{"user_id":78,"name":"Johnny Esports","steam_id":76561198115812405,"connected_time":2398000000000,"state":"active","ping":95},{"user_id":90,"name":"Sprinklingmydoughnut","steam_id":76561198168009092,"connected_time":1176000000000,"state":"active","ping":101},{"user_id":88,"name":"Spy_Is_Pye","steam_id":76561199439622967,"connected_time":1551000000000,"state":"active","ping":73},{"user_id":99,"name":"Marc G","steam_id":76561198062650363,"connected_time":492000000000,"state":"active","ping":71},{"user_id":97,"name":"Supreme Court of U.S","steam_id":76561199021779114,"connected_time":612000000000,"state":"active","ping":55},{"user_id":59,"name":"Xen","steam_id":76561198025311844,"connected_time":4150000000000,"state":"active","ping":92},{"user_id":69,"name":"jpuck","steam_id":76561198025018960,"connected_time":3061000000000,"state":"active","ping":57},{"user_id":60,"name":"Paca","steam_id":76561198099645151,"connected_time":4132000000000,"state":"active","ping":72}]},{"server_id":400,"name":"Uncletopia | Atlanta | 3 | Community","name_short":"atl-3","host":"atl-1.us.uncletopia.com","port":27035,"enabled":true,"region":"us-east","cc":"us","latitude":33.753746,"longitude":-84.38633,"reserved":0,"last_update":"0001-01-01T00:00:00Z","name_a2s":"Uncletopia | Atlanta | 3 | Community","protocol":17,"map":"pl_swiftwater_final1","folder":"tf","game":"Team Fortress","app_id":440,"player_count":0,"max_players":24,"Bots":0,"server_type":"Dedicated","server_os":"Linux","password":true,"vac":true,"version":"7757534","steam_id":85568392924515187,"keywords":["nocrits","nodmgspread","payload","uncletopia"],"game_id":440,"stv_port":27036,"stv_name":"Uncletopia | Atlanta | 3 | Community | STV","players":null},{"server_id":401,"name":"Uncletopia | Atlanta | 4 | No Payload","name_short":"atl-4","host":"atl-1.us.uncletopia.com","port":27045,"enabled":true,"region":"us-east","cc":"us","latitude":33.753746,"longitude":-84.38633,"reserved":0,"last_update":"0001-01-01T00:00:00Z","name_a2s":"","protocol":0,"map":"","folder":"","game":"","app_id":0,"player_count":0,"max_players":0,"Bots":0,"server_type":"","server_os":"","password":false,"vac":false,"version":"","steam_id":0,"keywords":null,"game_id":0,"stv_port":0,"stv_name":"","players":null},{"server_id":2,"name":"Uncletopia | Chicago | 1 | All Maps","name_short":"chi-1","host":"chi-1.us.uncletopia.com","port":27015,"enabled":true,"region":"us-central","cc":"us","latitude":41.881832,"longitude":-87.62318,"reserved":0,"last_update":"0001-01-01T00:00:00Z","name_a2s":"Uncletopia | Chicago | 1 | All Maps","protocol":17,"map":"pl_thundermountain","folder":"tf","game":"Team Fortress","app_id":440,"player_count":24,"max_players":24,"Bots":0,"server_type":"Dedicated","server_os":"Linux","password":true,"vac":true,"version":"7757534","steam_id":85568392924469984,"keywords":["nocrits","nodmgspread","payload","uncletopia"],"game_id":440,"stv_port":27016,"stv_name":"Uncletopia | Chicago | 1 | All Maps | STV","players":[{"user_id":392,"name":"FWEEEEEEE","steam_id":76561198316344769,"connected_time":950000000000,"state":"active","ping":53},{"user_id":382,"name":"PKBEAST_7","steam_id":76561198177136537,"connected_time":1284000000000,"state":"active","ping":91},{"user_id":385,"name":"Iggy Dogg","steam_id":76561198059602545,"connected_time":1254000000000,"state":"active","ping":53},{"user_id":346,"name":"John Dungus (the real one)","steam_id":76561198049191027,"connected_time":4216000000000,"state":"active","ping":54},{"user_id":399,"name":"Sloothman","steam_id":76561198081703122,"connected_time":797000000000,"state":"active","ping":45},{"user_id":383,"name":"‚ô• Femboy‚ô•Ventily ‚ô•","steam_id":76561198157260335,"connected_time":1282000000000,"state":"active","ping":45},{"user_id":351,"name":"Mug Moment Gaming","steam_id":76561198233098136,"connected_time":3473000000000,"state":"active","ping":67},{"user_id":379,"name":"Harry S. Plinkett","steam_id":76561198069814977,"connected_time":1700000000000,"state":"active","ping":71},{"user_id":376,"name":"cassius","steam_id":76561198203851303,"connected_time":2301000000000,"state":"active","ping":80},{"user_id":362,"name":"Rockguy21","steam_id":76561198121303359,"connected_time":3152000000000,"state":"active","ping":68},{"user_id":384,"name":"DocLucky","steam_id":76561199093899249,"connected_time":1277000000000,"state":"active","ping":163},{"user_id":388,"name":"Œõlxium","steam_id":76561198131272900,"connected_time":1143000000000,"state":"active","ping":54},{"user_id":407,"name":"sophia!!! (killer)","steam_id":76561198049802690,"connected_time":123000000000,"state":"active","ping":101},{"user_id":406,"name":"Kipernicus","steam_id":76561197998180212,"connected_time":128000000000,"state":"active","ping":56},{"user_id":404,"name":"ROGUE-PLANET","steam_id":76561198116023052,"connected_time":171000000000,"state":"active","ping":74},{"user_id":369,"name":"really annoying spy player","steam_id":76561198178650483,"connected_time":2460000000000,"state":"active","ping":90},{"user_id":348,"name":"JennaShinx","steam_id":76561198074773762,"connected_time":3693000000000,"state":"active","ping":60},{"user_id":403,"name":"GuyGoom","steam_id":76561198254522178,"connected_time":210000000000,"state":"active","ping":60},{"user_id":397,"name":"Klip","steam_id":76561198316254429,"connected_time":867000000000,"state":"active","ping":77},{"user_id":398,"name":"pencil champion","steam_id":76561198871758639,"connected_time":855000000000,"state":"active","ping":82},{"user_id":372,"name":"LunaError","steam_id":76561198040603999,"connected_time":2392000000000,"state":"active","ping":74},{"user_id":345,"name":"MasterAmongRust","steam_id":76561198010160233,"connected_time":4562000000000,"state":"active","ping":74},{"user_id":408,"name":"Poo Man","steam_id":76561199187453885,"connected_time":3000000000,"state":"spawning","ping":44},{"user_id":405,"name":"Ripheart","steam_id":76561198089661561,"connected_time":134000000000,"state":"active","ping":45}]},{"server_id":106,"name":"Uncletopia | Chicago | 2 | All Maps","name_short":"chi-2","host":"chi-1.us.uncletopia.com","port":27025,"enabled":true,"region":"us-central","cc":"us","latitude":41.881832,"longitude":-87.62318,"reserved":0,"last_update":"0001-01-01T00:00:00Z","name_a2s":"Uncletopia | Chicago | 2 | All Maps","protocol":17,"map":"koth_viaduct","folder":"tf","game":"Team Fortress","app_id":440,"player_count":0,"max_players":24,"Bots":0,"server_type":"Dedicated","server_os":"Linux","password":true,"vac":true,"version":"7757534","steam_id":85568392924469985,"keywords":["cp","nocrits","nodmgspread","uncletopia"],"game_id":440,"stv_port":27026,"stv_name":"Uncletopia | Chicago | 2 | All Maps | STV","players":null},{"server_id":402,"name":"Uncletopia | Chicago | 3 | All Maps","name_short":"chi-3","host":"chi-1.us.uncletopia.com","port":27035,"enabled":true,"region":"us-central","cc":"us","latitude":41.881832,"longitude":-87.62318,"reserved":0,"last_update":"0001-01-01T00:00:00Z","name_a2s":"Uncletopia | Chicago | 3 | All Maps","protocol":17,"map":"koth_lakeside_final","folder":"tf","game":"Team Fortress","app_id":440,"player_count":4,"max_players":24,"Bots":0,"server_type":"Dedicated","server_os":"Linux","password":true,"vac":true,"version":"7757534","steam_id":85568392924515191,"keywords":["cp","nocrits","nodmgspread","uncletopia"],"game_id":440,"stv_port":27036,"stv_name":"Uncletopia | Chicago | 3 | All Maps | STV","players":[{"user_id":14,"name":"Dinosaur","steam_id":76561198854695804,"connected_time":701000000000,"state":"active","ping":68},{"user_id":16,"name":"1000 Ping","steam_id":76561198098330939,"connected_time":255000000000,"state":"active","ping":118},{"user_id":17,"name":"Cusven","steam_id":76561198319658526,"connected_time":126000000000,"state":"active","ping":56},{"user_id":18,"name":"Victor","steam_id":76561198848984975,"connected_time":5000000000,"state":"active","ping":220}]},{"server_id":403,"name":"Uncletopia | Chicago | 4 | All Maps","name_short":"chi-4","host":"chi-1.us.uncletopia.com","port":27045,"enabled":true,"region":"us-central","cc":"us","latitude":41.881832,"longitude":-87.62318,"reserved":0,"last_update":"0001-01-01T00:00:00Z","name_a2s":"Uncletopia | Chicago | 4 | All Maps","protocol":17,"map":"cp_sunshine","folder":"tf","game":"Team Fortress","app_id":440,"player_count":23,"max_players":24,"Bots":0,"server_type":"Dedicated","server_os":"Linux","password":true,"vac":true,"version":"7757534","steam_id":85568392924515193,"keywords":["cp","nocrits","nodmgspread","uncletopia"],"game_id":440,"stv_port":27046,"stv_name":"Uncletopia | Chicago | 4 | All Maps | STV","players":[{"user_id":288,"name":"Ellis","steam_id":76561198993634489,"connected_time":1163000000000,"state":"active","ping":94},{"user_id":169,"name":"sweppy","steam_id":76561198035457667,"connected_time":8793000000000,"state":"active","ping":71},{"user_id":301,"name":"floppy muppet","steam_id":76561198003076261,"connected_time":730000000000,"state":"active","ping":88},{"user_id":281,"name":"gangster tom","steam_id":76561198031675881,"connected_time":1540000000000,"state":"active","ping":53},{"user_id":300,"name":"Cyndi","steam_id":76561198049565564,"connected_time":780000000000,"state":"active","ping":60},{"user_id":275,"name":"Real_Beanos","steam_id":76561198362127180,"connected_time":2245000000000,"state":"active","ping":78},{"user_id":291,"name":"Sir Iasis","steam_id":76561198035666760,"connected_time":1116000000000,"state":"active","ping":56},{"user_id":241,"name":"Quamsi","steam_id":76561198068249512,"connected_time":4127000000000,"state":"active","ping":113},{"user_id":263,"name":"Chimpish","steam_id":76561199263493270,"connected_time":2832000000000,"state":"active","ping":86},{"user_id":299,"name":"hippiepriestburnout","steam_id":76561198067221017,"connected_time":920000000000,"state":"active","ping":107},{"user_id":304,"name":"SquirrelAway‚Ñ¢","steam_id":76561197998828619,"connected_time":165000000000,"state":"active","ping":66},{"user_id":276,"name":"FPS Dave","steam_id":76561197993212677,"connected_time":1987000000000,"state":"active","ping":62},{"user_id":282,"name":"fuckterry","steam_id":76561198271957738,"connected_time":1532000000000,"state":"active","ping":61},{"user_id":305,"name":"kametro4","steam_id":76561198835430429,"connected_time":70000000000,"state":"active","ping":83},{"user_id":240,"name":"The Pepsi¬Æ Superbowl¬Æ!","steam_id":76561198080828981,"connected_time":4188000000000,"state":"active","ping":84},{"user_id":228,"name":"Zenabie","steam_id":76561198088372680,"connected_time":4765000000000,"state":"active","ping":100},{"user_id":295,"name":"highlander medic enthusiast","steam_id":76561198413930183,"connected_time":1032000000000,"state":"active","ping":61},{"user_id":229,"name":"the stinky finger warlord","steam_id":76561198190323610,"connected_time":4761000000000,"state":"active","ping":90},{"user_id":294,"name":"big oog corp","steam_id":76561198138221795,"connected_time":1059000000000,"state":"active","ping":72},{"user_id":296,"name":"Esteban Delsin","steam_id":76561198433519639,"connected_time":1027000000000,"state":"active","ping":101},{"user_id":297,"name":"Joe2","steam_id":76561199088646500,"connected_time":1021000000000,"state":"active","ping":81},{"user_id":273,"name":"bugbread*","steam_id":76561198082480100,"connected_time":2571000000000,"state":"active","ping":55},{"user_id":298,"name":"VixianUwU","steam_id":76561198948815060,"connected_time":1021000000000,"state":"active","ping":70}]},{"server_id":36,"name":"Uncletopia | Chicago | 5 | All Maps","name_short":"chi-5","host":"chi-2.us.uncletopia.com","port":27015,"enabled":true,"region":"us-central","cc":"us","latitude":41.881832,"longitude":-87.62318,"reserved":0,"last_update":"0001-01-01T00:00:00Z","name_a2s":"Uncletopia | Chicago | 5 | All Maps","protocol":17,"map":"koth_cascade","folder":"tf","game":"Team Fortress","app_id":440,"player_count":0,"max_players":24,"Bots":0,"server_type":"Dedicated","server_os":"Linux","password":true,"vac":true,"version":"7757534","steam_id":85568392924866362,"keywords":["cp","nocrits","nodmgspread","uncletopia"],"game_id":440,"stv_port":27016,"stv_name":"Uncletopia | Chicago | 5 | All Maps | STV","players":null},{"server_id":37,"name":"Uncletopia | Chicago | 6 | All Maps","name_short":"chi-6","host":"chi-2.us.uncletopia.com","port":27025,"enabled":true,"region":"us-central","cc":"us","latitude":41.881832,"longitude":-87.62318,"reserved":0,"last_update":"0001-01-01T00:00:00Z","name_a2s":"Uncletopia | Chicago | 6 | All Maps","protocol":17,"map":"pl_barnblitz","folder":"tf","game":"Team Fortress","app_id":440,"player_count":23,"max_players":24,"Bots":0,"server_type":"Dedicated","server_os":"Linux","password":true,"vac":true,"version":"7757534","steam_id":85568392924866363,"keywords":["nocrits","nodmgspread","payload","uncletopia"],"game_id":440,"stv_port":27026,"stv_name":"Uncletopia | Chicago | 6 | All Maps | STV","players":[{"user_id":229,"name":"Female Gamer","steam_id":76561199366482682,"connected_time":2781000000000,"state":"active","ping":102},{"user_id":227,"name":"Fanthxm177","steam_id":76561198831301188,"connected_time":3278000000000,"state":"active","ping":82},{"user_id":247,"name":"Ken","steam_id":76561198233988068,"connected_time":1128000000000,"state":"active","ping":68},{"user_id":261,"name":"N0_J0K3","steam_id":76561198287102197,"connected_time":131000000000,"state":"active","ping":78},{"user_id":199,"name":"starfungus","steam_id":76561198158312789,"connected_time":5884000000000,"state":"active","ping":74},{"user_id":212,"name":"YNSxii","steam_id":76561198246975252,"connected_time":4819000000000,"state":"active","ping":77},{"user_id":233,"name":"nut","steam_id":76561198395577807,"connected_time":2320000000000,"state":"active","ping":58},{"user_id":252,"name":"Vision Spiya","steam_id":76561198095923905,"connected_time":803000000000,"state":"active","ping":53},{"user_id":196,"name":"dmdr1969","steam_id":76561198080469611,"connected_time":6477000000000,"state":"active","ping":70},{"user_id":240,"name":"Banio Kaioie","steam_id":76561198153295874,"connected_time":1379000000000,"state":"active","ping":124},{"user_id":258,"name":"Andraw","steam_id":76561198057499385,"connected_time":515000000000,"state":"active","ping":59},{"user_id":231,"name":"Huey","steam_id":76561198972816386,"connected_time":2608000000000,"state":"active","ping":77},{"user_id":237,"name":"barbara","steam_id":76561198072417792,"connected_time":1420000000000,"state":"active","ping":114},{"user_id":160,"name":"Silvercoat's Stargazer","steam_id":76561198399525329,"connected_time":8994000000000,"state":"active","ping":79},{"user_id":189,"name":"Can we get much dumber?(jack)","steam_id":76561198044762365,"connected_time":7007000000000,"state":"active","ping":48},{"user_id":208,"name":"level 1 pyro","steam_id":76561198281197072,"connected_time":5529000000000,"state":"active","ping":58},{"user_id":256,"name":"alien3_buh_scene.wmv","steam_id":76561198158851614,"connected_time":568000000000,"state":"active","ping":70},{"user_id":257,"name":"Obamacare","steam_id":76561198018894553,"connected_time":557000000000,"state":"active","ping":96},{"user_id":243,"name":"Krellah","steam_id":76561198287045069,"connected_time":1337000000000,"state":"active","ping":60},{"user_id":260,"name":"uppedtrout","steam_id":76561198128816239,"connected_time":187000000000,"state":"active","ping":61},{"user_id":235,"name":"dwnkins","steam_id":76561198856016840,"connected_time":2293000000000,"state":"active","ping":66},{"user_id":248,"name":"Demarco Cooley","steam_id":76561198049148276,"connected_time":1123000000000,"state":"active","ping":79},{"user_id":251,"name":"dave strider","steam_id":76561198065112186,"connected_time":982000000000,"state":"active","ping":72}]},{"server_id":38,"name":"Uncletopia | Chicago | 7 | Stopwatch Beta","name_short":"chi-7","host":"chi-2.us.uncletopia.com","port":27035,"enabled":true,"region":"us-central","cc":"us","latitude":41.881832,"longitude":-87.62318,"reserved":0,"last_update":"0001-01-01T00:00:00Z","name_a2s":"Uncletopia | Chicago | 7 | Stopwatch Beta","protocol":17,"map":"pl_upward","folder":"tf","game":"Team Fortress","app_id":440,"player_count":0,"max_players":24,"Bots":0,"server_type":"Dedicated","server_os":"Linux","password":true,"vac":true,"version":"7757534","steam_id":85568392924866364,"keywords":["nocrits","nodmgspread","payload","uncletopia"],"game_id":440,"stv_port":27036,"stv_name":"Uncletopia | Chicago | 7 | Stopwatch Beta | STV","players":null},{"server_id":39,"name":"Uncletopia | Chicago | 8 | Community","name_short":"chi-8","host":"chi-2.us.uncletopia.com","port":27045,"enabled":true,"region":"us-central","cc":"us","latitude":41.881832,"longitude":-87.62318,"reserved":0,"last_update":"0001-01-01T00:00:00Z","name_a2s":"Uncletopia | Chicago | 8 | Community","protocol":17,"map":"workshop/pl_eruption_b9a.ugc2807898013","folder":"tf","game":"Team Fortress","app_id":440,"player_count":0,"max_players":24,"Bots":0,"server_type":"Dedicated","server_os":"Linux","password":true,"vac":true,"version":"7757534","steam_id":85568392924866365,"keywords":["nocrits","nodmgspread","payload","uncletopia"],"game_id":440,"stv_port":27046,"stv_name":"Uncletopia | Chicago | 8 | Community | STV","players":null},{"server_id":8,"name":"Uncletopia | Dallas | 1 | All Maps","name_short":"dal-1","host":"dal-1.us.uncletopia.com","port":27015,"enabled":true,"region":"us-central","cc":"us","latitude":32.779167,"longitude":-96.80889,"reserved":0,"last_update":"0001-01-01T00:00:00Z","name_a2s":"Uncletopia | Dallas | 1 | All Maps","protocol":17,"map":"pl_swiftwater_final1","folder":"tf","game":"Team Fortress","app_id":440,"player_count":24,"max_players":24,"Bots":0,"server_type":"Dedicated","server_os":"Linux","password":true,"vac":true,"version":"7757534","steam_id":85568392924469986,"keywords":["nocrits","nodmgspread","payload","uncletopia"],"game_id":440,"stv_port":27016,"stv_name":"Uncletopia | Dallas | 1 | All Maps | STV","players":[{"user_id":80,"name":"Double Donker","steam_id":76561198209881263,"connected_time":3057000000000,"state":"active","ping":78},{"user_id":104,"name":"‚ù§To Lazy‚ù§","steam_id":76561198164211904,"connected_time":1627000000000,"state":"active","ping":90},{"user_id":51,"name":"Foomfa","steam_id":76561198007033616,"connected_time":4620000000000,"state":"active","ping":64},{"user_id":88,"name":"Apollite","steam_id":76561198071669801,"connected_time":2760000000000,"state":"active","ping":79},{"user_id":91,"name":"Nevu","steam_id":76561198378240571,"connected_time":2351000000000,"state":"active","ping":120},{"user_id":72,"name":"Cmoon2","steam_id":76561198119094636,"connected_time":3316000000000,"state":"active","ping":147},{"user_id":45,"name":"ÔΩ°*‚úßPhencyclidine‚úß*ÔΩ°","steam_id":76561199200969139,"connected_time":5553000000000,"state":"active","ping":103},{"user_id":112,"name":"crs22","steam_id":76561198120149196,"connected_time":1156000000000,"state":"active","ping":61},{"user_id":110,"name":"Kiwimpediment","steam_id":76561198322781400,"connected_time":1271000000000,"state":"active","ping":95},{"user_id":113,"name":"The Potato Romancer","steam_id":76561198204197648,"connected_time":988000000000,"state":"active","ping":79},{"user_id":108,"name":"Kaluka","steam_id":76561198036861445,"connected_time":1427000000000,"state":"active","ping":82},{"user_id":74,"name":"Logatron","steam_id":76561197981881397,"connected_time":3268000000000,"state":"active","ping":101},{"user_id":95,"name":"Fishstall","steam_id":76561198038126034,"connected_time":2276000000000,"state":"active","ping":68},{"user_id":120,"name":"76561198193688585","steam_id":76561198193688585,"connected_time":10000000000,"state":"active","ping":72},{"user_id":70,"name":"Œª","steam_id":76561198120426683,"connected_time":3740000000000,"state":"active","ping":104},{"user_id":55,"name":"BwillyM5","steam_id":76561197970364220,"connected_time":4340000000000,"state":"active","ping":77},{"user_id":54,"name":"fearlessbot","steam_id":76561199002587064,"connected_time":4539000000000,"state":"active","ping":156},{"user_id":107,"name":"Riboflavin","steam_id":76561198077328593,"connected_time":1495000000000,"state":"active","ping":59},{"user_id":118,"name":"Mixer","steam_id":76561199020200249,"connected_time":838000000000,"state":"active","ping":44},{"user_id":119,"name":"Brown_Dream","steam_id":76561198975766145,"connected_time":25000000000,"state":"active","ping":106},{"user_id":109,"name":"bendera","steam_id":76561197965486503,"connected_time":1317000000000,"state":"active","ping":91},{"user_id":115,"name":"cheeks","steam_id":76561197993371179,"connected_time":983000000000,"state":"active","ping":75},{"user_id":65,"name":"LazyDoll","steam_id":76561198053186338,"connected_time":3968000000000,"state":"active","ping":75},{"user_id":116,"name":"Limasio","steam_id":76561198198176191,"connected_time":961000000000,"state":"active","ping":70}]},{"server_id":108,"name":"Uncletopia | Dallas | 2 | All Maps","name_short":"dal-2","host":"dal-1.us.uncletopia.com","port":27025,"enabled":true,"region":"us-central","cc":"us","latitude":32.779167,"longitude":-96.80889,"reserved":0,"last_update":"0001-01-01T00:00:00Z","name_a2s":"Uncletopia | Dallas | 2 | All Maps","protocol":17,"map":"koth_highpass","folder":"tf","game":"Team Fortress","app_id":440,"player_count":0,"max_players":24,"Bots":0,"server_type":"Dedicated","server_os":"Linux","password":true,"vac":true,"version":"7757534","steam_id":85568392924469988,"keywords":["cp","nocrits","nodmgspread","uncletopia"],"game_id":440,"stv_port":27026,"stv_name":"Uncletopia | Dallas | 2 | All Maps | STV","players":null},{"server_id":5,"name":"Uncletopia | Frankfurt | 1 | All Maps","name_short":"frk-1","host":"frk-1.de.uncletopia.com","port":27015,"enabled":true,"region":"eu","cc":"de","latitude":50.110924,"longitude":8.682127,"reserved":0,"last_update":"0001-01-01T00:00:00Z","name_a2s":"Uncletopia | Frankfurt | 1 | All Maps","protocol":17,"map":"pl_frontier_final","folder":"tf","game":"Team Fortress","app_id":440,"player_count":24,"max_players":24,"Bots":0,"server_type":"Dedicated","server_os":"Linux","password":true,"vac":true,"version":"7757534","steam_id":85568392924469989,"keywords":["nocrits","nodmgspread","payload","uncletopia"],"game_id":440,"stv_port":27016,"stv_name":"Uncletopia | Frankfurt | 1 | All Maps | STV","players":[{"user_id":393,"name":"Snortman","steam_id":76561199012566222,"connected_time":302000000000,"state":"active","ping":57},{"user_id":394,"name":"Squid","steam_id":76561198197045587,"connected_time":288000000000,"state":"active","ping":171},{"user_id":379,"name":"X-tis","steam_id":76561198043837480,"connected_time":800000000000,"state":"active","ping":72},{"user_id":271,"name":"Mats S√∂derlund","steam_id":76561198106133548,"connected_time":7939000000000,"state":"active","ping":61},{"user_id":358,"name":"aph","steam_id":76561198057722639,"connected_time":2042000000000,"state":"active","ping":61},{"user_id":380,"name":"Adopted?","steam_id":76561198118667043,"connected_time":799000000000,"state":"active","ping":67},{"user_id":398,"name":"brownish","steam_id":76561198032525741,"connected_time":98000000000,"state":"active","ping":80},{"user_id":351,"name":"Duck_gaming","steam_id":76561198841587079,"connected_time":2853000000000,"state":"active","ping":69},{"user_id":365,"name":"i hate this game","steam_id":76561198849524221,"connected_time":1583000000000,"state":"active","ping":75},{"user_id":333,"name":"PLUTO","steam_id":76561198312436128,"connected_time":3559000000000,"state":"active","ping":123},{"user_id":334,"name":"Pluto's Floofball(Raph)","steam_id":76561198154800858,"connected_time":3555000000000,"state":"active","ping":65},{"user_id":360,"name":"the rizzard of oz","steam_id":76561198066631833,"connected_time":2033000000000,"state":"active","ping":72},{"user_id":381,"name":"Fat Pigeon","steam_id":76561198817940142,"connected_time":792000000000,"state":"active","ping":60},{"user_id":396,"name":"hi im Velma Dinkles","steam_id":76561198865626233,"connected_time":235000000000,"state":"active","ping":118},{"user_id":382,"name":"Setter Ball Gaul","steam_id":76561198130427881,"connected_time":789000000000,"state":"active","ping":158},{"user_id":395,"name":"gogi","steam_id":76561198123793420,"connected_time":280000000000,"state":"active","ping":121},{"user_id":397,"name":"Penis Contortionist","steam_id":76561198073663784,"connected_time":222000000000,"state":"active","ping":59},{"user_id":363,"name":"Hydnhof","steam_id":76561198120989805,"connected_time":2013000000000,"state":"active","ping":70},{"user_id":384,"name":"NotFionn","steam_id":76561198890525176,"connected_time":778000000000,"state":"active","ping":99},{"user_id":390,"name":"–ü–µ—Ä—Ä–∏-–ø—ã–ª–µ—Å–æ—Å","steam_id":76561198056380291,"connected_time":488000000000,"state":"active","ping":85},{"user_id":369,"name":"Ron_tom","steam_id":76561198392108888,"connected_time":1386000000000,"state":"active","ping":58},{"user_id":375,"name":"pablo","steam_id":76561198089285014,"connected_time":912000000000,"state":"active","ping":71},{"user_id":373,"name":"valak","steam_id":76561199196329719,"connected_time":1004000000000,"state":"active","ping":68},{"user_id":392,"name":"lacurio","steam_id":76561198059701776,"connected_time":467000000000,"state":"active","ping":59}]},{"server_id":110,"name":"Uncletopia | Frankfurt | 2 | All Maps","name_short":"frk-2","host":"frk-1.de.uncletopia.com","port":27025,"enabled":true,"region":"eu","cc":"de","latitude":50.110924,"longitude":8.682127,"reserved":0,"last_update":"0001-01-01T00:00:00Z","name_a2s":"Uncletopia | Frankfurt | 2 | All Maps","protocol":17,"map":"pl_badwater","folder":"tf","game":"Team Fortress","app_id":440,"player_count":24,"max_players":24,"Bots":0,"server_type":"Dedicated","server_os":"Linux","password":true,"vac":true,"version":"7757534","steam_id":85568392924469990,"keywords":["nocrits","nodmgspread","payload","uncletopia"],"game_id":440,"stv_port":27026,"stv_name":"Uncletopia | Frankfurt | 2 | All Maps | STV","players":[{"user_id":128,"name":"Despair","steam_id":76561198259487481,"connected_time":583000000000,"state":"active","ping":74},{"user_id":121,"name":"Lind","steam_id":76561198252467856,"connected_time":1044000000000,"state":"active","ping":75},{"user_id":70,"name":"Charles Darwin","steam_id":76561197973496139,"connected_time":4216000000000,"state":"active","ping":60},{"user_id":95,"name":"Bloatlord","steam_id":76561198035821011,"connected_time":2906000000000,"state":"active","ping":54},{"user_id":135,"name":"Supercle26","steam_id":76561199027147631,"connected_time":46000000000,"state":"active","ping":49},{"user_id":96,"name":"Jabussy","steam_id":76561198111148719,"connected_time":2902000000000,"state":"active","ping":68},{"user_id":127,"name":"mrms","steam_id":76561198289331719,"connected_time":832000000000,"state":"active","ping":60},{"user_id":79,"name":"nky","steam_id":76561198086229832,"connected_time":3853000000000,"state":"active","ping":70},{"user_id":111,"name":"Pyrolander","steam_id":76561198050785450,"connected_time":1992000000000,"state":"active","ping":54},{"user_id":129,"name":"Ayaka","steam_id":76561198028078806,"connected_time":559000000000,"state":"active","ping":52},{"user_id":119,"name":"Aqua188","steam_id":76561198817772963,"connected_time":1400000000000,"state":"active","ping":106},{"user_id":108,"name":"Birger :-)","steam_id":76561198213763199,"connected_time":2210000000000,"state":"active","ping":54},{"user_id":62,"name":"EddieTheBear","steam_id":76561197962698753,"connected_time":4308000000000,"state":"active","ping":82},{"user_id":56,"name":"yyny","steam_id":76561198066287297,"connected_time":4377000000000,"state":"active","ping":55},{"user_id":116,"name":"Blurry","steam_id":76561198884908952,"connected_time":1823000000000,"state":"active","ping":70},{"user_id":124,"name":"HUGO","steam_id":76561198317134996,"connected_time":956000000000,"state":"active","ping":74},{"user_id":99,"name":"Superbenedetto","steam_id":76561198224798040,"connected_time":2749000000000,"state":"active","ping":189},{"user_id":63,"name":"DOODL","steam_id":76561198358378176,"connected_time":4300000000000,"state":"active","ping":100},{"user_id":64,"name":"Tortoise01Swe","steam_id":76561198118673227,"connected_time":4300000000000,"state":"active","ping":89},{"user_id":89,"name":"Burbie","steam_id":76561198046069449,"connected_time":3443000000000,"state":"active","ping":74},{"user_id":125,"name":"LEGEND FUMO.","steam_id":76561198061033903,"connected_time":943000000000,"state":"active","ping":51},{"user_id":102,"name":"JunketsGM","steam_id":76561199122728626,"connected_time":2563000000000,"state":"active","ping":76},{"user_id":105,"name":"MaKo","steam_id":76561199013535305,"connected_time":2489000000000,"state":"active","ping":75},{"user_id":131,"name":"–ö–û–°–™ 387","steam_id":76561198071830760,"connected_time":110000000000,"state":"active","ping":99}]},{"server_id":308,"name":"Uncletopia | Frankfurt | 3 | All Maps","name_short":"frk-3","host":"frk-1.de.uncletopia.com","port":27035,"enabled":true,"region":"eu","cc":"de","latitude":50.110924,"longitude":8.682127,"reserved":0,"last_update":"0001-01-01T00:00:00Z","name_a2s":"Uncletopia | Frankfurt | 3 | All Maps","protocol":17,"map":"cp_dustbowl","folder":"tf","game":"Team Fortress","app_id":440,"player_count":24,"max_players":24,"Bots":0,"server_type":"Dedicated","server_os":"Linux","password":true,"vac":true,"version":"7757534","steam_id":85568392924504274,"keywords":["cp","nocrits","nodmgspread","uncletopia"],"game_id":440,"stv_port":27036,"stv_name":"Uncletopia | Frankfurt | 3 | All Maps | STV","players":[{"user_id":223,"name":"Û†Ä°Û†Ä°Û†Ä°Û†Ä°Felix","steam_id":76561198147553398,"connected_time":3858000000000,"state":"active","ping":59},{"user_id":269,"name":"offüíî","steam_id":76561198376971834,"connected_time":1152000000000,"state":"active","ping":124},{"user_id":286,"name":"ienjoyanimewomen","steam_id":76561198282257529,"connected_time":88000000000,"state":"active","ping":185},{"user_id":259,"name":"emko√ß","steam_id":76561198846782346,"connected_time":1671000000000,"state":"active","ping":87},{"user_id":270,"name":"meriones","steam_id":76561198034234373,"connected_time":783000000000,"state":"active","ping":59},{"user_id":258,"name":"Pilk","steam_id":76561197967264483,"connected_time":1723000000000,"state":"active","ping":69},{"user_id":284,"name":"robotolev","steam_id":76561198802244044,"connected_time":133000000000,"state":"active","ping":87},{"user_id":289,"name":"Taffer","steam_id":76561198883964471,"connected_time":14000000000,"state":"spawning","ping":149},{"user_id":222,"name":"Presten","steam_id":76561198116395897,"connected_time":4099000000000,"state":"active","ping":90},{"user_id":239,"name":"Ox","steam_id":76561198137424821,"connected_time":2992000000000,"state":"active","ping":54},{"user_id":273,"name":"tekszi","steam_id":76561198107220903,"connected_time":671000000000,"state":"active","ping":44},{"user_id":224,"name":"Miiukade","steam_id":76561198089157860,"connected_time":3841000000000,"state":"active","ping":150},{"user_id":287,"name":"Their is a chickpea on my floor","steam_id":76561198987558651,"connected_time":76000000000,"state":"active","ping":82},{"user_id":215,"name":"eToro investor","steam_id":76561199045301003,"connected_time":4679000000000,"state":"active","ping":91},{"user_id":274,"name":"scantron","steam_id":76561199103959197,"connected_time":665000000000,"state":"active","ping":94},{"user_id":288,"name":"ÊÇ™","steam_id":76561198095879087,"connected_time":45000000000,"state":"active","ping":59},{"user_id":220,"name":"20BB Raxor","steam_id":76561198239927434,"connected_time":4381000000000,"state":"active","ping":90},{"user_id":240,"name":"Realist 40","steam_id":76561198052476979,"connected_time":2823000000000,"state":"active","ping":75},{"user_id":276,"name":"Michael","steam_id":76561198003146906,"connected_time":652000000000,"state":"active","ping":70},{"user_id":290,"name":"haha u thought i spy","steam_id":76561198847191826,"connected_time":9000000000,"state":"spawning","ping":74},{"user_id":235,"name":"YuraGreek","steam_id":76561198050182252,"connected_time":3164000000000,"state":"active","ping":77},{"user_id":278,"name":"Cathedra","steam_id":76561198430227030,"connected_time":618000000000,"state":"active","ping":51},{"user_id":267,"name":"Tre3","steam_id":76561198054795379,"connected_time":1312000000000,"state":"active","ping":60},{"user_id":291,"name":"Hunnington","steam_id":76561198052219699,"connected_time":6000000000,"state":"spawning","ping":144}]},{"server_id":309,"name":"Uncletopia | Frankfurt | 4 | All Maps","name_short":"frk-4","host":"frk-1.de.uncletopia.com","port":27045,"enabled":true,"region":"eu","cc":"de","latitude":50.110924,"longitude":8.682127,"reserved":0,"last_update":"0001-01-01T00:00:00Z","name_a2s":"Uncletopia | Frankfurt | 4 | All Maps","protocol":17,"map":"koth_harvest_final","folder":"tf","game":"Team Fortress","app_id":440,"player_count":24,"max_players":24,"Bots":0,"server_type":"Dedicated","server_os":"Linux","password":true,"vac":true,"version":"7757534","steam_id":85568392924504275,"keywords":["cp","nocrits","nodmgspread","uncletopia"],"game_id":440,"stv_port":27046,"stv_name":"Uncletopia | Frankfurt | 4 | All Maps | STV","players":[{"user_id":151,"name":"roblan11","steam_id":76561198066839258,"connected_time":3078000000000,"state":"active","ping":43},{"user_id":152,"name":"Doctor Mobius","steam_id":76561197971281806,"connected_time":3053000000000,"state":"active","ping":62},{"user_id":147,"name":"Pussy Piazza","steam_id":76561198914610283,"connected_time":3308000000000,"state":"active","ping":62},{"user_id":184,"name":"P Diddy","steam_id":76561198829344838,"connected_time":1916000000000,"state":"active","ping":66},{"user_id":154,"name":"Dr\u003eBreen's Blue Kush Reserve","steam_id":76561198423902979,"connected_time":3001000000000,"state":"active","ping":65},{"user_id":208,"name":"King Harkinian","steam_id":76561197987699948,"connected_time":798000000000,"state":"active","ping":82},{"user_id":142,"name":"ppprc","steam_id":76561199100663886,"connected_time":3887000000000,"state":"active","ping":66},{"user_id":171,"name":"Arturias","steam_id":76561198188720263,"connected_time":2495000000000,"state":"active","ping":59},{"user_id":210,"name":"fire","steam_id":76561198063674613,"connected_time":664000000000,"state":"active","ping":44},{"user_id":202,"name":"i5","steam_id":76561198212702751,"connected_time":990000000000,"state":"active","ping":85},{"user_id":172,"name":"Mario3ghj","steam_id":76561198069804561,"connected_time":2484000000000,"state":"active","ping":100},{"user_id":191,"name":"Henchman","steam_id":76561198256755222,"connected_time":1678000000000,"state":"active","ping":66},{"user_id":213,"name":"m.morhac123","steam_id":76561199202883261,"connected_time":240000000000,"state":"active","ping":64},{"user_id":203,"name":"JoueurFran√ßais","steam_id":76561198108081068,"connected_time":981000000000,"state":"active","ping":68},{"user_id":124,"name":"twitch.tv/awoolensleevelet","steam_id":76561198051476520,"connected_time":4783000000000,"state":"active","ping":55},{"user_id":197,"name":"citronous","steam_id":76561198093290934,"connected_time":1231000000000,"state":"active","ping":56},{"user_id":214,"name":"Zamboni","steam_id":76561199084964927,"connected_time":195000000000,"state":"active","ping":152},{"user_id":92,"name":"Fishpower5","steam_id":76561198194742647,"connected_time":6784000000000,"state":"active","ping":66},{"user_id":212,"name":"alvinulv","steam_id":76561198024487177,"connected_time":420000000000,"state":"active","ping":62},{"user_id":167,"name":"Staffy","steam_id":76561198859722036,"connected_time":2738000000000,"state":"active","ping":105},{"user_id":200,"name":"woosh (poopy joe)","steam_id":76561198061127604,"connected_time":1027000000000,"state":"active","ping":46},{"user_id":129,"name":"flame grilled stake mccoys","steam_id":76561198259668029,"connected_time":4668000000000,"state":"active","ping":75},{"user_id":207,"name":"Zonts","steam_id":76561198850176432,"connected_time":870000000000,"state":"active","ping":83},{"user_id":190,"name":"Deva Path","steam_id":76561198085763542,"connected_time":1854000000000,"state":"active","ping":71}]},{"server_id":310,"name":"Uncletopia | Frankfurt | 5 | All Maps","name_short":"frk-5","host":"frk-1.de.uncletopia.com","port":27055,"enabled":true,"region":"eu","cc":"de","latitude":50.110924,"longitude":8.682127,"reserved":0,"last_update":"0001-01-01T00:00:00Z","name_a2s":"Uncletopia | Frankfurt | 5 | All Maps","protocol":17,"map":"cp_dustbowl","folder":"tf","game":"Team Fortress","app_id":440,"player_count":24,"max_players":24,"Bots":0,"server_type":"Dedicated","server_os":"Linux","password":true,"vac":true,"version":"7757534","steam_id":85568392924504277,"keywords":["cp","nocrits","nodmgspread","uncletopia"],"game_id":440,"stv_port":27056,"stv_name":"Uncletopia | Frankfurt | 5 | All Maps | STV","players":[{"user_id":344,"name":"Top 1.000.000 Competitor","steam_id":76561198246990590,"connected_time":733000000000,"state":"active","ping":48},{"user_id":359,"name":"KarlRanzeier","steam_id":76561198066281337,"connected_time":18000000000,"state":"active","ping":92},{"user_id":356,"name":"EL BICHO","steam_id":76561198146112263,"connected_time":94000000000,"state":"active","ping":89},{"user_id":362,"name":"obliteratedthenaho","steam_id":76561198127441800,"connected_time":1000000000,"state":"spawning","ping":96},{"user_id":336,"name":"crx3","steam_id":76561198064490510,"connected_time":817000000000,"state":"active","ping":51},{"user_id":347,"name":"{CPBR}SPRSTR","steam_id":76561197998887733,"connected_time":701000000000,"state":"active","ping":92},{"user_id":361,"name":"Destinys","steam_id":76561198056132894,"connected_time":5000000000,"state":"spawning","ping":45},{"user_id":312,"name":"i always miss","steam_id":76561199379233899,"connected_time":1563000000000,"state":"active","ping":110},{"user_id":348,"name":"Lucoa Enjoyer","steam_id":76561198842622419,"connected_time":686000000000,"state":"active","ping":84},{"user_id":314,"name":"Brinier","steam_id":76561199012604288,"connected_time":1546000000000,"state":"active","ping":62},{"user_id":345,"name":"a black bishop from chess","steam_id":76561199226943577,"connected_time":723000000000,"state":"active","ping":77},{"user_id":338,"name":"Er Pomata","steam_id":76561198133085347,"connected_time":812000000000,"state":"active","ping":60},{"user_id":313,"name":"minespweper ‚òÜ","steam_id":76561199096919345,"connected_time":1559000000000,"state":"active","ping":65},{"user_id":339,"name":"Harpenden, Harpenden, Harpenden","steam_id":76561198118138546,"connected_time":808000000000,"state":"active","ping":61},{"user_id":357,"name":"Sandvich Gaming","steam_id":76561199079493666,"connected_time":72000000000,"state":"active","ping":91},{"user_id":340,"name":"plugwalk‚Ñ¢","steam_id":76561198048250715,"connected_time":807000000000,"state":"active","ping":48},{"user_id":342,"name":"Mandrake","steam_id":76561197970852048,"connected_time":788000000000,"state":"active","ping":61},{"user_id":349,"name":"Wanderer","steam_id":76561198430991724,"connected_time":665000000000,"state":"active","ping":69},{"user_id":346,"name":"RichardDurex","steam_id":76561198044505159,"connected_time":723000000000,"state":"active","ping":82},{"user_id":351,"name":"Gorlami","steam_id":76561198139623088,"connected_time":650000000000,"state":"active","ping":84},{"user_id":352,"name":"gaming for jesus","steam_id":76561199236428794,"connected_time":601000000000,"state":"active","ping":82},{"user_id":354,"name":"karol.kl","steam_id":76561198840746017,"connected_time":521000000000,"state":"active","ping":93},{"user_id":353,"name":"punchmypotatoes","steam_id":76561198091255731,"connected_time":549000000000,"state":"active","ping":67},{"user_id":355,"name":"Wtka N√∏SS (Nazar Co.)","steam_id":76561198804931016,"connected_time":505000000000,"state":"active","ping":64}]},{"server_id":311,"name":"Uncletopia | Frankfurt | 6 | All Maps","name_short":"frk-6","host":"frk-1.de.uncletopia.com","port":27065,"enabled":true,"region":"eu","cc":"de","latitude":50.110924,"longitude":8.682127,"reserved":0,"last_update":"0001-01-01T00:00:00Z","name_a2s":"Uncletopia | Frankfurt | 6 | All Maps","protocol":17,"map":"cp_process_final","folder":"tf","game":"Team Fortress","app_id":440,"player_count":24,"max_players":24,"Bots":0,"server_type":"Dedicated","server_os":"Linux","password":true,"vac":true,"version":"7757534","steam_id":85568392924504278,"keywords":["cp","nocrits","nodmgspread","uncletopia"],"game_id":440,"stv_port":27066,"stv_name":"Uncletopia | Frankfurt | 6 | All Maps | STV","players":[{"user_id":222,"name":"Mr. Mundy","steam_id":76561198132008918,"connected_time":2992000000000,"state":"active","ping":68},{"user_id":151,"name":"Orochi","steam_id":76561198265192382,"connected_time":7691000000000,"state":"active","ping":61},{"user_id":228,"name":"tf2 snake","steam_id":76561198193971167,"connected_time":2188000000000,"state":"active","ping":57},{"user_id":182,"name":"Deckard","steam_id":76561198004704647,"connected_time":5195000000000,"state":"active","ping":84},{"user_id":262,"name":"Jimmy","steam_id":76561198133680783,"connected_time":175000000000,"state":"active","ping":61},{"user_id":257,"name":"Silva_mlon","steam_id":76561199310242047,"connected_time":723000000000,"state":"active","ping":73},{"user_id":221,"name":"Udinese Dion","steam_id":76561198067931573,"connected_time":3157000000000,"state":"active","ping":46},{"user_id":161,"name":"d u k k i","steam_id":76561198071807437,"connected_time":7007000000000,"state":"active","ping":86},{"user_id":239,"name":"Muffin","steam_id":76561198134575280,"connected_time":1694000000000,"state":"active","ping":59},{"user_id":128,"name":"Nick","steam_id":76561198036109469,"connected_time":9946000000000,"state":"active","ping":84},{"user_id":208,"name":"Lux","steam_id":76561198060417740,"connected_time":4159000000000,"state":"active","ping":47},{"user_id":263,"name":"shr1mple","steam_id":76561198173537027,"connected_time":82000000000,"state":"active","ping":45},{"user_id":258,"name":"Ane≈•√°k","steam_id":76561198159294906,"connected_time":703000000000,"state":"active","ping":63},{"user_id":259,"name":"‚ò∏Koala99‚ò∏","steam_id":76561198375591154,"connected_time":652000000000,"state":"active","ping":66},{"user_id":260,"name":"RubyTheUnicorn","steam_id":76561198091772218,"connected_time":306000000000,"state":"active","ping":72},{"user_id":205,"name":"Hexagon","steam_id":76561198151205758,"connected_time":4221000000000,"state":"active","ping":58},{"user_id":251,"name":"DooWooD","steam_id":76561198335810106,"connected_time":1284000000000,"state":"active","ping":80},{"user_id":248,"name":"Slick","steam_id":76561197994232008,"connected_time":1400000000000,"state":"active","ping":75},{"user_id":169,"name":"zek","steam_id":76561198862763731,"connected_time":6912000000000,"state":"active","ping":62},{"user_id":250,"name":"Yassine","steam_id":76561198140565712,"connected_time":1363000000000,"state":"active","ping":62},{"user_id":142,"name":"Èõ≤","steam_id":76561198111134021,"connected_time":8801000000000,"state":"active","ping":89},{"user_id":261,"name":"Toon","steam_id":76561198065421595,"connected_time":306000000000,"state":"active","ping":56},{"user_id":191,"name":"makiverem","steam_id":76561198425866216,"connected_time":5028000000000,"state":"active","ping":89},{"user_id":225,"name":"Menty","steam_id":76561198036748212,"connected_time":2574000000000,"state":"active","ping":37}]},{"server_id":23,"name":"Uncletopia | Frankfurt | 7 | Stopwatch Beta","name_short":"frk-7","host":"frk-1.de.uncletopia.com","port":27075,"enabled":true,"region":"eu","cc":"de","latitude":50.110924,"longitude":8.682127,"reserved":0,"last_update":"0001-01-01T00:00:00Z","name_a2s":"Uncletopia | Frankfurt | 7 | Stopwatch Beta","protocol":17,"map":"koth_highpass","folder":"tf","game":"Team Fortress","app_id":440,"player_count":0,"max_players":24,"Bots":0,"server_type":"Dedicated","server_os":"Linux","password":true,"vac":true,"version":"7757534","steam_id":85568392924742827,"keywords":["cp","nocrits","nodmgspread","uncletopia"],"game_id":440,"stv_port":27076,"stv_name":"Uncletopia | Frankfurt | 7 | Stopwatch Beta | STV","players":null},{"server_id":24,"name":"Uncletopia | Frankfurt | 8 | Community","name_short":"frk-8","host":"frk-1.de.uncletopia.com","port":27085,"enabled":true,"region":"eu","cc":"de","latitude":50.110924,"longitude":8.682127,"reserved":0,"last_update":"0001-01-01T00:00:00Z","name_a2s":"Uncletopia | Frankfurt | 8 | Community","protocol":17,"map":"workshop/cp_indulge.ugc528106646","folder":"tf","game":"Team Fortress","app_id":440,"player_count":0,"max_players":24,"Bots":0,"server_type":"Dedicated","server_os":"Linux","password":true,"vac":true,"version":"7757534","steam_id":85568392924742828,"keywords":["cp","nocrits","nodmgspread","uncletopia"],"game_id":440,"stv_port":27086,"stv_name":"Uncletopia | Frankfurt | 8 | Community | STV","players":null},{"server_id":202,"name":"Uncletopia | Hong Kong | 1 | All Maps","name_short":"hgk-1","host":"hgk-1.hk.uncletopia.com","port":27015,"enabled":true,"region":"asia","cc":"hk","latitude":22.302711,"longitude":114.177216,"reserved":0,"last_update":"0001-01-01T00:00:00Z","name_a2s":"Uncletopia | Hong Kong | 1 | All Maps","protocol":17,"map":"koth_cascade","folder":"tf","game":"Team Fortress","app_id":440,"player_count":0,"max_players":24,"Bots":0,"server_type":"Dedicated","server_os":"Linux","password":true,"vac":true,"version":"7757534","steam_id":85568392924494504,"keywords":["cp","nocrits","nodmgspread","uncletopia"],"game_id":440,"stv_port":27016,"stv_name":"Uncletopia | Hong Kong | 1 | All Maps | STV","players":null},{"server_id":1,"name":"Uncletopia | Los Angeles | 1 | All Maps","name_short":"lax-1","host":"lax-1.us.uncletopia.com","port":27015,"enabled":true,"region":"us-west","cc":"us","latitude":33.94279,"longitude":-118.41004,"reserved":0,"last_update":"0001-01-01T00:00:00Z","name_a2s":"Uncletopia | Los Angeles | 1 | All Maps","protocol":17,"map":"koth_lakeside_final","folder":"tf","game":"Team Fortress","app_id":440,"player_count":0,"max_players":24,"Bots":0,"server_type":"Dedicated","server_os":"Linux","password":true,"vac":true,"version":"7757534","steam_id":85568392924469991,"keywords":["cp","nocrits","nodmgspread","uncletopia"],"game_id":440,"stv_port":27016,"stv_name":"Uncletopia | Los Angeles | 1 | All Maps | STV","players":null},{"server_id":112,"name":"Uncletopia | Los Angeles | 2 | All Maps","name_short":"lax-2","host":"lax-1.us.uncletopia.com","port":27025,"enabled":true,"region":"us-west","cc":"us","latitude":33.94279,"longitude":-118.41004,"reserved":0,"last_update":"0001-01-01T00:00:00Z","name_a2s":"Uncletopia | Los Angeles | 2 | All Maps","protocol":17,"map":"koth_cascade","folder":"tf","game":"Team Fortress","app_id":440,"player_count":0,"max_players":24,"Bots":0,"server_type":"Dedicated","server_os":"Linux","password":true,"vac":true,"version":"7757534","steam_id":85568392924469992,"keywords":["cp","nocrits","nodmgspread","uncletopia"],"game_id":440,"stv_port":27026,"stv_name":"Uncletopia | Los Angeles | 2 | All Maps | STV","players":null},{"server_id":324,"name":"Uncletopia | Los Angeles | 3 | All Maps","name_short":"lax-3","host":"lax-1.us.uncletopia.com","port":27035,"enabled":true,"region":"us-west","cc":"us","latitude":33.94279,"longitude":-118.41004,"reserved":0,"last_update":"0001-01-01T00:00:00Z","name_a2s":"Uncletopia | Los Angeles | 3 | All Maps","protocol":17,"map":"pl_rumford_event","folder":"tf","game":"Team Fortress","app_id":440,"player_count":0,"max_players":24,"Bots":0,"server_type":"Dedicated","server_os":"Linux","password":true,"vac":true,"version":"7757534","steam_id":85568392924510198,"keywords":["nocrits","nodmgspread","payload","uncletopia"],"game_id":440,"stv_port":27036,"stv_name":"Uncletopia | Los Angeles | 3 | All Maps | STV","players":null},{"server_id":25,"name":"Uncletopia | Los Angeles | 4 | Stopwatch Beta","name_short":"lax-4","host":"lax-1.us.uncletopia.com","port":27045,"enabled":true,"region":"us-west","cc":"us","latitude":33.94279,"longitude":-118.41004,"reserved":0,"last_update":"0001-01-01T00:00:00Z","name_a2s":"Uncletopia | Los Angeles | 4 | Stopwatch Beta","protocol":17,"map":"pl_frontier_final","folder":"tf","game":"Team Fortress","app_id":440,"player_count":0,"max_players":24,"Bots":0,"server_type":"Dedicated","server_os":"Linux","password":true,"vac":true,"version":"7757534","steam_id":85568392924510199,"keywords":["nocrits","nodmgspread","payload","uncletopia"],"game_id":440,"stv_port":27046,"stv_name":"Uncletopia | Los Angeles | 4 | Stopwatch Beta | STV","players":null},{"server_id":11,"name":"Uncletopia | London | 1 | All Maps","name_short":"lon-1","host":"lon-1.uk.uncletopia.com","port":27015,"enabled":true,"region":"eu","cc":"gb","latitude":51.509865,"longitude":-0.118092,"reserved":0,"last_update":"0001-01-01T00:00:00Z","name_a2s":"Uncletopia | London | 1 | All Maps","protocol":17,"map":"pl_pier","folder":"tf","game":"Team Fortress","app_id":440,"player_count":4,"max_players":24,"Bots":0,"server_type":"Dedicated","server_os":"Linux","password":true,"vac":true,"version":"7757534","steam_id":85568392924367362,"keywords":["nocrits","nodmgspread","payload","uncletopia"],"game_id":440,"stv_port":27016,"stv_name":"Uncletopia | London | 1 | All Maps | STV","players":[{"user_id":491,"name":"Emotional Reassurance Pyro","steam_id":76561198213498127,"connected_time":102000000000,"state":"active","ping":106},{"user_id":490,"name":"dr cloud","steam_id":76561199226807906,"connected_time":193000000000,"state":"active","ping":74},{"user_id":492,"name":"Wymonso","steam_id":76561198018654071,"connected_time":96000000000,"state":"active","ping":172},{"user_id":494,"name":"aimee","steam_id":76561198834309212,"connected_time":7000000000,"state":"spawning","ping":103}]},{"server_id":114,"name":"Uncletopia | London | 2 | All Maps","name_short":"lon-2","host":"lon-1.uk.uncletopia.com","port":27025,"enabled":true,"region":"eu","cc":"gb","latitude":51.509865,"longitude":-0.118092,"reserved":0,"last_update":"0001-01-01T00:00:00Z","name_a2s":"Uncletopia | London | 2 | All Maps","protocol":17,"map":"pl_barnblitz","folder":"tf","game":"Team Fortress","app_id":440,"player_count":24,"max_players":24,"Bots":0,"server_type":"Dedicated","server_os":"Linux","password":true,"vac":true,"version":"7757534","steam_id":85568392924470941,"keywords":["nocrits","nodmgspread","payload","uncletopia"],"game_id":440,"stv_port":27026,"stv_name":"Uncletopia | London | 2 | All Maps | STV","players":[{"user_id":512,"name":"Johnny Lawrence #JohnnyMaxxing","steam_id":76561199367141671,"connected_time":414000000000,"state":"active","ping":120},{"user_id":491,"name":"bombo112","steam_id":76561198059743551,"connected_time":1256000000000,"state":"active","ping":78},{"user_id":477,"name":"decriminalise goblins","steam_id":76561198048257605,"connected_time":2692000000000,"state":"active","ping":47},{"user_id":434,"name":"Uncle Owen","steam_id":76561198157999291,"connected_time":6191000000000,"state":"active","ping":83},{"user_id":516,"name":"Wardruna96","steam_id":76561199057083828,"connected_time":58000000000,"state":"active","ping":89},{"user_id":511,"name":"The 4th Doctor","steam_id":76561198191516706,"connected_time":531000000000,"state":"active","ping":81},{"user_id":505,"name":"WolfmanCZ","steam_id":76561199157141414,"connected_time":750000000000,"state":"active","ping":86},{"user_id":319,"name":"Autumnsky","steam_id":76561198055161203,"connected_time":13625000000000,"state":"active","ping":66},{"user_id":515,"name":"Pipper","steam_id":76561197970326616,"connected_time":159000000000,"state":"active","ping":67},{"user_id":508,"name":"GardenFungus","steam_id":76561198054894337,"connected_time":649000000000,"state":"active","ping":44},{"user_id":462,"name":"SoupER","steam_id":76561198063056668,"connected_time":3117000000000,"state":"active","ping":46},{"user_id":507,"name":"trite","steam_id":76561197983765323,"connected_time":679000000000,"state":"active","ping":52},{"user_id":481,"name":"leminsc8","steam_id":76561198825084995,"connected_time":2149000000000,"state":"active","ping":54},{"user_id":470,"name":"‚Ä¢stepbro‚Ä¢","steam_id":76561198119607160,"connected_time":2973000000000,"state":"active","ping":85},{"user_id":479,"name":"moser23","steam_id":76561197960543171,"connected_time":2650000000000,"state":"active","ping":65},{"user_id":496,"name":"Cosmetic brain","steam_id":76561198055936410,"connected_time":1090000000000,"state":"active","ping":85},{"user_id":503,"name":"British Disapproval","steam_id":76561198001375260,"connected_time":1021000000000,"state":"active","ping":54},{"user_id":506,"name":"zak","steam_id":76561197998895428,"connected_time":744000000000,"state":"active","ping":75},{"user_id":504,"name":"Mr. Pickles #SaveTF2","steam_id":76561199210183560,"connected_time":797000000000,"state":"active","ping":138},{"user_id":513,"name":"Leituga","steam_id":76561198051127598,"connected_time":387000000000,"state":"active","ping":94},{"user_id":502,"name":"Pootis_Mafia_2009 (BEAST)","steam_id":76561198448050535,"connected_time":1039000000000,"state":"active","ping":75},{"user_id":487,"name":"ricky pee pee","steam_id":76561198152620745,"connected_time":1548000000000,"state":"active","ping":56},{"user_id":510,"name":"kreeekz","steam_id":76561198014431602,"connected_time":584000000000,"state":"active","ping":81},{"user_id":488,"name":"SOOOOOOOOOOOOOOOOOAPY","steam_id":76561198118695769,"connected_time":1537000000000,"state":"active","ping":44}]},{"server_id":320,"name":"Uncletopia | London | 3 | All Maps","name_short":"lon-3","host":"lon-1.uk.uncletopia.com","port":27035,"enabled":true,"region":"eu","cc":"gb","latitude":51.509865,"longitude":-0.118092,"reserved":0,"last_update":"0001-01-01T00:00:00Z","name_a2s":"Uncletopia | London | 3 | All Maps","protocol":17,"map":"pl_borneo","folder":"tf","game":"Team Fortress","app_id":440,"player_count":24,"max_players":24,"Bots":0,"server_type":"Dedicated","server_os":"Linux","password":true,"vac":true,"version":"7757534","steam_id":85568392924510192,"keywords":["nocrits","nodmgspread","payload","uncletopia"],"game_id":440,"stv_port":27036,"stv_name":"Uncletopia | London | 3 | All Maps | STV","players":[{"user_id":433,"name":"Butler","steam_id":76561198117242880,"connected_time":3056000000000,"state":"active","ping":57},{"user_id":298,"name":"Gnarville","steam_id":76561198006373329,"connected_time":10871000000000,"state":"active","ping":50},{"user_id":456,"name":"c2b","steam_id":76561197998883653,"connected_time":602000000000,"state":"active","ping":74},{"user_id":459,"name":"erobrine2","steam_id":76561198173218318,"connected_time":307000000000,"state":"active","ping":54},{"user_id":453,"name":"SilverSV","steam_id":76561198164579830,"connected_time":1020000000000,"state":"active","ping":61},{"user_id":462,"name":"Chicote","steam_id":76561198054689637,"connected_time":280000000000,"state":"active","ping":74},{"user_id":460,"name":"panakid","steam_id":76561198364121077,"connected_time":303000000000,"state":"active","ping":101},{"user_id":468,"name":"Clitorina","steam_id":76561198077570815,"connected_time":153000000000,"state":"active","ping":44},{"user_id":330,"name":"Rubi","steam_id":76561198139410003,"connected_time":9550000000000,"state":"active","ping":93},{"user_id":464,"name":"quickfast","steam_id":76561199438900919,"connected_time":232000000000,"state":"active","ping":42},{"user_id":401,"name":"Joseph Stalin","steam_id":76561198033199746,"connected_time":6009000000000,"state":"active","ping":54},{"user_id":411,"name":"Certified Hood pybro (ua)","steam_id":76561198970562699,"connected_time":5257000000000,"state":"active","ping":48},{"user_id":404,"name":"Sza","steam_id":76561198022132105,"connected_time":5521000000000,"state":"active","ping":76},{"user_id":457,"name":"S'all good, man","steam_id":76561198363882056,"connected_time":572000000000,"state":"active","ping":41},{"user_id":329,"name":"DrauconeTMDS","steam_id":76561198083510257,"connected_time":9562000000000,"state":"active","ping":55},{"user_id":458,"name":"darkwater","steam_id":76561197986978738,"connected_time":570000000000,"state":"active","ping":65},{"user_id":378,"name":"Bisago!","steam_id":76561198181794353,"connected_time":6622000000000,"state":"active","ping":45},{"user_id":465,"name":"Marioalexsan","steam_id":76561198125512367,"connected_time":230000000000,"state":"active","ping":96},{"user_id":409,"name":"hut hut","steam_id":76561198088426580,"connected_time":5338000000000,"state":"active","ping":75},{"user_id":437,"name":"NitPig","steam_id":76561198212991935,"connected_time":2911000000000,"state":"active","ping":128},{"user_id":466,"name":"The Orgazoid","steam_id":76561198188642265,"connected_time":209000000000,"state":"active","ping":60},{"user_id":469,"name":"TheMightyOppressor","steam_id":76561198047461974,"connected_time":122000000000,"state":"active","ping":41},{"user_id":467,"name":"Ecton","steam_id":76561198025103720,"connected_time":198000000000,"state":"active","ping":63},{"user_id":451,"name":"Wuffington","steam_id":76561198033762881,"connected_time":1219000000000,"state":"active","ping":48}]},{"server_id":321,"name":"Uncletopia | London | 4 | All Maps","name_short":"lon-4","host":"lon-1.uk.uncletopia.com","port":27045,"enabled":true,"region":"eu","cc":"gb","latitude":51.509865,"longitude":-0.118092,"reserved":0,"last_update":"0001-01-01T00:00:00Z","name_a2s":"Uncletopia | London | 4 | All Maps","protocol":17,"map":"koth_viaduct","folder":"tf","game":"Team Fortress","app_id":440,"player_count":0,"max_players":24,"Bots":0,"server_type":"Dedicated","server_os":"Linux","password":true,"vac":true,"version":"7757534","steam_id":85568392924510193,"keywords":["cp","nocrits","nodmgspread","uncletopia"],"game_id":440,"stv_port":27046,"stv_name":"Uncletopia | London | 4 | All Maps | STV","players":null},{"server_id":21,"name":"Uncletopia | London | 5 | All Maps","name_short":"lon-5","host":"lon-1.uk.uncletopia.com","port":27055,"enabled":true,"region":"eu","cc":"gb","latitude":51.509865,"longitude":-0.118092,"reserved":0,"last_update":"0001-01-01T00:00:00Z","name_a2s":"Uncletopia | London | 5 | All Maps","protocol":17,"map":"cp_mountainlab","folder":"tf","game":"Team Fortress","app_id":440,"player_count":24,"max_players":24,"Bots":0,"server_type":"Dedicated","server_os":"Linux","password":true,"vac":true,"version":"7757534","steam_id":85568392924742829,"keywords":["cp","nocrits","nodmgspread","uncletopia"],"game_id":440,"stv_port":27056,"stv_name":"Uncletopia | London | 5 | All Maps | STV","players":[{"user_id":727,"name":"Umby","steam_id":76561198166584580,"connected_time":617000000000,"state":"active","ping":40},{"user_id":667,"name":"Jeikku","steam_id":76561198078651679,"connected_time":3136000000000,"state":"active","ping":29},{"user_id":733,"name":"Dwevy","steam_id":76561198090379437,"connected_time":254000000000,"state":"active","ping":54},{"user_id":697,"name":"Headers","steam_id":76561198094216514,"connected_time":1331000000000,"state":"active","ping":75},{"user_id":695,"name":"ArnoldGaming","steam_id":76561198040140247,"connected_time":1570000000000,"state":"active","ping":189},{"user_id":681,"name":"Kahvi","steam_id":76561198723244199,"connected_time":1818000000000,"state":"active","ping":75},{"user_id":703,"name":"GARbageTrash","steam_id":76561199101269633,"connected_time":929000000000,"state":"active","ping":93},{"user_id":678,"name":"Lyra","steam_id":76561198043601838,"connected_time":2300000000000,"state":"active","ping":61},{"user_id":683,"name":"Raingnome @SaveTF2","steam_id":76561198007394958,"connected_time":1807000000000,"state":"active","ping":55},{"user_id":722,"name":"huh","steam_id":76561198079277466,"connected_time":699000000000,"state":"active","ping":74},{"user_id":724,"name":"A rockhard rock","steam_id":76561198153987447,"connected_time":665000000000,"state":"active","ping":43},{"user_id":729,"name":"Toaster | FIH","steam_id":76561199195287659,"connected_time":439000000000,"state":"active","ping":82},{"user_id":734,"name":"nhstefanov","steam_id":76561198811811405,"connected_time":230000000000,"state":"active","ping":57},{"user_id":732,"name":"DiscoTraveler","steam_id":76561199240168088,"connected_time":298000000000,"state":"active","ping":125},{"user_id":735,"name":"not drunk","steam_id":76561199184873889,"connected_time":211000000000,"state":"active","ping":60},{"user_id":666,"name":"Topme","steam_id":76561198091734693,"connected_time":3588000000000,"state":"active","ping":74},{"user_id":689,"name":"Miczu555PL","steam_id":76561198058500895,"connected_time":1681000000000,"state":"active","ping":76},{"user_id":701,"name":"Purplish","steam_id":76561198006393993,"connected_time":1068000000000,"state":"active","ping":44},{"user_id":692,"name":"Mussolini","steam_id":76561198218384865,"connected_time":1639000000000,"state":"active","ping":110},{"user_id":694,"name":"Kroto","steam_id":76561198056233760,"connected_time":1597000000000,"state":"active","ping":64},{"user_id":736,"name":"Videogamer","steam_id":76561198106012909,"connected_time":207000000000,"state":"active","ping":81},{"user_id":737,"name":"skilltissues","steam_id":76561198025828664,"connected_time":198000000000,"state":"active","ping":57},{"user_id":680,"name":"Skagzilla| trade.tf","steam_id":76561198260114743,"connected_time":2057000000000,"state":"active","ping":47},{"user_id":738,"name":"Dingus","steam_id":76561198140514058,"connected_time":182000000000,"state":"active","ping":40}]},{"server_id":22,"name":"Uncletopia | London | 6 | All Maps","name_short":"lon-6","host":"lon-1.uk.uncletopia.com","port":27065,"enabled":true,"region":"eu","cc":"gb","latitude":51.509865,"longitude":-0.118092,"reserved":0,"last_update":"0001-01-01T00:00:00Z","name_a2s":"Uncletopia | London | 6 | All Maps","protocol":17,"map":"cp_dustbowl","folder":"tf","game":"Team Fortress","app_id":440,"player_count":18,"max_players":24,"Bots":0,"server_type":"Dedicated","server_os":"Linux","password":true,"vac":true,"version":"7757534","steam_id":85568392924742830,"keywords":["cp","nocrits","nodmgspread","uncletopia"],"game_id":440,"stv_port":27066,"stv_name":"Uncletopia | London | 6 | All Maps | STV","players":[{"user_id":99,"name":"QuimKong","steam_id":76561198176501842,"connected_time":115000000000,"state":"active","ping":84},{"user_id":94,"name":"CouchPotato","steam_id":76561198849369915,"connected_time":303000000000,"state":"active","ping":67},{"user_id":87,"name":"Dr Intercourse, Minister of Sex","steam_id":76561198083842063,"connected_time":609000000000,"state":"active","ping":71},{"user_id":73,"name":"Pain in a Box","steam_id":76561197990777173,"connected_time":1587000000000,"state":"active","ping":86},{"user_id":100,"name":"NothingMan","steam_id":76561198051284446,"connected_time":40000000000,"state":"active","ping":56},{"user_id":101,"name":"tapeworms!","steam_id":76561198069649097,"connected_time":32000000000,"state":"spawning","ping":58},{"user_id":67,"name":"Phiphler","steam_id":76561197994055715,"connected_time":2406000000000,"state":"active","ping":71},{"user_id":96,"name":"Sh3ba Spaniel","steam_id":76561198047412394,"connected_time":245000000000,"state":"active","ping":156},{"user_id":29,"name":"walluu","steam_id":76561198121830870,"connected_time":4122000000000,"state":"active","ping":76},{"user_id":102,"name":"KQ","steam_id":76561198079633316,"connected_time":1000000000,"state":"spawning","ping":34},{"user_id":74,"name":"Generic_name1234","steam_id":76561199063798622,"connected_time":1521000000000,"state":"active","ping":141},{"user_id":34,"name":"Dr. Funkenstein","steam_id":76561197977816210,"connected_time":3834000000000,"state":"active","ping":47},{"user_id":95,"name":"NOM","steam_id":76561199059006203,"connected_time":301000000000,"state":"active","ping":159},{"user_id":98,"name":"Arecibo","steam_id":76561198014359615,"connected_time":232000000000,"state":"active","ping":65},{"user_id":92,"name":"Johnny Slapcock","steam_id":76561198308494363,"connected_time":322000000000,"state":"active","ping":186},{"user_id":85,"name":"Khoreo","steam_id":76561198208096339,"connected_time":830000000000,"state":"active","ping":46},{"user_id":77,"name":"mr.MR","steam_id":76561198151980974,"connected_time":1127000000000,"state":"active","ping":77},{"user_id":53,"name":"rocketbucket01","steam_id":76561198027701160,"connected_time":3422000000000,"state":"active","ping":100}]},{"server_id":40,"name":"Uncletopia | London | 7 | No Payload","name_short":"lon-7","host":"lon-1.uk.uncletopia.com","port":27075,"enabled":true,"region":"eu","cc":"gb","latitude":51.509865,"longitude":-0.118092,"reserved":0,"last_update":"0001-01-01T00:00:00Z","name_a2s":"Uncletopia | London | 7 | No Payload","protocol":17,"map":"cp_coldfront","folder":"tf","game":"Team Fortress","app_id":440,"player_count":0,"max_players":24,"Bots":0,"server_type":"Dedicated","server_os":"Linux","password":true,"vac":true,"version":"7757534","steam_id":85568392924964314,"keywords":["cp","nocrits","nodmgspread","uncletopia"],"game_id":440,"stv_port":27076,"stv_name":"Uncletopia | London | 7 | No Payload | STV","players":null},{"server_id":41,"name":"Uncletopia | London | 8 | Community","name_short":"lon-8","host":"lon-1.uk.uncletopia.com","port":27085,"enabled":true,"region":"eu","cc":"gb","latitude":51.509865,"longitude":-0.118092,"reserved":0,"last_update":"0001-01-01T00:00:00Z","name_a2s":"Uncletopia | London | 8 | Community","protocol":17,"map":"workshop/pl_badwater_pro_v12.ugc2142942074","folder":"tf","game":"Team Fortress","app_id":440,"player_count":0,"max_players":24,"Bots":0,"server_type":"Dedicated","server_os":"Linux","password":true,"vac":true,"version":"7757534","steam_id":85568392924964315,"keywords":["nocrits","nodmgspread","payload","uncletopia"],"game_id":440,"stv_port":27086,"stv_name":"Uncletopia | London | 8 | Community | STV","players":null},{"server_id":300,"name":"Uncletopia | Montr√©al | 1 | All Maps","name_short":"mtl-1","host":"mtl-1.ca.uncletopia.com","port":27015,"enabled":true,"region":"us-east","cc":"ca","latitude":45.50889,"longitude":-73.56167,"reserved":0,"last_update":"0001-01-01T00:00:00Z","name_a2s":"Uncletopia | Montr√©al | 1 | All Maps","protocol":17,"map":"pl_snowycoast","folder":"tf","game":"Team Fortress","app_id":440,"player_count":0,"max_players":24,"Bots":0,"server_type":"Dedicated","server_os":"Linux","password":true,"vac":true,"version":"7757534","steam_id":85568392924500087,"keywords":["nocrits","nodmgspread","payload","uncletopia"],"game_id":440,"stv_port":27016,"stv_name":"Uncletopia | Montr√©al | 1 | All Maps | STV","players":null},{"server_id":301,"name":"Uncletopia | Montr√©al | 2 | All Maps","name_short":"mtl-2","host":"mtl-1.ca.uncletopia.com","port":27025,"enabled":true,"region":"us-east","cc":"ca","latitude":45.50889,"longitude":-73.56167,"reserved":0,"last_update":"0001-01-01T00:00:00Z","name_a2s":"Uncletopia | Montr√©al | 2 | All Maps","protocol":17,"map":"pl_snowycoast","folder":"tf","game":"Team Fortress","app_id":440,"player_count":0,"max_players":24,"Bots":0,"server_type":"Dedicated","server_os":"Linux","password":true,"vac":true,"version":"7757534","steam_id":85568392924500088,"keywords":["nocrits","nodmgspread","payload","uncletopia"],"game_id":440,"stv_port":27026,"stv_name":"Uncletopia | Montr√©al | 2 | All Maps | STV","players":null},{"server_id":302,"name":"Uncletopia | Montr√©al | 3 | All Maps","name_short":"mtl-3","host":"mtl-1.ca.uncletopia.com","port":27035,"enabled":true,"region":"us-east","cc":"ca","latitude":45.50889,"longitude":-73.56167,"reserved":0,"last_update":"0001-01-01T00:00:00Z","name_a2s":"Uncletopia | Montr√©al | 3 | All Maps","protocol":17,"map":"cp_snakewater_final1","folder":"tf","game":"Team Fortress","app_id":440,"player_count":0,"max_players":24,"Bots":0,"server_type":"Dedicated","server_os":"Linux","password":true,"vac":true,"version":"7757534","steam_id":85568392924500089,"keywords":["cp","nocrits","nodmgspread","uncletopia"],"game_id":440,"stv_port":27036,"stv_name":"Uncletopia | Montr√©al | 3 | All Maps | STV","players":null},{"server_id":303,"name":"Uncletopia | Montr√©al | 4 | No Payload","name_short":"mtl-4","host":"mtl-1.ca.uncletopia.com","port":27045,"enabled":true,"region":"us-east","cc":"ca","latitude":45.50889,"longitude":-73.56167,"reserved":0,"last_update":"0001-01-01T00:00:00Z","name_a2s":"Uncletopia | Montr√©al | 4 | No Payload","protocol":17,"map":"pl_borneo","folder":"tf","game":"Team Fortress","app_id":440,"player_count":0,"max_players":24,"Bots":0,"server_type":"Dedicated","server_os":"Linux","password":true,"vac":true,"version":"7757534","steam_id":85568392924500090,"keywords":["nocrits","nodmgspread","payload","uncletopia"],"game_id":440,"stv_port":27046,"stv_name":"Uncletopia | Montr√©al | 4 | No Payload | STV","players":null},{"server_id":13,"name":"Uncletopia | New York City | 1 | All Maps","name_short":"nyc-1","host":"nyc-1.us.uncletopia.com","port":27015,"enabled":true,"region":"us-east","cc":"us","latitude":40.73061,"longitude":-73.93524,"reserved":0,"last_update":"0001-01-01T00:00:00Z","name_a2s":"Uncletopia | New York City | 1 | All Maps","protocol":17,"map":"koth_viaduct","folder":"tf","game":"Team Fortress","app_id":440,"player_count":1,"max_players":24,"Bots":0,"server_type":"Dedicated","server_os":"Linux","password":true,"vac":true,"version":"7757534","steam_id":85568392924469993,"keywords":["cp","nocrits","nodmgspread","uncletopia"],"game_id":440,"stv_port":27016,"stv_name":"Uncletopia | New York City | 1 | All Maps | STV","players":[{"user_id":12,"name":"CakeBlock","steam_id":76561198067238228,"connected_time":357000000000,"state":"active","ping":45}]},{"server_id":14,"name":"Uncletopia | New York City | 2 | All Maps","name_short":"nyc-2","host":"nyc-1.us.uncletopia.com","port":27025,"enabled":true,"region":"us-east","cc":"us","latitude":40.73061,"longitude":-73.93524,"reserved":0,"last_update":"0001-01-01T00:00:00Z","name_a2s":"Uncletopia | New York City | 2 | All Maps","protocol":17,"map":"koth_highpass","folder":"tf","game":"Team Fortress","app_id":440,"player_count":24,"max_players":24,"Bots":0,"server_type":"Dedicated","server_os":"Linux","password":true,"vac":true,"version":"7757534","steam_id":85568392924469994,"keywords":["cp","nocrits","nodmgspread","uncletopia"],"game_id":440,"stv_port":27026,"stv_name":"Uncletopia | New York City | 2 | All Maps | STV","players":[{"user_id":30,"name":"CrunchCisco","steam_id":76561199162724832,"connected_time":1851000000000,"state":"active","ping":87},{"user_id":32,"name":"Dr. Strangelove","steam_id":76561198014593467,"connected_time":1680000000000,"state":"active","ping":60},{"user_id":13,"name":"Swoletard","steam_id":76561198074212758,"connected_time":2057000000000,"state":"active","ping":67},{"user_id":31,"name":"Goose Pyro","steam_id":76561198994984332,"connected_time":1794000000000,"state":"active","ping":112},{"user_id":19,"name":"A Puppy","steam_id":76561198828184456,"connected_time":2006000000000,"state":"active","ping":45},{"user_id":51,"name":"LocaKola","steam_id":76561198173435430,"connected_time":701000000000,"state":"active","ping":73},{"user_id":61,"name":"Spike Bones","steam_id":76561198234926120,"connected_time":235000000000,"state":"active","ping":81},{"user_id":60,"name":"Chicken Joe","steam_id":76561198077799885,"connected_time":266000000000,"state":"active","ping":52},{"user_id":36,"name":"Tlaloc","steam_id":76561198375215983,"connected_time":1076000000000,"state":"active","ping":116},{"user_id":37,"name":"Kasane","steam_id":76561198209006780,"connected_time":994000000000,"state":"active","ping":84},{"user_id":62,"name":"Swifgz","steam_id":76561198162875756,"connected_time":18000000000,"state":"spawning","ping":41},{"user_id":42,"name":"GET GUNS. SHOOT. KILL!!!","steam_id":76561198111259720,"connected_time":822000000000,"state":"active","ping":81},{"user_id":40,"name":"Obelix","steam_id":76561198274715109,"connected_time":923000000000,"state":"active","ping":43},{"user_id":43,"name":"K2f","steam_id":76561198049600563,"connected_time":806000000000,"state":"active","ping":112},{"user_id":56,"name":"[chef] iron","steam_id":76561197970888616,"connected_time":579000000000,"state":"active","ping":73},{"user_id":46,"name":"Rustic","steam_id":76561199065293820,"connected_time":771000000000,"state":"active","ping":122},{"user_id":49,"name":"Nic0","steam_id":76561198305690218,"connected_time":762000000000,"state":"active","ping":53},{"user_id":50,"name":"Thurricane","steam_id":76561198410724666,"connected_time":721000000000,"state":"active","ping":51},{"user_id":52,"name":"The Gremlin","steam_id":76561198419066993,"connected_time":700000000000,"state":"active","ping":129},{"user_id":53,"name":"The Pope","steam_id":76561198805375543,"connected_time":689000000000,"state":"active","ping":129},{"user_id":54,"name":"Sathie","steam_id":76561198308471047,"connected_time":677000000000,"state":"active","ping":131},{"user_id":57,"name":"Dr. Safety","steam_id":76561198085327188,"connected_time":567000000000,"state":"active","ping":74},{"user_id":58,"name":"Violet42","steam_id":76561198072927887,"connected_time":549000000000,"state":"active","ping":45},{"user_id":63,"name":"KAYDAN","steam_id":76561198817674900,"connected_time":6000000000,"state":"spawning","ping":143}]},{"server_id":15,"name":"Uncletopia | New York City | 3 | Stopwatch Beta","name_short":"nyc-3","host":"nyc-1.us.uncletopia.com","port":27035,"enabled":true,"region":"us-east","cc":"us","latitude":40.73061,"longitude":-73.93524,"reserved":0,"last_update":"0001-01-01T00:00:00Z","name_a2s":"Uncletopia | New York City | 3 | Stopwatch Beta","protocol":17,"map":"workshop/pl_barnblitz_pro7.ugc582280235","folder":"tf","game":"Team Fortress","app_id":440,"player_count":0,"max_players":24,"Bots":0,"server_type":"Dedicated","server_os":"Linux","password":true,"vac":true,"version":"7757534","steam_id":85568392924742820,"keywords":["nocrits","nodmgspread","payload","uncletopia"],"game_id":440,"stv_port":27036,"stv_name":"Uncletopia | New York City | 3 | Stopwatch Beta | STV","players":null},{"server_id":16,"name":"Uncletopia | New York City | 4 | Community","name_short":"nyc-4","host":"nyc-1.us.uncletopia.com","port":27045,"enabled":true,"region":"us-east","cc":"us","latitude":40.73061,"longitude":-73.93524,"reserved":0,"last_update":"0001-01-01T00:00:00Z","name_a2s":"Uncletopia | New York City | 4 | Community","protocol":17,"map":"workshop/cp_bruhstbowl_b5.ugc2878604990","folder":"tf","game":"Team Fortress","app_id":440,"player_count":0,"max_players":24,"Bots":0,"server_type":"Dedicated","server_os":"Linux","password":true,"vac":true,"version":"7757534","steam_id":85568392924742821,"keywords":["cp","nocrits","nodmgspread","uncletopia"],"game_id":440,"stv_port":27046,"stv_name":"Uncletopia | New York City | 4 | Community | STV","players":null},{"server_id":142,"name":"Uncletopia | S√£o Paulo | 1 | All Maps","name_short":"sao-1","host":"sao-1.br.uncletopia.com","port":27015,"enabled":true,"region":"sa","cc":"br","latitude":-23.533773,"longitude":-46.62529,"reserved":0,"last_update":"0001-01-01T00:00:00Z","name_a2s":"Uncletopia | S√£o Paulo | 1 | All Maps","protocol":17,"map":"pl_pier","folder":"tf","game":"Team Fortress","app_id":440,"player_count":0,"max_players":24,"Bots":0,"server_type":"Dedicated","server_os":"Linux","password":true,"vac":true,"version":"7757534","steam_id":85568392924469996,"keywords":["nocrits","nodmgspread","payload","uncletopia"],"game_id":440,"stv_port":27016,"stv_name":"Uncletopia | S√£o Paulo | 1 | All Maps | STV","players":null},{"server_id":143,"name":"Uncletopia | S√£o Paulo | 2 | All Maps","name_short":"sao-2","host":"sao-2.br.uncletopia.com","port":27015,"enabled":true,"region":"sa","cc":"br","latitude":-23.533773,"longitude":-46.62529,"reserved":0,"last_update":"0001-01-01T00:00:00Z","name_a2s":"Uncletopia | S√£o Paulo | 2 | All Maps","protocol":17,"map":"pl_swiftwater_final1","folder":"tf","game":"Team Fortress","app_id":440,"player_count":0,"max_players":24,"Bots":0,"server_type":"Dedicated","server_os":"Linux","password":true,"vac":true,"version":"7757534","steam_id":85568392924485349,"keywords":["nocrits","nodmgspread","payload","uncletopia"],"game_id":440,"stv_port":27016,"stv_name":"Uncletopia | S√£o Paulo | 2 | All Maps | STV","players":null},{"server_id":7,"name":"Uncletopia | Seattle | 1 | All Maps","name_short":"sea-1","host":"sea-1.us.uncletopia.com","port":27015,"enabled":true,"region":"us-west","cc":"us","latitude":47.608013,"longitude":-122.33517,"reserved":0,"last_update":"0001-01-01T00:00:00Z","name_a2s":"Uncletopia | Seattle | 1 | All Maps","protocol":17,"map":"cp_dustbowl","folder":"tf","game":"Team Fortress","app_id":440,"player_count":24,"max_players":24,"Bots":0,"server_type":"Dedicated","server_os":"Linux","password":true,"vac":true,"version":"7757534","steam_id":85568392924469997,"keywords":["cp","nocrits","nodmgspread","uncletopia"],"game_id":440,"stv_port":27016,"stv_name":"Uncletopia | Seattle | 1 | All Maps | STV","players":[{"user_id":10,"name":"m1","steam_id":76561198004133638,"connected_time":4106000000000,"state":"active","ping":86},{"user_id":11,"name":"StarGuyVI","steam_id":76561199366304746,"connected_time":4104000000000,"state":"active","ping":143},{"user_id":50,"name":"SourTredmill","steam_id":76561198056581580,"connected_time":2734000000000,"state":"active","ping":76},{"user_id":75,"name":"mega","steam_id":76561198089520959,"connected_time":258000000000,"state":"active","ping":97},{"user_id":65,"name":"Enron Hubbard","steam_id":76561198012951411,"connected_time":1336000000000,"state":"active","ping":107},{"user_id":53,"name":"‚çü ùì§ùì¶ùì§-furry_killer-","steam_id":76561198139508135,"connected_time":2570000000000,"state":"active","ping":86},{"user_id":63,"name":"Endstar","steam_id":76561198326392714,"connected_time":1566000000000,"state":"active","ping":55},{"user_id":67,"name":"captain red","steam_id":76561198191587983,"connected_time":1168000000000,"state":"active","ping":76},{"user_id":22,"name":"Cam(era)","steam_id":76561198285054047,"connected_time":3509000000000,"state":"active","ping":75},{"user_id":64,"name":"PopcornNinja101","steam_id":76561198330680181,"connected_time":1469000000000,"state":"active","ping":47},{"user_id":72,"name":"Tele Co","steam_id":76561198041909269,"connected_time":280000000000,"state":"active","ping":87},{"user_id":73,"name":"Dr. Karl, the AUS Science Guy","steam_id":76561198031278747,"connected_time":268000000000,"state":"active","ping":45},{"user_id":76,"name":"Goldbug","steam_id":76561198025221202,"connected_time":255000000000,"state":"active","ping":63},{"user_id":58,"name":"AmiableNebula","steam_id":76561198094306627,"connected_time":2347000000000,"state":"active","ping":74},{"user_id":78,"name":"Kraftlos","steam_id":76561198074350350,"connected_time":175000000000,"state":"active","ping":124},{"user_id":77,"name":"ungr8t","steam_id":76561198063521721,"connected_time":249000000000,"state":"active","ping":105},{"user_id":29,"name":"monicaarroyo0412","steam_id":76561198448345911,"connected_time":3319000000000,"state":"active","ping":93},{"user_id":70,"name":"The Best Healer","steam_id":76561198079452621,"connected_time":289000000000,"state":"active","ping":59},{"user_id":69,"name":"Frostyfaucet","steam_id":76561198060524722,"connected_time":816000000000,"state":"active","ping":43},{"user_id":49,"name":"Omori","steam_id":76561198117991560,"connected_time":2748000000000,"state":"active","ping":74},{"user_id":35,"name":"chili","steam_id":76561198070555429,"connected_time":3020000000000,"state":"active","ping":126},{"user_id":74,"name":"PLATYPUS","steam_id":76561198255796625,"connected_time":268000000000,"state":"active","ping":169},{"user_id":43,"name":"Saoddeüïà","steam_id":76561198119653709,"connected_time":2827000000000,"state":"active","ping":91},{"user_id":46,"name":"Axio","steam_id":76561198062072555,"connected_time":2773000000000,"state":"active","ping":94}]},{"server_id":119,"name":"Uncletopia | Seattle | 2 | All Maps","name_short":"sea-2","host":"sea-1.us.uncletopia.com","port":27025,"enabled":true,"region":"us-west","cc":"us","latitude":47.608013,"longitude":-122.33517,"reserved":0,"last_update":"0001-01-01T00:00:00Z","name_a2s":"Uncletopia | Seattle | 2 | All Maps","protocol":17,"map":"pl_upward","folder":"tf","game":"Team Fortress","app_id":440,"player_count":1,"max_players":24,"Bots":0,"server_type":"Dedicated","server_os":"Linux","password":true,"vac":true,"version":"7757534","steam_id":85568392924469998,"keywords":["nocrits","nodmgspread","payload","uncletopia"],"game_id":440,"stv_port":27026,"stv_name":"Uncletopia | Seattle | 2 | All Maps | STV","players":[{"user_id":12,"name":"Birdman743","steam_id":76561198799636748,"connected_time":751000000000,"state":"active","ping":49}]},{"server_id":406,"name":"Uncletopia | Seattle | 3 | Stopwatch Beta","name_short":"sea-3","host":"sea-1.us.uncletopia.com","port":27035,"enabled":true,"region":"us-west","cc":"us","latitude":47.608013,"longitude":-122.33517,"reserved":0,"last_update":"0001-01-01T00:00:00Z","name_a2s":"Uncletopia | Seattle | 3 | Stopwatch Beta","protocol":17,"map":"pl_barnblitz","folder":"tf","game":"Team Fortress","app_id":440,"player_count":0,"max_players":24,"Bots":0,"server_type":"Dedicated","server_os":"Linux","password":true,"vac":true,"version":"7757534","steam_id":85568392924515217,"keywords":["nocrits","nodmgspread","payload","uncletopia"],"game_id":440,"stv_port":27036,"stv_name":"Uncletopia | Seattle | 3 | Stopwatch Beta | STV","players":null},{"server_id":17,"name":"Uncletopia | San Francisco | 1 | All Maps","name_short":"sfo-1","host":"sfo-1.us.uncletopia.com","port":27015,"enabled":true,"region":"us-west","cc":"us","latitude":37.77397,"longitude":-122.4313,"reserved":0,"last_update":"0001-01-01T00:00:00Z","name_a2s":"Uncletopia | San Francisco | 1 | All Maps","protocol":17,"map":"koth_highpass","folder":"tf","game":"Team Fortress","app_id":440,"player_count":23,"max_players":24,"Bots":0,"server_type":"Dedicated","server_os":"Linux","password":true,"vac":true,"version":"7757534","steam_id":85568392924469999,"keywords":["cp","nocrits","nodmgspread","uncletopia"],"game_id":440,"stv_port":27016,"stv_name":"Uncletopia | San Francisco | 1 | All Maps | STV","players":[{"user_id":268,"name":"playing on a raspberry pi","steam_id":76561198035969198,"connected_time":1496000000000,"state":"active","ping":45},{"user_id":270,"name":"mel","steam_id":76561198097124190,"connected_time":1394000000000,"state":"active","ping":90},{"user_id":207,"name":"Gull","steam_id":76561198161560332,"connected_time":7772000000000,"state":"active","ping":71},{"user_id":269,"name":"BIGWELDFROMROBOTS","steam_id":76561199275349806,"connected_time":1461000000000,"state":"active","ping":86},{"user_id":275,"name":"Stovi3t","steam_id":76561198833276190,"connected_time":1252000000000,"state":"active","ping":47},{"user_id":271,"name":"Yello","steam_id":76561198206290207,"connected_time":1388000000000,"state":"active","ping":134},{"user_id":280,"name":"Idiot on his Keyboard","steam_id":76561198217662787,"connected_time":1104000000000,"state":"active","ping":134},{"user_id":259,"name":"Block_Of_Cheese","steam_id":76561198070763180,"connected_time":3160000000000,"state":"active","ping":86},{"user_id":202,"name":"Satori Komeiji","steam_id":76561198158211423,"connected_time":8131000000000,"state":"active","ping":51},{"user_id":273,"name":"Luna, Creature of Dusk","steam_id":76561199107953755,"connected_time":1330000000000,"state":"active","ping":122},{"user_id":263,"name":"Pudsla","steam_id":76561198258974036,"connected_time":2581000000000,"state":"active","ping":53},{"user_id":232,"name":"Buswolley","steam_id":76561197995205571,"connected_time":5939000000000,"state":"active","ping":49},{"user_id":274,"name":"albert jones","steam_id":76561198404271005,"connected_time":1303000000000,"state":"active","ping":73},{"user_id":281,"name":"squigga","steam_id":76561198284013728,"connected_time":1056000000000,"state":"active","ping":45},{"user_id":262,"name":"nappyzappy","steam_id":76561198095118953,"connected_time":2595000000000,"state":"active","ping":89},{"user_id":237,"name":"b3afy","steam_id":76561198084208649,"connected_time":5232000000000,"state":"active","ping":72},{"user_id":282,"name":"Danny Fentanyl","steam_id":76561197970791798,"connected_time":1051000000000,"state":"active","ping":57},{"user_id":265,"name":"u know i keep","steam_id":76561198094615739,"connected_time":2426000000000,"state":"active","ping":84},{"user_id":238,"name":"aon135","steam_id":76561197966931637,"connected_time":5056000000000,"state":"active","ping":72},{"user_id":284,"name":"Avizzo","steam_id":76561198127023219,"connected_time":763000000000,"state":"active","ping":90},{"user_id":248,"name":"Chicken Nugget","steam_id":76561198082601232,"connected_time":3861000000000,"state":"active","ping":111},{"user_id":285,"name":"mr.edderkopper","steam_id":76561198152614478,"connected_time":348000000000,"state":"active","ping":106},{"user_id":245,"name":"old birb man","steam_id":76561199410269097,"connected_time":4247000000000,"state":"active","ping":100}]},{"server_id":18,"name":"Uncletopia | San Francisco | 2 | All Maps","name_short":"sfo-2","host":"sfo-1.us.uncletopia.com","port":27025,"enabled":true,"region":"us-west","cc":"us","latitude":37.77397,"longitude":-122.4313,"reserved":0,"last_update":"0001-01-01T00:00:00Z","name_a2s":"Uncletopia | San Francisco | 2 | All Maps","protocol":17,"map":"koth_viaduct","folder":"tf","game":"Team Fortress","app_id":440,"player_count":0,"max_players":24,"Bots":0,"server_type":"Dedicated","server_os":"Linux","password":true,"vac":true,"version":"7757534","steam_id":85568392924470000,"keywords":["cp","nocrits","nodmgspread","uncletopia"],"game_id":440,"stv_port":27026,"stv_name":"Uncletopia | San Francisco | 2 | All Maps | STV","players":null},{"server_id":19,"name":"Uncletopia | San Francisco | 3 | Stopwatch Beta","name_short":"sfo-3","host":"sfo-1.us.uncletopia.com","port":27035,"enabled":true,"region":"us-west","cc":"us","latitude":37.77397,"longitude":-122.4313,"reserved":0,"last_update":"0001-01-01T00:00:00Z","name_a2s":"Uncletopia | San Francisco | 3 | Stopwatch Beta","protocol":17,"map":"pl_borneo","folder":"tf","game":"Team Fortress","app_id":440,"player_count":0,"max_players":24,"Bots":0,"server_type":"Dedicated","server_os":"Linux","password":true,"vac":true,"version":"7757534","steam_id":85568392924742824,"keywords":["nocrits","nodmgspread","payload","uncletopia"],"game_id":440,"stv_port":27036,"stv_name":"Uncletopia | San Francisco | 3 | Stopwatch Beta | STV","players":null},{"server_id":20,"name":"Uncletopia | San Francisco | 4 | Community","name_short":"sfo-4","host":"sfo-1.us.uncletopia.com","port":27045,"enabled":true,"region":"us-west","cc":"us","latitude":37.77397,"longitude":-122.4313,"reserved":0,"last_update":"0001-01-01T00:00:00Z","name_a2s":"Uncletopia | San Francisco | 4 | Community","protocol":17,"map":"koth_highpass","folder":"tf","game":"Team Fortress","app_id":440,"player_count":0,"max_players":24,"Bots":0,"server_type":"Dedicated","server_os":"Linux","password":true,"vac":true,"version":"7757534","steam_id":85568392924742826,"keywords":["cp","nocrits","nodmgspread","uncletopia"],"game_id":440,"stv_port":27046,"stv_name":"Uncletopia | San Francisco | 4 | Community | STV","players":null},{"server_id":141,"name":"Uncletopia | Sydney | 1 | All Maps","name_short":"syd-1","host":"syd-1.au.uncletopia.com","port":27015,"enabled":true,"region":"au","cc":"au","latitude":-33.865143,"longitude":151.2099,"reserved":0,"last_update":"0001-01-01T00:00:00Z","name_a2s":"Uncletopia | Sydney | 1 | All Maps","protocol":17,"map":"cp_process_final","folder":"tf","game":"Team Fortress","app_id":440,"player_count":0,"max_players":24,"Bots":0,"server_type":"Dedicated","server_os":"Linux","password":true,"vac":true,"version":"7757534","steam_id":85568392924470001,"keywords":["cp","nocrits","nodmgspread","uncletopia"],"game_id":440,"stv_port":27016,"stv_name":"Uncletopia | Sydney | 1 | All Maps | STV","players":null},{"server_id":123,"name":"Uncletopia | Sydney | 2 | All Maps","name_short":"syd-2","host":"syd-1.au.uncletopia.com","port":27025,"enabled":true,"region":"au","cc":"au","latitude":-33.865143,"longitude":151.2099,"reserved":0,"last_update":"0001-01-01T00:00:00Z","name_a2s":"Uncletopia | Sydney | 2 | All Maps","protocol":17,"map":"koth_viaduct","folder":"tf","game":"Team Fortress","app_id":440,"player_count":0,"max_players":24,"Bots":0,"server_type":"Dedicated","server_os":"Linux","password":true,"vac":true,"version":"7757534","steam_id":85568392924470002,"keywords":["cp","nocrits","nodmgspread","uncletopia"],"game_id":440,"stv_port":27026,"stv_name":"Uncletopia | Sydney | 2 | All Maps | STV","players":null},{"server_id":395,"name":"Uncletopia | Sydney | 3 | All Maps","name_short":"syd-3","host":"syd-1.au.uncletopia.com","port":27035,"enabled":true,"region":"au","cc":"au","latitude":-33.865143,"longitude":151.2099,"reserved":0,"last_update":"0001-01-01T00:00:00Z","name_a2s":"Uncletopia | Sydney | 3 | All Maps","protocol":17,"map":"pl_upward","folder":"tf","game":"Team Fortress","app_id":440,"player_count":0,"max_players":24,"Bots":0,"server_type":"Dedicated","server_os":"Linux","password":true,"vac":true,"version":"7757534","steam_id":85568392925194467,"keywords":["nocrits","nodmgspread","payload","uncletopia"],"game_id":440,"stv_port":27036,"stv_name":"Uncletopia | Sydney | 3 | All Maps | STV","players":null},{"server_id":396,"name":"Uncletopia | Sydney | 4 | All Maps","name_short":"syd-4","host":"syd-1.au.uncletopia.com","port":27045,"enabled":true,"region":"au","cc":"au","latitude":-33.865143,"longitude":151.2099,"reserved":0,"last_update":"0001-01-01T00:00:00Z","name_a2s":"Uncletopia | Sydney | 4 | All Maps","protocol":17,"map":"koth_lakeside_final","folder":"tf","game":"Team Fortress","app_id":440,"player_count":0,"max_players":24,"Bots":0,"server_type":"Dedicated","server_os":"Linux","password":true,"vac":true,"version":"7757534","steam_id":85568392925397958,"keywords":["cp","nocrits","nodmgspread","uncletopia"],"game_id":440,"stv_port":27046,"stv_name":"Uncletopia | Sydney | 4 | All Maps | STV","players":null},{"server_id":58,"name":"Uncletopia | Sydney | 5 | Stopwatch Beta","name_short":"syd-5","host":"syd-1.au.uncletopia.com","port":27055,"enabled":true,"region":"au","cc":"au","latitude":-33.865143,"longitude":151.2099,"reserved":0,"last_update":"0001-01-01T00:00:00Z","name_a2s":"Uncletopia | Sydney | 5 | Stopwatch Beta","protocol":17,"map":"koth_highpass","folder":"tf","game":"Team Fortress","app_id":440,"player_count":0,"max_players":24,"Bots":0,"server_type":"Dedicated","server_os":"Linux","password":true,"vac":true,"version":"7757534","steam_id":85568392925397959,"keywords":["cp","nocrits","nodmgspread","uncletopia"],"game_id":440,"stv_port":27056,"stv_name":"Uncletopia | Sydney | 5 | Stopwatch Beta | STV","players":null},{"server_id":59,"name":"Uncletopia | Sydney | 6 | Community","name_short":"syd-6","host":"syd-1.au.uncletopia.com","port":27065,"enabled":true,"region":"au","cc":"au","latitude":-33.865143,"longitude":151.2099,"reserved":0,"last_update":"0001-01-01T00:00:00Z","name_a2s":"Uncletopia | Sydney | 6 | Community","protocol":17,"map":"cp_sunshine","folder":"tf","game":"Team Fortress","app_id":440,"player_count":0,"max_players":24,"Bots":0,"server_type":"Dedicated","server_os":"Linux","password":true,"vac":true,"version":"7757534","steam_id":85568392925397960,"keywords":["cp","nocrits","nodmgspread","uncletopia"],"game_id":440,"stv_port":27066,"stv_name":"Uncletopia | Sydney | 6 | Community | STV","players":null},{"server_id":49,"name":"Uncletopia | Warsaw | 1 | All Maps","name_short":"waw-1","host":"waw-1.pl.uncletopia.com","port":27015,"enabled":true,"region":"eu","cc":"pl","latitude":52.2297,"longitude":21.017532,"reserved":0,"last_update":"0001-01-01T00:00:00Z","name_a2s":"","protocol":0,"map":"","folder":"","game":"","app_id":0,"player_count":0,"max_players":0,"Bots":0,"server_type":"","server_os":"","password":false,"vac":false,"version":"","steam_id":0,"keywords":null,"game_id":0,"stv_port":0,"stv_name":"","players":null},{"server_id":50,"name":"Uncletopia | Warsaw | 2 | All Maps","name_short":"waw-2","host":"waw-1.pl.uncletopia.com","port":27025,"enabled":true,"region":"eu","cc":"pl","latitude":52.2297,"longitude":21.017532,"reserved":0,"last_update":"0001-01-01T00:00:00Z","name_a2s":"Uncletopia | Warsaw | 2 | All Maps","protocol":17,"map":"koth_viaduct","folder":"tf","game":"Team Fortress","app_id":440,"player_count":0,"max_players":24,"Bots":0,"server_type":"Dedicated","server_os":"Linux","password":true,"vac":true,"version":"7757534","steam_id":85568392925397851,"keywords":["cp","nocrits","nodmgspread","uncletopia"],"game_id":440,"stv_port":27026,"stv_name":"Uncletopia | Warsaw | 2 | All Maps | STV","players":null},{"server_id":51,"name":"Uncletopia | Warsaw | 3 | All Maps","name_short":"waw-3","host":"waw-1.pl.uncletopia.com","port":27035,"enabled":true,"region":"eu","cc":"pl","latitude":52.2297,"longitude":21.017532,"reserved":0,"last_update":"0001-01-01T00:00:00Z","name_a2s":"Uncletopia | Warsaw | 3 | All Maps","protocol":17,"map":"koth_cascade","folder":"tf","game":"Team Fortress","app_id":440,"player_count":0,"max_players":24,"Bots":0,"server_type":"Dedicated","server_os":"Linux","password":true,"vac":true,"version":"7757534","steam_id":85568392925397852,"keywords":["cp","nocrits","nodmgspread","uncletopia"],"game_id":440,"stv_port":27036,"stv_name":"Uncletopia | Warsaw | 3 | All Maps | STV","players":null},{"server_id":52,"name":"Uncletopia | Warsaw | 4 | All Maps","name_short":"waw-4","host":"waw-1.pl.uncletopia.com","port":27045,"enabled":true,"region":"eu","cc":"pl","latitude":52.2297,"longitude":21.017532,"reserved":0,"last_update":"0001-01-01T00:00:00Z","name_a2s":"Uncletopia | Warsaw | 4 | All Maps","protocol":17,"map":"koth_highpass","folder":"tf","game":"Team Fortress","app_id":440,"player_count":18,"max_players":24,"Bots":0,"server_type":"Dedicated","server_os":"Linux","password":true,"vac":true,"version":"7757534","steam_id":85568392925397853,"keywords":["cp","nocrits","nodmgspread","uncletopia"],"game_id":440,"stv_port":27046,"stv_name":"Uncletopia | Warsaw | 4 | All Maps | STV","players":[{"user_id":146,"name":"JOU4455","steam_id":76561199191256832,"connected_time":605000000000,"state":"active","ping":66},{"user_id":135,"name":"„ÉÑNekomaru„ÉÑ","steam_id":76561199011677545,"connected_time":941000000000,"state":"active","ping":141},{"user_id":143,"name":"NojusKojos","steam_id":76561199060478662,"connected_time":667000000000,"state":"active","ping":77},{"user_id":152,"name":"teddyswk","steam_id":76561198404939571,"connected_time":75000000000,"state":"active","ping":98},{"user_id":133,"name":"the guy","steam_id":76561199471131298,"connected_time":1010000000000,"state":"active","ping":90},{"user_id":108,"name":"WojStaGra","steam_id":76561198157277370,"connected_time":2216000000000,"state":"active","ping":73},{"user_id":153,"name":"Nikitak","steam_id":76561198163088166,"connected_time":10000000000,"state":"spawning","ping":124},{"user_id":134,"name":"dzordzo armani","steam_id":76561199471908198,"connected_time":972000000000,"state":"active","ping":40},{"user_id":144,"name":"Titar Industries","steam_id":76561198143078476,"connected_time":664000000000,"state":"active","ping":168},{"user_id":110,"name":"[RUS = DOG] vova pootin)))","steam_id":76561198063474344,"connected_time":2159000000000,"state":"active","ping":106},{"user_id":111,"name":"frikandel speciaal","steam_id":76561198137997056,"connected_time":2153000000000,"state":"active","ping":88},{"user_id":132,"name":"niaerniopawrjnko","steam_id":76561198030408772,"connected_time":1013000000000,"state":"active","ping":62},{"user_id":145,"name":"waddle dork","steam_id":76561198297349985,"connected_time":658000000000,"state":"active","ping":74},{"user_id":119,"name":"kilikia","steam_id":76561198350261670,"connected_time":1970000000000,"state":"active","ping":104},{"user_id":117,"name":"Bohelor","steam_id":76561198135329948,"connected_time":2008000000000,"state":"active","ping":106},{"user_id":124,"name":"Cat Poop","steam_id":76561198149986505,"connected_time":1876000000000,"state":"active","ping":72},{"user_id":125,"name":"Hey, I¬¥m Andy!","steam_id":76561198060337777,"connected_time":1859000000000,"state":"active","ping":90},{"user_id":150,"name":"Denialman (Muted)","steam_id":76561198309182092,"connected_time":404000000000,"state":"active","ping":69}]},{"server_id":53,"name":"Uncletopia | Warsaw | 5 | Stopwatch Beta","name_short":"waw-5","host":"waw-1.pl.uncletopia.com","port":27055,"enabled":true,"region":"eu","cc":"pl","latitude":52.2297,"longitude":21.017532,"reserved":0,"last_update":"0001-01-01T00:00:00Z","name_a2s":"Uncletopia | Warsaw | 5 | Stopwatch Beta","protocol":17,"map":"pl_barnblitz","folder":"tf","game":"Team Fortress","app_id":440,"player_count":0,"max_players":24,"Bots":0,"server_type":"Dedicated","server_os":"Linux","password":true,"vac":true,"version":"7757534","steam_id":85568392925397854,"keywords":["nocrits","nodmgspread","payload","uncletopia"],"game_id":440,"stv_port":27056,"stv_name":"Uncletopia | Warsaw | 5 | Stopwatch Beta | STV","players":null},{"server_id":54,"name":"Uncletopia | Warsaw | 6 | Community","name_short":"waw-6","host":"waw-1.pl.uncletopia.com","port":27065,"enabled":true,"region":"eu","cc":"pl","latitude":52.2297,"longitude":21.017532,"reserved":0,"last_update":"0001-01-01T00:00:00Z","name_a2s":"Uncletopia | Warsaw | 6 | Community","protocol":17,"map":"workshop/cp_glacier_rc6.ugc2905735376","folder":"tf","game":"Team Fortress","app_id":440,"player_count":0,"max_players":24,"Bots":0,"server_type":"Dedicated","server_os":"Linux","password":true,"vac":true,"version":"7757534","steam_id":85568392925397856,"keywords":["cp","nocrits","nodmgspread","uncletopia"],"game_id":440,"stv_port":27066,"stv_name":"Uncletopia | Warsaw | 6 | Community | STV","players":null}]}