{"status":true,"message":"","result":[{"server_id":9,"name":"Uncletopia | Atlanta | 1 | All Maps","name_short":"atl-1","host":"atl-1.us.uncletopia.com","port":27015,"enabled":true,"region":"us-east","cc":"us","latitude":33.753746,"longitude":-84.38633,"reserved":0,"last_update":"0001-01-01T00:00:00Z","name_a2s":"Uncletopia | Atlanta | 1 | All Maps","protocol":17,"map":"ctf_doublecross","folder":"tf","game":"Team Fortress","app_id":440,"player_count":24,"max_players":24,"Bots":0,"server_type":"Dedicated","server_os":"Linux","password":true,"vac":true,"version":"7961495","steam_id":85568392924469982,"keywords":["ctf","nocrits","nodmgspread","uncletopia"],"game_id":440,"stv_port":27016,"stv_name":"Uncletopia | Atlanta | 1 | All Maps | STV","players":null},{"server_id":104,"name":"Uncletopia | Atlanta | 2 | All Maps","name_short":"atl-2","host":"atl-1.us.uncletopia.com","port":27025,"enabled":true,"region":"us-east","cc":"us","latitude":33.753746,"longitude":-84.38633,"reserved":0,"last_update":"0001-01-01T00:00:00Z","name_a2s":"Uncletopia | Atlanta | 2 | All Maps","protocol":17,"map":"pl_upward","folder":"tf","game":"Team Fortress","app_id":440,"player_count":0,"max_players":24,"Bots":0,"server_type":"Dedicated","server_os":"Linux","password":true,"vac":true,"version":"7961495","steam_id":85568392924469983,"keywords":["nocrits","nodmgspread","payload","uncletopia"],"game_id":440,"stv_port":27026,"stv_name":"Uncletopia | Atlanta | 2 | All Maps | STV","players":null},{"server_id":400,"name":"Uncletopia | Atlanta | 3 | Stopwatch","name_short":"atl-3","host":"atl-1.us.uncletopia.com","port":27035,"enabled":true,"region":"us-east","cc":"us","latitude":33.753746,"longitude":-84.38633,"reserved":0,"last_update":"0001-01-01T00:00:00Z","name_a2s":"Uncletopia | Atlanta | 3 | Stopwatch","protocol":17,"map":"pl_badwater","folder":"tf","game":"Team Fortress","app_id":440,"player_count":0,"max_players":24,"Bots":0,"server_type":"Dedicated","server_os":"Linux","password":true,"vac":true,"version":"7961495","steam_id":85568392924515187,"keywords":["nocrits","nodmgspread","payload","uncletopia"],"game_id":440,"stv_port":27036,"stv_name":"Uncletopia | Atlanta | 3 | Stopwatch | STV","players":null},{"server_id":401,"name":"Uncletopia | Atlanta | 4 | Community","name_short":"atl-4","host":"atl-1.us.uncletopia.com","port":27045,"enabled":true,"region":"us-east","cc":"us","latitude":33.753746,"longitude":-84.38633,"reserved":0,"last_update":"0001-01-01T00:00:00Z","name_a2s":"Uncletopia | Atlanta | 4 | Community","protocol":17,"map":"cp_bruhstbowl_b6","folder":"tf","game":"Team Fortress","app_id":440,"player_count":0,"max_players":24,"Bots":0,"server_type":"Dedicated","server_os":"Linux","password":true,"vac":true,"version":"7961495","steam_id":85568392924515188,"keywords":["cp","nocrits","nodmgspread","uncletopia"],"game_id":440,"stv_port":27046,"stv_name":"Uncletopia | Atlanta | 4 | Community | STV","players":null},{"server_id":2,"name":"Uncletopia | Chicago | 1 | All Maps","name_short":"chi-1","host":"chi-1.us.uncletopia.com","port":27015,"enabled":true,"region":"us-central","cc":"us","latitude":41.881832,"longitude":-87.62318,"reserved":0,"last_update":"0001-01-01T00:00:00Z","name_a2s":"Uncletopia | Chicago | 1 | All Maps","protocol":17,"map":"pl_thundermountain","folder":"tf","game":"Team Fortress","app_id":440,"player_count":24,"max_players":24,"Bots":0,"server_type":"Dedicated","server_os":"Linux","password":true,"vac":true,"version":"7961495","steam_id":85568392924469984,"keywords":["nocrits","nodmgspread","payload","uncletopia"],"game_id":440,"stv_port":27016,"stv_name":"Uncletopia | Chicago | 1 | All Maps | STV","players":[{"user_id":647,"name":"Your Local Queer Librarian","steam_id":76561198013077080,"connected_time":734000000000,"state":"active","ping":56},{"user_id":658,"name":"GlingGlop95","steam_id":76561198386865528,"connected_time":458000000000,"state":"active","ping":83},{"user_id":645,"name":"Flying Chemist","steam_id":76561198085039837,"connected_time":1398000000000,"state":"active","ping":154},{"user_id":648,"name":"Spooky_cone_game","steam_id":76561198999458789,"connected_time":696000000000,"state":"active","ping":82},{"user_id":472,"name":"Got Hat?","steam_id":76561197998486431,"connected_time":6759000000000,"state":"active","ping":65},{"user_id":665,"name":"Sunny D+","steam_id":76561197999371052,"connected_time":124000000000,"state":"active","ping":62},{"user_id":659,"name":"Stunstick","steam_id":76561198278897727,"connected_time":362000000000,"state":"active","ping":70},{"user_id":662,"name":"Mr. Mane T.S.H.A.","steam_id":76561198056728986,"connected_time":227000000000,"state":"active","ping":60},{"user_id":488,"name":"Rustyorion","steam_id":76561198439186347,"connected_time":6501000000000,"state":"active","ping":98},{"user_id":661,"name":"wepry","steam_id":76561198114091417,"connected_time":273000000000,"state":"active","ping":63},{"user_id":549,"name":"Nephi","steam_id":76561198031525122,"connected_time":5323000000000,"state":"active","ping":84},{"user_id":635,"name":"Oopsie Daisy ❋","steam_id":76561198042144492,"connected_time":3025000000000,"state":"active","ping":72},{"user_id":641,"name":"i suffer from ligma","steam_id":76561199158496518,"connected_time":1810000000000,"state":"active","ping":126},{"user_id":629,"name":"THORNFIELDGAMER","steam_id":76561199087167473,"connected_time":3381000000000,"state":"active","ping":86},{"user_id":624,"name":"Six Piece Chicken McNobody","steam_id":76561198129848222,"connected_time":3462000000000,"state":"active","ping":67},{"user_id":625,"name":"GLURRIN","steam_id":76561198315690955,"connected_time":3431000000000,"state":"active","ping":54},{"user_id":640,"name":"Octto","steam_id":76561198070124921,"connected_time":1907000000000,"state":"active","ping":63},{"user_id":642,"name":"Wolffkran","steam_id":76561198003018041,"connected_time":1550000000000,"state":"active","ping":109},{"user_id":651,"name":"dirty dank","steam_id":76561198360904432,"connected_time":682000000000,"state":"active","ping":66},{"user_id":374,"name":"HoneyOTU","steam_id":76561198200366607,"connected_time":8990000000000,"state":"active","ping":81},{"user_id":654,"name":"Sicko Mode (Chris Pratt Cover)","steam_id":76561198315786174,"connected_time":658000000000,"state":"active","ping":70},{"user_id":664,"name":"Mr.Pwesident","steam_id":76561198058114703,"connected_time":172000000000,"state":"active","ping":89},{"user_id":660,"name":"Captain Canuck","steam_id":76561198069910409,"connected_time":317000000000,"state":"active","ping":58},{"user_id":657,"name":"♥jigsawjr♥","steam_id":76561198326530683,"connected_time":556000000000,"state":"active","ping":78}]},{"server_id":106,"name":"Uncletopia | Chicago | 2 | All Maps","name_short":"chi-2","host":"chi-1.us.uncletopia.com","port":27025,"enabled":true,"region":"us-central","cc":"us","latitude":41.881832,"longitude":-87.62318,"reserved":0,"last_update":"0001-01-01T00:00:00Z","name_a2s":"Uncletopia | Chicago | 2 | All Maps","protocol":17,"map":"cp_dustbowl","folder":"tf","game":"Team Fortress","app_id":440,"player_count":24,"max_players":24,"Bots":0,"server_type":"Dedicated","server_os":"Linux","password":true,"vac":true,"version":"7961495","steam_id":85568392924469985,"keywords":["cp","nocrits","nodmgspread","uncletopia"],"game_id":440,"stv_port":27026,"stv_name":"Uncletopia | Chicago | 2 | All Maps | STV","players":[{"user_id":99,"name":"christmas kids","steam_id":76561198868600487,"connected_time":526000000000,"state":"active","ping":181},{"user_id":83,"name":"Monsterjessy","steam_id":76561198035630985,"connected_time":1682000000000,"state":"active","ping":70},{"user_id":97,"name":"my mom","steam_id":76561199225201569,"connected_time":604000000000,"state":"active","ping":70},{"user_id":73,"name":"gnoll filth","steam_id":76561198066123607,"connected_time":2437000000000,"state":"active","ping":44},{"user_id":36,"name":"Icarus","steam_id":76561198180484659,"connected_time":4208000000000,"state":"active","ping":75},{"user_id":37,"name":"twizted","steam_id":76561197960407274,"connected_time":4186000000000,"state":"active","ping":66},{"user_id":96,"name":"HAT-WEARING™ Maggot Gamer Cat","steam_id":76561197973992705,"connected_time":786000000000,"state":"active","ping":106},{"user_id":100,"name":"Battle Bug","steam_id":76561198005793034,"connected_time":483000000000,"state":"active","ping":90},{"user_id":77,"name":"anonpain","steam_id":76561198081317092,"connected_time":2107000000000,"state":"active","ping":56},{"user_id":86,"name":"SandHanitizer","steam_id":76561198234676500,"connected_time":1577000000000,"state":"active","ping":68},{"user_id":42,"name":"{Mbx} Luke","steam_id":76561198072441047,"connected_time":3974000000000,"state":"active","ping":98},{"user_id":88,"name":"brawndo luvr","steam_id":76561198202436474,"connected_time":1529000000000,"state":"active","ping":59},{"user_id":44,"name":"gooch_masta","steam_id":76561198151578423,"connected_time":3968000000000,"state":"active","ping":97},{"user_id":107,"name":"BigNugs","steam_id":76561198056402610,"connected_time":161000000000,"state":"active","ping":65},{"user_id":105,"name":"Meaty Orphan #2","steam_id":76561198267640609,"connected_time":314000000000,"state":"active","ping":76},{"user_id":106,"name":"mudspaw","steam_id":76561198101327448,"connected_time":266000000000,"state":"active","ping":73},{"user_id":94,"name":"JJ","steam_id":76561198319645735,"connected_time":1034000000000,"state":"active","ping":85},{"user_id":103,"name":"Gunderstank","steam_id":76561198129873605,"connected_time":417000000000,"state":"active","ping":88},{"user_id":108,"name":"Slowboop","steam_id":76561198111076317,"connected_time":124000000000,"state":"active","ping":59},{"user_id":104,"name":"Lo-Pan","steam_id":76561198085670133,"connected_time":415000000000,"state":"active","ping":85},{"user_id":78,"name":"double xp weekend","steam_id":76561198052950547,"connected_time":1894000000000,"state":"active","ping":44},{"user_id":63,"name":"nihbarre","steam_id":76561198221402024,"connected_time":3000000000000,"state":"active","ping":77},{"user_id":92,"name":"Garrosh Hellscream","steam_id":76561198127534492,"connected_time":1330000000000,"state":"active","ping":44},{"user_id":55,"name":"horizontally spinning sniper","steam_id":76561198069735882,"connected_time":3807000000000,"state":"active","ping":76}]},{"server_id":402,"name":"Uncletopia | Chicago | 3 | All Maps","name_short":"chi-3","host":"chi-1.us.uncletopia.com","port":27035,"enabled":true,"region":"us-central","cc":"us","latitude":41.881832,"longitude":-87.62318,"reserved":0,"last_update":"0001-01-01T00:00:00Z","name_a2s":"Uncletopia | Chicago | 3 | All Maps","protocol":17,"map":"pl_snowycoast","folder":"tf","game":"Team Fortress","app_id":440,"player_count":21,"max_players":24,"Bots":0,"server_type":"Dedicated","server_os":"Linux","password":true,"vac":true,"version":"7961495","steam_id":85568392924515191,"keywords":["nocrits","nodmgspread","payload","uncletopia"],"game_id":440,"stv_port":27036,"stv_name":"Uncletopia | Chicago | 3 | All Maps | STV","players":[{"user_id":22,"name":"Elevator","steam_id":76561198974286387,"connected_time":2092000000000,"state":"active","ping":64},{"user_id":16,"name":"Hypno","steam_id":76561198048643112,"connected_time":2912000000000,"state":"active","ping":50},{"user_id":17,"name":"Lugh","steam_id":76561198052011848,"connected_time":2911000000000,"state":"active","ping":86},{"user_id":41,"name":"gulch","steam_id":76561199227946025,"connected_time":1260000000000,"state":"active","ping":67},{"user_id":59,"name":"A Quiet Fartwell","steam_id":76561198397009880,"connected_time":303000000000,"state":"active","ping":436},{"user_id":67,"name":"ChebJeb","steam_id":76561198981377081,"connected_time":21000000000,"state":"active","ping":92},{"user_id":42,"name":"Acolyte Of Pain","steam_id":76561198143094194,"connected_time":1249000000000,"state":"active","ping":64},{"user_id":63,"name":"notuncooldude","steam_id":76561199129819858,"connected_time":177000000000,"state":"active","ping":101},{"user_id":52,"name":"François Viète","steam_id":76561198072975518,"connected_time":968000000000,"state":"active","ping":74},{"user_id":28,"name":"aisu","steam_id":76561198043768507,"connected_time":1834000000000,"state":"active","ping":60},{"user_id":66,"name":"Sideways Whoopi Goldberg","steam_id":76561198003736560,"connected_time":52000000000,"state":"active","ping":58},{"user_id":64,"name":"medic enthusiast","steam_id":76561198323031964,"connected_time":127000000000,"state":"spawning","ping":79},{"user_id":46,"name":"adult tim","steam_id":76561198075510786,"connected_time":1077000000000,"state":"active","ping":65},{"user_id":65,"name":"lynt","steam_id":76561198988333976,"connected_time":53000000000,"state":"active","ping":60},{"user_id":35,"name":"FrosbeeChill","steam_id":76561198182510862,"connected_time":1632000000000,"state":"active","ping":75},{"user_id":57,"name":"roman","steam_id":76561198170066797,"connected_time":522000000000,"state":"active","ping":82},{"user_id":51,"name":"imng","steam_id":76561198014988031,"connected_time":978000000000,"state":"active","ping":74},{"user_id":53,"name":"frid","steam_id":76561198005806915,"connected_time":961000000000,"state":"active","ping":61},{"user_id":54,"name":"cakgamin","steam_id":76561199088909749,"connected_time":954000000000,"state":"active","ping":78},{"user_id":55,"name":"I taunt after every kill","steam_id":76561198159339442,"connected_time":920000000000,"state":"active","ping":152},{"user_id":56,"name":"Mburesh","steam_id":76561198137460717,"connected_time":912000000000,"state":"active","ping":56}]},{"server_id":403,"name":"Uncletopia | Chicago | 4 | All Maps","name_short":"chi-4","host":"chi-1.us.uncletopia.com","port":27045,"enabled":true,"region":"us-central","cc":"us","latitude":41.881832,"longitude":-87.62318,"reserved":0,"last_update":"0001-01-01T00:00:00Z","name_a2s":"Uncletopia | Chicago | 4 | All Maps","protocol":17,"map":"koth_cascade","folder":"tf","game":"Team Fortress","app_id":440,"player_count":0,"max_players":24,"Bots":0,"server_type":"Dedicated","server_os":"Linux","password":true,"vac":true,"version":"7961495","steam_id":85568392924515193,"keywords":["cp","nocrits","nodmgspread","uncletopia"],"game_id":440,"stv_port":27046,"stv_name":"Uncletopia | Chicago | 4 | All Maps | STV","players":null},{"server_id":36,"name":"Uncletopia | Chicago | 5 | All Maps","name_short":"chi-5","host":"chi-2.us.uncletopia.com","port":27015,"enabled":true,"region":"us-central","cc":"us","latitude":41.881832,"longitude":-87.62318,"reserved":0,"last_update":"0001-01-01T00:00:00Z","name_a2s":"Uncletopia | Chicago | 5 | All Maps","protocol":17,"map":"koth_viaduct","folder":"tf","game":"Team Fortress","app_id":440,"player_count":0,"max_players":24,"Bots":0,"server_type":"Dedicated","server_os":"Linux","password":true,"vac":true,"version":"7961495","steam_id":85568392924866362,"keywords":["cp","nocrits","nodmgspread","uncletopia"],"game_id":440,"stv_port":27016,"stv_name":"Uncletopia | Chicago | 5 | All Maps | STV","players":null},{"server_id":37,"name":"Uncletopia | Chicago | 6 | All Maps","name_short":"chi-6","host":"chi-2.us.uncletopia.com","port":27025,"enabled":true,"region":"us-central","cc":"us","latitude":41.881832,"longitude":-87.62318,"reserved":0,"last_update":"0001-01-01T00:00:00Z","name_a2s":"Uncletopia | Chicago | 6 | All Maps","protocol":17,"map":"pl_frontier_final","folder":"tf","game":"Team Fortress","app_id":440,"player_count":0,"max_players":24,"Bots":0,"server_type":"Dedicated","server_os":"Linux","password":true,"vac":true,"version":"7961495","steam_id":85568392924866363,"keywords":["nocrits","nodmgspread","payload","uncletopia"],"game_id":440,"stv_port":27026,"stv_name":"Uncletopia | Chicago | 6 | All Maps | STV","players":null},{"server_id":38,"name":"Uncletopia | Chicago | 7 | Stopwatch","name_short":"chi-7","host":"chi-2.us.uncletopia.com","port":27035,"enabled":true,"region":"us-central","cc":"us","latitude":41.881832,"longitude":-87.62318,"reserved":0,"last_update":"0001-01-01T00:00:00Z","name_a2s":"Uncletopia | Chicago | 7 | Stopwatch","protocol":17,"map":"pl_badwater","folder":"tf","game":"Team Fortress","app_id":440,"player_count":0,"max_players":24,"Bots":0,"server_type":"Dedicated","server_os":"Linux","password":true,"vac":true,"version":"7961495","steam_id":85568392924866364,"keywords":["nocrits","nodmgspread","payload","uncletopia"],"game_id":440,"stv_port":27036,"stv_name":"Uncletopia | Chicago | 7 | Stopwatch | STV","players":null},{"server_id":39,"name":"Uncletopia | Chicago | 8 | Community","name_short":"chi-8","host":"chi-2.us.uncletopia.com","port":27045,"enabled":true,"region":"us-central","cc":"us","latitude":41.881832,"longitude":-87.62318,"reserved":0,"last_update":"0001-01-01T00:00:00Z","name_a2s":"Uncletopia | Chicago | 8 | Community","protocol":17,"map":"workshop/koth_synthetic_rc6a.ugc1549817316","folder":"tf","game":"Team Fortress","app_id":440,"player_count":0,"max_players":24,"Bots":0,"server_type":"Dedicated","server_os":"Linux","password":true,"vac":true,"version":"7961495","steam_id":85568392924866365,"keywords":["cp","nocrits","nodmgspread","uncletopia"],"game_id":440,"stv_port":27046,"stv_name":"Uncletopia | Chicago | 8 | Community | STV","players":null},{"server_id":8,"name":"Uncletopia | Dallas | 1 | All Maps","name_short":"dal-1","host":"dal-1.us.uncletopia.com","port":27015,"enabled":true,"region":"us-central","cc":"us","latitude":32.779167,"longitude":-96.80889,"reserved":0,"last_update":"0001-01-01T00:00:00Z","name_a2s":"Uncletopia | Dallas | 1 | All Maps","protocol":17,"map":"pl_pier","folder":"tf","game":"Team Fortress","app_id":440,"player_count":16,"max_players":24,"Bots":0,"server_type":"Dedicated","server_os":"Linux","password":true,"vac":true,"version":"7961495","steam_id":85568392924469986,"keywords":["nocrits","nodmgspread","payload","uncletopia"],"game_id":440,"stv_port":27016,"stv_name":"Uncletopia | Dallas | 1 | All Maps | STV","players":[{"user_id":40,"name":"emo anime person DONT HMU","steam_id":76561198215559840,"connected_time":173000000000,"state":"active","ping":61},{"user_id":43,"name":"mollusk_obliteration","steam_id":76561198085388962,"connected_time":12000000000,"state":"active","ping":68},{"user_id":21,"name":"Silvermace","steam_id":76561198090696843,"connected_time":782000000000,"state":"active","ping":57},{"user_id":42,"name":"FI LO","steam_id":76561198976530881,"connected_time":106000000000,"state":"active","ping":60},{"user_id":33,"name":"wlnecro1","steam_id":76561199157418402,"connected_time":394000000000,"state":"active","ping":49},{"user_id":18,"name":"Aaronbill3","steam_id":76561198014056212,"connected_time":1104000000000,"state":"active","ping":191},{"user_id":24,"name":"-|Kappin'|- ExplosiveDiahrea","steam_id":76561198017045020,"connected_time":584000000000,"state":"active","ping":75},{"user_id":19,"name":"zzzPoison♡","steam_id":76561198302928116,"connected_time":1083000000000,"state":"active","ping":84},{"user_id":22,"name":"wafflehamster2000","steam_id":76561198849161820,"connected_time":723000000000,"state":"active","ping":88},{"user_id":26,"name":"-|Kappin'|- Kilbo Fraggins™","steam_id":76561197994725498,"connected_time":477000000000,"state":"active","ping":62},{"user_id":27,"name":"Mellou","steam_id":76561198212048740,"connected_time":450000000000,"state":"active","ping":46},{"user_id":37,"name":"Youngboy WNBA","steam_id":76561198171695729,"connected_time":299000000000,"state":"active","ping":63},{"user_id":29,"name":"Jeramosa","steam_id":76561198811000094,"connected_time":425000000000,"state":"active","ping":68},{"user_id":32,"name":"C^a^L","steam_id":76561198241124222,"connected_time":408000000000,"state":"active","ping":85},{"user_id":36,"name":"gayest MF DOOM fan","steam_id":76561198065801979,"connected_time":326000000000,"state":"active","ping":95},{"user_id":39,"name":"Kanye Asada","steam_id":76561198186678831,"connected_time":219000000000,"state":"active","ping":89}]},{"server_id":108,"name":"Uncletopia | Dallas | 2 | All Maps","name_short":"dal-2","host":"dal-1.us.uncletopia.com","port":27025,"enabled":true,"region":"us-central","cc":"us","latitude":32.779167,"longitude":-96.80889,"reserved":0,"last_update":"0001-01-01T00:00:00Z","name_a2s":"Uncletopia | Dallas | 2 | All Maps","protocol":17,"map":"koth_viaduct","folder":"tf","game":"Team Fortress","app_id":440,"player_count":0,"max_players":24,"Bots":0,"server_type":"Dedicated","server_os":"Linux","password":true,"vac":true,"version":"7961495","steam_id":85568392924469988,"keywords":["cp","nocrits","nodmgspread","uncletopia"],"game_id":440,"stv_port":27026,"stv_name":"Uncletopia | Dallas | 2 | All Maps | STV","players":null},{"server_id":404,"name":"Uncletopia | Dallas | 3 | All Maps","name_short":"dal-3","host":"dal-1.us.uncletopia.com","port":27035,"enabled":true,"region":"us-central","cc":"us","latitude":32.779167,"longitude":-96.80889,"reserved":0,"last_update":"0001-01-01T00:00:00Z","name_a2s":"Uncletopia | Dallas | 3 | All Maps","protocol":17,"map":"pl_goldrush","folder":"tf","game":"Team Fortress","app_id":440,"player_count":24,"max_players":24,"Bots":0,"server_type":"Dedicated","server_os":"Linux","password":true,"vac":true,"version":"7961495","steam_id":85568392924515219,"keywords":["nocrits","nodmgspread","payload","uncletopia"],"game_id":440,"stv_port":27036,"stv_name":"Uncletopia | Dallas | 3 | All Maps | STV","players":[{"user_id":49,"name":"Goblin","steam_id":76561199384665653,"connected_time":8643000000000,"state":"active","ping":71},{"user_id":114,"name":"Rob","steam_id":76561199187786660,"connected_time":2975000000000,"state":"active","ping":52},{"user_id":129,"name":"Maid 'n' China","steam_id":76561198423392976,"connected_time":2005000000000,"state":"active","ping":86},{"user_id":138,"name":"whorgampus","steam_id":76561198043610132,"connected_time":1005000000000,"state":"active","ping":75},{"user_id":99,"name":"Svepport","steam_id":76561198071373137,"connected_time":3904000000000,"state":"active","ping":58},{"user_id":103,"name":"ඞ","steam_id":76561199365672047,"connected_time":3789000000000,"state":"active","ping":100},{"user_id":90,"name":"CeLeb144","steam_id":76561199089907740,"connected_time":5268000000000,"state":"active","ping":70},{"user_id":131,"name":"scallop pigeon","steam_id":76561199488457138,"connected_time":1523000000000,"state":"active","ping":109},{"user_id":132,"name":"firefly","steam_id":76561198151308698,"connected_time":1407000000000,"state":"active","ping":45},{"user_id":136,"name":"neet","steam_id":76561197968115168,"connected_time":1171000000000,"state":"active","ping":74},{"user_id":116,"name":"Fewny","steam_id":76561198225977000,"connected_time":2931000000000,"state":"active","ping":73},{"user_id":137,"name":"w a o w","steam_id":76561198060769385,"connected_time":1060000000000,"state":"active","ping":94},{"user_id":113,"name":"Kreld","steam_id":76561198047794615,"connected_time":3029000000000,"state":"active","ping":190},{"user_id":145,"name":"Tots","steam_id":76561198027485007,"connected_time":192000000000,"state":"active","ping":60},{"user_id":143,"name":"Riff III","steam_id":76561198066921423,"connected_time":475000000000,"state":"active","ping":70},{"user_id":125,"name":"jasoncrawford666","steam_id":76561199477042718,"connected_time":2411000000000,"state":"active","ping":102},{"user_id":134,"name":"λxl™","steam_id":76561198865457341,"connected_time":1343000000000,"state":"active","ping":98},{"user_id":121,"name":"K.A.R.M.A.","steam_id":76561198240750142,"connected_time":2744000000000,"state":"active","ping":73},{"user_id":109,"name":"transgender communist","steam_id":76561198189664639,"connected_time":3569000000000,"state":"active","ping":104},{"user_id":119,"name":"Bigjon300","steam_id":76561198137902441,"connected_time":2834000000000,"state":"active","ping":107},{"user_id":101,"name":"Elon Bust","steam_id":76561198106217716,"connected_time":3895000000000,"state":"active","ping":69},{"user_id":144,"name":"marty","steam_id":76561198032782746,"connected_time":455000000000,"state":"active","ping":83},{"user_id":88,"name":"shitass (Reaping and Sowing)","steam_id":76561198210572481,"connected_time":5777000000000,"state":"active","ping":61},{"user_id":97,"name":"J.C. Leyendenton","steam_id":76561198096306325,"connected_time":4180000000000,"state":"active","ping":90}]},{"server_id":405,"name":"Uncletopia | Dallas | 4 | Community","name_short":"dal-4","host":"dal-1.us.uncletopia.com","port":27045,"enabled":true,"region":"us-central","cc":"us","latitude":32.779167,"longitude":-96.80889,"reserved":0,"last_update":"0001-01-01T00:00:00Z","name_a2s":"Uncletopia | Dallas | 4 | Community","protocol":17,"map":"workshop/cp_glassworks_rc6a.ugc454118349","folder":"tf","game":"Team Fortress","app_id":440,"player_count":0,"max_players":24,"Bots":0,"server_type":"Dedicated","server_os":"Linux","password":true,"vac":true,"version":"7961495","steam_id":85568392924515220,"keywords":["cp","nocrits","nodmgspread","uncletopia"],"game_id":440,"stv_port":27046,"stv_name":"Uncletopia | Dallas | 4 | Community | STV","players":null},{"server_id":5,"name":"Uncletopia | Frankfurt | 1 | All Maps","name_short":"frk-1","host":"frk-1.de.uncletopia.com","port":27015,"enabled":true,"region":"eu","cc":"de","latitude":50.110924,"longitude":8.682127,"reserved":0,"last_update":"0001-01-01T00:00:00Z","name_a2s":"Uncletopia | Frankfurt | 1 | All Maps","protocol":17,"map":"koth_viaduct","folder":"tf","game":"Team Fortress","app_id":440,"player_count":20,"max_players":24,"Bots":0,"server_type":"Dedicated","server_os":"Linux","password":true,"vac":true,"version":"7961495","steam_id":85568392924469989,"keywords":["cp","nocrits","nodmgspread","uncletopia"],"game_id":440,"stv_port":27016,"stv_name":"Uncletopia | Frankfurt | 1 | All Maps | STV","players":[{"user_id":555,"name":"A.D.H.|Artem","steam_id":76561198041801369,"connected_time":65000000000,"state":"active","ping":80},{"user_id":554,"name":"EL ZORRO","steam_id":76561198066879518,"connected_time":81000000000,"state":"active","ping":98},{"user_id":556,"name":"☭TheDevilsEye☭","steam_id":76561198017379398,"connected_time":56000000000,"state":"active","ping":73},{"user_id":529,"name":"Anakin Skywalker","steam_id":76561198389289622,"connected_time":1498000000000,"state":"active","ping":59},{"user_id":511,"name":"ABXY","steam_id":76561199177555080,"connected_time":2226000000000,"state":"active","ping":74},{"user_id":521,"name":"Gruset","steam_id":76561198327512432,"connected_time":1897000000000,"state":"active","ping":76},{"user_id":548,"name":"Spetse","steam_id":76561197990649972,"connected_time":529000000000,"state":"active","ping":89},{"user_id":552,"name":"Direct Miss","steam_id":76561198303496304,"connected_time":388000000000,"state":"active","ping":57},{"user_id":553,"name":"TheEmeraldStar","steam_id":76561198072942529,"connected_time":166000000000,"state":"active","ping":74},{"user_id":549,"name":"Michał","steam_id":76561198320346362,"connected_time":520000000000,"state":"active","ping":58},{"user_id":547,"name":"dotdotdot","steam_id":76561198057628751,"connected_time":581000000000,"state":"active","ping":65},{"user_id":507,"name":"StupidFace ᵔᴥᵔ","steam_id":76561198126984671,"connected_time":2311000000000,"state":"active","ping":91},{"user_id":499,"name":"Nithle","steam_id":76561198025372740,"connected_time":2549000000000,"state":"active","ping":45},{"user_id":540,"name":"E² FTH","steam_id":76561198066287815,"connected_time":1082000000000,"state":"active","ping":107},{"user_id":512,"name":"Mac`Virtuz","steam_id":76561198031307490,"connected_time":2207000000000,"state":"active","ping":93},{"user_id":532,"name":"Dr. Le Quack","steam_id":76561197995711176,"connected_time":1408000000000,"state":"active","ping":72},{"user_id":523,"name":"Schiever","steam_id":76561198052136026,"connected_time":1744000000000,"state":"active","ping":58},{"user_id":536,"name":"Mista Baymort","steam_id":76561198367178355,"connected_time":1199000000000,"state":"active","ping":66},{"user_id":546,"name":"corben","steam_id":76561198057360549,"connected_time":692000000000,"state":"active","ping":66},{"user_id":538,"name":"cult","steam_id":76561198188647690,"connected_time":1135000000000,"state":"active","ping":68}]},{"server_id":110,"name":"Uncletopia | Frankfurt | 2 | All Maps","name_short":"frk-2","host":"frk-1.de.uncletopia.com","port":27025,"enabled":true,"region":"eu","cc":"de","latitude":50.110924,"longitude":8.682127,"reserved":0,"last_update":"0001-01-01T00:00:00Z","name_a2s":"Uncletopia | Frankfurt | 2 | All Maps","protocol":17,"map":"pl_swiftwater_final1","folder":"tf","game":"Team Fortress","app_id":440,"player_count":24,"max_players":24,"Bots":0,"server_type":"Dedicated","server_os":"Linux","password":true,"vac":true,"version":"7961495","steam_id":85568392924469990,"keywords":["nocrits","nodmgspread","payload","uncletopia"],"game_id":440,"stv_port":27026,"stv_name":"Uncletopia | Frankfurt | 2 | All Maps | STV","players":[{"user_id":288,"name":"Thors","steam_id":76561197968739075,"connected_time":1294000000000,"state":"active","ping":45},{"user_id":297,"name":"mingsh'allah","steam_id":76561198254011269,"connected_time":904000000000,"state":"active","ping":79},{"user_id":198,"name":"glorpis","steam_id":76561199225333422,"connected_time":7194000000000,"state":"active","ping":59},{"user_id":306,"name":"Divine","steam_id":76561198430207251,"connected_time":591000000000,"state":"active","ping":116},{"user_id":276,"name":"ODanial","steam_id":76561198034854402,"connected_time":1899000000000,"state":"active","ping":97},{"user_id":299,"name":"Maddox","steam_id":76561198026419869,"connected_time":826000000000,"state":"active","ping":70},{"user_id":300,"name":"Olufsen","steam_id":76561198009324148,"connected_time":762000000000,"state":"active","ping":103},{"user_id":277,"name":"ColonelPaulie","steam_id":76561198055123211,"connected_time":1888000000000,"state":"active","ping":68},{"user_id":271,"name":"The legendery balls","steam_id":76561199139344747,"connected_time":2748000000000,"state":"active","ping":98},{"user_id":301,"name":"spurdala","steam_id":76561198886546942,"connected_time":737000000000,"state":"active","ping":60},{"user_id":265,"name":"Kono","steam_id":76561198932426600,"connected_time":3280000000000,"state":"active","ping":75},{"user_id":307,"name":"Maklos","steam_id":76561198342051574,"connected_time":492000000000,"state":"active","ping":61},{"user_id":302,"name":"I will beggars bomb beijing","steam_id":76561198101292843,"connected_time":682000000000,"state":"active","ping":50},{"user_id":303,"name":"Lyell","steam_id":76561198350329389,"connected_time":655000000000,"state":"active","ping":78},{"user_id":261,"name":"yavaş","steam_id":76561198170334258,"connected_time":3592000000000,"state":"active","ping":69},{"user_id":295,"name":"Dukebox","steam_id":76561197977447291,"connected_time":1062000000000,"state":"active","ping":69},{"user_id":240,"name":"TEN YEARS IN THE JOINT","steam_id":76561198393528841,"connected_time":4301000000000,"state":"active","ping":95},{"user_id":308,"name":"Maximilian1359","steam_id":76561198152439608,"connected_time":237000000000,"state":"active","ping":57},{"user_id":281,"name":"milan","steam_id":76561198858509678,"connected_time":1816000000000,"state":"active","ping":63},{"user_id":273,"name":"real videogamer (real)","steam_id":76561198053929269,"connected_time":2097000000000,"state":"active","ping":90},{"user_id":282,"name":"StillFishingURF","steam_id":76561198217833780,"connected_time":1815000000000,"state":"active","ping":56},{"user_id":304,"name":"Khrinde","steam_id":76561198036744526,"connected_time":649000000000,"state":"active","ping":99},{"user_id":305,"name":"Porucznik Windows","steam_id":76561198202028182,"connected_time":648000000000,"state":"active","ping":62},{"user_id":291,"name":"zilean","steam_id":76561198214848887,"connected_time":1274000000000,"state":"active","ping":69}]},{"server_id":308,"name":"Uncletopia | Frankfurt | 3 | All Maps","name_short":"frk-3","host":"frk-1.de.uncletopia.com","port":27035,"enabled":true,"region":"eu","cc":"de","latitude":50.110924,"longitude":8.682127,"reserved":0,"last_update":"0001-01-01T00:00:00Z","name_a2s":"Uncletopia | Frankfurt | 3 | All Maps","protocol":17,"map":"pl_upward","folder":"tf","game":"Team Fortress","app_id":440,"player_count":24,"max_players":24,"Bots":0,"server_type":"Dedicated","server_os":"Linux","password":true,"vac":true,"version":"7961495","steam_id":85568392924504274,"keywords":["nocrits","nodmgspread","payload","uncletopia"],"game_id":440,"stv_port":27036,"stv_name":"Uncletopia | Frankfurt | 3 | All Maps | STV","players":[{"user_id":751,"name":"3L","steam_id":76561198007208996,"connected_time":1210000000000,"state":"active","ping":42},{"user_id":752,"name":"Klaus","steam_id":76561198150394201,"connected_time":1195000000000,"state":"active","ping":83},{"user_id":722,"name":"The Lady","steam_id":76561198029895809,"connected_time":3541000000000,"state":"active","ping":74},{"user_id":750,"name":". . .","steam_id":76561198184360615,"connected_time":1552000000000,"state":"active","ping":90},{"user_id":753,"name":"Repa24","steam_id":76561198033016390,"connected_time":1179000000000,"state":"active","ping":66},{"user_id":748,"name":"an idiot","steam_id":76561198172542535,"connected_time":1728000000000,"state":"active","ping":69},{"user_id":740,"name":"unlucky aka cucumba","steam_id":76561198071440081,"connected_time":2384000000000,"state":"active","ping":75},{"user_id":699,"name":"xavier","steam_id":76561198076494034,"connected_time":4158000000000,"state":"active","ping":56},{"user_id":758,"name":"corrosive taekwondo","steam_id":76561197982510441,"connected_time":409000000000,"state":"active","ping":45},{"user_id":731,"name":"Gryoss","steam_id":76561197999837111,"connected_time":2966000000000,"state":"active","ping":103},{"user_id":754,"name":"Paraducks","steam_id":76561198083301973,"connected_time":1164000000000,"state":"active","ping":61},{"user_id":726,"name":"Peskyplumber64","steam_id":76561198044458330,"connected_time":3162000000000,"state":"active","ping":68},{"user_id":757,"name":"skill","steam_id":76561198106012909,"connected_time":1043000000000,"state":"active","ping":68},{"user_id":760,"name":"sewayx","steam_id":76561198049470667,"connected_time":189000000000,"state":"active","ping":72},{"user_id":739,"name":"Ye","steam_id":76561198354719262,"connected_time":2407000000000,"state":"active","ping":75},{"user_id":756,"name":"Mr_Pulse_","steam_id":76561198095001602,"connected_time":1141000000000,"state":"active","ping":121},{"user_id":718,"name":"Zor","steam_id":76561198009851383,"connected_time":3737000000000,"state":"active","ping":80},{"user_id":719,"name":"Krocon","steam_id":76561198084906316,"connected_time":3615000000000,"state":"active","ping":84},{"user_id":736,"name":"Vershal Smershal","steam_id":76561198116223995,"connected_time":2599000000000,"state":"active","ping":61},{"user_id":749,"name":"Acanda","steam_id":76561198123246537,"connected_time":1675000000000,"state":"active","ping":54},{"user_id":716,"name":"hananamanna","steam_id":76561198006570285,"connected_time":3830000000000,"state":"active","ping":118},{"user_id":737,"name":"Keho","steam_id":76561198087962709,"connected_time":2511000000000,"state":"active","ping":92},{"user_id":745,"name":"kreeekz","steam_id":76561198014431602,"connected_time":1877000000000,"state":"active","ping":68},{"user_id":735,"name":"Fatmagic Mukbang ASMR","steam_id":76561198063492110,"connected_time":2710000000000,"state":"active","ping":85}]},{"server_id":309,"name":"Uncletopia | Frankfurt | 4 | All Maps","name_short":"frk-4","host":"frk-1.de.uncletopia.com","port":27045,"enabled":true,"region":"eu","cc":"de","latitude":50.110924,"longitude":8.682127,"reserved":0,"last_update":"0001-01-01T00:00:00Z","name_a2s":"Uncletopia | Frankfurt | 4 | All Maps","protocol":17,"map":"pl_upward","folder":"tf","game":"Team Fortress","app_id":440,"player_count":24,"max_players":24,"Bots":0,"server_type":"Dedicated","server_os":"Linux","password":true,"vac":true,"version":"7961495","steam_id":85568392924504275,"keywords":["nocrits","nodmgspread","payload","uncletopia"],"game_id":440,"stv_port":27046,"stv_name":"Uncletopia | Frankfurt | 4 | All Maps | STV","players":[{"user_id":469,"name":"Rigby","steam_id":76561198021552128,"connected_time":1032000000000,"state":"active","ping":95},{"user_id":470,"name":"Crasher0711","steam_id":76561198272180359,"connected_time":1027000000000,"state":"active","ping":45},{"user_id":450,"name":"fruity and cake","steam_id":76561198163615254,"connected_time":2930000000000,"state":"active","ping":54},{"user_id":471,"name":"Dave The Sloth","steam_id":76561199135831355,"connected_time":974000000000,"state":"active","ping":63},{"user_id":451,"name":"Aida","steam_id":76561198311044984,"connected_time":2926000000000,"state":"active","ping":64},{"user_id":402,"name":"MargoulGetron","steam_id":76561198020551698,"connected_time":6514000000000,"state":"active","ping":61},{"user_id":467,"name":"shy","steam_id":76561198127721841,"connected_time":1595000000000,"state":"active","ping":60},{"user_id":472,"name":"fish","steam_id":76561198269339329,"connected_time":944000000000,"state":"active","ping":46},{"user_id":468,"name":"♦Silvia♦","steam_id":76561198373039444,"connected_time":1312000000000,"state":"active","ping":119},{"user_id":473,"name":"killbind irl","steam_id":76561198180637374,"connected_time":915000000000,"state":"active","ping":89},{"user_id":474,"name":"norespectforthedevil","steam_id":76561197998922218,"connected_time":914000000000,"state":"active","ping":103},{"user_id":475,"name":"Kvikk","steam_id":76561198063104117,"connected_time":880000000000,"state":"active","ping":88},{"user_id":476,"name":"Pascal Darras","steam_id":76561198052136478,"connected_time":440000000000,"state":"active","ping":75},{"user_id":432,"name":"joebot","steam_id":76561197975606100,"connected_time":4240000000000,"state":"active","ping":132},{"user_id":415,"name":"TheDeath","steam_id":76561198265038954,"connected_time":5766000000000,"state":"active","ping":75},{"user_id":455,"name":"blåhaj","steam_id":76561198094268619,"connected_time":2819000000000,"state":"active","ping":60},{"user_id":440,"name":"hhhhhh","steam_id":76561198031982574,"connected_time":3935000000000,"state":"active","ping":56},{"user_id":445,"name":"o_o","steam_id":76561198113045011,"connected_time":3450000000000,"state":"active","ping":90},{"user_id":478,"name":"Donki Wonki","steam_id":76561198327761273,"connected_time":159000000000,"state":"active","ping":73},{"user_id":460,"name":"gnome","steam_id":76561198280507478,"connected_time":2604000000000,"state":"active","ping":54},{"user_id":457,"name":"röv","steam_id":76561198170330563,"connected_time":2747000000000,"state":"active","ping":109},{"user_id":477,"name":"Mébh Óg MacTíre","steam_id":76561198346399624,"connected_time":345000000000,"state":"active","ping":76},{"user_id":480,"name":"Hedge Knight","steam_id":76561198989449047,"connected_time":112000000000,"state":"active","ping":131},{"user_id":464,"name":"Stan Álvarez (Satan)","steam_id":76561198045538223,"connected_time":2335000000000,"state":"active","ping":54}]},{"server_id":310,"name":"Uncletopia | Frankfurt | 5 | All Maps","name_short":"frk-5","host":"frk-1.de.uncletopia.com","port":27055,"enabled":true,"region":"eu","cc":"de","latitude":50.110924,"longitude":8.682127,"reserved":0,"last_update":"0001-01-01T00:00:00Z","name_a2s":"Uncletopia | Frankfurt | 5 | All Maps","protocol":17,"map":"pl_borneo","folder":"tf","game":"Team Fortress","app_id":440,"player_count":24,"max_players":24,"Bots":0,"server_type":"Dedicated","server_os":"Linux","password":true,"vac":true,"version":"7961495","steam_id":85568392924504277,"keywords":["nocrits","nodmgspread","payload","uncletopia"],"game_id":440,"stv_port":27056,"stv_name":"Uncletopia | Frankfurt | 5 | All Maps | STV","players":[{"user_id":595,"name":"Monke Hartmann","steam_id":76561198281389701,"connected_time":1066000000000,"state":"active","ping":99},{"user_id":605,"name":"Eric Catman","steam_id":76561198802117294,"connected_time":414000000000,"state":"active","ping":85},{"user_id":472,"name":"bitkomet","steam_id":76561198058232147,"connected_time":6789000000000,"state":"active","ping":73},{"user_id":606,"name":"Sloth","steam_id":76561198030577957,"connected_time":406000000000,"state":"active","ping":89},{"user_id":615,"name":"KajaStorm","steam_id":76561199215842872,"connected_time":59000000000,"state":"active","ping":150},{"user_id":574,"name":"Proud F2P Tryhard","steam_id":76561199376147072,"connected_time":2026000000000,"state":"active","ping":80},{"user_id":614,"name":"TidB","steam_id":76561198055342304,"connected_time":69000000000,"state":"active","ping":45},{"user_id":604,"name":"flave","steam_id":76561198056372101,"connected_time":554000000000,"state":"active","ping":65},{"user_id":607,"name":"Akisян","steam_id":76561198078706435,"connected_time":398000000000,"state":"active","ping":75},{"user_id":582,"name":"Mischail","steam_id":76561198016127010,"connected_time":1717000000000,"state":"active","ping":68},{"user_id":600,"name":"Finn","steam_id":76561198179960193,"connected_time":796000000000,"state":"active","ping":54},{"user_id":603,"name":"Cute Panda","steam_id":76561198210837753,"connected_time":587000000000,"state":"active","ping":64},{"user_id":593,"name":"Skay","steam_id":76561198371527078,"connected_time":1328000000000,"state":"active","ping":97},{"user_id":580,"name":"Polesn","steam_id":76561198209583116,"connected_time":1846000000000,"state":"active","ping":60},{"user_id":608,"name":"QR code 78","steam_id":76561198073749509,"connected_time":385000000000,"state":"active","ping":70},{"user_id":616,"name":"Blar","steam_id":76561198042438229,"connected_time":18000000000,"state":"active","ping":64},{"user_id":611,"name":"chillrend_morphs_high_lod6","steam_id":76561198452963141,"connected_time":194000000000,"state":"active","ping":75},{"user_id":602,"name":"sarii ☆","steam_id":76561199155102111,"connected_time":630000000000,"state":"active","ping":84},{"user_id":586,"name":"Nich","steam_id":76561198006049447,"connected_time":1665000000000,"state":"active","ping":90},{"user_id":587,"name":"jj","steam_id":76561198079200985,"connected_time":1656000000000,"state":"active","ping":63},{"user_id":588,"name":"Nimgin_NM77","steam_id":76561198039082844,"connected_time":1643000000000,"state":"active","ping":86},{"user_id":609,"name":"caffreze","steam_id":76561198408988907,"connected_time":385000000000,"state":"active","ping":91},{"user_id":610,"name":"Dewotter","steam_id":76561198007653168,"connected_time":359000000000,"state":"active","ping":70},{"user_id":592,"name":"虾扯蛋.Lonely","steam_id":76561198022989560,"connected_time":1502000000000,"state":"active","ping":70}]},{"server_id":311,"name":"Uncletopia | Frankfurt | 6 | All Maps","name_short":"frk-6","host":"frk-1.de.uncletopia.com","port":27065,"enabled":true,"region":"eu","cc":"de","latitude":50.110924,"longitude":8.682127,"reserved":0,"last_update":"0001-01-01T00:00:00Z","name_a2s":"Uncletopia | Frankfurt | 6 | All Maps","protocol":17,"map":"pl_badwater","folder":"tf","game":"Team Fortress","app_id":440,"player_count":24,"max_players":24,"Bots":0,"server_type":"Dedicated","server_os":"Linux","password":true,"vac":true,"version":"7961495","steam_id":85568392924504278,"keywords":["nocrits","nodmgspread","payload","uncletopia"],"game_id":440,"stv_port":27066,"stv_name":"Uncletopia | Frankfurt | 6 | All Maps | STV","players":[{"user_id":159,"name":"Anzu","steam_id":76561198043953503,"connected_time":29000000000,"state":"active","ping":74},{"user_id":79,"name":"i hack smart refrigerators","steam_id":76561199265289808,"connected_time":4849000000000,"state":"active","ping":123},{"user_id":145,"name":"TylowStar","steam_id":76561198357107806,"connected_time":1167000000000,"state":"active","ping":63},{"user_id":152,"name":"w presser","steam_id":76561197994600818,"connected_time":560000000000,"state":"active","ping":45},{"user_id":151,"name":"Rockfrenzy","steam_id":76561198005428050,"connected_time":644000000000,"state":"active","ping":55},{"user_id":120,"name":"Elsuedi","steam_id":76561198074722832,"connected_time":2484000000000,"state":"active","ping":57},{"user_id":156,"name":"mangoface","steam_id":76561199028760996,"connected_time":152000000000,"state":"active","ping":72},{"user_id":98,"name":"mr.resetti","steam_id":76561198974520642,"connected_time":3827000000000,"state":"active","ping":58},{"user_id":147,"name":"Red Dynamite","steam_id":76561199073167935,"connected_time":1115000000000,"state":"active","ping":162},{"user_id":148,"name":"Egor Pomidor","steam_id":76561199175688390,"connected_time":973000000000,"state":"active","ping":76},{"user_id":141,"name":"StarrDust","steam_id":76561198376125866,"connected_time":1505000000000,"state":"active","ping":61},{"user_id":132,"name":"Sza","steam_id":76561198022132105,"connected_time":2181000000000,"state":"active","ping":56},{"user_id":155,"name":"the one who grips","steam_id":76561198381106289,"connected_time":166000000000,"state":"active","ping":79},{"user_id":135,"name":"Nittugai","steam_id":76561198067366462,"connected_time":2036000000000,"state":"active","ping":60},{"user_id":157,"name":"Ysgawen","steam_id":76561198146013236,"connected_time":149000000000,"state":"active","ping":96},{"user_id":143,"name":"󠀡󠀡","steam_id":76561198059375315,"connected_time":1224000000000,"state":"active","ping":60},{"user_id":136,"name":"Fat Pigeon","steam_id":76561198817940142,"connected_time":1897000000000,"state":"active","ping":54},{"user_id":83,"name":"lulu","steam_id":76561199147764133,"connected_time":4516000000000,"state":"active","ping":67},{"user_id":133,"name":"jonathan lyndale kirk","steam_id":76561198147046296,"connected_time":2117000000000,"state":"active","ping":64},{"user_id":134,"name":"x","steam_id":76561198043837480,"connected_time":2085000000000,"state":"active","ping":77},{"user_id":131,"name":"Arsonist","steam_id":76561199087953833,"connected_time":2261000000000,"state":"active","ping":104},{"user_id":65,"name":"Largo","steam_id":76561198844368927,"connected_time":5342000000000,"state":"active","ping":76},{"user_id":142,"name":"herbal tea","steam_id":76561197980736364,"connected_time":1463000000000,"state":"active","ping":79},{"user_id":150,"name":"hyvakii705","steam_id":76561198086630552,"connected_time":965000000000,"state":"active","ping":90}]},{"server_id":23,"name":"Uncletopia | Frankfurt | 7 | Stopwatch","name_short":"frk-7","host":"frk-1.de.uncletopia.com","port":27075,"enabled":true,"region":"eu","cc":"de","latitude":50.110924,"longitude":8.682127,"reserved":0,"last_update":"0001-01-01T00:00:00Z","name_a2s":"Uncletopia | Frankfurt | 7 | Stopwatch","protocol":17,"map":"workshop/pl_vigil_rc10.ugc1266210012","folder":"tf","game":"Team Fortress","app_id":440,"player_count":0,"max_players":24,"Bots":0,"server_type":"Dedicated","server_os":"Linux","password":true,"vac":true,"version":"7961495","steam_id":85568392924742827,"keywords":["nocrits","nodmgspread","payload","uncletopia"],"game_id":440,"stv_port":27076,"stv_name":"Uncletopia | Frankfurt | 7 | Stopwatch | STV","players":null},{"server_id":24,"name":"Uncletopia | Frankfurt | 8 | Community","name_short":"frk-8","host":"frk-1.de.uncletopia.com","port":27085,"enabled":true,"region":"eu","cc":"de","latitude":50.110924,"longitude":8.682127,"reserved":0,"last_update":"0001-01-01T00:00:00Z","name_a2s":"Uncletopia | Frankfurt | 8 | Community","protocol":17,"map":"workshop/koth_ashville_final.ugc2130459942","folder":"tf","game":"Team Fortress","app_id":440,"player_count":3,"max_players":24,"Bots":0,"server_type":"Dedicated","server_os":"Linux","password":true,"vac":true,"version":"7961495","steam_id":85568392924742828,"keywords":["cp","nocrits","nodmgspread","uncletopia"],"game_id":440,"stv_port":27086,"stv_name":"Uncletopia | Frankfurt | 8 | Community | STV","players":[{"user_id":27,"name":"Feenyx","steam_id":76561198427793505,"connected_time":2286000000000,"state":"active","ping":77},{"user_id":28,"name":"Pyray","steam_id":76561198196705591,"connected_time":2256000000000,"state":"active","ping":69},{"user_id":29,"name":"Im.that.epic.rat","steam_id":76561199113288403,"connected_time":1278000000000,"state":"active","ping":74}]},{"server_id":202,"name":"Uncletopia | Hong Kong | 1 | All Maps","name_short":"hgk-1","host":"hgk-1.hk.uncletopia.com","port":27015,"enabled":true,"region":"asia","cc":"hk","latitude":22.302711,"longitude":114.177216,"reserved":0,"last_update":"0001-01-01T00:00:00Z","name_a2s":"Uncletopia | Hong Kong | 1 | All Maps","protocol":17,"map":"koth_highpass","folder":"tf","game":"Team Fortress","app_id":440,"player_count":0,"max_players":24,"Bots":0,"server_type":"Dedicated","server_os":"Linux","password":true,"vac":true,"version":"7961495","steam_id":85568392924494504,"keywords":["cp","nocrits","nodmgspread","uncletopia"],"game_id":440,"stv_port":27016,"stv_name":"Uncletopia | Hong Kong | 1 | All Maps | STV","players":null},{"server_id":1,"name":"Uncletopia | Los Angeles | 1 | All Maps","name_short":"lax-1","host":"lax-1.us.uncletopia.com","port":27015,"enabled":true,"region":"us-west","cc":"us","latitude":33.94279,"longitude":-118.41004,"reserved":0,"last_update":"0001-01-01T00:00:00Z","name_a2s":"Uncletopia | Los Angeles | 1 | All Maps","protocol":17,"map":"koth_viaduct","folder":"tf","game":"Team Fortress","app_id":440,"player_count":0,"max_players":24,"Bots":0,"server_type":"Dedicated","server_os":"Linux","password":true,"vac":true,"version":"7961495","steam_id":85568392924469991,"keywords":["cp","nocrits","nodmgspread","uncletopia"],"game_id":440,"stv_port":27016,"stv_name":"Uncletopia | Los Angeles | 1 | All Maps | STV","players":null},{"server_id":112,"name":"Uncletopia | Los Angeles | 2 | All Maps","name_short":"lax-2","host":"lax-1.us.uncletopia.com","port":27025,"enabled":true,"region":"us-west","cc":"us","latitude":33.94279,"longitude":-118.41004,"reserved":0,"last_update":"0001-01-01T00:00:00Z","name_a2s":"Uncletopia | Los Angeles | 2 | All Maps","protocol":17,"map":"cp_mountainlab","folder":"tf","game":"Team Fortress","app_id":440,"player_count":0,"max_players":24,"Bots":0,"server_type":"Dedicated","server_os":"Linux","password":true,"vac":true,"version":"7961495","steam_id":85568392924469992,"keywords":["cp","nocrits","nodmgspread","uncletopia"],"game_id":440,"stv_port":27026,"stv_name":"Uncletopia | Los Angeles | 2 | All Maps | STV","players":null},{"server_id":324,"name":"Uncletopia | Los Angeles | 3 | All Maps","name_short":"lax-3","host":"lax-1.us.uncletopia.com","port":27035,"enabled":true,"region":"us-west","cc":"us","latitude":33.94279,"longitude":-118.41004,"reserved":0,"last_update":"0001-01-01T00:00:00Z","name_a2s":"Uncletopia | Los Angeles | 3 | All Maps","protocol":17,"map":"pl_frontier_final","folder":"tf","game":"Team Fortress","app_id":440,"player_count":0,"max_players":24,"Bots":0,"server_type":"Dedicated","server_os":"Linux","password":true,"vac":true,"version":"7961495","steam_id":85568392924510198,"keywords":["nocrits","nodmgspread","payload","uncletopia"],"game_id":440,"stv_port":27036,"stv_name":"Uncletopia | Los Angeles | 3 | All Maps | STV","players":null},{"server_id":25,"name":"Uncletopia | Los Angeles | 4 | Stopwatch","name_short":"lax-4","host":"lax-1.us.uncletopia.com","port":27045,"enabled":true,"region":"us-west","cc":"us","latitude":33.94279,"longitude":-118.41004,"reserved":0,"last_update":"0001-01-01T00:00:00Z","name_a2s":"Uncletopia | Los Angeles | 4 | Stopwatch","protocol":17,"map":"pl_barnblitz","folder":"tf","game":"Team Fortress","app_id":440,"player_count":0,"max_players":24,"Bots":0,"server_type":"Dedicated","server_os":"Linux","password":true,"vac":true,"version":"7961495","steam_id":85568392924510199,"keywords":["nocrits","nodmgspread","payload","uncletopia"],"game_id":440,"stv_port":27046,"stv_name":"Uncletopia | Los Angeles | 4 | Stopwatch | STV","players":null},{"server_id":11,"name":"Uncletopia | London | 1 | All Maps","name_short":"lon-1","host":"lon-1.uk.uncletopia.com","port":27015,"enabled":true,"region":"eu","cc":"gb","latitude":51.509865,"longitude":-0.118092,"reserved":0,"last_update":"0001-01-01T00:00:00Z","name_a2s":"Uncletopia | London | 1 | All Maps","protocol":17,"map":"pl_pier","folder":"tf","game":"Team Fortress","app_id":440,"player_count":24,"max_players":24,"Bots":0,"server_type":"Dedicated","server_os":"Linux","password":true,"vac":true,"version":"7961495","steam_id":85568392924367362,"keywords":["nocrits","nodmgspread","payload","uncletopia"],"game_id":440,"stv_port":27016,"stv_name":"Uncletopia | London | 1 | All Maps | STV","players":[{"user_id":289,"name":"Purps","steam_id":76561198053886680,"connected_time":5058000000000,"state":"active","ping":45},{"user_id":351,"name":"After8","steam_id":76561198090750865,"connected_time":904000000000,"state":"active","ping":73},{"user_id":331,"name":"owo","steam_id":76561198158209651,"connected_time":2519000000000,"state":"active","ping":59},{"user_id":239,"name":"Waffle","steam_id":76561198397024973,"connected_time":8521000000000,"state":"active","ping":44},{"user_id":338,"name":"Twiggu","steam_id":76561198070853128,"connected_time":1297000000000,"state":"active","ping":84},{"user_id":332,"name":"Pantroglodytestherapy","steam_id":76561198236015392,"connected_time":2464000000000,"state":"active","ping":120},{"user_id":304,"name":"Plep","steam_id":76561198840259819,"connected_time":4531000000000,"state":"active","ping":59},{"user_id":343,"name":"cuddle","steam_id":76561198805181599,"connected_time":1262000000000,"state":"active","ping":54},{"user_id":261,"name":"jimmy bob","steam_id":76561198319583692,"connected_time":6810000000000,"state":"active","ping":62},{"user_id":334,"name":"remi, she wrote.","steam_id":76561198044045655,"connected_time":2199000000000,"state":"active","ping":72},{"user_id":344,"name":"Hamedius","steam_id":76561199152512027,"connected_time":1242000000000,"state":"active","ping":74},{"user_id":314,"name":"Kahvi","steam_id":76561198723244199,"connected_time":3969000000000,"state":"active","ping":80},{"user_id":348,"name":"Oak","steam_id":76561198067315672,"connected_time":1146000000000,"state":"active","ping":48},{"user_id":201,"name":"That Bussy Can Squirt","steam_id":76561199185615752,"connected_time":13551000000000,"state":"active","ping":56},{"user_id":350,"name":"Kphi(i)","steam_id":76561198970587061,"connected_time":1059000000000,"state":"active","ping":58},{"user_id":328,"name":"iniT","steam_id":76561198019883794,"connected_time":2679000000000,"state":"active","ping":47},{"user_id":345,"name":"Pencil Billy","steam_id":76561198009407651,"connected_time":1241000000000,"state":"active","ping":45},{"user_id":342,"name":"Sir_LewdCow","steam_id":76561198200079686,"connected_time":1264000000000,"state":"active","ping":56},{"user_id":335,"name":"stroyo","steam_id":76561198409592046,"connected_time":1302000000000,"state":"active","ping":50},{"user_id":298,"name":"SuntanPikachu","steam_id":76561198121242476,"connected_time":4958000000000,"state":"active","ping":54},{"user_id":284,"name":"Son Goku","steam_id":76561199383437138,"connected_time":5360000000000,"state":"active","ping":124},{"user_id":352,"name":"hmscole09","steam_id":76561198811362788,"connected_time":619000000000,"state":"active","ping":52},{"user_id":354,"name":"SOPHIIAA","steam_id":76561198443798981,"connected_time":578000000000,"state":"active","ping":55},{"user_id":324,"name":"KermSlinger","steam_id":76561198854027069,"connected_time":3199000000000,"state":"active","ping":69}]},{"server_id":114,"name":"Uncletopia | London | 2 | All Maps","name_short":"lon-2","host":"lon-1.uk.uncletopia.com","port":27025,"enabled":true,"region":"eu","cc":"gb","latitude":51.509865,"longitude":-0.118092,"reserved":0,"last_update":"0001-01-01T00:00:00Z","name_a2s":"Uncletopia | London | 2 | All Maps","protocol":17,"map":"plr_hightower","folder":"tf","game":"Team Fortress","app_id":440,"player_count":6,"max_players":24,"Bots":0,"server_type":"Dedicated","server_os":"Linux","password":true,"vac":true,"version":"7961495","steam_id":85568392924470941,"keywords":["nocrits","nodmgspread","payload","uncletopia"],"game_id":440,"stv_port":27026,"stv_name":"Uncletopia | London | 2 | All Maps | STV","players":[{"user_id":212,"name":"Jeffacakes","steam_id":76561198280101970,"connected_time":2352000000000,"state":"active","ping":64},{"user_id":208,"name":"kee.wun","steam_id":76561198025293098,"connected_time":2928000000000,"state":"active","ping":55},{"user_id":240,"name":"Amandus","steam_id":76561198036281079,"connected_time":16000000000,"state":"active","ping":61},{"user_id":233,"name":"Cherry Trapchett","steam_id":76561198029242196,"connected_time":209000000000,"state":"active","ping":68},{"user_id":222,"name":"Codex","steam_id":76561198068748584,"connected_time":2232000000000,"state":"active","ping":43},{"user_id":200,"name":"Tá prátaí go maith","steam_id":76561198372536459,"connected_time":3850000000000,"state":"active","ping":59}]},{"server_id":320,"name":"Uncletopia | London | 3 | All Maps","name_short":"lon-3","host":"lon-1.uk.uncletopia.com","port":27035,"enabled":true,"region":"eu","cc":"gb","latitude":51.509865,"longitude":-0.118092,"reserved":0,"last_update":"0001-01-01T00:00:00Z","name_a2s":"Uncletopia | London | 3 | All Maps","protocol":17,"map":"pl_borneo","folder":"tf","game":"Team Fortress","app_id":440,"player_count":23,"max_players":24,"Bots":0,"server_type":"Dedicated","server_os":"Linux","password":true,"vac":true,"version":"7961495","steam_id":85568392924510192,"keywords":["nocrits","nodmgspread","payload","uncletopia"],"game_id":440,"stv_port":27036,"stv_name":"Uncletopia | London | 3 | All Maps | STV","players":[{"user_id":171,"name":"K'aax Itzam","steam_id":76561198044024509,"connected_time":94000000000,"state":"spawning","ping":102},{"user_id":155,"name":"Bruhn","steam_id":76561198106133548,"connected_time":428000000000,"state":"active","ping":73},{"user_id":165,"name":"flamingosaurus","steam_id":76561198051455397,"connected_time":182000000000,"state":"active","ping":40},{"user_id":140,"name":"FM","steam_id":76561198157757852,"connected_time":2210000000000,"state":"active","ping":75},{"user_id":114,"name":"Hexagon","steam_id":76561198151205758,"connected_time":3715000000000,"state":"active","ping":58},{"user_id":158,"name":"Bread64","steam_id":76561199224651924,"connected_time":302000000000,"state":"active","ping":184},{"user_id":166,"name":"idenburg","steam_id":76561198063574956,"connected_time":161000000000,"state":"active","ping":57},{"user_id":160,"name":"Dangerousbros","steam_id":76561198088952519,"connected_time":241000000000,"state":"active","ping":34},{"user_id":21,"name":"Deemaské","steam_id":76561199225833593,"connected_time":8802000000000,"state":"active","ping":51},{"user_id":161,"name":"Buamadoir","steam_id":76561198229417388,"connected_time":235000000000,"state":"active","ping":81},{"user_id":178,"name":"Clark","steam_id":76561197998520785,"connected_time":2000000000,"state":"spawning","ping":68},{"user_id":128,"name":"✘Fenix✘","steam_id":76561198078987453,"connected_time":3034000000000,"state":"active","ping":41},{"user_id":163,"name":"Twik","steam_id":76561198023835056,"connected_time":220000000000,"state":"active","ping":61},{"user_id":164,"name":"Carrot","steam_id":76561198119340863,"connected_time":218000000000,"state":"active","ping":38},{"user_id":168,"name":"Bobo","steam_id":76561198052308399,"connected_time":134000000000,"state":"spawning","ping":62},{"user_id":169,"name":"Guwop","steam_id":76561197970425737,"connected_time":132000000000,"state":"active","ping":145},{"user_id":170,"name":"Kestrel","steam_id":76561198144033005,"connected_time":115000000000,"state":"active","ping":53},{"user_id":172,"name":"Hotdog_Gentleman","steam_id":76561199309867837,"connected_time":92000000000,"state":"active","ping":107},{"user_id":173,"name":"Sambucone Molinari","steam_id":76561199105854514,"connected_time":85000000000,"state":"active","ping":70},{"user_id":174,"name":"Dct","steam_id":76561198397105421,"connected_time":78000000000,"state":"active","ping":66},{"user_id":126,"name":"alienndrago #saveTF2","steam_id":76561198815566591,"connected_time":3118000000000,"state":"active","ping":69},{"user_id":175,"name":"Vexu","steam_id":76561198113145846,"connected_time":55000000000,"state":"active","ping":90},{"user_id":176,"name":"Demoknight tf2","steam_id":76561198133041874,"connected_time":42000000000,"state":"active","ping":58}]},{"server_id":321,"name":"Uncletopia | London | 4 | All Maps","name_short":"lon-4","host":"lon-1.uk.uncletopia.com","port":27045,"enabled":true,"region":"eu","cc":"gb","latitude":51.509865,"longitude":-0.118092,"reserved":0,"last_update":"0001-01-01T00:00:00Z","name_a2s":"Uncletopia | London | 4 | All Maps","protocol":17,"map":"pl_upward","folder":"tf","game":"Team Fortress","app_id":440,"player_count":23,"max_players":24,"Bots":0,"server_type":"Dedicated","server_os":"Linux","password":true,"vac":true,"version":"7961495","steam_id":85568392924510193,"keywords":["nocrits","nodmgspread","payload","uncletopia"],"game_id":440,"stv_port":27046,"stv_name":"Uncletopia | London | 4 | All Maps | STV","players":[{"user_id":86,"name":"JugoTopia","steam_id":76561197996067209,"connected_time":61000000000,"state":"active","ping":116},{"user_id":85,"name":"Filip","steam_id":76561198852826447,"connected_time":63000000000,"state":"active","ping":98},{"user_id":81,"name":"Cheese","steam_id":76561198146419076,"connected_time":603000000000,"state":"active","ping":70},{"user_id":44,"name":"painting4","steam_id":76561198067554256,"connected_time":1769000000000,"state":"active","ping":50},{"user_id":87,"name":"LordTrap.exe","steam_id":76561198318089716,"connected_time":54000000000,"state":"active","ping":55},{"user_id":76,"name":"Gubbly Bubbins","steam_id":76561198101451654,"connected_time":650000000000,"state":"active","ping":45},{"user_id":83,"name":"Uzi","steam_id":76561198436817109,"connected_time":163000000000,"state":"active","ping":55},{"user_id":77,"name":"no going back","steam_id":76561198147277460,"connected_time":635000000000,"state":"active","ping":65},{"user_id":78,"name":"ssen4/20","steam_id":76561198023211417,"connected_time":631000000000,"state":"active","ping":58},{"user_id":74,"name":"Fatfish","steam_id":76561198989947321,"connected_time":718000000000,"state":"active","ping":65},{"user_id":79,"name":"demoman","steam_id":76561198046170435,"connected_time":627000000000,"state":"active","ping":68},{"user_id":84,"name":"heuji","steam_id":76561197971067828,"connected_time":145000000000,"state":"active","ping":50},{"user_id":80,"name":"yuck","steam_id":76561197987249568,"connected_time":623000000000,"state":"active","ping":105},{"user_id":66,"name":"hasky","steam_id":76561197986052798,"connected_time":877000000000,"state":"active","ping":76},{"user_id":58,"name":"ran is running","steam_id":76561199443185667,"connected_time":1005000000000,"state":"active","ping":124},{"user_id":88,"name":"bladerunner | Trade.tf","steam_id":76561198272175230,"connected_time":51000000000,"state":"active","ping":55},{"user_id":89,"name":"Not A Fake Uncletopia Server","steam_id":76561198152871288,"connected_time":22000000000,"state":"active","ping":189},{"user_id":82,"name":"Donald.","steam_id":76561198070954045,"connected_time":596000000000,"state":"active","ping":62},{"user_id":91,"name":"2ndOFtheWWY","steam_id":76561198190936635,"connected_time":5000000000,"state":"spawning","ping":74},{"user_id":67,"name":"DeterminedXD[HUN]","steam_id":76561199469006453,"connected_time":829000000000,"state":"active","ping":102},{"user_id":70,"name":"calum92","steam_id":76561197992188760,"connected_time":763000000000,"state":"active","ping":56},{"user_id":71,"name":"Blax","steam_id":76561198377155387,"connected_time":762000000000,"state":"active","ping":58},{"user_id":72,"name":"Bottle O' Scrumpy","steam_id":76561199244250562,"connected_time":749000000000,"state":"active","ping":104}]},{"server_id":21,"name":"Uncletopia | London | 5 | All Maps","name_short":"lon-5","host":"lon-1.uk.uncletopia.com","port":27055,"enabled":true,"region":"eu","cc":"gb","latitude":51.509865,"longitude":-0.118092,"reserved":0,"last_update":"0001-01-01T00:00:00Z","name_a2s":"Uncletopia | London | 5 | All Maps","protocol":17,"map":"pl_pier","folder":"tf","game":"Team Fortress","app_id":440,"player_count":0,"max_players":24,"Bots":0,"server_type":"Dedicated","server_os":"Linux","password":true,"vac":true,"version":"7961495","steam_id":85568392924742829,"keywords":["nocrits","nodmgspread","payload","uncletopia"],"game_id":440,"stv_port":27056,"stv_name":"Uncletopia | London | 5 | All Maps | STV","players":null},{"server_id":22,"name":"Uncletopia | London | 6 | All Maps","name_short":"lon-6","host":"lon-1.uk.uncletopia.com","port":27065,"enabled":true,"region":"eu","cc":"gb","latitude":51.509865,"longitude":-0.118092,"reserved":0,"last_update":"0001-01-01T00:00:00Z","name_a2s":"Uncletopia | London | 6 | All Maps","protocol":17,"map":"pl_swiftwater_final1","folder":"tf","game":"Team Fortress","app_id":440,"player_count":3,"max_players":24,"Bots":0,"server_type":"Dedicated","server_os":"Linux","password":true,"vac":true,"version":"7961495","steam_id":85568392924742830,"keywords":["nocrits","nodmgspread","payload","uncletopia"],"game_id":440,"stv_port":27066,"stv_name":"Uncletopia | London | 6 | All Maps | STV","players":[{"user_id":30,"name":"asdfgpiojunior","steam_id":76561199053611779,"connected_time":181000000000,"state":"active","ping":63},{"user_id":31,"name":"PyroSoup","steam_id":76561199178018465,"connected_time":177000000000,"state":"active","ping":67},{"user_id":32,"name":"Cammeel_God","steam_id":76561199133346557,"connected_time":150000000000,"state":"active","ping":70}]},{"server_id":40,"name":"Uncletopia | London | 7 | Stopwatch","name_short":"lon-7","host":"lon-1.uk.uncletopia.com","port":27075,"enabled":true,"region":"eu","cc":"gb","latitude":51.509865,"longitude":-0.118092,"reserved":0,"last_update":"0001-01-01T00:00:00Z","name_a2s":"Uncletopia | London | 7 | Stopwatch","protocol":17,"map":"cp_process_final","folder":"tf","game":"Team Fortress","app_id":440,"player_count":3,"max_players":24,"Bots":0,"server_type":"Dedicated","server_os":"Linux","password":true,"vac":true,"version":"7961495","steam_id":85568392924964314,"keywords":["cp","nocrits","nodmgspread","uncletopia"],"game_id":440,"stv_port":27076,"stv_name":"Uncletopia | London | 7 | Stopwatch | STV","players":[{"user_id":534,"name":"niandits","steam_id":76561198419798900,"connected_time":216000000000,"state":"active","ping":120},{"user_id":427,"name":"IndigoJones","steam_id":76561198050284262,"connected_time":7078000000000,"state":"active","ping":44},{"user_id":481,"name":"The Iron Chancellor","steam_id":76561198129154894,"connected_time":4009000000000,"state":"active","ping":128}]},{"server_id":41,"name":"Uncletopia | London | 8 | Community","name_short":"lon-8","host":"lon-1.uk.uncletopia.com","port":27085,"enabled":true,"region":"eu","cc":"gb","latitude":51.509865,"longitude":-0.118092,"reserved":0,"last_update":"0001-01-01T00:00:00Z","name_a2s":"Uncletopia | London | 8 | Community","protocol":17,"map":"workshop/cp_kalinka_rc6a.ugc1272700588","folder":"tf","game":"Team Fortress","app_id":440,"player_count":0,"max_players":24,"Bots":0,"server_type":"Dedicated","server_os":"Linux","password":true,"vac":true,"version":"7961495","steam_id":85568392924964315,"keywords":["cp","nocrits","nodmgspread","uncletopia"],"game_id":440,"stv_port":27086,"stv_name":"Uncletopia | London | 8 | Community | STV","players":null},{"server_id":300,"name":"Uncletopia | Montréal | 1 | One Thousand Uncles","name_short":"mtl-1","host":"mtl-1.ca.uncletopia.com","port":27015,"enabled":true,"region":"us-east","cc":"ca","latitude":45.50889,"longitude":-73.56167,"reserved":0,"last_update":"0001-01-01T00:00:00Z","name_a2s":"","protocol":0,"map":"","folder":"","game":"","app_id":0,"player_count":12,"max_players":0,"Bots":0,"server_type":"","server_os":"","password":false,"vac":false,"version":"","steam_id":0,"keywords":null,"game_id":0,"stv_port":0,"stv_name":"","players":[{"user_id":162,"name":"leumas","steam_id":76561198240408540,"connected_time":3925000000000,"state":"active","ping":60},{"user_id":210,"name":"Wafflehead","steam_id":76561198053539741,"connected_time":804000000000,"state":"active","ping":31},{"user_id":73,"name":"Ata","steam_id":76561198349085545,"connected_time":10537000000000,"state":"active","ping":113},{"user_id":184,"name":"Odd","steam_id":76561199230502274,"connected_time":3047000000000,"state":"active","ping":51},{"user_id":74,"name":"I just joined","steam_id":76561198057999536,"connected_time":9788000000000,"state":"active","ping":111},{"user_id":186,"name":"Skiddy","steam_id":76561198125942665,"connected_time":2224000000000,"state":"active","ping":121},{"user_id":187,"name":"ryan2goofy","steam_id":76561198131488280,"connected_time":2072000000000,"state":"active","ping":76},{"user_id":205,"name":"Vincent Van Bro","steam_id":76561197966919802,"connected_time":1784000000000,"state":"active","ping":107},{"user_id":206,"name":"Uncle Majic the Hip Hop Magicia","steam_id":76561198107924303,"connected_time":1736000000000,"state":"active","ping":44},{"user_id":207,"name":"caberknight tf2  (f2p-ish)","steam_id":76561199273882768,"connected_time":1733000000000,"state":"active","ping":44},{"user_id":227,"name":"CreeperCatBengal","steam_id":76561198213193221,"connected_time":776000000000,"state":"active","ping":52},{"user_id":228,"name":"raspy","steam_id":76561198027298961,"connected_time":71000000000,"state":"active","ping":40}]},{"server_id":301,"name":"Uncletopia | Montréal | 2 | One Thousand Uncles","name_short":"mtl-2","host":"mtl-1.ca.uncletopia.com","port":27025,"enabled":true,"region":"us-east","cc":"ca","latitude":45.50889,"longitude":-73.56167,"reserved":0,"last_update":"0001-01-01T00:00:00Z","name_a2s":"","protocol":0,"map":"","folder":"","game":"","app_id":0,"player_count":0,"max_players":0,"Bots":0,"server_type":"","server_os":"","password":false,"vac":false,"version":"","steam_id":0,"keywords":null,"game_id":0,"stv_port":0,"stv_name":"","players":null},{"server_id":302,"name":"Uncletopia | Montréal | 3 | One Thousand Uncles","name_short":"mtl-3","host":"mtl-1.ca.uncletopia.com","port":27035,"enabled":true,"region":"us-east","cc":"ca","latitude":45.50889,"longitude":-73.56167,"reserved":0,"last_update":"0001-01-01T00:00:00Z","name_a2s":"","protocol":0,"map":"","folder":"","game":"","app_id":0,"player_count":0,"max_players":0,"Bots":0,"server_type":"","server_os":"","password":false,"vac":false,"version":"","steam_id":0,"keywords":null,"game_id":0,"stv_port":0,"stv_name":"","players":null},{"server_id":13,"name":"Uncletopia | New York City | 1 | All Maps","name_short":"nyc-1","host":"nyc-1.us.uncletopia.com","port":27015,"enabled":true,"region":"us-east","cc":"us","latitude":40.73061,"longitude":-73.93524,"reserved":0,"last_update":"0001-01-01T00:00:00Z","name_a2s":"Uncletopia | New York City | 1 | All Maps","protocol":17,"map":"cp_snakewater_final1","folder":"tf","game":"Team Fortress","app_id":440,"player_count":19,"max_players":24,"Bots":0,"server_type":"Dedicated","server_os":"Linux","password":true,"vac":true,"version":"7961495","steam_id":85568392924469993,"keywords":["cp","nocrits","nodmgspread","uncletopia"],"game_id":440,"stv_port":27016,"stv_name":"Uncletopia | New York City | 1 | All Maps | STV","players":[{"user_id":82,"name":"SpaceSanctum","steam_id":76561198805242305,"connected_time":3905000000000,"state":"active","ping":44},{"user_id":83,"name":"googa","steam_id":76561198133130452,"connected_time":3897000000000,"state":"active","ping":45},{"user_id":127,"name":"chilly","steam_id":76561199167086052,"connected_time":1043000000000,"state":"active","ping":58},{"user_id":123,"name":"Apman","steam_id":76561199223121399,"connected_time":1423000000000,"state":"active","ping":91},{"user_id":88,"name":"THE MEWTWO","steam_id":76561199092618496,"connected_time":2996000000000,"state":"active","ping":90},{"user_id":134,"name":"CUTx","steam_id":76561198306912450,"connected_time":181000000000,"state":"active","ping":70},{"user_id":135,"name":"Dr. Enforcicle (real)","steam_id":76561198964471859,"connected_time":162000000000,"state":"active","ping":72},{"user_id":133,"name":"Domswish","steam_id":76561198331444240,"connected_time":215000000000,"state":"active","ping":45},{"user_id":93,"name":"thor","steam_id":76561197966264111,"connected_time":2819000000000,"state":"active","ping":112},{"user_id":94,"name":"Kelpy","steam_id":76561198294906383,"connected_time":2776000000000,"state":"active","ping":48},{"user_id":100,"name":"mild mannered mystery man","steam_id":76561198072095399,"connected_time":2452000000000,"state":"spawning","ping":458},{"user_id":128,"name":"Sagoogoo","steam_id":76561198176061614,"connected_time":1017000000000,"state":"active","ping":74},{"user_id":129,"name":"Inpecular","steam_id":76561198096571237,"connected_time":1015000000000,"state":"active","ping":90},{"user_id":105,"name":"aaron","steam_id":76561198113364714,"connected_time":2257000000000,"state":"active","ping":41},{"user_id":132,"name":"mst3knight","steam_id":76561198080181667,"connected_time":294000000000,"state":"active","ping":61},{"user_id":130,"name":"FloydianSystem (girl)","steam_id":76561198081987191,"connected_time":853000000000,"state":"active","ping":80},{"user_id":108,"name":"daylight","steam_id":76561198180639237,"connected_time":2222000000000,"state":"active","ping":67},{"user_id":116,"name":"SpongedSocks","steam_id":76561198374009086,"connected_time":2038000000000,"state":"active","ping":41},{"user_id":120,"name":"T-lost ruined my winstreak","steam_id":76561198449315654,"connected_time":1848000000000,"state":"active","ping":176}]},{"server_id":14,"name":"Uncletopia | New York City | 2 | All Maps","name_short":"nyc-2","host":"nyc-1.us.uncletopia.com","port":27025,"enabled":true,"region":"us-east","cc":"us","latitude":40.73061,"longitude":-73.93524,"reserved":0,"last_update":"0001-01-01T00:00:00Z","name_a2s":"Uncletopia | New York City | 2 | All Maps","protocol":17,"map":"pl_barnblitz","folder":"tf","game":"Team Fortress","app_id":440,"player_count":24,"max_players":24,"Bots":0,"server_type":"Dedicated","server_os":"Linux","password":true,"vac":true,"version":"7961495","steam_id":85568392924469994,"keywords":["nocrits","nodmgspread","payload","uncletopia"],"game_id":440,"stv_port":27026,"stv_name":"Uncletopia | New York City | 2 | All Maps | STV","players":[{"user_id":336,"name":"A Trigger Happy Chipmunk","steam_id":76561198013608736,"connected_time":345000000000,"state":"active","ping":54},{"user_id":337,"name":"MyrButCool","steam_id":76561198177245933,"connected_time":333000000000,"state":"active","ping":59},{"user_id":315,"name":"Tunac","steam_id":76561198115533350,"connected_time":2860000000000,"state":"active","ping":61},{"user_id":331,"name":"Rornir","steam_id":76561198081829615,"connected_time":1195000000000,"state":"active","ping":56},{"user_id":334,"name":"resin","steam_id":76561198135971297,"connected_time":449000000000,"state":"active","ping":81},{"user_id":342,"name":"Tony hawks pro skater 2 dlc","steam_id":76561198243387974,"connected_time":140000000000,"state":"active","ping":53},{"user_id":338,"name":"Draconis","steam_id":76561198151381256,"connected_time":319000000000,"state":"active","ping":63},{"user_id":297,"name":"Egg","steam_id":76561198028157625,"connected_time":4274000000000,"state":"active","ping":83},{"user_id":306,"name":"Fatpoob","steam_id":76561198056730096,"connected_time":3305000000000,"state":"active","ping":56},{"user_id":339,"name":"lord of cinder","steam_id":76561198421249296,"connected_time":305000000000,"state":"active","ping":72},{"user_id":321,"name":"NYC APPA YIP YIP","steam_id":76561198112929942,"connected_time":2260000000000,"state":"active","ping":54},{"user_id":304,"name":"Iatroph","steam_id":76561198059667511,"connected_time":3768000000000,"state":"active","ping":66},{"user_id":335,"name":"РАЗБРОС","steam_id":76561198405168492,"connected_time":393000000000,"state":"active","ping":69},{"user_id":317,"name":"ndvr","steam_id":76561199379200102,"connected_time":2418000000000,"state":"active","ping":54},{"user_id":325,"name":"momazos diegos","steam_id":76561199220257695,"connected_time":2201000000000,"state":"active","ping":148},{"user_id":20,"name":"Elias","steam_id":76561198106431732,"connected_time":24431000000000,"state":"active","ping":60},{"user_id":313,"name":"Y O S H A","steam_id":76561197981812788,"connected_time":3054000000000,"state":"active","ping":84},{"user_id":328,"name":"frenemy","steam_id":76561198011363677,"connected_time":1924000000000,"state":"active","ping":71},{"user_id":343,"name":"Bippums","steam_id":76561198366406729,"connected_time":46000000000,"state":"active","ping":86},{"user_id":340,"name":"500kg Scout","steam_id":76561198995745252,"connected_time":300000000000,"state":"active","ping":118},{"user_id":341,"name":"nothere","steam_id":76561198341624641,"connected_time":273000000000,"state":"active","ping":79},{"user_id":332,"name":"potato","steam_id":76561198050552558,"connected_time":906000000000,"state":"active","ping":85},{"user_id":330,"name":"hero","steam_id":76561198338943416,"connected_time":1547000000000,"state":"active","ping":114},{"user_id":285,"name":"High School Nudical","steam_id":76561198172120615,"connected_time":5481000000000,"state":"active","ping":37}]},{"server_id":15,"name":"Uncletopia | New York City | 3 | Stopwatch","name_short":"nyc-3","host":"nyc-1.us.uncletopia.com","port":27035,"enabled":true,"region":"us-east","cc":"us","latitude":40.73061,"longitude":-73.93524,"reserved":0,"last_update":"0001-01-01T00:00:00Z","name_a2s":"Uncletopia | New York City | 3 | Stopwatch","protocol":17,"map":"pl_snowycoast","folder":"tf","game":"Team Fortress","app_id":440,"player_count":0,"max_players":24,"Bots":0,"server_type":"Dedicated","server_os":"Linux","password":true,"vac":true,"version":"7961495","steam_id":85568392924742820,"keywords":["nocrits","nodmgspread","payload","uncletopia"],"game_id":440,"stv_port":27036,"stv_name":"Uncletopia | New York City | 3 | Stopwatch | STV","players":null},{"server_id":16,"name":"Uncletopia | New York City | 4 | Community","name_short":"nyc-4","host":"nyc-1.us.uncletopia.com","port":27045,"enabled":true,"region":"us-east","cc":"us","latitude":40.73061,"longitude":-73.93524,"reserved":0,"last_update":"0001-01-01T00:00:00Z","name_a2s":"Uncletopia | New York City | 4 | Community","protocol":17,"map":"workshop/koth_slaughter_rc1.ugc1712845210","folder":"tf","game":"Team Fortress","app_id":440,"player_count":0,"max_players":24,"Bots":0,"server_type":"Dedicated","server_os":"Linux","password":true,"vac":true,"version":"7961495","steam_id":85568392924742821,"keywords":["cp","nocrits","nodmgspread","uncletopia"],"game_id":440,"stv_port":27046,"stv_name":"Uncletopia | New York City | 4 | Community | STV","players":null},{"server_id":142,"name":"Uncletopia | São Paulo | 1 | All Maps","name_short":"sao-1","host":"sao-1.br.uncletopia.com","port":27015,"enabled":true,"region":"sa","cc":"br","latitude":-23.533773,"longitude":-46.62529,"reserved":0,"last_update":"0001-01-01T00:00:00Z","name_a2s":"Uncletopia | São Paulo | 1 | All Maps","protocol":17,"map":"koth_harvest_final","folder":"tf","game":"Team Fortress","app_id":440,"player_count":0,"max_players":24,"Bots":0,"server_type":"Dedicated","server_os":"Linux","password":true,"vac":true,"version":"7961495","steam_id":85568392924469996,"keywords":["cp","nocrits","nodmgspread","uncletopia"],"game_id":440,"stv_port":27016,"stv_name":"Uncletopia | São Paulo | 1 | All Maps | STV","players":null},{"server_id":143,"name":"Uncletopia | São Paulo | 2 | Community","name_short":"sao-2","host":"sao-2.br.uncletopia.com","port":27015,"enabled":true,"region":"sa","cc":"br","latitude":-23.533773,"longitude":-46.62529,"reserved":0,"last_update":"0001-01-01T00:00:00Z","name_a2s":"Uncletopia | São Paulo | 2 | Community","protocol":17,"map":"workshop/koth_trenchfoot_b1a.ugc731436616","folder":"tf","game":"Team Fortress","app_id":440,"player_count":0,"max_players":24,"Bots":0,"server_type":"Dedicated","server_os":"Linux","password":true,"vac":true,"version":"7961495","steam_id":85568392924485349,"keywords":["cp","nocrits","nodmgspread","uncletopia"],"game_id":440,"stv_port":27016,"stv_name":"Uncletopia | São Paulo | 2 | Community | STV","players":null},{"server_id":7,"name":"Uncletopia | Seattle | 1 | All Maps","name_short":"sea-1","host":"sea-1.us.uncletopia.com","port":27015,"enabled":true,"region":"us-west","cc":"us","latitude":47.608013,"longitude":-122.33517,"reserved":0,"last_update":"0001-01-01T00:00:00Z","name_a2s":"Uncletopia | Seattle | 1 | All Maps","protocol":17,"map":"pl_barnblitz","folder":"tf","game":"Team Fortress","app_id":440,"player_count":0,"max_players":24,"Bots":0,"server_type":"Dedicated","server_os":"Linux","password":true,"vac":true,"version":"7961495","steam_id":85568392924469997,"keywords":["nocrits","nodmgspread","payload","uncletopia"],"game_id":440,"stv_port":27016,"stv_name":"Uncletopia | Seattle | 1 | All Maps | STV","players":null},{"server_id":119,"name":"Uncletopia | Seattle | 2 | All Maps","name_short":"sea-2","host":"sea-1.us.uncletopia.com","port":27025,"enabled":true,"region":"us-west","cc":"us","latitude":47.608013,"longitude":-122.33517,"reserved":0,"last_update":"0001-01-01T00:00:00Z","name_a2s":"Uncletopia | Seattle | 2 | All Maps","protocol":17,"map":"koth_cascade","folder":"tf","game":"Team Fortress","app_id":440,"player_count":24,"max_players":24,"Bots":0,"server_type":"Dedicated","server_os":"Linux","password":true,"vac":true,"version":"7961495","steam_id":85568392924469998,"keywords":["cp","nocrits","nodmgspread","uncletopia"],"game_id":440,"stv_port":27026,"stv_name":"Uncletopia | Seattle | 2 | All Maps | STV","players":[{"user_id":302,"name":"tr","steam_id":76561198046944222,"connected_time":2895000000000,"state":"active","ping":46},{"user_id":319,"name":"purplDogg","steam_id":76561197980276807,"connected_time":2120000000000,"state":"active","ping":77},{"user_id":350,"name":"radicalPolio","steam_id":76561197961561855,"connected_time":221000000000,"state":"active","ping":90},{"user_id":275,"name":"Paradon","steam_id":76561198242214772,"connected_time":4739000000000,"state":"active","ping":69},{"user_id":342,"name":"Xyk","steam_id":76561198023268899,"connected_time":946000000000,"state":"active","ping":106},{"user_id":332,"name":"BLANK3T [They/He femboy on THC]","steam_id":76561198028875624,"connected_time":1391000000000,"state":"active","ping":52},{"user_id":321,"name":"bottom pride burger","steam_id":76561198322247602,"connected_time":2099000000000,"state":"active","ping":78},{"user_id":336,"name":"Dongus","steam_id":76561197979056451,"connected_time":1223000000000,"state":"active","ping":46},{"user_id":329,"name":"Mildly Miffed Man | Bignuts.tf","steam_id":76561198171915911,"connected_time":1768000000000,"state":"active","ping":90},{"user_id":324,"name":"Uncle Done","steam_id":76561198218558897,"connected_time":1983000000000,"state":"active","ping":98},{"user_id":337,"name":"ethereal sludge","steam_id":76561198978665598,"connected_time":1219000000000,"state":"active","ping":55},{"user_id":331,"name":"card carrying member","steam_id":76561198043558709,"connected_time":1516000000000,"state":"active","ping":46},{"user_id":345,"name":"Sudsen","steam_id":76561198370603787,"connected_time":280000000000,"state":"active","ping":76},{"user_id":346,"name":"Daddy Topps","steam_id":76561198203594332,"connected_time":260000000000,"state":"active","ping":46},{"user_id":348,"name":"ThePriceIsRice","steam_id":76561198079069543,"connected_time":230000000000,"state":"active","ping":61},{"user_id":349,"name":"rhen","steam_id":76561198085256979,"connected_time":226000000000,"state":"active","ping":45},{"user_id":310,"name":"Kng","steam_id":76561198993248203,"connected_time":2328000000000,"state":"active","ping":99},{"user_id":299,"name":"oo","steam_id":76561198119626492,"connected_time":3034000000000,"state":"active","ping":74},{"user_id":340,"name":"Infentdegree211","steam_id":76561198385234127,"connected_time":1186000000000,"state":"active","ping":69},{"user_id":353,"name":"Strikerbolt","steam_id":76561199095622897,"connected_time":117000000000,"state":"active","ping":77},{"user_id":352,"name":"Lawyer","steam_id":76561197974126447,"connected_time":165000000000,"state":"active","ping":93},{"user_id":297,"name":"Closeted femboy enjoyer","steam_id":76561198217747041,"connected_time":3246000000000,"state":"active","ping":72},{"user_id":323,"name":"Spare(8)Ball","steam_id":76561197982432995,"connected_time":2000000000000,"state":"active","ping":75},{"user_id":330,"name":"riSygneD","steam_id":76561198331618687,"connected_time":1658000000000,"state":"active","ping":63}]},{"server_id":406,"name":"Uncletopia | Seattle | 3 | Stopwatch","name_short":"sea-3","host":"sea-1.us.uncletopia.com","port":27035,"enabled":true,"region":"us-west","cc":"us","latitude":47.608013,"longitude":-122.33517,"reserved":0,"last_update":"0001-01-01T00:00:00Z","name_a2s":"Uncletopia | Seattle | 3 | Stopwatch","protocol":17,"map":"pl_pier","folder":"tf","game":"Team Fortress","app_id":440,"player_count":0,"max_players":24,"Bots":0,"server_type":"Dedicated","server_os":"Linux","password":true,"vac":true,"version":"7961495","steam_id":85568392924515217,"keywords":["nocrits","nodmgspread","payload","uncletopia"],"game_id":440,"stv_port":27036,"stv_name":"Uncletopia | Seattle | 3 | Stopwatch | STV","players":null},{"server_id":17,"name":"Uncletopia | San Francisco | 1 | All Maps","name_short":"sfo-1","host":"sfo-1.us.uncletopia.com","port":27015,"enabled":true,"region":"us-west","cc":"us","latitude":37.77397,"longitude":-122.4313,"reserved":0,"last_update":"0001-01-01T00:00:00Z","name_a2s":"Uncletopia | San Francisco | 1 | All Maps","protocol":17,"map":"koth_cascade","folder":"tf","game":"Team Fortress","app_id":440,"player_count":0,"max_players":24,"Bots":0,"server_type":"Dedicated","server_os":"Linux","password":true,"vac":true,"version":"7961495","steam_id":85568392924469999,"keywords":["cp","nocrits","nodmgspread","uncletopia"],"game_id":440,"stv_port":27016,"stv_name":"Uncletopia | San Francisco | 1 | All Maps | STV","players":null},{"server_id":18,"name":"Uncletopia | San Francisco | 2 | All Maps","name_short":"sfo-2","host":"sfo-1.us.uncletopia.com","port":27025,"enabled":true,"region":"us-west","cc":"us","latitude":37.77397,"longitude":-122.4313,"reserved":0,"last_update":"0001-01-01T00:00:00Z","name_a2s":"Uncletopia | San Francisco | 2 | All Maps","protocol":17,"map":"pl_frontier_final","folder":"tf","game":"Team Fortress","app_id":440,"player_count":0,"max_players":24,"Bots":0,"server_type":"Dedicated","server_os":"Linux","password":true,"vac":true,"version":"7961495","steam_id":85568392924470000,"keywords":["nocrits","nodmgspread","payload","uncletopia"],"game_id":440,"stv_port":27026,"stv_name":"Uncletopia | San Francisco | 2 | All Maps | STV","players":null},{"server_id":19,"name":"Uncletopia | San Francisco | 3 | Stopwatch","name_short":"sfo-3","host":"sfo-1.us.uncletopia.com","port":27035,"enabled":true,"region":"us-west","cc":"us","latitude":37.77397,"longitude":-122.4313,"reserved":0,"last_update":"0001-01-01T00:00:00Z","name_a2s":"Uncletopia | San Francisco | 3 | Stopwatch","protocol":17,"map":"pl_pier","folder":"tf","game":"Team Fortress","app_id":440,"player_count":0,"max_players":24,"Bots":0,"server_type":"Dedicated","server_os":"Linux","password":true,"vac":true,"version":"7961495","steam_id":85568392924742824,"keywords":["nocrits","nodmgspread","payload","uncletopia"],"game_id":440,"stv_port":27036,"stv_name":"Uncletopia | San Francisco | 3 | Stopwatch | STV","players":null},{"server_id":20,"name":"Uncletopia | San Francisco | 4 | Community","name_short":"sfo-4","host":"sfo-1.us.uncletopia.com","port":27045,"enabled":true,"region":"us-west","cc":"us","latitude":37.77397,"longitude":-122.4313,"reserved":0,"last_update":"0001-01-01T00:00:00Z","name_a2s":"Uncletopia | San Francisco | 4 | Community","protocol":17,"map":"pl_pier","folder":"tf","game":"Team Fortress","app_id":440,"player_count":0,"max_players":24,"Bots":0,"server_type":"Dedicated","server_os":"Linux","password":true,"vac":true,"version":"7961495","steam_id":85568392924742826,"keywords":["nocrits","nodmgspread","payload","uncletopia"],"game_id":440,"stv_port":27046,"stv_name":"Uncletopia | San Francisco | 4 | Community | STV","players":null},{"server_id":141,"name":"Uncletopia | Sydney | 1 | All Maps","name_short":"syd-1","host":"syd-1.au.uncletopia.com","port":27015,"enabled":true,"region":"au","cc":"au","latitude":-33.865143,"longitude":151.2099,"reserved":0,"last_update":"0001-01-01T00:00:00Z","name_a2s":"Uncletopia | Sydney | 1 | All Maps","protocol":17,"map":"pl_barnblitz","folder":"tf","game":"Team Fortress","app_id":440,"player_count":0,"max_players":24,"Bots":0,"server_type":"Dedicated","server_os":"Linux","password":true,"vac":true,"version":"7961495","steam_id":85568392924470001,"keywords":["nocrits","nodmgspread","payload","uncletopia"],"game_id":440,"stv_port":27016,"stv_name":"Uncletopia | Sydney | 1 | All Maps | STV","players":null},{"server_id":123,"name":"Uncletopia | Sydney | 2 | All Maps","name_short":"syd-2","host":"syd-1.au.uncletopia.com","port":27025,"enabled":true,"region":"au","cc":"au","latitude":-33.865143,"longitude":151.2099,"reserved":0,"last_update":"0001-01-01T00:00:00Z","name_a2s":"Uncletopia | Sydney | 2 | All Maps","protocol":17,"map":"pl_snowycoast","folder":"tf","game":"Team Fortress","app_id":440,"player_count":0,"max_players":24,"Bots":0,"server_type":"Dedicated","server_os":"Linux","password":true,"vac":true,"version":"7961495","steam_id":85568392924470002,"keywords":["nocrits","nodmgspread","payload","uncletopia"],"game_id":440,"stv_port":27026,"stv_name":"Uncletopia | Sydney | 2 | All Maps | STV","players":null},{"server_id":395,"name":"Uncletopia | Sydney | 3 | All Maps","name_short":"syd-3","host":"syd-1.au.uncletopia.com","port":27035,"enabled":true,"region":"au","cc":"au","latitude":-33.865143,"longitude":151.2099,"reserved":0,"last_update":"0001-01-01T00:00:00Z","name_a2s":"Uncletopia | Sydney | 3 | All Maps","protocol":17,"map":"koth_cascade","folder":"tf","game":"Team Fortress","app_id":440,"player_count":0,"max_players":24,"Bots":0,"server_type":"Dedicated","server_os":"Linux","password":true,"vac":true,"version":"7961495","steam_id":85568392925194467,"keywords":["cp","nocrits","nodmgspread","uncletopia"],"game_id":440,"stv_port":27036,"stv_name":"Uncletopia | Sydney | 3 | All Maps | STV","players":null},{"server_id":396,"name":"Uncletopia | Sydney | 4 | All Maps","name_short":"syd-4","host":"syd-1.au.uncletopia.com","port":27045,"enabled":true,"region":"au","cc":"au","latitude":-33.865143,"longitude":151.2099,"reserved":0,"last_update":"0001-01-01T00:00:00Z","name_a2s":"Uncletopia | Sydney | 4 | All Maps","protocol":17,"map":"koth_cascade","folder":"tf","game":"Team Fortress","app_id":440,"player_count":0,"max_players":24,"Bots":0,"server_type":"Dedicated","server_os":"Linux","password":true,"vac":true,"version":"7961495","steam_id":85568392925397958,"keywords":["cp","nocrits","nodmgspread","uncletopia"],"game_id":440,"stv_port":27046,"stv_name":"Uncletopia | Sydney | 4 | All Maps | STV","players":null},{"server_id":58,"name":"Uncletopia | Sydney | 5 | Stopwatch","name_short":"syd-5","host":"syd-1.au.uncletopia.com","port":27055,"enabled":true,"region":"au","cc":"au","latitude":-33.865143,"longitude":151.2099,"reserved":0,"last_update":"0001-01-01T00:00:00Z","name_a2s":"Uncletopia | Sydney | 5 | Stopwatch","protocol":17,"map":"pl_frontier_final","folder":"tf","game":"Team Fortress","app_id":440,"player_count":0,"max_players":24,"Bots":0,"server_type":"Dedicated","server_os":"Linux","password":true,"vac":true,"version":"7961495","steam_id":85568392925397959,"keywords":["nocrits","nodmgspread","payload","uncletopia"],"game_id":440,"stv_port":27056,"stv_name":"Uncletopia | Sydney | 5 | Stopwatch | STV","players":null},{"server_id":59,"name":"Uncletopia | Sydney | 6 | Community","name_short":"syd-6","host":"syd-1.au.uncletopia.com","port":27065,"enabled":true,"region":"au","cc":"au","latitude":-33.865143,"longitude":151.2099,"reserved":0,"last_update":"0001-01-01T00:00:00Z","name_a2s":"Uncletopia | Sydney | 6 | Community","protocol":17,"map":"workshop/koth_product_final.ugc454272353","folder":"tf","game":"Team Fortress","app_id":440,"player_count":0,"max_players":24,"Bots":0,"server_type":"Dedicated","server_os":"Linux","password":true,"vac":true,"version":"7961495","steam_id":85568392925397960,"keywords":["cp","nocrits","nodmgspread","uncletopia"],"game_id":440,"stv_port":27066,"stv_name":"Uncletopia | Sydney | 6 | Community | STV","players":null},{"server_id":49,"name":"Uncletopia | Warsaw | 1 | One Thousand Uncles","name_short":"waw-1","host":"waw-1.pl.uncletopia.com","port":27015,"enabled":true,"region":"eu","cc":"pl","latitude":52.2297,"longitude":21.017532,"reserved":0,"last_update":"0001-01-01T00:00:00Z","name_a2s":"Uncletopia | Warsaw | 1 | One Thousand Uncles","protocol":17,"map":"pl_badwater","folder":"tf","game":"Team Fortress","app_id":440,"player_count":23,"max_players":32,"Bots":16,"server_type":"Dedicated","server_os":"Linux","password":true,"vac":true,"version":"7961495","steam_id":85568392925397850,"keywords":["alltalk","bots","danepve","increased_maxplayers","nocrits","norespawntime","payload","uncletopia"],"game_id":440,"stv_port":0,"stv_name":"","players":[{"user_id":336,"name":"BEN PEDOFİLİYİM","steam_id":76561199134264498,"connected_time":1027000000000,"state":"active","ping":121},{"user_id":332,"name":"Floppa","steam_id":76561199014160202,"connected_time":3020000000000,"state":"active","ping":192},{"user_id":310,"name":"Human","steam_id":76561198936235442,"connected_time":3850000000000,"state":"active","ping":65},{"user_id":338,"name":"Marked One","steam_id":76561198336618876,"connected_time":940000000000,"state":"active","ping":100},{"user_id":269,"name":"_3tHeR_","steam_id":76561199109870743,"connected_time":7191000000000,"state":"active","ping":57},{"user_id":247,"name":"chgivan","steam_id":76561198060010064,"connected_time":10649000000000,"state":"active","ping":86},{"user_id":339,"name":"turknaskooyun","steam_id":76561199222306117,"connected_time":767000000000,"state":"active","ping":118}]},{"server_id":50,"name":"Uncletopia | Warsaw | 2 | One Thousand Uncles","name_short":"waw-2","host":"waw-1.pl.uncletopia.com","port":27025,"enabled":true,"region":"eu","cc":"pl","latitude":52.2297,"longitude":21.017532,"reserved":0,"last_update":"0001-01-01T00:00:00Z","name_a2s":"Uncletopia | Warsaw | 2 | One Thousand Uncles","protocol":17,"map":"pl_upward","folder":"tf","game":"Team Fortress","app_id":440,"player_count":23,"max_players":32,"Bots":16,"server_type":"Dedicated","server_os":"Linux","password":true,"vac":true,"version":"7961495","steam_id":85568392925397851,"keywords":["alltalk","bots","danepve","increased_maxplayers","nocrits","norespawntime","payload","uncletopia"],"game_id":440,"stv_port":0,"stv_name":"","players":[{"user_id":221,"name":"Baklava Enjoyer","steam_id":76561198990679631,"connected_time":2182000000000,"state":"active","ping":85},{"user_id":228,"name":"TekuSP","steam_id":76561198072367754,"connected_time":1630000000000,"state":"active","ping":47},{"user_id":229,"name":"OMG IS THAT SPY FROM TF2?","steam_id":76561199291684647,"connected_time":1500000000000,"state":"active","ping":45},{"user_id":219,"name":"bonour74","steam_id":76561199089910337,"connected_time":2392000000000,"state":"active","ping":168},{"user_id":230,"name":"nyanezt","steam_id":76561198253734265,"connected_time":1337000000000,"state":"active","ping":57},{"user_id":234,"name":"tourist","steam_id":76561198850438326,"connected_time":900000000000,"state":"active","ping":162},{"user_id":235,"name":"shrrrrrrekkkkk","steam_id":76561198347241576,"connected_time":500000000000,"state":"active","ping":171}]},{"server_id":51,"name":"Uncletopia | Warsaw | 3 | All Maps","name_short":"waw-3","host":"waw-1.pl.uncletopia.com","port":27035,"enabled":true,"region":"eu","cc":"pl","latitude":52.2297,"longitude":21.017532,"reserved":0,"last_update":"0001-01-01T00:00:00Z","name_a2s":"Uncletopia | Warsaw | 3 | All Maps","protocol":17,"map":"plr_pipeline","folder":"tf","game":"Team Fortress","app_id":440,"player_count":0,"max_players":24,"Bots":0,"server_type":"Dedicated","server_os":"Linux","password":true,"vac":true,"version":"7961495","steam_id":85568392925397852,"keywords":["nocrits","nodmgspread","payload","uncletopia"],"game_id":440,"stv_port":27036,"stv_name":"Uncletopia | Warsaw | 3 | All Maps | STV","players":null},{"server_id":52,"name":"Uncletopia | Warsaw | 4 | All Maps","name_short":"waw-4","host":"waw-1.pl.uncletopia.com","port":27045,"enabled":true,"region":"eu","cc":"pl","latitude":52.2297,"longitude":21.017532,"reserved":0,"last_update":"0001-01-01T00:00:00Z","name_a2s":"Uncletopia | Warsaw | 4 | All Maps","protocol":17,"map":"cp_process_final","folder":"tf","game":"Team Fortress","app_id":440,"player_count":0,"max_players":24,"Bots":0,"server_type":"Dedicated","server_os":"Linux","password":true,"vac":true,"version":"7961495","steam_id":85568392925397853,"keywords":["cp","nocrits","nodmgspread","uncletopia"],"game_id":440,"stv_port":27046,"stv_name":"Uncletopia | Warsaw | 4 | All Maps | STV","players":null},{"server_id":53,"name":"Uncletopia | Warsaw | 5 | Stopwatch","name_short":"waw-5","host":"waw-1.pl.uncletopia.com","port":27055,"enabled":true,"region":"eu","cc":"pl","latitude":52.2297,"longitude":21.017532,"reserved":0,"last_update":"0001-01-01T00:00:00Z","name_a2s":"Uncletopia | Warsaw | 5 | Stopwatch","protocol":17,"map":"workshop/koth_ashville_final.ugc2130459942","folder":"tf","game":"Team Fortress","app_id":440,"player_count":0,"max_players":24,"Bots":0,"server_type":"Dedicated","server_os":"Linux","password":true,"vac":true,"version":"7961495","steam_id":85568392925397854,"keywords":["cp","nocrits","nodmgspread","uncletopia"],"game_id":440,"stv_port":27056,"stv_name":"Uncletopia | Warsaw | 5 | Stopwatch | STV","players":null},{"server_id":54,"name":"Uncletopia | Warsaw | 6 | Community","name_short":"waw-6","host":"waw-1.pl.uncletopia.com","port":27065,"enabled":true,"region":"eu","cc":"pl","latitude":52.2297,"longitude":21.017532,"reserved":0,"last_update":"0001-01-01T00:00:00Z","name_a2s":"Uncletopia | Warsaw | 6 | Community","protocol":17,"map":"workshop/cp_propaganda_b18.ugc1603743849","folder":"tf","game":"Team Fortress","app_id":440,"player_count":0,"max_players":24,"Bots":0,"server_type":"Dedicated","server_os":"Linux","password":true,"vac":true,"version":"7961495","steam_id":85568392925397856,"keywords":["cp","nocrits","nodmgspread","uncletopia"],"game_id":440,"stv_port":27066,"stv_name":"Uncletopia | Warsaw | 6 | Community | STV","players":null}]}