{"status":true,"message":"","result":[{"server_id":9,"name":"Uncletopia | Atlanta | 1 | All Maps","name_short":"atl-1","host":"atl-1.us.uncletopia.com","port":27015,"enabled":true,"region":"us-east","cc":"us","latitude":33.753746,"longitude":-84.38633,"reserved":0,"last_update":"0001-01-01T00:00:00Z","name_a2s":"Uncletopia | Atlanta | 1 | All Maps","protocol":17,"map":"cp_mossrock","folder":"tf","game":"Team Fortress","app_id":440,"player_count":24,"max_players":24,"Bots":0,"server_type":"Dedicated","server_os":"Linux","password":true,"vac":true,"version":"7882260","steam_id":85568392924469982,"keywords":["cp","nocrits","nodmgspread","uncletopia"],"game_id":440,"stv_port":27016,"stv_name":"Uncletopia | Atlanta | 1 | All Maps | STV","players":[{"user_id":656,"name":"starvin like marvin","steam_id":76561198347286009,"connected_time":2890000000000,"state":"active","ping":69},{"user_id":618,"name":"TheRealMud","steam_id":76561198138312993,"connected_time":5365000000000,"state":"active","ping":82},{"user_id":678,"name":"win stupid prizes","steam_id":76561198262827851,"connected_time":986000000000,"state":"active","ping":96},{"user_id":671,"name":"A Literal Goblin","steam_id":76561199122306809,"connected_time":1546000000000,"state":"active","ping":57},{"user_id":672,"name":"Panda McSpycrab","steam_id":76561198163545310,"connected_time":1514000000000,"state":"active","ping":76},{"user_id":687,"name":"sexyvillain","steam_id":76561198083127707,"connected_time":639000000000,"state":"active","ping":69},{"user_id":688,"name":"Hifumi Togo","steam_id":76561198074930636,"connected_time":445000000000,"state":"active","ping":58},{"user_id":673,"name":"Scaredy Cat","steam_id":76561198246037452,"connected_time":1335000000000,"state":"active","ping":92},{"user_id":690,"name":"Brendan","steam_id":76561198041079914,"connected_time":246000000000,"state":"active","ping":62},{"user_id":677,"name":"monster girl","steam_id":76561198265633146,"connected_time":1005000000000,"state":"active","ping":116},{"user_id":679,"name":"Portabello","steam_id":76561198092412930,"connected_time":954000000000,"state":"active","ping":93},{"user_id":680,"name":"rippinthebon","steam_id":76561198306448569,"connected_time":942000000000,"state":"active","ping":74},{"user_id":681,"name":"SoulSilvey","steam_id":76561198368938130,"connected_time":916000000000,"state":"active","ping":47},{"user_id":638,"name":"Swiggs","steam_id":76561198135015291,"connected_time":3706000000000,"state":"active","ping":88},{"user_id":670,"name":"BattleWriter","steam_id":76561198059618706,"connected_time":1752000000000,"state":"active","ping":75},{"user_id":666,"name":"bron jame","steam_id":76561198202195792,"connected_time":2208000000000,"state":"active","ping":71},{"user_id":682,"name":"ThugSlug","steam_id":76561198086098047,"connected_time":888000000000,"state":"active","ping":64},{"user_id":661,"name":"\u003c blank \u003e","steam_id":76561198012566503,"connected_time":2671000000000,"state":"active","ping":96},{"user_id":683,"name":"medd","steam_id":76561198078238722,"connected_time":884000000000,"state":"active","ping":105},{"user_id":684,"name":"Bleok","steam_id":76561198078212322,"connected_time":869000000000,"state":"active","ping":106},{"user_id":685,"name":"Gustavo Fring","steam_id":76561198132807405,"connected_time":867000000000,"state":"active","ping":89},{"user_id":686,"name":".-.. --- ...- . / -.-- --- ..-","steam_id":76561198002483206,"connected_time":845000000000,"state":"active","ping":60},{"user_id":689,"name":"Quietsharp","steam_id":76561198277968438,"connected_time":438000000000,"state":"active","ping":105},{"user_id":667,"name":"Father Jon","steam_id":76561198324730919,"connected_time":2200000000000,"state":"active","ping":89}]},{"server_id":104,"name":"Uncletopia | Atlanta | 2 | All Maps","name_short":"atl-2","host":"atl-1.us.uncletopia.com","port":27025,"enabled":true,"region":"us-east","cc":"us","latitude":33.753746,"longitude":-84.38633,"reserved":0,"last_update":"0001-01-01T00:00:00Z","name_a2s":"Uncletopia | Atlanta | 2 | All Maps","protocol":17,"map":"koth_viaduct","folder":"tf","game":"Team Fortress","app_id":440,"player_count":0,"max_players":24,"Bots":0,"server_type":"Dedicated","server_os":"Linux","password":true,"vac":true,"version":"7882260","steam_id":85568392924469983,"keywords":["cp","nocrits","nodmgspread","uncletopia"],"game_id":440,"stv_port":27026,"stv_name":"Uncletopia | Atlanta | 2 | All Maps | STV","players":null},{"server_id":400,"name":"Uncletopia | Atlanta | 3 | Community","name_short":"atl-3","host":"atl-1.us.uncletopia.com","port":27035,"enabled":true,"region":"us-east","cc":"us","latitude":33.753746,"longitude":-84.38633,"reserved":0,"last_update":"0001-01-01T00:00:00Z","name_a2s":"Uncletopia | Atlanta | 3 | Community","protocol":17,"map":"workshop/cp_indulge.ugc528106646","folder":"tf","game":"Team Fortress","app_id":440,"player_count":0,"max_players":24,"Bots":0,"server_type":"Dedicated","server_os":"Linux","password":true,"vac":true,"version":"7882260","steam_id":85568392924515187,"keywords":["cp","nocrits","nodmgspread","uncletopia"],"game_id":440,"stv_port":27036,"stv_name":"Uncletopia | Atlanta | 3 | Community | STV","players":null},{"server_id":401,"name":"Uncletopia | Atlanta | 4 | No Payload","name_short":"atl-4","host":"atl-1.us.uncletopia.com","port":27045,"enabled":true,"region":"us-east","cc":"us","latitude":33.753746,"longitude":-84.38633,"reserved":0,"last_update":"0001-01-01T00:00:00Z","name_a2s":"","protocol":0,"map":"","folder":"","game":"","app_id":0,"player_count":0,"max_players":0,"Bots":0,"server_type":"","server_os":"","password":false,"vac":false,"version":"","steam_id":0,"keywords":null,"game_id":0,"stv_port":0,"stv_name":"","players":null},{"server_id":2,"name":"Uncletopia | Chicago | 1 | All Maps","name_short":"chi-1","host":"chi-1.us.uncletopia.com","port":27015,"enabled":true,"region":"us-central","cc":"us","latitude":41.881832,"longitude":-87.62318,"reserved":0,"last_update":"0001-01-01T00:00:00Z","name_a2s":"Uncletopia | Chicago | 1 | All Maps","protocol":17,"map":"ctf_2fort","folder":"tf","game":"Team Fortress","app_id":440,"player_count":19,"max_players":24,"Bots":0,"server_type":"Dedicated","server_os":"Linux","password":true,"vac":true,"version":"7882260","steam_id":85568392924469984,"keywords":["ctf","nocrits","nodmgspread","uncletopia"],"game_id":440,"stv_port":27016,"stv_name":"Uncletopia | Chicago | 1 | All Maps | STV","players":[{"user_id":889,"name":"Project_Counter","steam_id":76561198152786076,"connected_time":2325000000000,"state":"active","ping":69},{"user_id":915,"name":"Cheeky Valentino","steam_id":76561198067185571,"connected_time":269000000000,"state":"active","ping":60},{"user_id":916,"name":"Sky","steam_id":76561198853245153,"connected_time":232000000000,"state":"active","ping":91},{"user_id":880,"name":"DMJanitor","steam_id":76561198058929753,"connected_time":2664000000000,"state":"active","ping":103},{"user_id":913,"name":"salamandood","steam_id":76561198028493074,"connected_time":505000000000,"state":"active","ping":127},{"user_id":917,"name":"Mr_Glitch","steam_id":76561199401322907,"connected_time":67000000000,"state":"active","ping":59},{"user_id":918,"name":"Merlinzbeard","steam_id":76561199428305712,"connected_time":64000000000,"state":"active","ping":67},{"user_id":919,"name":"ShadowBolt","steam_id":76561198061610985,"connected_time":23000000000,"state":"active","ping":116},{"user_id":895,"name":"g8rade","steam_id":76561198070593964,"connected_time":1727000000000,"state":"active","ping":74},{"user_id":896,"name":"Devorous","steam_id":76561198098418776,"connected_time":1726000000000,"state":"active","ping":87},{"user_id":906,"name":"goopshit","steam_id":76561198126489501,"connected_time":1139000000000,"state":"active","ping":47},{"user_id":910,"name":"AddWhiteTea","steam_id":76561198347175465,"connected_time":781000000000,"state":"active","ping":77},{"user_id":904,"name":"OsoNervous","steam_id":76561198335305893,"connected_time":1292000000000,"state":"active","ping":60},{"user_id":882,"name":"Gloop","steam_id":76561198063925499,"connected_time":2646000000000,"state":"active","ping":60},{"user_id":897,"name":"NEЯO","steam_id":76561197965450216,"connected_time":1681000000000,"state":"active","ping":97},{"user_id":884,"name":"Bloop","steam_id":76561198253563271,"connected_time":2610000000000,"state":"active","ping":48},{"user_id":898,"name":"Neo Kojiro","steam_id":76561198000967076,"connected_time":1573000000000,"state":"active","ping":74},{"user_id":893,"name":"Banana Dispenser","steam_id":76561198446549451,"connected_time":1826000000000,"state":"active","ping":88},{"user_id":905,"name":"goblino","steam_id":76561198068260422,"connected_time":1241000000000,"state":"active","ping":47}]},{"server_id":106,"name":"Uncletopia | Chicago | 2 | All Maps","name_short":"chi-2","host":"chi-1.us.uncletopia.com","port":27025,"enabled":true,"region":"us-central","cc":"us","latitude":41.881832,"longitude":-87.62318,"reserved":0,"last_update":"0001-01-01T00:00:00Z","name_a2s":"Uncletopia | Chicago | 2 | All Maps","protocol":17,"map":"plr_pipeline","folder":"tf","game":"Team Fortress","app_id":440,"player_count":15,"max_players":24,"Bots":0,"server_type":"Dedicated","server_os":"Linux","password":true,"vac":true,"version":"7882260","steam_id":85568392924469985,"keywords":["nocrits","nodmgspread","payload","uncletopia"],"game_id":440,"stv_port":27026,"stv_name":"Uncletopia | Chicago | 2 | All Maps | STV","players":[{"user_id":840,"name":"[DEEP] Danmar33","steam_id":76561198056453091,"connected_time":2329000000000,"state":"active","ping":74},{"user_id":842,"name":"Codo Sapien","steam_id":76561198014206810,"connected_time":1982000000000,"state":"active","ping":30},{"user_id":843,"name":"Lope","steam_id":76561198169381232,"connected_time":1980000000000,"state":"active","ping":88},{"user_id":852,"name":"Iron Argus","steam_id":76561198181088245,"connected_time":1126000000000,"state":"active","ping":71},{"user_id":844,"name":"Digital Lummox","steam_id":76561198136198600,"connected_time":1968000000000,"state":"active","ping":71},{"user_id":827,"name":"X_Sniper7","steam_id":76561198081097640,"connected_time":3765000000000,"state":"active","ping":73},{"user_id":856,"name":"Stitches Get Snitches","steam_id":76561198059791435,"connected_time":167000000000,"state":"active","ping":91},{"user_id":857,"name":"MedRed™ #IATAH","steam_id":76561198002962970,"connected_time":155000000000,"state":"active","ping":100},{"user_id":858,"name":"nothing burger eater","steam_id":76561198046201690,"connected_time":93000000000,"state":"active","ping":150},{"user_id":847,"name":"Free1337","steam_id":76561198034160133,"connected_time":1524000000000,"state":"active","ping":56},{"user_id":849,"name":"Sans","steam_id":76561199163622552,"connected_time":1393000000000,"state":"active","ping":133},{"user_id":850,"name":"asp eater","steam_id":76561198070547748,"connected_time":1335000000000,"state":"active","ping":56},{"user_id":859,"name":"Batsy","steam_id":76561198044767185,"connected_time":77000000000,"state":"active","ping":55},{"user_id":800,"name":"Castroy","steam_id":76561198108160099,"connected_time":5832000000000,"state":"active","ping":64}]},{"server_id":402,"name":"Uncletopia | Chicago | 3 | All Maps","name_short":"chi-3","host":"chi-1.us.uncletopia.com","port":27035,"enabled":true,"region":"us-central","cc":"us","latitude":41.881832,"longitude":-87.62318,"reserved":0,"last_update":"0001-01-01T00:00:00Z","name_a2s":"Uncletopia | Chicago | 3 | All Maps","protocol":17,"map":"koth_lakeside_final","folder":"tf","game":"Team Fortress","app_id":440,"player_count":18,"max_players":24,"Bots":0,"server_type":"Dedicated","server_os":"Linux","password":true,"vac":true,"version":"7882260","steam_id":85568392924515191,"keywords":["cp","nocrits","nodmgspread","uncletopia"],"game_id":440,"stv_port":27036,"stv_name":"Uncletopia | Chicago | 3 | All Maps | STV","players":[{"user_id":735,"name":"gNarNar","steam_id":76561197994505205,"connected_time":5585000000000,"state":"active","ping":64},{"user_id":677,"name":"Hope","steam_id":76561199182558088,"connected_time":8973000000000,"state":"active","ping":65},{"user_id":790,"name":"Vasto23223","steam_id":76561199160490022,"connected_time":940000000000,"state":"active","ping":81},{"user_id":789,"name":"Areg (real)","steam_id":76561198035130968,"connected_time":965000000000,"state":"active","ping":56},{"user_id":778,"name":"pHsHy","steam_id":76561198013195018,"connected_time":2337000000000,"state":"active","ping":71},{"user_id":793,"name":"Kasodani Kyouko","steam_id":76561198023178589,"connected_time":341000000000,"state":"active","ping":81},{"user_id":794,"name":"Cherry Bomb!","steam_id":76561198017947020,"connected_time":341000000000,"state":"active","ping":61},{"user_id":795,"name":"my money washed like george","steam_id":76561198115458307,"connected_time":270000000000,"state":"active","ping":98},{"user_id":798,"name":"Rafl","steam_id":76561198055222756,"connected_time":153000000000,"state":"active","ping":60},{"user_id":797,"name":"Emperor Dankatine","steam_id":76561198044741086,"connected_time":242000000000,"state":"active","ping":84},{"user_id":777,"name":"Wizard Raccoon","steam_id":76561198072562591,"connected_time":2495000000000,"state":"active","ping":75},{"user_id":717,"name":"Truffles","steam_id":76561198095868800,"connected_time":7383000000000,"state":"active","ping":83},{"user_id":792,"name":"dmikewilcox","steam_id":76561198060700489,"connected_time":468000000000,"state":"active","ping":45},{"user_id":785,"name":"austintacious","steam_id":76561198054118061,"connected_time":1117000000000,"state":"active","ping":60},{"user_id":781,"name":"Ice","steam_id":76561198045076794,"connected_time":1666000000000,"state":"active","ping":49},{"user_id":791,"name":"Danger McHazard","steam_id":76561198059451274,"connected_time":909000000000,"state":"active","ping":102},{"user_id":671,"name":"Grand","steam_id":76561198290143399,"connected_time":10110000000000,"state":"active","ping":74},{"user_id":784,"name":"BoneHeadTRex","steam_id":76561199438411250,"connected_time":1562000000000,"state":"active","ping":95}]},{"server_id":403,"name":"Uncletopia | Chicago | 4 | All Maps","name_short":"chi-4","host":"chi-1.us.uncletopia.com","port":27045,"enabled":true,"region":"us-central","cc":"us","latitude":41.881832,"longitude":-87.62318,"reserved":0,"last_update":"0001-01-01T00:00:00Z","name_a2s":"Uncletopia | Chicago | 4 | All Maps","protocol":17,"map":"koth_highpass","folder":"tf","game":"Team Fortress","app_id":440,"player_count":0,"max_players":24,"Bots":0,"server_type":"Dedicated","server_os":"Linux","password":true,"vac":true,"version":"7882260","steam_id":85568392924515193,"keywords":["cp","nocrits","nodmgspread","uncletopia"],"game_id":440,"stv_port":27046,"stv_name":"Uncletopia | Chicago | 4 | All Maps | STV","players":null},{"server_id":36,"name":"Uncletopia | Chicago | 5 | All Maps","name_short":"chi-5","host":"chi-2.us.uncletopia.com","port":27015,"enabled":true,"region":"us-central","cc":"us","latitude":41.881832,"longitude":-87.62318,"reserved":0,"last_update":"0001-01-01T00:00:00Z","name_a2s":"Uncletopia | Chicago | 5 | All Maps","protocol":17,"map":"koth_cascade","folder":"tf","game":"Team Fortress","app_id":440,"player_count":0,"max_players":24,"Bots":0,"server_type":"Dedicated","server_os":"Linux","password":true,"vac":true,"version":"7882260","steam_id":85568392924866362,"keywords":["cp","nocrits","nodmgspread","uncletopia"],"game_id":440,"stv_port":27016,"stv_name":"Uncletopia | Chicago | 5 | All Maps | STV","players":null},{"server_id":37,"name":"Uncletopia | Chicago | 6 | All Maps","name_short":"chi-6","host":"chi-2.us.uncletopia.com","port":27025,"enabled":true,"region":"us-central","cc":"us","latitude":41.881832,"longitude":-87.62318,"reserved":0,"last_update":"0001-01-01T00:00:00Z","name_a2s":"Uncletopia | Chicago | 6 | All Maps","protocol":17,"map":"pl_upward","folder":"tf","game":"Team Fortress","app_id":440,"player_count":23,"max_players":24,"Bots":0,"server_type":"Dedicated","server_os":"Linux","password":true,"vac":true,"version":"7882260","steam_id":85568392924866363,"keywords":["nocrits","nodmgspread","payload","uncletopia"],"game_id":440,"stv_port":27026,"stv_name":"Uncletopia | Chicago | 6 | All Maps | STV","players":[{"user_id":739,"name":"Hobo Bobo","steam_id":76561198240537922,"connected_time":19000000000,"state":"spawning","ping":54},{"user_id":723,"name":"Zeppy but legal","steam_id":76561199068188042,"connected_time":769000000000,"state":"active","ping":77},{"user_id":724,"name":"MrKnight3356","steam_id":76561198036698257,"connected_time":721000000000,"state":"active","ping":69},{"user_id":725,"name":"darknightdawn","steam_id":76561198864634150,"connected_time":715000000000,"state":"active","ping":118},{"user_id":691,"name":"Grape Sauce","steam_id":76561198140136651,"connected_time":2743000000000,"state":"active","ping":78},{"user_id":713,"name":"Olly","steam_id":76561198054273611,"connected_time":1408000000000,"state":"active","ping":66},{"user_id":738,"name":"TF2 2023 SUMMER UPDATE","steam_id":76561198084982609,"connected_time":147000000000,"state":"active","ping":75},{"user_id":690,"name":"Sly_Soviet","steam_id":76561199138465888,"connected_time":2763000000000,"state":"active","ping":85},{"user_id":721,"name":"kate♡","steam_id":76561198138087644,"connected_time":872000000000,"state":"active","ping":103},{"user_id":733,"name":"Jade","steam_id":76561198092408457,"connected_time":490000000000,"state":"active","ping":100},{"user_id":729,"name":"puppy :3","steam_id":76561198011196264,"connected_time":627000000000,"state":"active","ping":45},{"user_id":645,"name":"SpecialForce19","steam_id":76561198120974644,"connected_time":5710000000000,"state":"active","ping":74},{"user_id":710,"name":"slep.py","steam_id":76561197988287144,"connected_time":1744000000000,"state":"active","ping":58},{"user_id":716,"name":"herb","steam_id":76561198185980055,"connected_time":1269000000000,"state":"active","ping":63},{"user_id":698,"name":"BOT Positronic♥June","steam_id":76561198042556857,"connected_time":2349000000000,"state":"active","ping":49},{"user_id":686,"name":"00GENESIS","steam_id":76561198135559825,"connected_time":3133000000000,"state":"active","ping":59},{"user_id":689,"name":"Ġ1 ♦ Synth","steam_id":76561198058660228,"connected_time":2947000000000,"state":"active","ping":55},{"user_id":734,"name":"frank","steam_id":76561198137777483,"connected_time":469000000000,"state":"active","ping":64},{"user_id":717,"name":"xd Clover","steam_id":76561198038905361,"connected_time":1266000000000,"state":"active","ping":59},{"user_id":735,"name":"GuyGoom","steam_id":76561198254522178,"connected_time":459000000000,"state":"active","ping":60},{"user_id":722,"name":"Just Tyrone","steam_id":76561198031912345,"connected_time":860000000000,"state":"active","ping":81},{"user_id":736,"name":"Sensei Wu","steam_id":76561198335403471,"connected_time":398000000000,"state":"active","ping":55},{"user_id":707,"name":"kiseek","steam_id":76561198075474088,"connected_time":1996000000000,"state":"active","ping":85}]},{"server_id":38,"name":"Uncletopia | Chicago | 7 | Stopwatch Beta","name_short":"chi-7","host":"chi-2.us.uncletopia.com","port":27035,"enabled":true,"region":"us-central","cc":"us","latitude":41.881832,"longitude":-87.62318,"reserved":0,"last_update":"0001-01-01T00:00:00Z","name_a2s":"Uncletopia | Chicago | 7 | Stopwatch Beta","protocol":17,"map":"koth_highpass","folder":"tf","game":"Team Fortress","app_id":440,"player_count":0,"max_players":24,"Bots":0,"server_type":"Dedicated","server_os":"Linux","password":true,"vac":true,"version":"7882260","steam_id":85568392924866364,"keywords":["cp","nocrits","nodmgspread","uncletopia"],"game_id":440,"stv_port":27036,"stv_name":"Uncletopia | Chicago | 7 | Stopwatch Beta | STV","players":null},{"server_id":39,"name":"Uncletopia | Chicago | 8 | Community","name_short":"chi-8","host":"chi-2.us.uncletopia.com","port":27045,"enabled":true,"region":"us-central","cc":"us","latitude":41.881832,"longitude":-87.62318,"reserved":0,"last_update":"0001-01-01T00:00:00Z","name_a2s":"Uncletopia | Chicago | 8 | Community","protocol":17,"map":"workshop/koth_trenchfoot_b1a.ugc731436616","folder":"tf","game":"Team Fortress","app_id":440,"player_count":0,"max_players":24,"Bots":0,"server_type":"Dedicated","server_os":"Linux","password":true,"vac":true,"version":"7882260","steam_id":85568392924866365,"keywords":["cp","nocrits","nodmgspread","uncletopia"],"game_id":440,"stv_port":27046,"stv_name":"Uncletopia | Chicago | 8 | Community | STV","players":null},{"server_id":8,"name":"Uncletopia | Dallas | 1 | All Maps","name_short":"dal-1","host":"dal-1.us.uncletopia.com","port":27015,"enabled":true,"region":"us-central","cc":"us","latitude":32.779167,"longitude":-96.80889,"reserved":0,"last_update":"0001-01-01T00:00:00Z","name_a2s":"Uncletopia | Dallas | 1 | All Maps","protocol":17,"map":"cp_snakewater_final1","folder":"tf","game":"Team Fortress","app_id":440,"player_count":23,"max_players":24,"Bots":0,"server_type":"Dedicated","server_os":"Linux","password":true,"vac":true,"version":"7882260","steam_id":85568392924469986,"keywords":["cp","nocrits","nodmgspread","uncletopia"],"game_id":440,"stv_port":27016,"stv_name":"Uncletopia | Dallas | 1 | All Maps | STV","players":[{"user_id":916,"name":"Long of Neck","steam_id":76561198038997485,"connected_time":1144000000000,"state":"active","ping":93},{"user_id":928,"name":"St. Michael","steam_id":76561198037611052,"connected_time":286000000000,"state":"active","ping":44},{"user_id":925,"name":"pigswill","steam_id":76561197999081865,"connected_time":417000000000,"state":"active","ping":90},{"user_id":862,"name":"errant","steam_id":76561197961758410,"connected_time":3480000000000,"state":"active","ping":45},{"user_id":929,"name":"ErikG65USA","steam_id":76561199381735619,"connected_time":259000000000,"state":"active","ping":60},{"user_id":932,"name":"NavyPizza13","steam_id":76561198149638735,"connected_time":135000000000,"state":"active","ping":57},{"user_id":931,"name":"Wso1123","steam_id":76561198048040111,"connected_time":150000000000,"state":"active","ping":63},{"user_id":922,"name":"unused canyon","steam_id":76561198042116753,"connected_time":570000000000,"state":"active","ping":106},{"user_id":934,"name":"themadlad67","steam_id":76561199309554436,"connected_time":89000000000,"state":"active","ping":101},{"user_id":835,"name":"AzuriousAlex","steam_id":76561198158026405,"connected_time":5185000000000,"state":"active","ping":85},{"user_id":891,"name":"jumbi","steam_id":76561198353456379,"connected_time":1946000000000,"state":"active","ping":64},{"user_id":920,"name":"GROOVYROOM","steam_id":76561199153684166,"connected_time":724000000000,"state":"active","ping":76},{"user_id":912,"name":"Howoriginal","steam_id":76561197993701184,"connected_time":1297000000000,"state":"active","ping":82},{"user_id":935,"name":"Hector Salamanca","steam_id":76561199103213955,"connected_time":70000000000,"state":"active","ping":480},{"user_id":895,"name":"TOKENLIZARD","steam_id":76561198218765205,"connected_time":1772000000000,"state":"active","ping":62},{"user_id":936,"name":"Big Tony","steam_id":76561198086790000,"connected_time":62000000000,"state":"active","ping":104},{"user_id":904,"name":"Teh_Hsky","steam_id":76561198798630221,"connected_time":1472000000000,"state":"active","ping":68},{"user_id":913,"name":"Little King Trash Mouth","steam_id":76561198241162728,"connected_time":1282000000000,"state":"active","ping":88},{"user_id":924,"name":"Otael","steam_id":76561198040685975,"connected_time":448000000000,"state":"active","ping":54},{"user_id":905,"name":"Wonglee","steam_id":76561199310553655,"connected_time":1456000000000,"state":"active","ping":81},{"user_id":937,"name":"cesartele3000","steam_id":76561198142149479,"connected_time":56000000000,"state":"active","ping":95},{"user_id":915,"name":"Prof. Eggnog","steam_id":76561198193389166,"connected_time":1278000000000,"state":"active","ping":98},{"user_id":857,"name":"Lox","steam_id":76561198255838610,"connected_time":3765000000000,"state":"active","ping":90}]},{"server_id":108,"name":"Uncletopia | Dallas | 2 | All Maps","name_short":"dal-2","host":"dal-1.us.uncletopia.com","port":27025,"enabled":true,"region":"us-central","cc":"us","latitude":32.779167,"longitude":-96.80889,"reserved":0,"last_update":"0001-01-01T00:00:00Z","name_a2s":"Uncletopia | Dallas | 2 | All Maps","protocol":17,"map":"koth_king","folder":"tf","game":"Team Fortress","app_id":440,"player_count":14,"max_players":24,"Bots":0,"server_type":"Dedicated","server_os":"Linux","password":true,"vac":true,"version":"7882260","steam_id":85568392924469988,"keywords":["cp","nocrits","nodmgspread","uncletopia"],"game_id":440,"stv_port":27026,"stv_name":"Uncletopia | Dallas | 2 | All Maps | STV","players":[{"user_id":624,"name":"Oni","steam_id":76561198112066584,"connected_time":2943000000000,"state":"active","ping":61},{"user_id":665,"name":"Profer","steam_id":76561198055072617,"connected_time":279000000000,"state":"active","ping":99},{"user_id":667,"name":"gromit","steam_id":76561198037746805,"connected_time":249000000000,"state":"active","ping":84},{"user_id":668,"name":"Anything_but_Human","steam_id":76561198104340789,"connected_time":117000000000,"state":"active","ping":57},{"user_id":581,"name":"Skullflesh","steam_id":76561198286722734,"connected_time":7331000000000,"state":"active","ping":173},{"user_id":645,"name":"Nüþ","steam_id":76561198043956703,"connected_time":1704000000000,"state":"active","ping":75},{"user_id":669,"name":"grillbyssisoloeso","steam_id":76561199105132740,"connected_time":31000000000,"state":"spawning","ping":78},{"user_id":655,"name":"EvilPigglet","steam_id":76561197987243470,"connected_time":1355000000000,"state":"active","ping":90},{"user_id":623,"name":"SIGMA [BS]","steam_id":76561197962604879,"connected_time":3063000000000,"state":"active","ping":84},{"user_id":641,"name":"chhiccennuggett","steam_id":76561198125864630,"connected_time":2386000000000,"state":"active","ping":72},{"user_id":631,"name":"dweaver","steam_id":76561198119610135,"connected_time":2617000000000,"state":"active","ping":61},{"user_id":653,"name":"Scout","steam_id":76561198140517330,"connected_time":1418000000000,"state":"active","ping":69},{"user_id":661,"name":"Nimro","steam_id":76561198049334200,"connected_time":843000000000,"state":"active","ping":86},{"user_id":654,"name":"Mobius","steam_id":76561199121973450,"connected_time":1407000000000,"state":"active","ping":76}]},{"server_id":5,"name":"Uncletopia | Frankfurt | 1 | All Maps","name_short":"frk-1","host":"frk-1.de.uncletopia.com","port":27015,"enabled":true,"region":"eu","cc":"de","latitude":50.110924,"longitude":8.682127,"reserved":0,"last_update":"0001-01-01T00:00:00Z","name_a2s":"Uncletopia | Frankfurt | 1 | All Maps","protocol":17,"map":"cp_process_final","folder":"tf","game":"Team Fortress","app_id":440,"player_count":0,"max_players":24,"Bots":0,"server_type":"Dedicated","server_os":"Linux","password":true,"vac":true,"version":"7882260","steam_id":85568392924469989,"keywords":["cp","nocrits","nodmgspread","uncletopia"],"game_id":440,"stv_port":27016,"stv_name":"Uncletopia | Frankfurt | 1 | All Maps | STV","players":null},{"server_id":110,"name":"Uncletopia | Frankfurt | 2 | All Maps","name_short":"frk-2","host":"frk-1.de.uncletopia.com","port":27025,"enabled":true,"region":"eu","cc":"de","latitude":50.110924,"longitude":8.682127,"reserved":0,"last_update":"0001-01-01T00:00:00Z","name_a2s":"Uncletopia | Frankfurt | 2 | All Maps","protocol":17,"map":"pl_swiftwater_final1","folder":"tf","game":"Team Fortress","app_id":440,"player_count":0,"max_players":24,"Bots":0,"server_type":"Dedicated","server_os":"Linux","password":true,"vac":true,"version":"7882260","steam_id":85568392924469990,"keywords":["nocrits","nodmgspread","payload","uncletopia"],"game_id":440,"stv_port":27026,"stv_name":"Uncletopia | Frankfurt | 2 | All Maps | STV","players":null},{"server_id":308,"name":"Uncletopia | Frankfurt | 3 | All Maps","name_short":"frk-3","host":"frk-1.de.uncletopia.com","port":27035,"enabled":true,"region":"eu","cc":"de","latitude":50.110924,"longitude":8.682127,"reserved":0,"last_update":"0001-01-01T00:00:00Z","name_a2s":"Uncletopia | Frankfurt | 3 | All Maps","protocol":17,"map":"cp_snakewater_final1","folder":"tf","game":"Team Fortress","app_id":440,"player_count":0,"max_players":24,"Bots":0,"server_type":"Dedicated","server_os":"Linux","password":true,"vac":true,"version":"7882260","steam_id":85568392924504274,"keywords":["cp","nocrits","nodmgspread","uncletopia"],"game_id":440,"stv_port":27036,"stv_name":"Uncletopia | Frankfurt | 3 | All Maps | STV","players":null},{"server_id":309,"name":"Uncletopia | Frankfurt | 4 | All Maps","name_short":"frk-4","host":"frk-1.de.uncletopia.com","port":27045,"enabled":true,"region":"eu","cc":"de","latitude":50.110924,"longitude":8.682127,"reserved":0,"last_update":"0001-01-01T00:00:00Z","name_a2s":"Uncletopia | Frankfurt | 4 | All Maps","protocol":17,"map":"pl_badwater","folder":"tf","game":"Team Fortress","app_id":440,"player_count":0,"max_players":24,"Bots":0,"server_type":"Dedicated","server_os":"Linux","password":true,"vac":true,"version":"7882260","steam_id":85568392924504275,"keywords":["nocrits","nodmgspread","payload","uncletopia"],"game_id":440,"stv_port":27046,"stv_name":"Uncletopia | Frankfurt | 4 | All Maps | STV","players":null},{"server_id":310,"name":"Uncletopia | Frankfurt | 5 | All Maps","name_short":"frk-5","host":"frk-1.de.uncletopia.com","port":27055,"enabled":true,"region":"eu","cc":"de","latitude":50.110924,"longitude":8.682127,"reserved":0,"last_update":"0001-01-01T00:00:00Z","name_a2s":"Uncletopia | Frankfurt | 5 | All Maps","protocol":17,"map":"cp_mountainlab","folder":"tf","game":"Team Fortress","app_id":440,"player_count":0,"max_players":24,"Bots":0,"server_type":"Dedicated","server_os":"Linux","password":true,"vac":true,"version":"7882260","steam_id":85568392924504277,"keywords":["cp","nocrits","nodmgspread","uncletopia"],"game_id":440,"stv_port":27056,"stv_name":"Uncletopia | Frankfurt | 5 | All Maps | STV","players":null},{"server_id":311,"name":"Uncletopia | Frankfurt | 6 | All Maps","name_short":"frk-6","host":"frk-1.de.uncletopia.com","port":27065,"enabled":true,"region":"eu","cc":"de","latitude":50.110924,"longitude":8.682127,"reserved":0,"last_update":"0001-01-01T00:00:00Z","name_a2s":"Uncletopia | Frankfurt | 6 | All Maps","protocol":17,"map":"pl_badwater","folder":"tf","game":"Team Fortress","app_id":440,"player_count":0,"max_players":24,"Bots":0,"server_type":"Dedicated","server_os":"Linux","password":true,"vac":true,"version":"7882260","steam_id":85568392924504278,"keywords":["nocrits","nodmgspread","payload","uncletopia"],"game_id":440,"stv_port":27066,"stv_name":"Uncletopia | Frankfurt | 6 | All Maps | STV","players":null},{"server_id":23,"name":"Uncletopia | Frankfurt | 7 | Stopwatch Beta","name_short":"frk-7","host":"frk-1.de.uncletopia.com","port":27075,"enabled":true,"region":"eu","cc":"de","latitude":50.110924,"longitude":8.682127,"reserved":0,"last_update":"0001-01-01T00:00:00Z","name_a2s":"Uncletopia | Frankfurt | 7 | Stopwatch Beta","protocol":17,"map":"cp_dustbowl","folder":"tf","game":"Team Fortress","app_id":440,"player_count":0,"max_players":24,"Bots":0,"server_type":"Dedicated","server_os":"Linux","password":true,"vac":true,"version":"7882260","steam_id":85568392924742827,"keywords":["cp","nocrits","nodmgspread","uncletopia"],"game_id":440,"stv_port":27076,"stv_name":"Uncletopia | Frankfurt | 7 | Stopwatch Beta | STV","players":null},{"server_id":24,"name":"Uncletopia | Frankfurt | 8 | Community","name_short":"frk-8","host":"frk-1.de.uncletopia.com","port":27085,"enabled":true,"region":"eu","cc":"de","latitude":50.110924,"longitude":8.682127,"reserved":0,"last_update":"0001-01-01T00:00:00Z","name_a2s":"Uncletopia | Frankfurt | 8 | Community","protocol":17,"map":"koth_cascade","folder":"tf","game":"Team Fortress","app_id":440,"player_count":0,"max_players":24,"Bots":0,"server_type":"Dedicated","server_os":"Linux","password":true,"vac":true,"version":"7882260","steam_id":85568392924742828,"keywords":["cp","nocrits","nodmgspread","uncletopia"],"game_id":440,"stv_port":27086,"stv_name":"Uncletopia | Frankfurt | 8 | Community | STV","players":null},{"server_id":202,"name":"Uncletopia | Hong Kong | 1 | All Maps","name_short":"hgk-1","host":"hgk-1.hk.uncletopia.com","port":27015,"enabled":true,"region":"asia","cc":"hk","latitude":22.302711,"longitude":114.177216,"reserved":0,"last_update":"0001-01-01T00:00:00Z","name_a2s":"Uncletopia | Hong Kong | 1 | All Maps","protocol":17,"map":"koth_cascade","folder":"tf","game":"Team Fortress","app_id":440,"player_count":0,"max_players":24,"Bots":0,"server_type":"Dedicated","server_os":"Linux","password":true,"vac":true,"version":"7882260","steam_id":85568392924494504,"keywords":["cp","nocrits","nodmgspread","uncletopia"],"game_id":440,"stv_port":27016,"stv_name":"Uncletopia | Hong Kong | 1 | All Maps | STV","players":null},{"server_id":1,"name":"Uncletopia | Los Angeles | 1 | All Maps","name_short":"lax-1","host":"lax-1.us.uncletopia.com","port":27015,"enabled":true,"region":"us-west","cc":"us","latitude":33.94279,"longitude":-118.41004,"reserved":0,"last_update":"0001-01-01T00:00:00Z","name_a2s":"Uncletopia | Los Angeles | 1 | All Maps","protocol":17,"map":"pl_pier","folder":"tf","game":"Team Fortress","app_id":440,"player_count":24,"max_players":24,"Bots":0,"server_type":"Dedicated","server_os":"Linux","password":true,"vac":true,"version":"7882260","steam_id":85568392924469991,"keywords":["nocrits","nodmgspread","payload","uncletopia"],"game_id":440,"stv_port":27016,"stv_name":"Uncletopia | Los Angeles | 1 | All Maps | STV","players":[{"user_id":706,"name":"awning","steam_id":76561198202285760,"connected_time":572000000000,"state":"active","ping":86},{"user_id":717,"name":"Ian","steam_id":76561198159334435,"connected_time":42000000000,"state":"active","ping":190},{"user_id":654,"name":"Mapachito Lindo","steam_id":76561198031359995,"connected_time":3217000000000,"state":"active","ping":71},{"user_id":704,"name":"yarn","steam_id":76561197999666480,"connected_time":736000000000,"state":"active","ping":70},{"user_id":707,"name":"Funkboi","steam_id":76561198046235038,"connected_time":536000000000,"state":"active","ping":51},{"user_id":582,"name":"Lambchop","steam_id":76561198043900363,"connected_time":9686000000000,"state":"active","ping":71},{"user_id":655,"name":"Antking14","steam_id":76561198188971771,"connected_time":3207000000000,"state":"active","ping":70},{"user_id":672,"name":"Shamrock Shake Oct.10.2020 @8pm","steam_id":76561198833313201,"connected_time":2280000000000,"state":"active","ping":64},{"user_id":710,"name":"nazlite","steam_id":76561198111952315,"connected_time":524000000000,"state":"active","ping":124},{"user_id":703,"name":"mr.edderkopper","steam_id":76561198152614478,"connected_time":781000000000,"state":"active","ping":103},{"user_id":689,"name":"Archie","steam_id":76561198137112917,"connected_time":1262000000000,"state":"active","ping":58},{"user_id":670,"name":"evil jesus 05","steam_id":76561198419315893,"connected_time":2536000000000,"state":"active","ping":68},{"user_id":637,"name":"Ad3ptus","steam_id":76561198272045750,"connected_time":4854000000000,"state":"active","ping":63},{"user_id":682,"name":"Juul Room","steam_id":76561198132867238,"connected_time":2095000000000,"state":"active","ping":80},{"user_id":715,"name":"2 Point Tom","steam_id":76561198087617008,"connected_time":413000000000,"state":"active","ping":87},{"user_id":693,"name":"JorK0","steam_id":76561198429603041,"connected_time":1056000000000,"state":"active","ping":100},{"user_id":701,"name":"Female Gamer (Mythic)","steam_id":76561198261007627,"connected_time":854000000000,"state":"active","ping":99},{"user_id":713,"name":"CPTforever","steam_id":76561198237767198,"connected_time":496000000000,"state":"active","ping":58},{"user_id":712,"name":"ShadowDragon0125","steam_id":76561198343849022,"connected_time":502000000000,"state":"active","ping":99},{"user_id":657,"name":"bocaJ","steam_id":76561198374535092,"connected_time":3188000000000,"state":"active","ping":33},{"user_id":714,"name":"soupy","steam_id":76561197974283797,"connected_time":464000000000,"state":"active","ping":96},{"user_id":716,"name":"TheLostPyro","steam_id":76561198099991710,"connected_time":399000000000,"state":"active","ping":128},{"user_id":685,"name":"Gentle Opp 3","steam_id":76561198150406851,"connected_time":1735000000000,"state":"active","ping":57},{"user_id":696,"name":"jackin626","steam_id":76561198269277735,"connected_time":1024000000000,"state":"active","ping":68}]},{"server_id":112,"name":"Uncletopia | Los Angeles | 2 | All Maps","name_short":"lax-2","host":"lax-1.us.uncletopia.com","port":27025,"enabled":true,"region":"us-west","cc":"us","latitude":33.94279,"longitude":-118.41004,"reserved":0,"last_update":"0001-01-01T00:00:00Z","name_a2s":"Uncletopia | Los Angeles | 2 | All Maps","protocol":17,"map":"pl_frontier_final","folder":"tf","game":"Team Fortress","app_id":440,"player_count":22,"max_players":24,"Bots":0,"server_type":"Dedicated","server_os":"Linux","password":true,"vac":true,"version":"7882260","steam_id":85568392924469992,"keywords":["nocrits","nodmgspread","payload","uncletopia"],"game_id":440,"stv_port":27026,"stv_name":"Uncletopia | Los Angeles | 2 | All Maps | STV","players":[{"user_id":444,"name":"organic kale","steam_id":76561198101506575,"connected_time":6949000000000,"state":"active","ping":79},{"user_id":530,"name":"如願","steam_id":76561198038486613,"connected_time":867000000000,"state":"active","ping":116},{"user_id":492,"name":"Twombly","steam_id":76561198056532348,"connected_time":3300000000000,"state":"active","ping":54},{"user_id":531,"name":"dare","steam_id":76561197960977496,"connected_time":833000000000,"state":"active","ping":69},{"user_id":514,"name":"ba ba black sheep","steam_id":76561198206922028,"connected_time":1964000000000,"state":"active","ping":45},{"user_id":515,"name":"chikin.sauce","steam_id":76561198042464635,"connected_time":1908000000000,"state":"active","ping":84},{"user_id":512,"name":"hotdog every meal","steam_id":76561198392514273,"connected_time":1983000000000,"state":"active","ping":80},{"user_id":532,"name":"Hyfren","steam_id":76561198273992414,"connected_time":830000000000,"state":"active","ping":105},{"user_id":462,"name":"ElectronX","steam_id":76561198116034988,"connected_time":5518000000000,"state":"active","ping":54},{"user_id":536,"name":"Wendall555","steam_id":76561198985637603,"connected_time":304000000000,"state":"active","ping":69},{"user_id":533,"name":"Catticus","steam_id":76561198345819349,"connected_time":829000000000,"state":"active","ping":64},{"user_id":511,"name":"Sigmer","steam_id":76561198397023567,"connected_time":2009000000000,"state":"active","ping":71},{"user_id":502,"name":"DOPEam1ne","steam_id":76561198112204774,"connected_time":2174000000000,"state":"active","ping":57},{"user_id":538,"name":"spitnam","steam_id":76561198020515912,"connected_time":18000000000,"state":"spawning","ping":111},{"user_id":516,"name":"Fish Lambert","steam_id":76561198098279668,"connected_time":1900000000000,"state":"active","ping":92},{"user_id":517,"name":"Snork Porklet","steam_id":76561198022556859,"connected_time":1860000000000,"state":"active","ping":86},{"user_id":535,"name":"Hexalellogram","steam_id":76561198075217568,"connected_time":761000000000,"state":"active","ping":52},{"user_id":454,"name":"FriskyDemon","steam_id":76561198043684646,"connected_time":5851000000000,"state":"active","ping":68},{"user_id":497,"name":"Dob Bole","steam_id":76561198056367220,"connected_time":2346000000000,"state":"active","ping":34},{"user_id":498,"name":"litroolay","steam_id":76561197995226856,"connected_time":2328000000000,"state":"active","ping":61},{"user_id":522,"name":"Mute.03","steam_id":76561199229281804,"connected_time":1721000000000,"state":"active","ping":86},{"user_id":523,"name":"Juevos","steam_id":76561198066142119,"connected_time":1721000000000,"state":"active","ping":67}]},{"server_id":324,"name":"Uncletopia | Los Angeles | 3 | All Maps","name_short":"lax-3","host":"lax-1.us.uncletopia.com","port":27035,"enabled":true,"region":"us-west","cc":"us","latitude":33.94279,"longitude":-118.41004,"reserved":0,"last_update":"0001-01-01T00:00:00Z","name_a2s":"Uncletopia | Los Angeles | 3 | All Maps","protocol":17,"map":"cp_mountainlab","folder":"tf","game":"Team Fortress","app_id":440,"player_count":23,"max_players":24,"Bots":0,"server_type":"Dedicated","server_os":"Linux","password":true,"vac":true,"version":"7882260","steam_id":85568392924510198,"keywords":["cp","nocrits","nodmgspread","uncletopia"],"game_id":440,"stv_port":27036,"stv_name":"Uncletopia | Los Angeles | 3 | All Maps | STV","players":[{"user_id":623,"name":"Addy \u003c3","steam_id":76561198045819723,"connected_time":1165000000000,"state":"active","ping":137},{"user_id":624,"name":"JiminyJustin","steam_id":76561198103623389,"connected_time":1161000000000,"state":"active","ping":57},{"user_id":554,"name":"Gavial the Invincible","steam_id":76561198348354629,"connected_time":8422000000000,"state":"active","ping":25},{"user_id":612,"name":"GLXy","steam_id":76561198207551544,"connected_time":3513000000000,"state":"active","ping":83},{"user_id":617,"name":"Risky","steam_id":76561198231029328,"connected_time":2391000000000,"state":"active","ping":56},{"user_id":591,"name":"Literal Vampire Potbelly Goblin","steam_id":76561197970527356,"connected_time":5446000000000,"state":"active","ping":40},{"user_id":622,"name":"The Sauce Boss","steam_id":76561198056556496,"connected_time":1312000000000,"state":"active","ping":55},{"user_id":600,"name":"His buddy Eric","steam_id":76561198275362375,"connected_time":4880000000000,"state":"active","ping":56},{"user_id":542,"name":"TwoForFlinching","steam_id":76561198073814209,"connected_time":9165000000000,"state":"active","ping":96},{"user_id":576,"name":"BUSY","steam_id":76561198047532250,"connected_time":7385000000000,"state":"active","ping":82},{"user_id":614,"name":"kohaku gaming","steam_id":76561198071600385,"connected_time":3259000000000,"state":"active","ping":108},{"user_id":594,"name":"Landjrin","steam_id":76561198415410003,"connected_time":5343000000000,"state":"active","ping":54},{"user_id":582,"name":"Dingus","steam_id":76561198091720598,"connected_time":6891000000000,"state":"active","ping":66},{"user_id":616,"name":"MonkeyNobody","steam_id":76561199451266605,"connected_time":2872000000000,"state":"active","ping":54},{"user_id":631,"name":"iKickBabies","steam_id":76561199337400258,"connected_time":957000000000,"state":"active","ping":75},{"user_id":561,"name":"Ryn_48","steam_id":76561199229400014,"connected_time":8256000000000,"state":"active","ping":166},{"user_id":627,"name":"Egretious #transrights","steam_id":76561199115467998,"connected_time":1138000000000,"state":"active","ping":76},{"user_id":595,"name":"LordGooch","steam_id":76561198968335919,"connected_time":5262000000000,"state":"active","ping":69},{"user_id":567,"name":"Star","steam_id":76561198187728043,"connected_time":7962000000000,"state":"active","ping":49},{"user_id":633,"name":"tighty walter whities","steam_id":76561199122915452,"connected_time":826000000000,"state":"active","ping":82},{"user_id":620,"name":"Agent Mania","steam_id":76561198029741272,"connected_time":1769000000000,"state":"active","ping":52},{"user_id":628,"name":"Methgineer","steam_id":76561198088321636,"connected_time":1123000000000,"state":"active","ping":81},{"user_id":636,"name":"2Fort Cactus","steam_id":76561199273395913,"connected_time":132000000000,"state":"active","ping":81}]},{"server_id":25,"name":"Uncletopia | Los Angeles | 4 | Stopwatch Beta","name_short":"lax-4","host":"lax-1.us.uncletopia.com","port":27045,"enabled":true,"region":"us-west","cc":"us","latitude":33.94279,"longitude":-118.41004,"reserved":0,"last_update":"0001-01-01T00:00:00Z","name_a2s":"Uncletopia | Los Angeles | 4 | Stopwatch Beta","protocol":17,"map":"workshop/koth_ramjam_rc1.ugc459778887","folder":"tf","game":"Team Fortress","app_id":440,"player_count":0,"max_players":24,"Bots":0,"server_type":"Dedicated","server_os":"Linux","password":true,"vac":true,"version":"7882260","steam_id":85568392924510199,"keywords":["cp","nocrits","nodmgspread","uncletopia"],"game_id":440,"stv_port":27046,"stv_name":"Uncletopia | Los Angeles | 4 | Stopwatch Beta | STV","players":null},{"server_id":11,"name":"Uncletopia | London | 1 | All Maps","name_short":"lon-1","host":"lon-1.uk.uncletopia.com","port":27015,"enabled":true,"region":"eu","cc":"gb","latitude":51.509865,"longitude":-0.118092,"reserved":0,"last_update":"0001-01-01T00:00:00Z","name_a2s":"Uncletopia | London | 1 | All Maps","protocol":17,"map":"cp_process_final","folder":"tf","game":"Team Fortress","app_id":440,"player_count":0,"max_players":24,"Bots":0,"server_type":"Dedicated","server_os":"Linux","password":true,"vac":true,"version":"7882260","steam_id":85568392924367362,"keywords":["cp","nocrits","nodmgspread","uncletopia"],"game_id":440,"stv_port":27016,"stv_name":"Uncletopia | London | 1 | All Maps | STV","players":null},{"server_id":114,"name":"Uncletopia | London | 2 | All Maps","name_short":"lon-2","host":"lon-1.uk.uncletopia.com","port":27025,"enabled":true,"region":"eu","cc":"gb","latitude":51.509865,"longitude":-0.118092,"reserved":0,"last_update":"0001-01-01T00:00:00Z","name_a2s":"Uncletopia | London | 2 | All Maps","protocol":17,"map":"pl_swiftwater_final1","folder":"tf","game":"Team Fortress","app_id":440,"player_count":0,"max_players":24,"Bots":0,"server_type":"Dedicated","server_os":"Linux","password":true,"vac":true,"version":"7882260","steam_id":85568392924470941,"keywords":["nocrits","nodmgspread","payload","uncletopia"],"game_id":440,"stv_port":27026,"stv_name":"Uncletopia | London | 2 | All Maps | STV","players":null},{"server_id":320,"name":"Uncletopia | London | 3 | All Maps","name_short":"lon-3","host":"lon-1.uk.uncletopia.com","port":27035,"enabled":true,"region":"eu","cc":"gb","latitude":51.509865,"longitude":-0.118092,"reserved":0,"last_update":"0001-01-01T00:00:00Z","name_a2s":"Uncletopia | London | 3 | All Maps","protocol":17,"map":"koth_highpass","folder":"tf","game":"Team Fortress","app_id":440,"player_count":0,"max_players":24,"Bots":0,"server_type":"Dedicated","server_os":"Linux","password":true,"vac":true,"version":"7882260","steam_id":85568392924510192,"keywords":["cp","nocrits","nodmgspread","uncletopia"],"game_id":440,"stv_port":27036,"stv_name":"Uncletopia | London | 3 | All Maps | STV","players":null},{"server_id":321,"name":"Uncletopia | London | 4 | All Maps","name_short":"lon-4","host":"lon-1.uk.uncletopia.com","port":27045,"enabled":true,"region":"eu","cc":"gb","latitude":51.509865,"longitude":-0.118092,"reserved":0,"last_update":"0001-01-01T00:00:00Z","name_a2s":"Uncletopia | London | 4 | All Maps","protocol":17,"map":"koth_highpass","folder":"tf","game":"Team Fortress","app_id":440,"player_count":24,"max_players":24,"Bots":0,"server_type":"Dedicated","server_os":"Linux","password":true,"vac":true,"version":"7882260","steam_id":85568392924510193,"keywords":["cp","nocrits","nodmgspread","uncletopia"],"game_id":440,"stv_port":27046,"stv_name":"Uncletopia | London | 4 | All Maps | STV","players":[{"user_id":49,"name":"Nyhde","steam_id":76561198012771416,"connected_time":1324000000000,"state":"active","ping":99},{"user_id":4,"name":"cool skeleton","steam_id":76561198219901556,"connected_time":4722000000000,"state":"active","ping":105},{"user_id":62,"name":"Dio","steam_id":76561198117685434,"connected_time":196000000000,"state":"active","ping":96},{"user_id":6,"name":"engie?","steam_id":76561198331852832,"connected_time":4717000000000,"state":"active","ping":42},{"user_id":45,"name":"lvl. 50 honkler","steam_id":76561198061688660,"connected_time":1505000000000,"state":"active","ping":114},{"user_id":54,"name":"esketit","steam_id":76561198304945718,"connected_time":731000000000,"state":"active","ping":91},{"user_id":15,"name":"Tx_madmash","steam_id":76561198924656512,"connected_time":3586000000000,"state":"active","ping":64},{"user_id":42,"name":"Copium addict","steam_id":76561198102125260,"connected_time":1781000000000,"state":"active","ping":77},{"user_id":28,"name":"wide appreciator","steam_id":76561198083286511,"connected_time":2886000000000,"state":"active","ping":37},{"user_id":14,"name":"BLACKBIRD CLOSE [she/her]","steam_id":76561198262910410,"connected_time":3923000000000,"state":"active","ping":105},{"user_id":34,"name":"PhitoHue","steam_id":76561198156893557,"connected_time":2420000000000,"state":"active","ping":99},{"user_id":21,"name":"[Sheep] Tomco","steam_id":76561198388549261,"connected_time":3070000000000,"state":"active","ping":60},{"user_id":29,"name":"bozo","steam_id":76561198928909138,"connected_time":2855000000000,"state":"active","ping":52},{"user_id":60,"name":"Hedge Knight","steam_id":76561198989449047,"connected_time":323000000000,"state":"active","ping":123},{"user_id":46,"name":"Neimon","steam_id":76561198343485710,"connected_time":1444000000000,"state":"active","ping":126},{"user_id":37,"name":"cl1x","steam_id":76561198066687157,"connected_time":2237000000000,"state":"active","ping":88},{"user_id":38,"name":"RobTheKid","steam_id":76561198346638308,"connected_time":2221000000000,"state":"active","ping":55},{"user_id":39,"name":"0","steam_id":76561199084809092,"connected_time":2029000000000,"state":"active","ping":110},{"user_id":57,"name":"Frank","steam_id":76561199484010503,"connected_time":469000000000,"state":"active","ping":58},{"user_id":43,"name":"pyro?","steam_id":76561198382281653,"connected_time":1753000000000,"state":"active","ping":84},{"user_id":48,"name":"Enigmus","steam_id":76561197994063627,"connected_time":1398000000000,"state":"active","ping":103},{"user_id":51,"name":"DragonFruit","steam_id":76561198099526623,"connected_time":1284000000000,"state":"active","ping":80},{"user_id":63,"name":"Logos","steam_id":76561198306621950,"connected_time":196000000000,"state":"active","ping":74},{"user_id":65,"name":"Charles Darwin","steam_id":76561197973496139,"connected_time":109000000000,"state":"active","ping":75}]},{"server_id":21,"name":"Uncletopia | London | 5 | All Maps","name_short":"lon-5","host":"lon-1.uk.uncletopia.com","port":27055,"enabled":true,"region":"eu","cc":"gb","latitude":51.509865,"longitude":-0.118092,"reserved":0,"last_update":"0001-01-01T00:00:00Z","name_a2s":"Uncletopia | London | 5 | All Maps","protocol":17,"map":"pl_frontier_final","folder":"tf","game":"Team Fortress","app_id":440,"player_count":0,"max_players":24,"Bots":0,"server_type":"Dedicated","server_os":"Linux","password":true,"vac":true,"version":"7882260","steam_id":85568392924742829,"keywords":["nocrits","nodmgspread","payload","uncletopia"],"game_id":440,"stv_port":27056,"stv_name":"Uncletopia | London | 5 | All Maps | STV","players":null},{"server_id":22,"name":"Uncletopia | London | 6 | All Maps","name_short":"lon-6","host":"lon-1.uk.uncletopia.com","port":27065,"enabled":true,"region":"eu","cc":"gb","latitude":51.509865,"longitude":-0.118092,"reserved":0,"last_update":"0001-01-01T00:00:00Z","name_a2s":"Uncletopia | London | 6 | All Maps","protocol":17,"map":"cp_altitude","folder":"tf","game":"Team Fortress","app_id":440,"player_count":0,"max_players":24,"Bots":0,"server_type":"Dedicated","server_os":"Linux","password":true,"vac":true,"version":"7882260","steam_id":85568392924742830,"keywords":["cp","nocrits","nodmgspread","uncletopia"],"game_id":440,"stv_port":27066,"stv_name":"Uncletopia | London | 6 | All Maps | STV","players":null},{"server_id":40,"name":"Uncletopia | London | 7 | No Payload","name_short":"lon-7","host":"lon-1.uk.uncletopia.com","port":27075,"enabled":true,"region":"eu","cc":"gb","latitude":51.509865,"longitude":-0.118092,"reserved":0,"last_update":"0001-01-01T00:00:00Z","name_a2s":"Uncletopia | London | 7 | No Payload","protocol":17,"map":"pl_pier","folder":"tf","game":"Team Fortress","app_id":440,"player_count":0,"max_players":24,"Bots":0,"server_type":"Dedicated","server_os":"Linux","password":true,"vac":true,"version":"7882260","steam_id":85568392924964314,"keywords":["nocrits","nodmgspread","payload","uncletopia"],"game_id":440,"stv_port":27076,"stv_name":"Uncletopia | London | 7 | No Payload | STV","players":null},{"server_id":41,"name":"Uncletopia | London | 8 | Community","name_short":"lon-8","host":"lon-1.uk.uncletopia.com","port":27085,"enabled":true,"region":"eu","cc":"gb","latitude":51.509865,"longitude":-0.118092,"reserved":0,"last_update":"0001-01-01T00:00:00Z","name_a2s":"Uncletopia | London | 8 | Community","protocol":17,"map":"pl_swiftwater_final1","folder":"tf","game":"Team Fortress","app_id":440,"player_count":0,"max_players":24,"Bots":0,"server_type":"Dedicated","server_os":"Linux","password":true,"vac":true,"version":"7882260","steam_id":85568392924964315,"keywords":["nocrits","nodmgspread","payload","uncletopia"],"game_id":440,"stv_port":27086,"stv_name":"Uncletopia | London | 8 | Community | STV","players":null},{"server_id":300,"name":"Uncletopia | Montréal | 1 | All Maps","name_short":"mtl-1","host":"mtl-1.ca.uncletopia.com","port":27015,"enabled":true,"region":"us-east","cc":"ca","latitude":45.50889,"longitude":-73.56167,"reserved":0,"last_update":"0001-01-01T00:00:00Z","name_a2s":"Uncletopia | Montréal | 1 | All Maps","protocol":17,"map":"cp_altitude","folder":"tf","game":"Team Fortress","app_id":440,"player_count":0,"max_players":24,"Bots":0,"server_type":"Dedicated","server_os":"Linux","password":true,"vac":true,"version":"7882260","steam_id":85568392924500087,"keywords":["cp","nocrits","nodmgspread","uncletopia"],"game_id":440,"stv_port":27016,"stv_name":"Uncletopia | Montréal | 1 | All Maps | STV","players":null},{"server_id":301,"name":"Uncletopia | Montréal | 2 | All Maps","name_short":"mtl-2","host":"mtl-1.ca.uncletopia.com","port":27025,"enabled":true,"region":"us-east","cc":"ca","latitude":45.50889,"longitude":-73.56167,"reserved":0,"last_update":"0001-01-01T00:00:00Z","name_a2s":"Uncletopia | Montréal | 2 | All Maps","protocol":17,"map":"koth_cascade","folder":"tf","game":"Team Fortress","app_id":440,"player_count":0,"max_players":24,"Bots":0,"server_type":"Dedicated","server_os":"Linux","password":true,"vac":true,"version":"7882260","steam_id":85568392924500088,"keywords":["cp","nocrits","nodmgspread","uncletopia"],"game_id":440,"stv_port":27026,"stv_name":"Uncletopia | Montréal | 2 | All Maps | STV","players":null},{"server_id":302,"name":"Uncletopia | Montréal | 3 | All Maps","name_short":"mtl-3","host":"mtl-1.ca.uncletopia.com","port":27035,"enabled":true,"region":"us-east","cc":"ca","latitude":45.50889,"longitude":-73.56167,"reserved":0,"last_update":"0001-01-01T00:00:00Z","name_a2s":"Uncletopia | Montréal | 3 | All Maps","protocol":17,"map":"koth_highpass","folder":"tf","game":"Team Fortress","app_id":440,"player_count":0,"max_players":24,"Bots":0,"server_type":"Dedicated","server_os":"Linux","password":true,"vac":true,"version":"7882260","steam_id":85568392924500089,"keywords":["cp","nocrits","nodmgspread","uncletopia"],"game_id":440,"stv_port":27036,"stv_name":"Uncletopia | Montréal | 3 | All Maps | STV","players":null},{"server_id":303,"name":"Uncletopia | Montréal | 4 | No Payload","name_short":"mtl-4","host":"mtl-1.ca.uncletopia.com","port":27045,"enabled":true,"region":"us-east","cc":"ca","latitude":45.50889,"longitude":-73.56167,"reserved":0,"last_update":"0001-01-01T00:00:00Z","name_a2s":"Uncletopia | Montréal | 4 | No Payload","protocol":17,"map":"koth_highpass","folder":"tf","game":"Team Fortress","app_id":440,"player_count":0,"max_players":24,"Bots":0,"server_type":"Dedicated","server_os":"Linux","password":true,"vac":true,"version":"7882260","steam_id":85568392924500090,"keywords":["cp","nocrits","nodmgspread","uncletopia"],"game_id":440,"stv_port":27046,"stv_name":"Uncletopia | Montréal | 4 | No Payload | STV","players":null},{"server_id":13,"name":"Uncletopia | New York City | 1 | All Maps","name_short":"nyc-1","host":"nyc-1.us.uncletopia.com","port":27015,"enabled":true,"region":"us-east","cc":"us","latitude":40.73061,"longitude":-73.93524,"reserved":0,"last_update":"0001-01-01T00:00:00Z","name_a2s":"Uncletopia | New York City | 1 | All Maps","protocol":17,"map":"pl_badwater","folder":"tf","game":"Team Fortress","app_id":440,"player_count":25,"max_players":24,"Bots":0,"server_type":"Dedicated","server_os":"Linux","password":true,"vac":true,"version":"7882260","steam_id":85568392924469993,"keywords":["nocrits","nodmgspread","payload","uncletopia"],"game_id":440,"stv_port":27016,"stv_name":"Uncletopia | New York City | 1 | All Maps | STV","players":[{"user_id":794,"name":"Logic is a Good Rapper","steam_id":76561198976821898,"connected_time":435000000000,"state":"active","ping":117},{"user_id":795,"name":"Bolarroza","steam_id":76561198806968845,"connected_time":394000000000,"state":"active","ping":40},{"user_id":748,"name":"BigDeac","steam_id":76561198091237274,"connected_time":4712000000000,"state":"active","ping":69},{"user_id":796,"name":"gerg","steam_id":76561197997127387,"connected_time":300000000000,"state":"active","ping":120},{"user_id":688,"name":"Leo","steam_id":76561198088304064,"connected_time":8860000000000,"state":"active","ping":52},{"user_id":759,"name":"Iron","steam_id":76561198247918478,"connected_time":2499000000000,"state":"active","ping":75},{"user_id":777,"name":"get that pyeppah off now","steam_id":76561198054070811,"connected_time":1621000000000,"state":"active","ping":117},{"user_id":761,"name":"La'Flame","steam_id":76561198979341213,"connected_time":2460000000000,"state":"active","ping":79},{"user_id":771,"name":"wokwok","steam_id":76561198137743898,"connected_time":1883000000000,"state":"active","ping":71},{"user_id":746,"name":"--_Cook_--","steam_id":76561198080855748,"connected_time":4729000000000,"state":"active","ping":51},{"user_id":797,"name":"Kanbaru Suruga","steam_id":76561198164782653,"connected_time":297000000000,"state":"active","ping":45},{"user_id":766,"name":"Golden","steam_id":76561199128320581,"connected_time":2249000000000,"state":"active","ping":109},{"user_id":779,"name":"SomeGuy","steam_id":76561198350585861,"connected_time":1529000000000,"state":"active","ping":81},{"user_id":705,"name":"C papi","steam_id":76561198027779564,"connected_time":7961000000000,"state":"active","ping":60},{"user_id":798,"name":"social distance warrior","steam_id":76561198128992994,"connected_time":284000000000,"state":"active","ping":104},{"user_id":799,"name":"76561198114906233","steam_id":76561198114906233,"connected_time":230000000000,"state":"active","ping":34},{"user_id":706,"name":"SNOW SNOWER","steam_id":76561198014919412,"connected_time":7814000000000,"state":"active","ping":57},{"user_id":801,"name":"Just A Potato","steam_id":76561198056360867,"connected_time":173000000000,"state":"active","ping":103},{"user_id":767,"name":"Tit fucker 1985","steam_id":76561198128156322,"connected_time":2234000000000,"state":"active","ping":50},{"user_id":751,"name":"SHADY SWEATER SALESMAN","steam_id":76561198014616865,"connected_time":4659000000000,"state":"active","ping":63},{"user_id":803,"name":"Twinkle Nips","steam_id":76561198011318353,"connected_time":119000000000,"state":"active","ping":71},{"user_id":743,"name":"noah","steam_id":76561198173310157,"connected_time":5112000000000,"state":"active","ping":65},{"user_id":805,"name":"hood hero","steam_id":76561198144604444,"connected_time":77000000000,"state":"active","ping":137},{"user_id":768,"name":"Ash_Follow3","steam_id":76561199150479264,"connected_time":2230000000000,"state":"active","ping":74},{"user_id":806,"name":"[Gamer] Sword","steam_id":76561198044637483,"connected_time":5000000000,"state":"spawning","ping":41}]},{"server_id":14,"name":"Uncletopia | New York City | 2 | All Maps","name_short":"nyc-2","host":"nyc-1.us.uncletopia.com","port":27025,"enabled":true,"region":"us-east","cc":"us","latitude":40.73061,"longitude":-73.93524,"reserved":0,"last_update":"0001-01-01T00:00:00Z","name_a2s":"Uncletopia | New York City | 2 | All Maps","protocol":17,"map":"pl_frontier_final","folder":"tf","game":"Team Fortress","app_id":440,"player_count":24,"max_players":24,"Bots":0,"server_type":"Dedicated","server_os":"Linux","password":true,"vac":true,"version":"7882260","steam_id":85568392924469994,"keywords":["nocrits","nodmgspread","payload","uncletopia"],"game_id":440,"stv_port":27026,"stv_name":"Uncletopia | New York City | 2 | All Maps | STV","players":[{"user_id":879,"name":"|AG| Level","steam_id":76561198063633592,"connected_time":1623000000000,"state":"active","ping":101},{"user_id":887,"name":":^3","steam_id":76561198126358045,"connected_time":823000000000,"state":"active","ping":59},{"user_id":868,"name":"Green Icicle","steam_id":76561198069624529,"connected_time":2210000000000,"state":"active","ping":99},{"user_id":860,"name":"the worst tf2 player ever","steam_id":76561198330205913,"connected_time":2871000000000,"state":"active","ping":57},{"user_id":718,"name":"Horrizan","steam_id":76561197965028480,"connected_time":15485000000000,"state":"active","ping":87},{"user_id":882,"name":"xysh","steam_id":76561198818398438,"connected_time":1211000000000,"state":"active","ping":68},{"user_id":886,"name":"Sirgioblayde","steam_id":76561198059445113,"connected_time":954000000000,"state":"active","ping":108},{"user_id":869,"name":"Testiclitz Penischmidt","steam_id":76561198050582941,"connected_time":2184000000000,"state":"active","ping":66},{"user_id":871,"name":"reallyfriendly","steam_id":76561197996819313,"connected_time":2154000000000,"state":"active","ping":73},{"user_id":847,"name":"5ShellHung","steam_id":76561198046011621,"connected_time":4098000000000,"state":"active","ping":45},{"user_id":870,"name":"ShellShotty","steam_id":76561198023113266,"connected_time":2166000000000,"state":"active","ping":63},{"user_id":883,"name":"clydekolya","steam_id":76561198046595231,"connected_time":1204000000000,"state":"active","ping":57},{"user_id":892,"name":"Mintchacolate","steam_id":76561198058011580,"connected_time":423000000000,"state":"active","ping":46},{"user_id":888,"name":"KentYardAssociate","steam_id":76561198290499758,"connected_time":750000000000,"state":"active","ping":80},{"user_id":889,"name":"p.kaczmarek","steam_id":76561197994659597,"connected_time":747000000000,"state":"active","ping":149},{"user_id":854,"name":"the beach that makes you old","steam_id":76561198008332777,"connected_time":3497000000000,"state":"active","ping":60},{"user_id":878,"name":"Liberty Prime [Dexgod]","steam_id":76561198017130786,"connected_time":1814000000000,"state":"active","ping":71},{"user_id":880,"name":"ArcticJames","steam_id":76561198336826959,"connected_time":1601000000000,"state":"active","ping":131},{"user_id":810,"name":"squidgamer89","steam_id":76561198368108050,"connected_time":8109000000000,"state":"active","ping":31},{"user_id":890,"name":"Huge Jackman","steam_id":76561198098142914,"connected_time":734000000000,"state":"active","ping":85},{"user_id":893,"name":"craven","steam_id":76561198088191503,"connected_time":360000000000,"state":"active","ping":67},{"user_id":885,"name":"ratboy supreme","steam_id":76561198340302508,"connected_time":989000000000,"state":"active","ping":66},{"user_id":859,"name":"Constipated Barry","steam_id":76561198004482269,"connected_time":3056000000000,"state":"active","ping":111},{"user_id":881,"name":"NewerCoke","steam_id":76561198042911847,"connected_time":1587000000000,"state":"active","ping":70}]},{"server_id":15,"name":"Uncletopia | New York City | 3 | Stopwatch Beta","name_short":"nyc-3","host":"nyc-1.us.uncletopia.com","port":27035,"enabled":true,"region":"us-east","cc":"us","latitude":40.73061,"longitude":-73.93524,"reserved":0,"last_update":"0001-01-01T00:00:00Z","name_a2s":"Uncletopia | New York City | 3 | Stopwatch Beta","protocol":17,"map":"koth_highpass","folder":"tf","game":"Team Fortress","app_id":440,"player_count":0,"max_players":24,"Bots":0,"server_type":"Dedicated","server_os":"Linux","password":true,"vac":true,"version":"7882260","steam_id":85568392924742820,"keywords":["cp","nocrits","nodmgspread","uncletopia"],"game_id":440,"stv_port":27036,"stv_name":"Uncletopia | New York City | 3 | Stopwatch Beta | STV","players":null},{"server_id":16,"name":"Uncletopia | New York City | 4 | Community","name_short":"nyc-4","host":"nyc-1.us.uncletopia.com","port":27045,"enabled":true,"region":"us-east","cc":"us","latitude":40.73061,"longitude":-73.93524,"reserved":0,"last_update":"0001-01-01T00:00:00Z","name_a2s":"Uncletopia | New York City | 4 | Community","protocol":17,"map":"workshop/cp_sulfur_rc2.ugc619869471","folder":"tf","game":"Team Fortress","app_id":440,"player_count":0,"max_players":24,"Bots":0,"server_type":"Dedicated","server_os":"Linux","password":true,"vac":true,"version":"7882260","steam_id":85568392924742821,"keywords":["cp","nocrits","nodmgspread","uncletopia"],"game_id":440,"stv_port":27046,"stv_name":"Uncletopia | New York City | 4 | Community | STV","players":null},{"server_id":142,"name":"Uncletopia | São Paulo | 1 | All Maps","name_short":"sao-1","host":"sao-1.br.uncletopia.com","port":27015,"enabled":true,"region":"sa","cc":"br","latitude":-23.533773,"longitude":-46.62529,"reserved":0,"last_update":"0001-01-01T00:00:00Z","name_a2s":"Uncletopia | São Paulo | 1 | All Maps","protocol":17,"map":"pl_pier","folder":"tf","game":"Team Fortress","app_id":440,"player_count":0,"max_players":24,"Bots":0,"server_type":"Dedicated","server_os":"Linux","password":true,"vac":true,"version":"7882260","steam_id":85568392924469996,"keywords":["nocrits","nodmgspread","payload","uncletopia"],"game_id":440,"stv_port":27016,"stv_name":"Uncletopia | São Paulo | 1 | All Maps | STV","players":null},{"server_id":143,"name":"Uncletopia | São Paulo | 2 | All Maps","name_short":"sao-2","host":"sao-2.br.uncletopia.com","port":27015,"enabled":true,"region":"sa","cc":"br","latitude":-23.533773,"longitude":-46.62529,"reserved":0,"last_update":"0001-01-01T00:00:00Z","name_a2s":"Uncletopia | São Paulo | 2 | All Maps","protocol":17,"map":"koth_viaduct","folder":"tf","game":"Team Fortress","app_id":440,"player_count":0,"max_players":24,"Bots":0,"server_type":"Dedicated","server_os":"Linux","password":true,"vac":true,"version":"7882260","steam_id":85568392924485349,"keywords":["cp","nocrits","nodmgspread","uncletopia"],"game_id":440,"stv_port":27016,"stv_name":"Uncletopia | São Paulo | 2 | All Maps | STV","players":null},{"server_id":7,"name":"Uncletopia | Seattle | 1 | All Maps","name_short":"sea-1","host":"sea-1.us.uncletopia.com","port":27015,"enabled":true,"region":"us-west","cc":"us","latitude":47.608013,"longitude":-122.33517,"reserved":0,"last_update":"0001-01-01T00:00:00Z","name_a2s":"Uncletopia | Seattle | 1 | All Maps","protocol":17,"map":"pl_badwater","folder":"tf","game":"Team Fortress","app_id":440,"player_count":24,"max_players":24,"Bots":0,"server_type":"Dedicated","server_os":"Linux","password":true,"vac":true,"version":"7882260","steam_id":85568392924469997,"keywords":["nocrits","nodmgspread","payload","uncletopia"],"game_id":440,"stv_port":27016,"stv_name":"Uncletopia | Seattle | 1 | All Maps | STV","players":[{"user_id":799,"name":"[TrC] Dackstrus","steam_id":76561197973518509,"connected_time":757000000000,"state":"active","ping":59},{"user_id":780,"name":"a cat plushie","steam_id":76561198080046542,"connected_time":1713000000000,"state":"active","ping":46},{"user_id":793,"name":"The premium licking experience","steam_id":76561199213456232,"connected_time":1336000000000,"state":"active","ping":83},{"user_id":777,"name":"ImmuneToPeas","steam_id":76561198342411594,"connected_time":1818000000000,"state":"active","ping":61},{"user_id":805,"name":"Tazzz","steam_id":76561198280897107,"connected_time":177000000000,"state":"active","ping":45},{"user_id":778,"name":"Femboi Fox","steam_id":76561198915758702,"connected_time":1801000000000,"state":"active","ping":53},{"user_id":803,"name":"Toooru","steam_id":76561198857237473,"connected_time":531000000000,"state":"active","ping":45},{"user_id":729,"name":"Username","steam_id":76561198855586261,"connected_time":4594000000000,"state":"active","ping":69},{"user_id":784,"name":"Vandhoming","steam_id":76561198183775386,"connected_time":1654000000000,"state":"active","ping":64},{"user_id":785,"name":"squash","steam_id":76561198150281353,"connected_time":1651000000000,"state":"active","ping":55},{"user_id":798,"name":"catgirl giantess in heat","steam_id":76561198439042583,"connected_time":825000000000,"state":"active","ping":108},{"user_id":795,"name":"Bugc97","steam_id":76561198007662645,"connected_time":1282000000000,"state":"active","ping":126},{"user_id":804,"name":"SvicidalBug","steam_id":76561198221390504,"connected_time":475000000000,"state":"active","ping":67},{"user_id":787,"name":"Seriously Bruh","steam_id":76561198070408485,"connected_time":1570000000000,"state":"active","ping":48},{"user_id":740,"name":"Avaez","steam_id":76561198056248743,"connected_time":4300000000000,"state":"active","ping":51},{"user_id":800,"name":"Thundalife","steam_id":76561198254523198,"connected_time":755000000000,"state":"active","ping":48},{"user_id":788,"name":"Hatfam","steam_id":76561199192629036,"connected_time":1567000000000,"state":"active","ping":82},{"user_id":741,"name":"Goat Boat","steam_id":76561198063403028,"connected_time":4281000000000,"state":"active","ping":133},{"user_id":790,"name":"Artyom","steam_id":76561198152149679,"connected_time":1542000000000,"state":"active","ping":38},{"user_id":797,"name":"forest (girldick)","steam_id":76561198157960257,"connected_time":1134000000000,"state":"active","ping":42},{"user_id":791,"name":"sims4","steam_id":76561198301887399,"connected_time":1414000000000,"state":"active","ping":160},{"user_id":801,"name":"I Ventus I","steam_id":76561198004810951,"connected_time":722000000000,"state":"active","ping":103},{"user_id":769,"name":"Quon Grene for Vice Prez","steam_id":76561198127545817,"connected_time":2258000000000,"state":"active","ping":84},{"user_id":792,"name":"gnoblin","steam_id":76561198314221897,"connected_time":1407000000000,"state":"active","ping":56}]},{"server_id":119,"name":"Uncletopia | Seattle | 2 | All Maps","name_short":"sea-2","host":"sea-1.us.uncletopia.com","port":27025,"enabled":true,"region":"us-west","cc":"us","latitude":47.608013,"longitude":-122.33517,"reserved":0,"last_update":"0001-01-01T00:00:00Z","name_a2s":"Uncletopia | Seattle | 2 | All Maps","protocol":17,"map":"cp_snakewater_final1","folder":"tf","game":"Team Fortress","app_id":440,"player_count":1,"max_players":24,"Bots":0,"server_type":"Dedicated","server_os":"Linux","password":true,"vac":true,"version":"7882260","steam_id":85568392924469998,"keywords":["cp","nocrits","nodmgspread","uncletopia"],"game_id":440,"stv_port":27026,"stv_name":"Uncletopia | Seattle | 2 | All Maps | STV","players":[{"user_id":683,"name":"Dunkle","steam_id":76561198041903573,"connected_time":5220000000000,"state":"active","ping":34}]},{"server_id":406,"name":"Uncletopia | Seattle | 3 | Stopwatch Beta","name_short":"sea-3","host":"sea-1.us.uncletopia.com","port":27035,"enabled":true,"region":"us-west","cc":"us","latitude":47.608013,"longitude":-122.33517,"reserved":0,"last_update":"0001-01-01T00:00:00Z","name_a2s":"Uncletopia | Seattle | 3 | Stopwatch Beta","protocol":17,"map":"workshop/koth_bagel_rc6.ugc2514036946","folder":"tf","game":"Team Fortress","app_id":440,"player_count":0,"max_players":24,"Bots":0,"server_type":"Dedicated","server_os":"Linux","password":true,"vac":true,"version":"7882260","steam_id":85568392924515217,"keywords":["cp","nocrits","nodmgspread","uncletopia"],"game_id":440,"stv_port":27036,"stv_name":"Uncletopia | Seattle | 3 | Stopwatch Beta | STV","players":null},{"server_id":17,"name":"Uncletopia | San Francisco | 1 | All Maps","name_short":"sfo-1","host":"sfo-1.us.uncletopia.com","port":27015,"enabled":true,"region":"us-west","cc":"us","latitude":37.77397,"longitude":-122.4313,"reserved":0,"last_update":"0001-01-01T00:00:00Z","name_a2s":"Uncletopia | San Francisco | 1 | All Maps","protocol":17,"map":"cp_process_final","folder":"tf","game":"Team Fortress","app_id":440,"player_count":0,"max_players":24,"Bots":0,"server_type":"Dedicated","server_os":"Linux","password":true,"vac":true,"version":"7757534","steam_id":85568392924469999,"keywords":["cp","nocrits","nodmgspread","uncletopia"],"game_id":440,"stv_port":27016,"stv_name":"Uncletopia | San Francisco | 1 | All Maps | STV","players":null},{"server_id":18,"name":"Uncletopia | San Francisco | 2 | All Maps","name_short":"sfo-2","host":"sfo-1.us.uncletopia.com","port":27025,"enabled":true,"region":"us-west","cc":"us","latitude":37.77397,"longitude":-122.4313,"reserved":0,"last_update":"0001-01-01T00:00:00Z","name_a2s":"Uncletopia | San Francisco | 2 | All Maps","protocol":17,"map":"koth_highpass","folder":"tf","game":"Team Fortress","app_id":440,"player_count":0,"max_players":24,"Bots":0,"server_type":"Dedicated","server_os":"Linux","password":true,"vac":true,"version":"7757534","steam_id":85568392924470000,"keywords":["cp","nocrits","nodmgspread","uncletopia"],"game_id":440,"stv_port":27026,"stv_name":"Uncletopia | San Francisco | 2 | All Maps | STV","players":null},{"server_id":19,"name":"Uncletopia | San Francisco | 3 | Stopwatch Beta","name_short":"sfo-3","host":"sfo-1.us.uncletopia.com","port":27035,"enabled":true,"region":"us-west","cc":"us","latitude":37.77397,"longitude":-122.4313,"reserved":0,"last_update":"0001-01-01T00:00:00Z","name_a2s":"Uncletopia | San Francisco | 3 | Stopwatch Beta","protocol":17,"map":"koth_lakeside_final","folder":"tf","game":"Team Fortress","app_id":440,"player_count":0,"max_players":24,"Bots":0,"server_type":"Dedicated","server_os":"Linux","password":true,"vac":true,"version":"7757534","steam_id":85568392924742824,"keywords":["cp","nocrits","nodmgspread","uncletopia"],"game_id":440,"stv_port":27036,"stv_name":"Uncletopia | San Francisco | 3 | Stopwatch Beta | STV","players":null},{"server_id":20,"name":"Uncletopia | San Francisco | 4 | Community","name_short":"sfo-4","host":"sfo-1.us.uncletopia.com","port":27045,"enabled":true,"region":"us-west","cc":"us","latitude":37.77397,"longitude":-122.4313,"reserved":0,"last_update":"0001-01-01T00:00:00Z","name_a2s":"Uncletopia | San Francisco | 4 | Community","protocol":17,"map":"cp_altitude","folder":"tf","game":"Team Fortress","app_id":440,"player_count":0,"max_players":24,"Bots":0,"server_type":"Dedicated","server_os":"Linux","password":true,"vac":true,"version":"7757534","steam_id":85568392924742826,"keywords":["cp","nocrits","nodmgspread","uncletopia"],"game_id":440,"stv_port":27046,"stv_name":"Uncletopia | San Francisco | 4 | Community | STV","players":null},{"server_id":141,"name":"Uncletopia | Sydney | 1 | All Maps","name_short":"syd-1","host":"syd-1.au.uncletopia.com","port":27015,"enabled":true,"region":"au","cc":"au","latitude":-33.865143,"longitude":151.2099,"reserved":0,"last_update":"0001-01-01T00:00:00Z","name_a2s":"Uncletopia | Sydney | 1 | All Maps","protocol":17,"map":"pl_upward","folder":"tf","game":"Team Fortress","app_id":440,"player_count":24,"max_players":24,"Bots":0,"server_type":"Dedicated","server_os":"Linux","password":true,"vac":true,"version":"7882260","steam_id":85568392924470001,"keywords":["nocrits","nodmgspread","payload","uncletopia"],"game_id":440,"stv_port":27016,"stv_name":"Uncletopia | Sydney | 1 | All Maps | STV","players":[{"user_id":320,"name":"Atlas","steam_id":76561198069332870,"connected_time":475000000000,"state":"active","ping":53},{"user_id":281,"name":"miyamoto is daddy","steam_id":76561199483818230,"connected_time":1806000000000,"state":"active","ping":73},{"user_id":328,"name":"Steve","steam_id":76561198429235506,"connected_time":14000000000,"state":"active","ping":104},{"user_id":307,"name":"LightningBlock","steam_id":76561198289997742,"connected_time":864000000000,"state":"active","ping":32},{"user_id":308,"name":"Zeron","steam_id":76561198125778202,"connected_time":864000000000,"state":"active","ping":45},{"user_id":282,"name":"jini","steam_id":76561197960409237,"connected_time":1785000000000,"state":"active","ping":51},{"user_id":301,"name":"Marmalade Cat","steam_id":76561198086309767,"connected_time":1252000000000,"state":"active","ping":65},{"user_id":309,"name":"SR..","steam_id":76561198327814098,"connected_time":862000000000,"state":"active","ping":60},{"user_id":287,"name":"KeeperOfBalance","steam_id":76561198028070089,"connected_time":1693000000000,"state":"active","ping":86},{"user_id":288,"name":"Worst Sniper","steam_id":76561198025733081,"connected_time":1692000000000,"state":"active","ping":72},{"user_id":330,"name":"no teles 4 u","steam_id":76561198018478297,"connected_time":1000000000,"state":"spawning","ping":32},{"user_id":298,"name":"Phibs","steam_id":76561199323730865,"connected_time":1511000000000,"state":"active","ping":45},{"user_id":316,"name":"Toucan Sam (Retarded)","steam_id":76561199108254276,"connected_time":603000000000,"state":"active","ping":57},{"user_id":327,"name":"GattlingGoose","steam_id":76561199021498300,"connected_time":21000000000,"state":"active","ping":82},{"user_id":302,"name":"Cyborgcupine","steam_id":76561198257389366,"connected_time":1216000000000,"state":"active","ping":92},{"user_id":300,"name":"rattlesnake jake","steam_id":76561199121517901,"connected_time":1408000000000,"state":"active","ping":58},{"user_id":299,"name":"itsame","steam_id":76561198059284918,"connected_time":1501000000000,"state":"active","ping":45},{"user_id":303,"name":"FragmantizedLemon","steam_id":76561198313580674,"connected_time":1202000000000,"state":"active","ping":139},{"user_id":329,"name":"Bonker","steam_id":76561198845159846,"connected_time":12000000000,"state":"spawning","ping":59},{"user_id":326,"name":"pongschlap","steam_id":76561198346216658,"connected_time":150000000000,"state":"active","ping":61},{"user_id":313,"name":"FrOStY","steam_id":76561198088155805,"connected_time":775000000000,"state":"active","ping":151},{"user_id":325,"name":"Cyrome","steam_id":76561198049602369,"connected_time":326000000000,"state":"active","ping":58},{"user_id":319,"name":"seiran","steam_id":76561198880907232,"connected_time":555000000000,"state":"active","ping":107},{"user_id":324,"name":"Captain Canadia","steam_id":76561198167967735,"connected_time":373000000000,"state":"active","ping":49}]},{"server_id":123,"name":"Uncletopia | Sydney | 2 | All Maps","name_short":"syd-2","host":"syd-1.au.uncletopia.com","port":27025,"enabled":true,"region":"au","cc":"au","latitude":-33.865143,"longitude":151.2099,"reserved":0,"last_update":"0001-01-01T00:00:00Z","name_a2s":"Uncletopia | Sydney | 2 | All Maps","protocol":17,"map":"cp_granary","folder":"tf","game":"Team Fortress","app_id":440,"player_count":24,"max_players":24,"Bots":0,"server_type":"Dedicated","server_os":"Linux","password":true,"vac":true,"version":"7882260","steam_id":85568392924470002,"keywords":["cp","nocrits","nodmgspread","uncletopia"],"game_id":440,"stv_port":27026,"stv_name":"Uncletopia | Sydney | 2 | All Maps | STV","players":[{"user_id":97,"name":"krandlez` (Any/All)","steam_id":76561198044839726,"connected_time":2680000000000,"state":"active","ping":43},{"user_id":121,"name":"skipperydo","steam_id":76561198236042498,"connected_time":602000000000,"state":"active","ping":62},{"user_id":19,"name":"Y0shua3","steam_id":76561199381627916,"connected_time":8717000000000,"state":"active","ping":116},{"user_id":137,"name":"TheNeutrality","steam_id":76561199017954062,"connected_time":11000000000,"state":"spawning","ping":180},{"user_id":107,"name":"Jodelkönig Franzl Lang","steam_id":76561198007667830,"connected_time":1635000000000,"state":"active","ping":55},{"user_id":123,"name":"Rosemary","steam_id":76561198996803743,"connected_time":537000000000,"state":"active","ping":75},{"user_id":129,"name":"็็ ็็","steam_id":76561198241303512,"connected_time":366000000000,"state":"active","ping":53},{"user_id":125,"name":"Sensei Patch","steam_id":76561199467636377,"connected_time":499000000000,"state":"active","ping":148},{"user_id":84,"name":"Generic","steam_id":76561198832264022,"connected_time":3932000000000,"state":"active","ping":78},{"user_id":120,"name":"Tiggerex","steam_id":76561198049006869,"connected_time":666000000000,"state":"active","ping":101},{"user_id":38,"name":"WussPoppinJimbo","steam_id":76561199111828033,"connected_time":6200000000000,"state":"active","ping":136},{"user_id":126,"name":"Denszeal","steam_id":76561198313718095,"connected_time":435000000000,"state":"active","ping":77},{"user_id":134,"name":"Dkary","steam_id":76561198021454448,"connected_time":150000000000,"state":"active","ping":142},{"user_id":58,"name":"Rashid Of The Dank Memes","steam_id":76561198281398078,"connected_time":5213000000000,"state":"active","ping":61},{"user_id":106,"name":"whiteshaq","steam_id":76561198131988811,"connected_time":1834000000000,"state":"active","ping":51},{"user_id":80,"name":"Cardboard (No mic gamer)","steam_id":76561199099769110,"connected_time":4128000000000,"state":"active","ping":61},{"user_id":51,"name":"AmethystDragon10","steam_id":76561198412979983,"connected_time":5492000000000,"state":"active","ping":81},{"user_id":115,"name":"carrot monster","steam_id":76561199056025092,"connected_time":1231000000000,"state":"active","ping":50},{"user_id":79,"name":"L.ion","steam_id":76561198261172910,"connected_time":4211000000000,"state":"active","ping":42},{"user_id":95,"name":"Original Glazed (Krispy/Kreme)","steam_id":76561197997362731,"connected_time":3046000000000,"state":"active","ping":45},{"user_id":136,"name":"Flak","steam_id":76561198205833232,"connected_time":40000000000,"state":"active","ping":48},{"user_id":132,"name":"james16","steam_id":76561198362678073,"connected_time":302000000000,"state":"active","ping":33},{"user_id":130,"name":"VAVcut","steam_id":76561199160900469,"connected_time":359000000000,"state":"active","ping":189},{"user_id":131,"name":"Nat","steam_id":76561197995044074,"connected_time":321000000000,"state":"active","ping":166}]},{"server_id":395,"name":"Uncletopia | Sydney | 3 | All Maps","name_short":"syd-3","host":"syd-1.au.uncletopia.com","port":27035,"enabled":true,"region":"au","cc":"au","latitude":-33.865143,"longitude":151.2099,"reserved":0,"last_update":"0001-01-01T00:00:00Z","name_a2s":"Uncletopia | Sydney | 3 | All Maps","protocol":17,"map":"koth_viaduct","folder":"tf","game":"Team Fortress","app_id":440,"player_count":1,"max_players":24,"Bots":0,"server_type":"Dedicated","server_os":"Linux","password":true,"vac":true,"version":"7882260","steam_id":85568392925194467,"keywords":["cp","nocrits","nodmgspread","uncletopia"],"game_id":440,"stv_port":27036,"stv_name":"Uncletopia | Sydney | 3 | All Maps | STV","players":[{"user_id":10,"name":"TheNeutrality","steam_id":76561199017954062,"connected_time":135000000000,"state":"connecting","ping":0}]},{"server_id":396,"name":"Uncletopia | Sydney | 4 | All Maps","name_short":"syd-4","host":"syd-1.au.uncletopia.com","port":27045,"enabled":true,"region":"au","cc":"au","latitude":-33.865143,"longitude":151.2099,"reserved":0,"last_update":"0001-01-01T00:00:00Z","name_a2s":"Uncletopia | Sydney | 4 | All Maps","protocol":17,"map":"cp_dustbowl","folder":"tf","game":"Team Fortress","app_id":440,"player_count":0,"max_players":24,"Bots":0,"server_type":"Dedicated","server_os":"Linux","password":true,"vac":true,"version":"7882260","steam_id":85568392925397958,"keywords":["cp","nocrits","nodmgspread","uncletopia"],"game_id":440,"stv_port":27046,"stv_name":"Uncletopia | Sydney | 4 | All Maps | STV","players":null},{"server_id":58,"name":"Uncletopia | Sydney | 5 | Stopwatch Beta","name_short":"syd-5","host":"syd-1.au.uncletopia.com","port":27055,"enabled":true,"region":"au","cc":"au","latitude":-33.865143,"longitude":151.2099,"reserved":0,"last_update":"0001-01-01T00:00:00Z","name_a2s":"Uncletopia | Sydney | 5 | Stopwatch Beta","protocol":17,"map":"workshop/pl_vigil_rc9.ugc1266210012","folder":"tf","game":"Team Fortress","app_id":440,"player_count":0,"max_players":24,"Bots":0,"server_type":"Dedicated","server_os":"Linux","password":true,"vac":true,"version":"7882260","steam_id":85568392925397959,"keywords":["nocrits","nodmgspread","payload","uncletopia"],"game_id":440,"stv_port":27056,"stv_name":"Uncletopia | Sydney | 5 | Stopwatch Beta | STV","players":null},{"server_id":59,"name":"Uncletopia | Sydney | 6 | Community","name_short":"syd-6","host":"syd-1.au.uncletopia.com","port":27065,"enabled":true,"region":"au","cc":"au","latitude":-33.865143,"longitude":151.2099,"reserved":0,"last_update":"0001-01-01T00:00:00Z","name_a2s":"Uncletopia | Sydney | 6 | Community","protocol":17,"map":"workshop/pl_divulgence_b4b.ugc2884808746","folder":"tf","game":"Team Fortress","app_id":440,"player_count":0,"max_players":24,"Bots":0,"server_type":"Dedicated","server_os":"Linux","password":true,"vac":true,"version":"7882260","steam_id":85568392925397960,"keywords":["nocrits","nodmgspread","payload","uncletopia"],"game_id":440,"stv_port":27066,"stv_name":"Uncletopia | Sydney | 6 | Community | STV","players":null},{"server_id":49,"name":"Uncletopia | Warsaw | 1 | All Maps","name_short":"waw-1","host":"waw-1.pl.uncletopia.com","port":27015,"enabled":true,"region":"eu","cc":"pl","latitude":52.2297,"longitude":21.017532,"reserved":0,"last_update":"0001-01-01T00:00:00Z","name_a2s":"","protocol":0,"map":"","folder":"","game":"","app_id":0,"player_count":0,"max_players":0,"Bots":0,"server_type":"","server_os":"","password":false,"vac":false,"version":"","steam_id":0,"keywords":null,"game_id":0,"stv_port":0,"stv_name":"","players":null},{"server_id":50,"name":"Uncletopia | Warsaw | 2 | All Maps","name_short":"waw-2","host":"waw-1.pl.uncletopia.com","port":27025,"enabled":true,"region":"eu","cc":"pl","latitude":52.2297,"longitude":21.017532,"reserved":0,"last_update":"0001-01-01T00:00:00Z","name_a2s":"Uncletopia | Warsaw | 2 | All Maps","protocol":17,"map":"pl_swiftwater_final1","folder":"tf","game":"Team Fortress","app_id":440,"player_count":0,"max_players":24,"Bots":0,"server_type":"Dedicated","server_os":"Linux","password":true,"vac":true,"version":"7882260","steam_id":85568392925397851,"keywords":["nocrits","nodmgspread","payload","uncletopia"],"game_id":440,"stv_port":27026,"stv_name":"Uncletopia | Warsaw | 2 | All Maps | STV","players":null},{"server_id":51,"name":"Uncletopia | Warsaw | 3 | All Maps","name_short":"waw-3","host":"waw-1.pl.uncletopia.com","port":27035,"enabled":true,"region":"eu","cc":"pl","latitude":52.2297,"longitude":21.017532,"reserved":0,"last_update":"0001-01-01T00:00:00Z","name_a2s":"Uncletopia | Warsaw | 3 | All Maps","protocol":17,"map":"koth_viaduct","folder":"tf","game":"Team Fortress","app_id":440,"player_count":0,"max_players":24,"Bots":0,"server_type":"Dedicated","server_os":"Linux","password":true,"vac":true,"version":"7882260","steam_id":85568392925397852,"keywords":["cp","nocrits","nodmgspread","uncletopia"],"game_id":440,"stv_port":27036,"stv_name":"Uncletopia | Warsaw | 3 | All Maps | STV","players":null},{"server_id":52,"name":"Uncletopia | Warsaw | 4 | All Maps","name_short":"waw-4","host":"waw-1.pl.uncletopia.com","port":27045,"enabled":true,"region":"eu","cc":"pl","latitude":52.2297,"longitude":21.017532,"reserved":0,"last_update":"0001-01-01T00:00:00Z","name_a2s":"Uncletopia | Warsaw | 4 | All Maps","protocol":17,"map":"koth_highpass","folder":"tf","game":"Team Fortress","app_id":440,"player_count":0,"max_players":24,"Bots":0,"server_type":"Dedicated","server_os":"Linux","password":true,"vac":true,"version":"7882260","steam_id":85568392925397853,"keywords":["cp","nocrits","nodmgspread","uncletopia"],"game_id":440,"stv_port":27046,"stv_name":"Uncletopia | Warsaw | 4 | All Maps | STV","players":null},{"server_id":53,"name":"Uncletopia | Warsaw | 5 | Stopwatch Beta","name_short":"waw-5","host":"waw-1.pl.uncletopia.com","port":27055,"enabled":true,"region":"eu","cc":"pl","latitude":52.2297,"longitude":21.017532,"reserved":0,"last_update":"0001-01-01T00:00:00Z","name_a2s":"Uncletopia | Warsaw | 5 | Stopwatch Beta","protocol":17,"map":"cp_mountainlab","folder":"tf","game":"Team Fortress","app_id":440,"player_count":0,"max_players":24,"Bots":0,"server_type":"Dedicated","server_os":"Linux","password":true,"vac":true,"version":"7882260","steam_id":85568392925397854,"keywords":["cp","nocrits","nodmgspread","uncletopia"],"game_id":440,"stv_port":27056,"stv_name":"Uncletopia | Warsaw | 5 | Stopwatch Beta | STV","players":null},{"server_id":54,"name":"Uncletopia | Warsaw | 6 | Community","name_short":"waw-6","host":"waw-1.pl.uncletopia.com","port":27065,"enabled":true,"region":"eu","cc":"pl","latitude":52.2297,"longitude":21.017532,"reserved":0,"last_update":"0001-01-01T00:00:00Z","name_a2s":"Uncletopia | Warsaw | 6 | Community","protocol":17,"map":"koth_viaduct","folder":"tf","game":"Team Fortress","app_id":440,"player_count":0,"max_players":24,"Bots":0,"server_type":"Dedicated","server_os":"Linux","password":true,"vac":true,"version":"7882260","steam_id":85568392925397856,"keywords":["cp","nocrits","nodmgspread","uncletopia"],"game_id":440,"stv_port":27066,"stv_name":"Uncletopia | Warsaw | 6 | Community | STV","players":null}]}