{"status":true,"message":"","result":[{"server_id":9,"name":"Uncletopia | Atlanta | 1 | All Maps","name_short":"atl-1","host":"atl-1.us.uncletopia.com","port":27015,"enabled":true,"region":"us-east","cc":"us","latitude":33.753746,"longitude":-84.38633,"reserved":0,"last_update":"0001-01-01T00:00:00Z","name_a2s":"Uncletopia | Atlanta | 1 | All Maps","protocol":17,"map":"pl_borneo","folder":"tf","game":"Team Fortress","app_id":440,"player_count":4,"max_players":24,"Bots":0,"server_type":"Dedicated","server_os":"Linux","password":true,"vac":true,"version":"7757534","steam_id":85568392924469982,"keywords":["nocrits","nodmgspread","payload","uncletopia"],"game_id":440,"stv_port":27016,"stv_name":"Uncletopia | Atlanta | 1 | All Maps | STV","players":[{"user_id":752,"name":"Sora Halomon","steam_id":76561198081873916,"connected_time":554000000000,"state":"active","ping":65},{"user_id":751,"name":"ShadowWasUhOh","steam_id":76561198400361935,"connected_time":1881000000000,"state":"active","ping":50},{"user_id":749,"name":"Gustavo Fring","steam_id":76561198132807405,"connected_time":2319000000000,"state":"active","ping":85},{"user_id":750,"name":"Lone Rider","steam_id":76561198091978968,"connected_time":2138000000000,"state":"active","ping":65}]},{"server_id":104,"name":"Uncletopia | Atlanta | 2 | All Maps","name_short":"atl-2","host":"atl-1.us.uncletopia.com","port":27025,"enabled":true,"region":"us-east","cc":"us","latitude":33.753746,"longitude":-84.38633,"reserved":0,"last_update":"0001-01-01T00:00:00Z","name_a2s":"Uncletopia | Atlanta | 2 | All Maps","protocol":17,"map":"koth_viaduct","folder":"tf","game":"Team Fortress","app_id":440,"player_count":0,"max_players":24,"Bots":0,"server_type":"Dedicated","server_os":"Linux","password":true,"vac":true,"version":"7757534","steam_id":85568392924469983,"keywords":["cp","nocrits","nodmgspread","uncletopia"],"game_id":440,"stv_port":27026,"stv_name":"Uncletopia | Atlanta | 2 | All Maps | STV","players":null},{"server_id":400,"name":"Uncletopia | Atlanta | 3 | Community","name_short":"atl-3","host":"atl-1.us.uncletopia.com","port":27035,"enabled":true,"region":"us-east","cc":"us","latitude":33.753746,"longitude":-84.38633,"reserved":0,"last_update":"0001-01-01T00:00:00Z","name_a2s":"Uncletopia | Atlanta | 3 | Community","protocol":17,"map":"workshop/cp_logjam_rc12.ugc454812035","folder":"tf","game":"Team Fortress","app_id":440,"player_count":0,"max_players":24,"Bots":0,"server_type":"Dedicated","server_os":"Linux","password":true,"vac":true,"version":"7757534","steam_id":85568392924515187,"keywords":["cp","nocrits","nodmgspread","uncletopia"],"game_id":440,"stv_port":27036,"stv_name":"Uncletopia | Atlanta | 3 | Community | STV","players":null},{"server_id":401,"name":"Uncletopia | Atlanta | 4 | No Payload","name_short":"atl-4","host":"atl-1.us.uncletopia.com","port":27045,"enabled":true,"region":"us-east","cc":"us","latitude":33.753746,"longitude":-84.38633,"reserved":0,"last_update":"0001-01-01T00:00:00Z","name_a2s":"","protocol":0,"map":"","folder":"","game":"","app_id":0,"player_count":0,"max_players":0,"Bots":0,"server_type":"","server_os":"","password":false,"vac":false,"version":"","steam_id":0,"keywords":null,"game_id":0,"stv_port":0,"stv_name":"","players":null},{"server_id":2,"name":"Uncletopia | Chicago | 1 | All Maps","name_short":"chi-1","host":"chi-1.us.uncletopia.com","port":27015,"enabled":true,"region":"us-central","cc":"us","latitude":41.881832,"longitude":-87.62318,"reserved":0,"last_update":"0001-01-01T00:00:00Z","name_a2s":"Uncletopia | Chicago | 1 | All Maps","protocol":17,"map":"cp_dustbowl","folder":"tf","game":"Team Fortress","app_id":440,"player_count":0,"max_players":24,"Bots":0,"server_type":"Dedicated","server_os":"Linux","password":true,"vac":true,"version":"7757534","steam_id":85568392924469984,"keywords":["cp","nocrits","nodmgspread","uncletopia"],"game_id":440,"stv_port":27016,"stv_name":"Uncletopia | Chicago | 1 | All Maps | STV","players":null},{"server_id":106,"name":"Uncletopia | Chicago | 2 | All Maps","name_short":"chi-2","host":"chi-1.us.uncletopia.com","port":27025,"enabled":true,"region":"us-central","cc":"us","latitude":41.881832,"longitude":-87.62318,"reserved":0,"last_update":"0001-01-01T00:00:00Z","name_a2s":"Uncletopia | Chicago | 2 | All Maps","protocol":17,"map":"pl_badwater","folder":"tf","game":"Team Fortress","app_id":440,"player_count":4,"max_players":24,"Bots":0,"server_type":"Dedicated","server_os":"Linux","password":true,"vac":true,"version":"7757534","steam_id":85568392924469985,"keywords":["nocrits","nodmgspread","payload","uncletopia"],"game_id":440,"stv_port":27026,"stv_name":"Uncletopia | Chicago | 2 | All Maps | STV","players":[{"user_id":535,"name":"ibuprofen","steam_id":76561198355068405,"connected_time":1767000000000,"state":"active","ping":67},{"user_id":536,"name":"jackary","steam_id":76561198193405221,"connected_time":1200000000000,"state":"active","ping":45},{"user_id":538,"name":"Big Dundle","steam_id":76561198275625984,"connected_time":768000000000,"state":"active","ping":63},{"user_id":518,"name":"mu","steam_id":76561197997530228,"connected_time":3453000000000,"state":"active","ping":90}]},{"server_id":402,"name":"Uncletopia | Chicago | 3 | All Maps","name_short":"chi-3","host":"chi-1.us.uncletopia.com","port":27035,"enabled":true,"region":"us-central","cc":"us","latitude":41.881832,"longitude":-87.62318,"reserved":0,"last_update":"0001-01-01T00:00:00Z","name_a2s":"Uncletopia | Chicago | 3 | All Maps","protocol":17,"map":"cp_mountainlab","folder":"tf","game":"Team Fortress","app_id":440,"player_count":0,"max_players":24,"Bots":0,"server_type":"Dedicated","server_os":"Linux","password":true,"vac":true,"version":"7757534","steam_id":85568392924515191,"keywords":["cp","nocrits","nodmgspread","uncletopia"],"game_id":440,"stv_port":27036,"stv_name":"Uncletopia | Chicago | 3 | All Maps | STV","players":null},{"server_id":403,"name":"Uncletopia | Chicago | 4 | All Maps","name_short":"chi-4","host":"chi-1.us.uncletopia.com","port":27045,"enabled":true,"region":"us-central","cc":"us","latitude":41.881832,"longitude":-87.62318,"reserved":0,"last_update":"0001-01-01T00:00:00Z","name_a2s":"Uncletopia | Chicago | 4 | All Maps","protocol":17,"map":"pl_barnblitz","folder":"tf","game":"Team Fortress","app_id":440,"player_count":24,"max_players":24,"Bots":0,"server_type":"Dedicated","server_os":"Linux","password":true,"vac":true,"version":"7757534","steam_id":85568392924515193,"keywords":["nocrits","nodmgspread","payload","uncletopia"],"game_id":440,"stv_port":27046,"stv_name":"Uncletopia | Chicago | 4 | All Maps | STV","players":[{"user_id":531,"name":"Paper","steam_id":76561198031413673,"connected_time":327000000000,"state":"active","ping":100},{"user_id":530,"name":"Heppeh","steam_id":76561198068049507,"connected_time":517000000000,"state":"active","ping":81},{"user_id":466,"name":"gerg","steam_id":76561197997127387,"connected_time":3748000000000,"state":"active","ping":103},{"user_id":515,"name":"LilJonny","steam_id":76561198185250439,"connected_time":1390000000000,"state":"active","ping":124},{"user_id":521,"name":"stall","steam_id":76561199152861652,"connected_time":1210000000000,"state":"active","ping":57},{"user_id":522,"name":"matchmatch                     ","steam_id":76561198048925904,"connected_time":1133000000000,"state":"active","ping":108},{"user_id":513,"name":"Reaper","steam_id":76561198435826103,"connected_time":1432000000000,"state":"active","ping":71},{"user_id":514,"name":"Scoober Doob","steam_id":76561198117582706,"connected_time":1431000000000,"state":"active","ping":86},{"user_id":488,"name":"honked off the bobo","steam_id":76561198123287268,"connected_time":2470000000000,"state":"active","ping":52},{"user_id":518,"name":"puppygirl gaming","steam_id":76561198044363630,"connected_time":1315000000000,"state":"active","ping":60},{"user_id":517,"name":"siggystar10","steam_id":76561199155065176,"connected_time":1367000000000,"state":"active","ping":157},{"user_id":523,"name":"Notation","steam_id":76561198119509319,"connected_time":1116000000000,"state":"active","ping":60},{"user_id":507,"name":"upside down cat","steam_id":76561198028288349,"connected_time":1816000000000,"state":"active","ping":91},{"user_id":501,"name":"Nodin","steam_id":76561198135757376,"connected_time":2012000000000,"state":"active","ping":53},{"user_id":492,"name":"Raptor2","steam_id":76561198200290547,"connected_time":2347000000000,"state":"active","ping":119},{"user_id":511,"name":"jumpintraffic2","steam_id":76561198046815360,"connected_time":1725000000000,"state":"active","ping":91},{"user_id":532,"name":"jubb","steam_id":76561198186865526,"connected_time":320000000000,"state":"active","ping":113},{"user_id":524,"name":"RavenwolF","steam_id":76561197963374354,"connected_time":1094000000000,"state":"active","ping":111},{"user_id":525,"name":"Konical","steam_id":76561198056711430,"connected_time":1079000000000,"state":"active","ping":118},{"user_id":526,"name":"Kidzbopsicle","steam_id":76561198047660691,"connected_time":1076000000000,"state":"active","ping":59},{"user_id":529,"name":"I Have A Gun","steam_id":76561198407152424,"connected_time":566000000000,"state":"active","ping":57},{"user_id":527,"name":"DeckofDragons","steam_id":76561198057398213,"connected_time":1074000000000,"state":"active","ping":80},{"user_id":533,"name":"trobort","steam_id":76561198027150357,"connected_time":36000000000,"state":"active","ping":77},{"user_id":468,"name":":face_holding_back_tears:","steam_id":76561198164782653,"connected_time":3310000000000,"state":"active","ping":63}]},{"server_id":36,"name":"Uncletopia | Chicago | 5 | All Maps","name_short":"chi-5","host":"chi-2.us.uncletopia.com","port":27015,"enabled":true,"region":"us-central","cc":"us","latitude":41.881832,"longitude":-87.62318,"reserved":0,"last_update":"0001-01-01T00:00:00Z","name_a2s":"Uncletopia | Chicago | 5 | All Maps","protocol":17,"map":"pl_frontier_final","folder":"tf","game":"Team Fortress","app_id":440,"player_count":0,"max_players":24,"Bots":0,"server_type":"Dedicated","server_os":"Linux","password":true,"vac":true,"version":"7757534","steam_id":85568392924866362,"keywords":["nocrits","nodmgspread","payload","uncletopia"],"game_id":440,"stv_port":27016,"stv_name":"Uncletopia | Chicago | 5 | All Maps | STV","players":null},{"server_id":37,"name":"Uncletopia | Chicago | 6 | All Maps","name_short":"chi-6","host":"chi-2.us.uncletopia.com","port":27025,"enabled":true,"region":"us-central","cc":"us","latitude":41.881832,"longitude":-87.62318,"reserved":0,"last_update":"0001-01-01T00:00:00Z","name_a2s":"Uncletopia | Chicago | 6 | All Maps","protocol":17,"map":"cp_process_final","folder":"tf","game":"Team Fortress","app_id":440,"player_count":0,"max_players":24,"Bots":0,"server_type":"Dedicated","server_os":"Linux","password":true,"vac":true,"version":"7757534","steam_id":85568392924866363,"keywords":["cp","nocrits","nodmgspread","uncletopia"],"game_id":440,"stv_port":27026,"stv_name":"Uncletopia | Chicago | 6 | All Maps | STV","players":null},{"server_id":38,"name":"Uncletopia | Chicago | 7 | Stopwatch Beta","name_short":"chi-7","host":"chi-2.us.uncletopia.com","port":27035,"enabled":true,"region":"us-central","cc":"us","latitude":41.881832,"longitude":-87.62318,"reserved":0,"last_update":"0001-01-01T00:00:00Z","name_a2s":"Uncletopia | Chicago | 7 | Stopwatch Beta","protocol":17,"map":"pl_barnblitz","folder":"tf","game":"Team Fortress","app_id":440,"player_count":0,"max_players":24,"Bots":0,"server_type":"Dedicated","server_os":"Linux","password":true,"vac":true,"version":"7757534","steam_id":85568392924866364,"keywords":["nocrits","nodmgspread","payload","uncletopia"],"game_id":440,"stv_port":27036,"stv_name":"Uncletopia | Chicago | 7 | Stopwatch Beta | STV","players":null},{"server_id":39,"name":"Uncletopia | Chicago | 8 | Community","name_short":"chi-8","host":"chi-2.us.uncletopia.com","port":27045,"enabled":true,"region":"us-central","cc":"us","latitude":41.881832,"longitude":-87.62318,"reserved":0,"last_update":"0001-01-01T00:00:00Z","name_a2s":"Uncletopia | Chicago | 8 | Community","protocol":17,"map":"workshop/cp_glacier_rc6.ugc2905735376","folder":"tf","game":"Team Fortress","app_id":440,"player_count":0,"max_players":24,"Bots":0,"server_type":"Dedicated","server_os":"Linux","password":true,"vac":true,"version":"7757534","steam_id":85568392924866365,"keywords":["cp","nocrits","nodmgspread","uncletopia"],"game_id":440,"stv_port":27046,"stv_name":"Uncletopia | Chicago | 8 | Community | STV","players":null},{"server_id":8,"name":"Uncletopia | Dallas | 1 | All Maps","name_short":"dal-1","host":"dal-1.us.uncletopia.com","port":27015,"enabled":true,"region":"us-central","cc":"us","latitude":32.779167,"longitude":-96.80889,"reserved":0,"last_update":"0001-01-01T00:00:00Z","name_a2s":"Uncletopia | Dallas | 1 | All Maps","protocol":17,"map":"pl_pier","folder":"tf","game":"Team Fortress","app_id":440,"player_count":22,"max_players":24,"Bots":0,"server_type":"Dedicated","server_os":"Linux","password":true,"vac":true,"version":"7757534","steam_id":85568392924469986,"keywords":["nocrits","nodmgspread","payload","uncletopia"],"game_id":440,"stv_port":27016,"stv_name":"Uncletopia | Dallas | 1 | All Maps | STV","players":[{"user_id":516,"name":"doomderp","steam_id":76561198115165536,"connected_time":4801000000000,"state":"active","ping":128},{"user_id":519,"name":"Sir Squirrell","steam_id":76561198090769409,"connected_time":4663000000000,"state":"active","ping":120},{"user_id":566,"name":"AAGooseman","steam_id":76561198378941369,"connected_time":1039000000000,"state":"active","ping":78},{"user_id":565,"name":"My controller broke","steam_id":76561198157280577,"connected_time":1040000000000,"state":"active","ping":47},{"user_id":551,"name":"Matisguy","steam_id":76561199020903681,"connected_time":2186000000000,"state":"active","ping":57},{"user_id":530,"name":"Chief Diggery K.","steam_id":76561198066629137,"connected_time":4130000000000,"state":"active","ping":74},{"user_id":567,"name":"SÃ∏ÃÄÕî ÃµÃãÃòCÃµÕóÃ± ÃµÃçÃßUÃ¥","steam_id":76561198135662712,"connected_time":1006000000000,"state":"active","ping":77},{"user_id":568,"name":"NecroHash","steam_id":76561198158007618,"connected_time":854000000000,"state":"active","ping":84},{"user_id":521,"name":"John16Mark","steam_id":76561198119445407,"connected_time":4633000000000,"state":"active","ping":98},{"user_id":558,"name":"Zillers","steam_id":76561198095248744,"connected_time":1511000000000,"state":"active","ping":87},{"user_id":552,"name":"Jellojiggler","steam_id":76561198094320477,"connected_time":2182000000000,"state":"active","ping":48},{"user_id":569,"name":"Riff","steam_id":76561198066921423,"connected_time":812000000000,"state":"active","ping":68},{"user_id":574,"name":"blademiss","steam_id":76561198062083019,"connected_time":620000000000,"state":"active","ping":77},{"user_id":563,"name":"Metbol","steam_id":76561198001362410,"connected_time":1399000000000,"state":"active","ping":56},{"user_id":546,"name":"vanilla linguine","steam_id":76561198155661890,"connected_time":3030000000000,"state":"active","ping":63},{"user_id":560,"name":"Air","steam_id":76561198208951683,"connected_time":1464000000000,"state":"active","ping":90},{"user_id":528,"name":"Dr Lazer","steam_id":76561199086408216,"connected_time":4376000000000,"state":"active","ping":122},{"user_id":576,"name":"square-","steam_id":76561198058143770,"connected_time":87000000000,"state":"active","ping":45},{"user_id":571,"name":"pigswill","steam_id":76561197999081865,"connected_time":770000000000,"state":"active","ping":99},{"user_id":555,"name":"El pandora","steam_id":76561198075490385,"connected_time":2145000000000,"state":"active","ping":75},{"user_id":533,"name":"CaptainKn1ght","steam_id":76561198018979695,"connected_time":4105000000000,"state":"active","ping":82},{"user_id":575,"name":"Yummy Kabobz","steam_id":76561198067661705,"connected_time":577000000000,"state":"active","ping":78}]},{"server_id":108,"name":"Uncletopia | Dallas | 2 | All Maps","name_short":"dal-2","host":"dal-1.us.uncletopia.com","port":27025,"enabled":true,"region":"us-central","cc":"us","latitude":32.779167,"longitude":-96.80889,"reserved":0,"last_update":"0001-01-01T00:00:00Z","name_a2s":"Uncletopia | Dallas | 2 | All Maps","protocol":17,"map":"pl_frontier_final","folder":"tf","game":"Team Fortress","app_id":440,"player_count":13,"max_players":24,"Bots":0,"server_type":"Dedicated","server_os":"Linux","password":true,"vac":true,"version":"7757534","steam_id":85568392924469988,"keywords":["nocrits","nodmgspread","payload","uncletopia"],"game_id":440,"stv_port":27026,"stv_name":"Uncletopia | Dallas | 2 | All Maps | STV","players":[{"user_id":423,"name":"Cat in a Tub","steam_id":76561198170443243,"connected_time":5054000000000,"state":"active","ping":82},{"user_id":466,"name":"Grecki","steam_id":76561198396610691,"connected_time":593000000000,"state":"active","ping":57},{"user_id":467,"name":"LuciD","steam_id":76561198242842394,"connected_time":525000000000,"state":"active","ping":83},{"user_id":239,"name":"Hunter Biden's laptop","steam_id":76561199475829930,"connected_time":19360000000000,"state":"active","ping":60},{"user_id":470,"name":"Haula","steam_id":76561198076586592,"connected_time":392000000000,"state":"active","ping":57},{"user_id":471,"name":"Sly Ramen","steam_id":76561198043075361,"connected_time":153000000000,"state":"active","ping":45},{"user_id":442,"name":"shart","steam_id":76561198039002838,"connected_time":3214000000000,"state":"active","ping":102},{"user_id":445,"name":"Aegis","steam_id":76561198272052750,"connected_time":2925000000000,"state":"active","ping":87},{"user_id":458,"name":"üê∫-Iwky-ü¶ä","steam_id":76561198185616311,"connected_time":1609000000000,"state":"active","ping":70},{"user_id":444,"name":"Jakkuzzi","steam_id":76561198097256820,"connected_time":3072000000000,"state":"active","ping":77},{"user_id":417,"name":"postgres","steam_id":76561198011204750,"connected_time":5478000000000,"state":"active","ping":91},{"user_id":430,"name":"veldt","steam_id":76561198056135308,"connected_time":4466000000000,"state":"active","ping":55},{"user_id":447,"name":"Futa Lover","steam_id":76561198056775795,"connected_time":2847000000000,"state":"active","ping":70}]},{"server_id":5,"name":"Uncletopia | Frankfurt | 1 | All Maps","name_short":"frk-1","host":"frk-1.de.uncletopia.com","port":27015,"enabled":true,"region":"eu","cc":"de","latitude":50.110924,"longitude":8.682127,"reserved":0,"last_update":"0001-01-01T00:00:00Z","name_a2s":"Uncletopia | Frankfurt | 1 | All Maps","protocol":17,"map":"pl_pier","folder":"tf","game":"Team Fortress","app_id":440,"player_count":19,"max_players":24,"Bots":0,"server_type":"Dedicated","server_os":"Linux","password":true,"vac":true,"version":"7757534","steam_id":85568392924469989,"keywords":["nocrits","nodmgspread","payload","uncletopia"],"game_id":440,"stv_port":27016,"stv_name":"Uncletopia | Frankfurt | 1 | All Maps | STV","players":[{"user_id":117,"name":"Tobb_Harvard","steam_id":76561199222100485,"connected_time":650000000000,"state":"active","ping":85},{"user_id":99,"name":"Lord Aerial","steam_id":76561198288157281,"connected_time":1873000000000,"state":"active","ping":64},{"user_id":116,"name":"7-Zip","steam_id":76561198099726966,"connected_time":709000000000,"state":"active","ping":98},{"user_id":71,"name":"JeffTheDwarf","steam_id":76561198867619407,"connected_time":3805000000000,"state":"active","ping":69},{"user_id":119,"name":"Shourai","steam_id":76561198201192634,"connected_time":508000000000,"state":"active","ping":66},{"user_id":118,"name":"Nummi","steam_id":76561198980901935,"connected_time":633000000000,"state":"active","ping":79},{"user_id":125,"name":"Hussain_144","steam_id":76561198346029208,"connected_time":275000000000,"state":"active","ping":153},{"user_id":120,"name":"wheelie bin","steam_id":76561198040040328,"connected_time":469000000000,"state":"active","ping":56},{"user_id":126,"name":"72hz","steam_id":76561198171041063,"connected_time":249000000000,"state":"active","ping":99},{"user_id":103,"name":"__mk_km__","steam_id":76561198067588177,"connected_time":1642000000000,"state":"active","ping":108},{"user_id":105,"name":"killbind irl","steam_id":76561198180637374,"connected_time":1576000000000,"state":"active","ping":89},{"user_id":127,"name":"be gay do crime","steam_id":76561198254450468,"connected_time":152000000000,"state":"active","ping":74},{"user_id":122,"name":"[T]aKer","steam_id":76561198001778013,"connected_time":426000000000,"state":"active","ping":49},{"user_id":123,"name":"Laodarz","steam_id":76561199087930696,"connected_time":389000000000,"state":"active","ping":79},{"user_id":109,"name":"Perpetual Pub Push","steam_id":76561198256714846,"connected_time":1486000000000,"state":"active","ping":46},{"user_id":128,"name":"A stripper","steam_id":76561198034865891,"connected_time":83000000000,"state":"active","ping":58},{"user_id":130,"name":"|hmc|hmc|","steam_id":76561198998684199,"connected_time":23000000000,"state":"active","ping":116},{"user_id":131,"name":"godspeed","steam_id":76561198216693185,"connected_time":18000000000,"state":"active","ping":85},{"user_id":132,"name":"Cu713","steam_id":76561198175463442,"connected_time":0,"state":"spawning","ping":89}]},{"server_id":110,"name":"Uncletopia | Frankfurt | 2 | All Maps","name_short":"frk-2","host":"frk-1.de.uncletopia.com","port":27025,"enabled":true,"region":"eu","cc":"de","latitude":50.110924,"longitude":8.682127,"reserved":0,"last_update":"0001-01-01T00:00:00Z","name_a2s":"Uncletopia | Frankfurt | 2 | All Maps","protocol":17,"map":"koth_lakeside_final","folder":"tf","game":"Team Fortress","app_id":440,"player_count":0,"max_players":24,"Bots":0,"server_type":"Dedicated","server_os":"Linux","password":true,"vac":true,"version":"7757534","steam_id":85568392924469990,"keywords":["cp","nocrits","nodmgspread","uncletopia"],"game_id":440,"stv_port":27026,"stv_name":"Uncletopia | Frankfurt | 2 | All Maps | STV","players":null},{"server_id":308,"name":"Uncletopia | Frankfurt | 3 | All Maps","name_short":"frk-3","host":"frk-1.de.uncletopia.com","port":27035,"enabled":true,"region":"eu","cc":"de","latitude":50.110924,"longitude":8.682127,"reserved":0,"last_update":"0001-01-01T00:00:00Z","name_a2s":"Uncletopia | Frankfurt | 3 | All Maps","protocol":17,"map":"pl_swiftwater_final1","folder":"tf","game":"Team Fortress","app_id":440,"player_count":0,"max_players":24,"Bots":0,"server_type":"Dedicated","server_os":"Linux","password":true,"vac":true,"version":"7757534","steam_id":85568392924504274,"keywords":["nocrits","nodmgspread","payload","uncletopia"],"game_id":440,"stv_port":27036,"stv_name":"Uncletopia | Frankfurt | 3 | All Maps | STV","players":null},{"server_id":309,"name":"Uncletopia | Frankfurt | 4 | All Maps","name_short":"frk-4","host":"frk-1.de.uncletopia.com","port":27045,"enabled":true,"region":"eu","cc":"de","latitude":50.110924,"longitude":8.682127,"reserved":0,"last_update":"0001-01-01T00:00:00Z","name_a2s":"Uncletopia | Frankfurt | 4 | All Maps","protocol":17,"map":"koth_viaduct","folder":"tf","game":"Team Fortress","app_id":440,"player_count":0,"max_players":24,"Bots":0,"server_type":"Dedicated","server_os":"Linux","password":true,"vac":true,"version":"7757534","steam_id":85568392924504275,"keywords":["cp","nocrits","nodmgspread","uncletopia"],"game_id":440,"stv_port":27046,"stv_name":"Uncletopia | Frankfurt | 4 | All Maps | STV","players":null},{"server_id":310,"name":"Uncletopia | Frankfurt | 5 | All Maps","name_short":"frk-5","host":"frk-1.de.uncletopia.com","port":27055,"enabled":true,"region":"eu","cc":"de","latitude":50.110924,"longitude":8.682127,"reserved":0,"last_update":"0001-01-01T00:00:00Z","name_a2s":"Uncletopia | Frankfurt | 5 | All Maps","protocol":17,"map":"koth_lakeside_final","folder":"tf","game":"Team Fortress","app_id":440,"player_count":0,"max_players":24,"Bots":0,"server_type":"Dedicated","server_os":"Linux","password":true,"vac":true,"version":"7757534","steam_id":85568392924504277,"keywords":["cp","nocrits","nodmgspread","uncletopia"],"game_id":440,"stv_port":27056,"stv_name":"Uncletopia | Frankfurt | 5 | All Maps | STV","players":null},{"server_id":311,"name":"Uncletopia | Frankfurt | 6 | All Maps","name_short":"frk-6","host":"frk-1.de.uncletopia.com","port":27065,"enabled":true,"region":"eu","cc":"de","latitude":50.110924,"longitude":8.682127,"reserved":0,"last_update":"0001-01-01T00:00:00Z","name_a2s":"Uncletopia | Frankfurt | 6 | All Maps","protocol":17,"map":"pl_frontier_final","folder":"tf","game":"Team Fortress","app_id":440,"player_count":0,"max_players":24,"Bots":0,"server_type":"Dedicated","server_os":"Linux","password":true,"vac":true,"version":"7757534","steam_id":85568392924504278,"keywords":["nocrits","nodmgspread","payload","uncletopia"],"game_id":440,"stv_port":27066,"stv_name":"Uncletopia | Frankfurt | 6 | All Maps | STV","players":null},{"server_id":23,"name":"Uncletopia | Frankfurt | 7 | Stopwatch Beta","name_short":"frk-7","host":"frk-1.de.uncletopia.com","port":27075,"enabled":true,"region":"eu","cc":"de","latitude":50.110924,"longitude":8.682127,"reserved":0,"last_update":"0001-01-01T00:00:00Z","name_a2s":"Uncletopia | Frankfurt | 7 | Stopwatch Beta","protocol":17,"map":"cp_sunshine","folder":"tf","game":"Team Fortress","app_id":440,"player_count":0,"max_players":24,"Bots":0,"server_type":"Dedicated","server_os":"Linux","password":true,"vac":true,"version":"7757534","steam_id":85568392924742827,"keywords":["cp","nocrits","nodmgspread","uncletopia"],"game_id":440,"stv_port":27076,"stv_name":"Uncletopia | Frankfurt | 7 | Stopwatch Beta | STV","players":null},{"server_id":24,"name":"Uncletopia | Frankfurt | 8 | Community","name_short":"frk-8","host":"frk-1.de.uncletopia.com","port":27085,"enabled":true,"region":"eu","cc":"de","latitude":50.110924,"longitude":8.682127,"reserved":0,"last_update":"0001-01-01T00:00:00Z","name_a2s":"Uncletopia | Frankfurt | 8 | Community","protocol":17,"map":"koth_lakeside_final","folder":"tf","game":"Team Fortress","app_id":440,"player_count":0,"max_players":24,"Bots":0,"server_type":"Dedicated","server_os":"Linux","password":true,"vac":true,"version":"7757534","steam_id":85568392924742828,"keywords":["cp","nocrits","nodmgspread","uncletopia"],"game_id":440,"stv_port":27086,"stv_name":"Uncletopia | Frankfurt | 8 | Community | STV","players":null},{"server_id":202,"name":"Uncletopia | Hong Kong | 1 | All Maps","name_short":"hgk-1","host":"hgk-1.hk.uncletopia.com","port":27015,"enabled":true,"region":"asia","cc":"hk","latitude":22.302711,"longitude":114.177216,"reserved":0,"last_update":"0001-01-01T00:00:00Z","name_a2s":"Uncletopia | Hong Kong | 1 | All Maps","protocol":17,"map":"koth_suijin","folder":"tf","game":"Team Fortress","app_id":440,"player_count":4,"max_players":24,"Bots":0,"server_type":"Dedicated","server_os":"Linux","password":true,"vac":true,"version":"7757534","steam_id":85568392924494504,"keywords":["cp","nocrits","nodmgspread","uncletopia"],"game_id":440,"stv_port":27016,"stv_name":"Uncletopia | Hong Kong | 1 | All Maps | STV","players":[{"user_id":85,"name":"Wizzkill (F2p)","steam_id":76561199131526926,"connected_time":1474000000000,"state":"active","ping":83},{"user_id":92,"name":"killman47","steam_id":76561198348487408,"connected_time":167000000000,"state":"active","ping":37},{"user_id":91,"name":"Pain","steam_id":76561199156341643,"connected_time":252000000000,"state":"active","ping":121},{"user_id":87,"name":"Akira_Dead #SaveTF2","steam_id":76561198925749720,"connected_time":1317000000000,"state":"active","ping":155}]},{"server_id":1,"name":"Uncletopia | Los Angeles | 1 | All Maps","name_short":"lax-1","host":"lax-1.us.uncletopia.com","port":27015,"enabled":true,"region":"us-west","cc":"us","latitude":33.94279,"longitude":-118.41004,"reserved":0,"last_update":"0001-01-01T00:00:00Z","name_a2s":"Uncletopia | Los Angeles | 1 | All Maps","protocol":17,"map":"pl_badwater","folder":"tf","game":"Team Fortress","app_id":440,"player_count":24,"max_players":24,"Bots":0,"server_type":"Dedicated","server_os":"Linux","password":true,"vac":true,"version":"7757534","steam_id":85568392924469991,"keywords":["nocrits","nodmgspread","payload","uncletopia"],"game_id":440,"stv_port":27016,"stv_name":"Uncletopia | Los Angeles | 1 | All Maps | STV","players":[{"user_id":408,"name":"onion","steam_id":76561198242311084,"connected_time":1475000000000,"state":"active","ping":89},{"user_id":427,"name":"KrylonHeretic","steam_id":76561198139811459,"connected_time":450000000000,"state":"active","ping":70},{"user_id":429,"name":"{·¥õ Ä_·¥Ñ·¥á Ä·¥ò} shullers","steam_id":76561198889997809,"connected_time":252000000000,"state":"active","ping":45},{"user_id":431,"name":"motherfucker 2.0","steam_id":76561198141189209,"connected_time":198000000000,"state":"active","ping":61},{"user_id":404,"name":"P.I.Staker","steam_id":76561198087096559,"connected_time":1776000000000,"state":"active","ping":77},{"user_id":434,"name":"Jack from Jack in The Box","steam_id":76561199083594971,"connected_time":151000000000,"state":"active","ping":48},{"user_id":423,"name":"Kaluka","steam_id":76561198036861445,"connected_time":556000000000,"state":"active","ping":106},{"user_id":422,"name":"Heathen","steam_id":76561198120421485,"connected_time":591000000000,"state":"active","ping":79},{"user_id":421,"name":"cream team","steam_id":76561198139043953,"connected_time":619000000000,"state":"active","ping":78},{"user_id":424,"name":"SanitysEdge","steam_id":76561198130732813,"connected_time":541000000000,"state":"active","ping":45},{"user_id":378,"name":"dash23‚Ñ¢","steam_id":76561198314951185,"connected_time":4639000000000,"state":"active","ping":82},{"user_id":402,"name":"yellow","steam_id":76561198366474647,"connected_time":1980000000000,"state":"active","ping":47},{"user_id":412,"name":"face in the dark","steam_id":76561198132755619,"connected_time":1323000000000,"state":"active","ping":43},{"user_id":413,"name":"Snapcaster","steam_id":76561199127590316,"connected_time":1314000000000,"state":"active","ping":61},{"user_id":430,"name":"Justin","steam_id":76561198110865423,"connected_time":252000000000,"state":"active","ping":33},{"user_id":432,"name":"Zozbieta","steam_id":76561198010336265,"connected_time":176000000000,"state":"active","ping":87},{"user_id":426,"name":"sweaterfan","steam_id":76561199389567214,"connected_time":503000000000,"state":"active","ping":98},{"user_id":425,"name":"Shmaden Shmuki","steam_id":76561198272381217,"connected_time":536000000000,"state":"active","ping":54},{"user_id":420,"name":"Vlad","steam_id":76561198072334604,"connected_time":649000000000,"state":"active","ping":84},{"user_id":433,"name":"Kuudere","steam_id":76561198075028016,"connected_time":173000000000,"state":"active","ping":71},{"user_id":415,"name":"VoodooPapa","steam_id":76561199160439066,"connected_time":1292000000000,"state":"active","ping":58},{"user_id":389,"name":"Peter, what are you doing?","steam_id":76561198066452726,"connected_time":3103000000000,"state":"active","ping":49},{"user_id":416,"name":"immaculate","steam_id":76561197961779026,"connected_time":1268000000000,"state":"active","ping":49},{"user_id":327,"name":"Hindmost","steam_id":76561199081837220,"connected_time":8202000000000,"state":"active","ping":99}]},{"server_id":112,"name":"Uncletopia | Los Angeles | 2 | All Maps","name_short":"lax-2","host":"lax-1.us.uncletopia.com","port":27025,"enabled":true,"region":"us-west","cc":"us","latitude":33.94279,"longitude":-118.41004,"reserved":0,"last_update":"0001-01-01T00:00:00Z","name_a2s":"Uncletopia | Los Angeles | 2 | All Maps","protocol":17,"map":"koth_cascade","folder":"tf","game":"Team Fortress","app_id":440,"player_count":9,"max_players":24,"Bots":0,"server_type":"Dedicated","server_os":"Linux","password":true,"vac":true,"version":"7757534","steam_id":85568392924469992,"keywords":["cp","nocrits","nodmgspread","uncletopia"],"game_id":440,"stv_port":27026,"stv_name":"Uncletopia | Los Angeles | 2 | All Maps | STV","players":[{"user_id":667,"name":"the biggest bird","steam_id":76561198971743530,"connected_time":618000000000,"state":"active","ping":45},{"user_id":669,"name":"Bodach J","steam_id":76561197970562873,"connected_time":421000000000,"state":"active","ping":45},{"user_id":670,"name":"Baldcoin","steam_id":76561198079193722,"connected_time":412000000000,"state":"active","ping":38},{"user_id":671,"name":"FACEIT_Jake","steam_id":76561199382661194,"connected_time":286000000000,"state":"active","ping":43},{"user_id":672,"name":"‚ôî—Çe–ΩœÅŒπ–∏eŒ±œÅœÅ‚Ñìe‚ôö","steam_id":76561198079939127,"connected_time":191000000000,"state":"active","ping":56},{"user_id":625,"name":"twin","steam_id":76561198055626638,"connected_time":3447000000000,"state":"active","ping":135},{"user_id":634,"name":"no vc no c","steam_id":76561197989503095,"connected_time":3000000000000,"state":"active","ping":147},{"user_id":666,"name":"Fistables","steam_id":76561198055775460,"connected_time":724000000000,"state":"active","ping":101},{"user_id":622,"name":"eek","steam_id":76561198332896682,"connected_time":3489000000000,"state":"active","ping":75}]},{"server_id":324,"name":"Uncletopia | Los Angeles | 3 | All Maps","name_short":"lax-3","host":"lax-1.us.uncletopia.com","port":27035,"enabled":true,"region":"us-west","cc":"us","latitude":33.94279,"longitude":-118.41004,"reserved":0,"last_update":"0001-01-01T00:00:00Z","name_a2s":"Uncletopia | Los Angeles | 3 | All Maps","protocol":17,"map":"koth_highpass","folder":"tf","game":"Team Fortress","app_id":440,"player_count":0,"max_players":24,"Bots":0,"server_type":"Dedicated","server_os":"Linux","password":true,"vac":true,"version":"7757534","steam_id":85568392924510198,"keywords":["cp","nocrits","nodmgspread","uncletopia"],"game_id":440,"stv_port":27036,"stv_name":"Uncletopia | Los Angeles | 3 | All Maps | STV","players":null},{"server_id":25,"name":"Uncletopia | Los Angeles | 4 | Stopwatch Beta","name_short":"lax-4","host":"lax-1.us.uncletopia.com","port":27045,"enabled":true,"region":"us-west","cc":"us","latitude":33.94279,"longitude":-118.41004,"reserved":0,"last_update":"0001-01-01T00:00:00Z","name_a2s":"Uncletopia | Los Angeles | 4 | Stopwatch Beta","protocol":17,"map":"pl_borneo","folder":"tf","game":"Team Fortress","app_id":440,"player_count":0,"max_players":24,"Bots":0,"server_type":"Dedicated","server_os":"Linux","password":true,"vac":true,"version":"7757534","steam_id":85568392924510199,"keywords":["nocrits","nodmgspread","payload","uncletopia"],"game_id":440,"stv_port":27046,"stv_name":"Uncletopia | Los Angeles | 4 | Stopwatch Beta | STV","players":null},{"server_id":11,"name":"Uncletopia | London | 1 | All Maps","name_short":"lon-1","host":"lon-1.uk.uncletopia.com","port":27015,"enabled":true,"region":"eu","cc":"gb","latitude":51.509865,"longitude":-0.118092,"reserved":0,"last_update":"0001-01-01T00:00:00Z","name_a2s":"Uncletopia | London | 1 | All Maps","protocol":17,"map":"koth_highpass","folder":"tf","game":"Team Fortress","app_id":440,"player_count":0,"max_players":24,"Bots":0,"server_type":"Dedicated","server_os":"Linux","password":true,"vac":true,"version":"7757534","steam_id":85568392924367362,"keywords":["cp","nocrits","nodmgspread","uncletopia"],"game_id":440,"stv_port":27016,"stv_name":"Uncletopia | London | 1 | All Maps | STV","players":null},{"server_id":114,"name":"Uncletopia | London | 2 | All Maps","name_short":"lon-2","host":"lon-1.uk.uncletopia.com","port":27025,"enabled":true,"region":"eu","cc":"gb","latitude":51.509865,"longitude":-0.118092,"reserved":0,"last_update":"0001-01-01T00:00:00Z","name_a2s":"Uncletopia | London | 2 | All Maps","protocol":17,"map":"koth_viaduct","folder":"tf","game":"Team Fortress","app_id":440,"player_count":0,"max_players":24,"Bots":0,"server_type":"Dedicated","server_os":"Linux","password":true,"vac":true,"version":"7757534","steam_id":85568392924470941,"keywords":["cp","nocrits","nodmgspread","uncletopia"],"game_id":440,"stv_port":27026,"stv_name":"Uncletopia | London | 2 | All Maps | STV","players":null},{"server_id":320,"name":"Uncletopia | London | 3 | All Maps","name_short":"lon-3","host":"lon-1.uk.uncletopia.com","port":27035,"enabled":true,"region":"eu","cc":"gb","latitude":51.509865,"longitude":-0.118092,"reserved":0,"last_update":"0001-01-01T00:00:00Z","name_a2s":"Uncletopia | London | 3 | All Maps","protocol":17,"map":"cp_dustbowl","folder":"tf","game":"Team Fortress","app_id":440,"player_count":0,"max_players":24,"Bots":0,"server_type":"Dedicated","server_os":"Linux","password":true,"vac":true,"version":"7757534","steam_id":85568392924510192,"keywords":["cp","nocrits","nodmgspread","uncletopia"],"game_id":440,"stv_port":27036,"stv_name":"Uncletopia | London | 3 | All Maps | STV","players":null},{"server_id":321,"name":"Uncletopia | London | 4 | All Maps","name_short":"lon-4","host":"lon-1.uk.uncletopia.com","port":27045,"enabled":true,"region":"eu","cc":"gb","latitude":51.509865,"longitude":-0.118092,"reserved":0,"last_update":"0001-01-01T00:00:00Z","name_a2s":"Uncletopia | London | 4 | All Maps","protocol":17,"map":"cp_dustbowl","folder":"tf","game":"Team Fortress","app_id":440,"player_count":0,"max_players":24,"Bots":0,"server_type":"Dedicated","server_os":"Linux","password":true,"vac":true,"version":"7757534","steam_id":85568392924510193,"keywords":["cp","nocrits","nodmgspread","uncletopia"],"game_id":440,"stv_port":27046,"stv_name":"Uncletopia | London | 4 | All Maps | STV","players":null},{"server_id":21,"name":"Uncletopia | London | 5 | All Maps","name_short":"lon-5","host":"lon-1.uk.uncletopia.com","port":27055,"enabled":true,"region":"eu","cc":"gb","latitude":51.509865,"longitude":-0.118092,"reserved":0,"last_update":"0001-01-01T00:00:00Z","name_a2s":"Uncletopia | London | 5 | All Maps","protocol":17,"map":"cp_altitude","folder":"tf","game":"Team Fortress","app_id":440,"player_count":0,"max_players":24,"Bots":0,"server_type":"Dedicated","server_os":"Linux","password":true,"vac":true,"version":"7757534","steam_id":85568392924742829,"keywords":["cp","nocrits","nodmgspread","uncletopia"],"game_id":440,"stv_port":27056,"stv_name":"Uncletopia | London | 5 | All Maps | STV","players":null},{"server_id":22,"name":"Uncletopia | London | 6 | All Maps","name_short":"lon-6","host":"lon-1.uk.uncletopia.com","port":27065,"enabled":true,"region":"eu","cc":"gb","latitude":51.509865,"longitude":-0.118092,"reserved":0,"last_update":"0001-01-01T00:00:00Z","name_a2s":"Uncletopia | London | 6 | All Maps","protocol":17,"map":"cp_mountainlab","folder":"tf","game":"Team Fortress","app_id":440,"player_count":0,"max_players":24,"Bots":0,"server_type":"Dedicated","server_os":"Linux","password":true,"vac":true,"version":"7757534","steam_id":85568392924742830,"keywords":["cp","nocrits","nodmgspread","uncletopia"],"game_id":440,"stv_port":27066,"stv_name":"Uncletopia | London | 6 | All Maps | STV","players":null},{"server_id":40,"name":"Uncletopia | London | 7 | No Payload","name_short":"lon-7","host":"lon-1.uk.uncletopia.com","port":27075,"enabled":true,"region":"eu","cc":"gb","latitude":51.509865,"longitude":-0.118092,"reserved":0,"last_update":"0001-01-01T00:00:00Z","name_a2s":"Uncletopia | London | 7 | No Payload","protocol":17,"map":"pl_badwater","folder":"tf","game":"Team Fortress","app_id":440,"player_count":0,"max_players":24,"Bots":0,"server_type":"Dedicated","server_os":"Linux","password":true,"vac":true,"version":"7757534","steam_id":85568392924964314,"keywords":["nocrits","nodmgspread","payload","uncletopia"],"game_id":440,"stv_port":27076,"stv_name":"Uncletopia | London | 7 | No Payload | STV","players":null},{"server_id":41,"name":"Uncletopia | London | 8 | Community","name_short":"lon-8","host":"lon-1.uk.uncletopia.com","port":27085,"enabled":true,"region":"eu","cc":"gb","latitude":51.509865,"longitude":-0.118092,"reserved":0,"last_update":"0001-01-01T00:00:00Z","name_a2s":"Uncletopia | London | 8 | Community","protocol":17,"map":"pl_barnblitz","folder":"tf","game":"Team Fortress","app_id":440,"player_count":0,"max_players":24,"Bots":0,"server_type":"Dedicated","server_os":"Linux","password":true,"vac":true,"version":"7757534","steam_id":85568392924964315,"keywords":["nocrits","nodmgspread","payload","uncletopia"],"game_id":440,"stv_port":27086,"stv_name":"Uncletopia | London | 8 | Community | STV","players":null},{"server_id":300,"name":"Uncletopia | Montr√©al | 1 | All Maps","name_short":"mtl-1","host":"mtl-1.ca.uncletopia.com","port":27015,"enabled":true,"region":"us-east","cc":"ca","latitude":45.50889,"longitude":-73.56167,"reserved":0,"last_update":"0001-01-01T00:00:00Z","name_a2s":"Uncletopia | Montr√©al | 1 | All Maps","protocol":17,"map":"cp_sunshine","folder":"tf","game":"Team Fortress","app_id":440,"player_count":0,"max_players":24,"Bots":0,"server_type":"Dedicated","server_os":"Linux","password":true,"vac":true,"version":"7757534","steam_id":85568392924500087,"keywords":["cp","nocrits","nodmgspread","uncletopia"],"game_id":440,"stv_port":27016,"stv_name":"Uncletopia | Montr√©al | 1 | All Maps | STV","players":null},{"server_id":301,"name":"Uncletopia | Montr√©al | 2 | All Maps","name_short":"mtl-2","host":"mtl-1.ca.uncletopia.com","port":27025,"enabled":true,"region":"us-east","cc":"ca","latitude":45.50889,"longitude":-73.56167,"reserved":0,"last_update":"0001-01-01T00:00:00Z","name_a2s":"Uncletopia | Montr√©al | 2 | All Maps","protocol":17,"map":"koth_lakeside_final","folder":"tf","game":"Team Fortress","app_id":440,"player_count":0,"max_players":24,"Bots":0,"server_type":"Dedicated","server_os":"Linux","password":true,"vac":true,"version":"7757534","steam_id":85568392924500088,"keywords":["cp","nocrits","nodmgspread","uncletopia"],"game_id":440,"stv_port":27026,"stv_name":"Uncletopia | Montr√©al | 2 | All Maps | STV","players":null},{"server_id":302,"name":"Uncletopia | Montr√©al | 3 | All Maps","name_short":"mtl-3","host":"mtl-1.ca.uncletopia.com","port":27035,"enabled":true,"region":"us-east","cc":"ca","latitude":45.50889,"longitude":-73.56167,"reserved":0,"last_update":"0001-01-01T00:00:00Z","name_a2s":"Uncletopia | Montr√©al | 3 | All Maps","protocol":17,"map":"pl_badwater","folder":"tf","game":"Team Fortress","app_id":440,"player_count":0,"max_players":24,"Bots":0,"server_type":"Dedicated","server_os":"Linux","password":true,"vac":true,"version":"7757534","steam_id":85568392924500089,"keywords":["nocrits","nodmgspread","payload","uncletopia"],"game_id":440,"stv_port":27036,"stv_name":"Uncletopia | Montr√©al | 3 | All Maps | STV","players":null},{"server_id":303,"name":"Uncletopia | Montr√©al | 4 | No Payload","name_short":"mtl-4","host":"mtl-1.ca.uncletopia.com","port":27045,"enabled":true,"region":"us-east","cc":"ca","latitude":45.50889,"longitude":-73.56167,"reserved":0,"last_update":"0001-01-01T00:00:00Z","name_a2s":"Uncletopia | Montr√©al | 4 | No Payload","protocol":17,"map":"cp_mossrock","folder":"tf","game":"Team Fortress","app_id":440,"player_count":0,"max_players":24,"Bots":0,"server_type":"Dedicated","server_os":"Linux","password":true,"vac":true,"version":"7757534","steam_id":85568392924500090,"keywords":["cp","nocrits","nodmgspread","uncletopia"],"game_id":440,"stv_port":27046,"stv_name":"Uncletopia | Montr√©al | 4 | No Payload | STV","players":null},{"server_id":13,"name":"Uncletopia | New York City | 1 | All Maps","name_short":"nyc-1","host":"nyc-1.us.uncletopia.com","port":27015,"enabled":true,"region":"us-east","cc":"us","latitude":40.73061,"longitude":-73.93524,"reserved":0,"last_update":"0001-01-01T00:00:00Z","name_a2s":"Uncletopia | New York City | 1 | All Maps","protocol":17,"map":"pl_snowycoast","folder":"tf","game":"Team Fortress","app_id":440,"player_count":1,"max_players":24,"Bots":0,"server_type":"Dedicated","server_os":"Linux","password":true,"vac":true,"version":"7757534","steam_id":85568392924469993,"keywords":["nocrits","nodmgspread","payload","uncletopia"],"game_id":440,"stv_port":27016,"stv_name":"Uncletopia | New York City | 1 | All Maps | STV","players":[{"user_id":630,"name":"Hydrocat21","steam_id":76561199104332626,"connected_time":156000000000,"state":"spawning","ping":47}]},{"server_id":14,"name":"Uncletopia | New York City | 2 | All Maps","name_short":"nyc-2","host":"nyc-1.us.uncletopia.com","port":27025,"enabled":true,"region":"us-east","cc":"us","latitude":40.73061,"longitude":-73.93524,"reserved":0,"last_update":"0001-01-01T00:00:00Z","name_a2s":"Uncletopia | New York City | 2 | All Maps","protocol":17,"map":"pl_goldrush","folder":"tf","game":"Team Fortress","app_id":440,"player_count":24,"max_players":24,"Bots":0,"server_type":"Dedicated","server_os":"Linux","password":true,"vac":true,"version":"7757534","steam_id":85568392924469994,"keywords":["nocrits","nodmgspread","payload","uncletopia"],"game_id":440,"stv_port":27026,"stv_name":"Uncletopia | New York City | 2 | All Maps | STV","players":[{"user_id":638,"name":"SchmitySchmit","steam_id":76561198127024448,"connected_time":6168000000000,"state":"active","ping":64},{"user_id":664,"name":"Doc Scourge","steam_id":76561198025325334,"connected_time":3357000000000,"state":"active","ping":81},{"user_id":696,"name":"Ace Attorney","steam_id":76561198133011705,"connected_time":382000000000,"state":"active","ping":46},{"user_id":697,"name":"mops","steam_id":76561198058213741,"connected_time":342000000000,"state":"active","ping":48},{"user_id":663,"name":"Dr.BendyBones","steam_id":76561198048846641,"connected_time":3564000000000,"state":"active","ping":63},{"user_id":698,"name":"plsplsplslol","steam_id":76561198868084626,"connected_time":302000000000,"state":"active","ping":130},{"user_id":614,"name":"Niykin","steam_id":76561198044779043,"connected_time":8220000000000,"state":"active","ping":97},{"user_id":629,"name":"Xbox_Pro_2016","steam_id":76561198176126519,"connected_time":7025000000000,"state":"active","ping":61},{"user_id":626,"name":"fitotutus","steam_id":76561197974993253,"connected_time":7220000000000,"state":"active","ping":91},{"user_id":681,"name":"Ferran, Loathsome Hogslapper","steam_id":76561198004480302,"connected_time":1781000000000,"state":"active","ping":129},{"user_id":704,"name":"Jacob","steam_id":76561198144613386,"connected_time":48000000000,"state":"active","ping":86},{"user_id":590,"name":"MetalTao","steam_id":76561198189408110,"connected_time":9775000000000,"state":"active","ping":76},{"user_id":690,"name":"TYPICAL_HUMAN","steam_id":76561198060914982,"connected_time":1282000000000,"state":"active","ping":135},{"user_id":591,"name":"Lucaaa","steam_id":76561198076700516,"connected_time":9768000000000,"state":"active","ping":138},{"user_id":675,"name":"CRAZY engineer","steam_id":76561198887937902,"connected_time":2729000000000,"state":"active","ping":55},{"user_id":699,"name":"Pancake lover","steam_id":76561199137392321,"connected_time":282000000000,"state":"active","ping":131},{"user_id":687,"name":"Yune","steam_id":76561198039324447,"connected_time":1675000000000,"state":"active","ping":91},{"user_id":676,"name":"Cowbo","steam_id":76561198081220016,"connected_time":2644000000000,"state":"active","ping":71},{"user_id":703,"name":"Satan-2","steam_id":76561199231742764,"connected_time":146000000000,"state":"active","ping":61},{"user_id":701,"name":"Big Gay Balls","steam_id":76561198159339442,"connected_time":279000000000,"state":"active","ping":70},{"user_id":684,"name":"Epifiny","steam_id":76561198027958086,"connected_time":1723000000000,"state":"active","ping":83},{"user_id":673,"name":"Horizon","steam_id":76561198088957930,"connected_time":2828000000000,"state":"active","ping":83},{"user_id":686,"name":"Gravy","steam_id":76561198087726095,"connected_time":1690000000000,"state":"active","ping":86},{"user_id":702,"name":"Skadewsh","steam_id":76561198102772209,"connected_time":195000000000,"state":"active","ping":63}]},{"server_id":15,"name":"Uncletopia | New York City | 3 | Stopwatch Beta","name_short":"nyc-3","host":"nyc-1.us.uncletopia.com","port":27035,"enabled":true,"region":"us-east","cc":"us","latitude":40.73061,"longitude":-73.93524,"reserved":0,"last_update":"0001-01-01T00:00:00Z","name_a2s":"Uncletopia | New York City | 3 | Stopwatch Beta","protocol":17,"map":"workshop/pl_badwater_pro_v12.ugc2142942074","folder":"tf","game":"Team Fortress","app_id":440,"player_count":0,"max_players":24,"Bots":0,"server_type":"Dedicated","server_os":"Linux","password":true,"vac":true,"version":"7757534","steam_id":85568392924742820,"keywords":["nocrits","nodmgspread","payload","uncletopia"],"game_id":440,"stv_port":27036,"stv_name":"Uncletopia | New York City | 3 | Stopwatch Beta | STV","players":null},{"server_id":16,"name":"Uncletopia | New York City | 4 | Community","name_short":"nyc-4","host":"nyc-1.us.uncletopia.com","port":27045,"enabled":true,"region":"us-east","cc":"us","latitude":40.73061,"longitude":-73.93524,"reserved":0,"last_update":"0001-01-01T00:00:00Z","name_a2s":"Uncletopia | New York City | 4 | Community","protocol":17,"map":"workshop/koth_product_final.ugc454272353","folder":"tf","game":"Team Fortress","app_id":440,"player_count":0,"max_players":24,"Bots":0,"server_type":"Dedicated","server_os":"Linux","password":true,"vac":true,"version":"7757534","steam_id":85568392924742821,"keywords":["cp","nocrits","nodmgspread","uncletopia"],"game_id":440,"stv_port":27046,"stv_name":"Uncletopia | New York City | 4 | Community | STV","players":null},{"server_id":142,"name":"Uncletopia | S√£o Paulo | 1 | All Maps","name_short":"sao-1","host":"sao-1.br.uncletopia.com","port":27015,"enabled":true,"region":"sa","cc":"br","latitude":-23.533773,"longitude":-46.62529,"reserved":0,"last_update":"0001-01-01T00:00:00Z","name_a2s":"Uncletopia | S√£o Paulo | 1 | All Maps","protocol":17,"map":"cp_process_final","folder":"tf","game":"Team Fortress","app_id":440,"player_count":0,"max_players":24,"Bots":0,"server_type":"Dedicated","server_os":"Linux","password":true,"vac":true,"version":"7757534","steam_id":85568392924469996,"keywords":["cp","nocrits","nodmgspread","uncletopia"],"game_id":440,"stv_port":27016,"stv_name":"Uncletopia | S√£o Paulo | 1 | All Maps | STV","players":null},{"server_id":143,"name":"Uncletopia | S√£o Paulo | 2 | All Maps","name_short":"sao-2","host":"sao-2.br.uncletopia.com","port":27015,"enabled":true,"region":"sa","cc":"br","latitude":-23.533773,"longitude":-46.62529,"reserved":0,"last_update":"0001-01-01T00:00:00Z","name_a2s":"Uncletopia | S√£o Paulo | 2 | All Maps","protocol":17,"map":"pl_snowycoast","folder":"tf","game":"Team Fortress","app_id":440,"player_count":0,"max_players":24,"Bots":0,"server_type":"Dedicated","server_os":"Linux","password":true,"vac":true,"version":"7757534","steam_id":85568392924485349,"keywords":["nocrits","nodmgspread","payload","uncletopia"],"game_id":440,"stv_port":27016,"stv_name":"Uncletopia | S√£o Paulo | 2 | All Maps | STV","players":null},{"server_id":7,"name":"Uncletopia | Seattle | 1 | All Maps","name_short":"sea-1","host":"sea-1.us.uncletopia.com","port":27015,"enabled":true,"region":"us-west","cc":"us","latitude":47.608013,"longitude":-122.33517,"reserved":0,"last_update":"0001-01-01T00:00:00Z","name_a2s":"Uncletopia | Seattle | 1 | All Maps","protocol":17,"map":"pl_badwater","folder":"tf","game":"Team Fortress","app_id":440,"player_count":24,"max_players":24,"Bots":0,"server_type":"Dedicated","server_os":"Linux","password":true,"vac":true,"version":"7757534","steam_id":85568392924469997,"keywords":["nocrits","nodmgspread","payload","uncletopia"],"game_id":440,"stv_port":27016,"stv_name":"Uncletopia | Seattle | 1 | All Maps | STV","players":[{"user_id":942,"name":"KellyKapoor","steam_id":76561198040828123,"connected_time":1403000000000,"state":"active","ping":50},{"user_id":930,"name":"steelmonkey","steam_id":76561198144924704,"connected_time":2382000000000,"state":"active","ping":48},{"user_id":871,"name":"enzo gorlami","steam_id":76561198107941274,"connected_time":10585000000000,"state":"active","ping":77},{"user_id":950,"name":"hart","steam_id":76561198046073848,"connected_time":67000000000,"state":"active","ping":53},{"user_id":917,"name":"Sweets","steam_id":76561198998446307,"connected_time":4797000000000,"state":"active","ping":68},{"user_id":925,"name":"squash","steam_id":76561198150281353,"connected_time":3419000000000,"state":"active","ping":58},{"user_id":941,"name":"Roseblade115","steam_id":76561198120797483,"connected_time":1508000000000,"state":"active","ping":49},{"user_id":764,"name":"alaska","steam_id":76561198017030029,"connected_time":19485000000000,"state":"active","ping":66},{"user_id":904,"name":"rorywashere /·ê† - Àï -„Éû ‚≥ä","steam_id":76561198065825165,"connected_time":6929000000000,"state":"active","ping":110},{"user_id":935,"name":"JTuu","steam_id":76561198030606396,"connected_time":2327000000000,"state":"active","ping":43},{"user_id":844,"name":"Lord Hater","steam_id":76561199158148782,"connected_time":12360000000000,"state":"active","ping":57},{"user_id":911,"name":"ed","steam_id":76561198080475712,"connected_time":5973000000000,"state":"active","ping":64},{"user_id":946,"name":"doctor large","steam_id":76561199195836752,"connected_time":671000000000,"state":"active","ping":110},{"user_id":943,"name":".WAVMAFIA","steam_id":76561198401674269,"connected_time":1314000000000,"state":"active","ping":58},{"user_id":914,"name":"p9 thunderous prophet","steam_id":76561198131166135,"connected_time":5701000000000,"state":"active","ping":45},{"user_id":949,"name":"kenZino","steam_id":76561197967971192,"connected_time":526000000000,"state":"active","ping":45},{"user_id":887,"name":"exephur","steam_id":76561198135763234,"connected_time":8435000000000,"state":"active","ping":66},{"user_id":940,"name":"PerKnuckleChuckle","steam_id":76561198023221596,"connected_time":1529000000000,"state":"active","ping":86},{"user_id":936,"name":"Dob Bole","steam_id":76561198056367220,"connected_time":2323000000000,"state":"active","ping":70},{"user_id":931,"name":"Bubbamanme","steam_id":76561198119778504,"connected_time":2355000000000,"state":"active","ping":63},{"user_id":947,"name":"Couchbag","steam_id":76561198132942054,"connected_time":645000000000,"state":"active","ping":129},{"user_id":944,"name":"Wishful","steam_id":76561198880608202,"connected_time":880000000000,"state":"active","ping":60},{"user_id":948,"name":"ttv/californjoe","steam_id":76561197965047795,"connected_time":636000000000,"state":"active","ping":84},{"user_id":951,"name":"Sev","steam_id":76561198053971248,"connected_time":10000000000,"state":"active","ping":63}]},{"server_id":119,"name":"Uncletopia | Seattle | 2 | All Maps","name_short":"sea-2","host":"sea-1.us.uncletopia.com","port":27025,"enabled":true,"region":"us-west","cc":"us","latitude":47.608013,"longitude":-122.33517,"reserved":0,"last_update":"0001-01-01T00:00:00Z","name_a2s":"Uncletopia | Seattle | 2 | All Maps","protocol":17,"map":"pl_snowycoast","folder":"tf","game":"Team Fortress","app_id":440,"player_count":22,"max_players":24,"Bots":0,"server_type":"Dedicated","server_os":"Linux","password":true,"vac":true,"version":"7757534","steam_id":85568392924469998,"keywords":["nocrits","nodmgspread","payload","uncletopia"],"game_id":440,"stv_port":27026,"stv_name":"Uncletopia | Seattle | 2 | All Maps | STV","players":[{"user_id":885,"name":"iivy","steam_id":76561198068464819,"connected_time":945000000000,"state":"active","ping":59},{"user_id":860,"name":"R3n3gade","steam_id":76561198145984116,"connected_time":2264000000000,"state":"active","ping":75},{"user_id":901,"name":"thermite","steam_id":76561198047876550,"connected_time":177000000000,"state":"active","ping":137},{"user_id":888,"name":"hiko3.aug","steam_id":76561198379650478,"connected_time":772000000000,"state":"active","ping":150},{"user_id":863,"name":"ponjdug","steam_id":76561198814641832,"connected_time":2175000000000,"state":"active","ping":42},{"user_id":864,"name":"ProfessorG","steam_id":76561198086494067,"connected_time":2161000000000,"state":"active","ping":61},{"user_id":891,"name":"SPACECOWBOY","steam_id":76561199093645953,"connected_time":534000000000,"state":"active","ping":35},{"user_id":893,"name":"major","steam_id":76561198136280552,"connected_time":431000000000,"state":"active","ping":36},{"user_id":886,"name":"disser","steam_id":76561198344531355,"connected_time":854000000000,"state":"active","ping":84},{"user_id":868,"name":"Drift Stick","steam_id":76561198847048304,"connected_time":1715000000000,"state":"active","ping":58},{"user_id":887,"name":"Ena","steam_id":76561198066986108,"connected_time":842000000000,"state":"active","ping":59},{"user_id":894,"name":"bubby chungas","steam_id":76561198151652135,"connected_time":377000000000,"state":"active","ping":84},{"user_id":896,"name":"seats","steam_id":76561197998756039,"connected_time":342000000000,"state":"active","ping":75},{"user_id":897,"name":"Knooper","steam_id":76561198096149824,"connected_time":336000000000,"state":"active","ping":78},{"user_id":853,"name":"strbry","steam_id":76561198155133601,"connected_time":3318000000000,"state":"active","ping":51},{"user_id":898,"name":"yoru","steam_id":76561198388123421,"connected_time":308000000000,"state":"active","ping":78},{"user_id":899,"name":"GJDon","steam_id":76561199026755019,"connected_time":298000000000,"state":"active","ping":136},{"user_id":900,"name":"bauxoffdagloop","steam_id":76561199196442823,"connected_time":255000000000,"state":"active","ping":103},{"user_id":903,"name":"Yato","steam_id":76561198084100335,"connected_time":107000000000,"state":"active","ping":137},{"user_id":876,"name":"Dry","steam_id":76561198124135416,"connected_time":1292000000000,"state":"active","ping":72},{"user_id":904,"name":"grillbyssisoloeso","steam_id":76561199105132740,"connected_time":45000000000,"state":"active","ping":100},{"user_id":907,"name":"Bheem","steam_id":76561198170453459,"connected_time":31000000000,"state":"active","ping":42}]},{"server_id":406,"name":"Uncletopia | Seattle | 3 | Stopwatch Beta","name_short":"sea-3","host":"sea-1.us.uncletopia.com","port":27035,"enabled":true,"region":"us-west","cc":"us","latitude":47.608013,"longitude":-122.33517,"reserved":0,"last_update":"0001-01-01T00:00:00Z","name_a2s":"Uncletopia | Seattle | 3 | Stopwatch Beta","protocol":17,"map":"koth_lakeside_final","folder":"tf","game":"Team Fortress","app_id":440,"player_count":0,"max_players":24,"Bots":0,"server_type":"Dedicated","server_os":"Linux","password":true,"vac":true,"version":"7757534","steam_id":85568392924515217,"keywords":["cp","nocrits","nodmgspread","uncletopia"],"game_id":440,"stv_port":27036,"stv_name":"Uncletopia | Seattle | 3 | Stopwatch Beta | STV","players":null},{"server_id":17,"name":"Uncletopia | San Francisco | 1 | All Maps","name_short":"sfo-1","host":"sfo-1.us.uncletopia.com","port":27015,"enabled":true,"region":"us-west","cc":"us","latitude":37.77397,"longitude":-122.4313,"reserved":0,"last_update":"0001-01-01T00:00:00Z","name_a2s":"Uncletopia | San Francisco | 1 | All Maps","protocol":17,"map":"pl_swiftwater_final1","folder":"tf","game":"Team Fortress","app_id":440,"player_count":21,"max_players":24,"Bots":0,"server_type":"Dedicated","server_os":"Linux","password":true,"vac":true,"version":"7757534","steam_id":85568392924469999,"keywords":["nocrits","nodmgspread","payload","uncletopia"],"game_id":440,"stv_port":27016,"stv_name":"Uncletopia | San Francisco | 1 | All Maps | STV","players":[{"user_id":216,"name":"Got Oil?","steam_id":76561199238964574,"connected_time":542000000000,"state":"active","ping":55},{"user_id":193,"name":"Dragonsalt","steam_id":76561198141927559,"connected_time":1670000000000,"state":"active","ping":60},{"user_id":180,"name":"H4V0C","steam_id":76561199129350925,"connected_time":2355000000000,"state":"active","ping":70},{"user_id":215,"name":"Klitz Drunkunt Penischmidt (Sta","steam_id":76561198050582941,"connected_time":680000000000,"state":"active","ping":106},{"user_id":168,"name":"bigman1","steam_id":76561198050225055,"connected_time":3709000000000,"state":"active","ping":52},{"user_id":169,"name":"NotSoProfessionalGuy","steam_id":76561199045501608,"connected_time":3552000000000,"state":"active","ping":72},{"user_id":177,"name":"Falcon","steam_id":76561198084582082,"connected_time":2903000000000,"state":"active","ping":64},{"user_id":178,"name":"snezhnaya","steam_id":76561198076395081,"connected_time":2849000000000,"state":"active","ping":56},{"user_id":170,"name":"subway manager","steam_id":76561198145669711,"connected_time":3521000000000,"state":"active","ping":46},{"user_id":205,"name":"6' 4\" 270 lbs ALL MUSCLE","steam_id":76561198021308963,"connected_time":992000000000,"state":"active","ping":75},{"user_id":181,"name":"Mengle","steam_id":76561198001953684,"connected_time":2305000000000,"state":"active","ping":107},{"user_id":154,"name":"Tim the Toolman","steam_id":76561198091219228,"connected_time":4800000000000,"state":"active","ping":107},{"user_id":201,"name":"Speve Bobs","steam_id":76561198349908268,"connected_time":1413000000000,"state":"active","ping":47},{"user_id":204,"name":"Gaming Time","steam_id":76561199247095754,"connected_time":1208000000000,"state":"active","ping":79},{"user_id":185,"name":"a gamer most foul","steam_id":76561198045810207,"connected_time":2126000000000,"state":"active","ping":52},{"user_id":206,"name":"Awsomesauce","steam_id":76561199128366543,"connected_time":928000000000,"state":"active","ping":78},{"user_id":188,"name":"Cactus‚Ñ¢ ‚ô•","steam_id":76561198036441270,"connected_time":2023000000000,"state":"active","ping":87},{"user_id":200,"name":"goblino","steam_id":76561198068260422,"connected_time":1467000000000,"state":"active","ping":117},{"user_id":90,"name":"SPRUCE","steam_id":76561198081684676,"connected_time":14096000000000,"state":"active","ping":76},{"user_id":214,"name":"Sterling Nano","steam_id":76561198048580088,"connected_time":725000000000,"state":"active","ping":69},{"user_id":209,"name":"Muffinbat","steam_id":76561198072041032,"connected_time":831000000000,"state":"active","ping":74}]},{"server_id":18,"name":"Uncletopia | San Francisco | 2 | All Maps","name_short":"sfo-2","host":"sfo-1.us.uncletopia.com","port":27025,"enabled":true,"region":"us-west","cc":"us","latitude":37.77397,"longitude":-122.4313,"reserved":0,"last_update":"0001-01-01T00:00:00Z","name_a2s":"Uncletopia | San Francisco | 2 | All Maps","protocol":17,"map":"pl_snowycoast","folder":"tf","game":"Team Fortress","app_id":440,"player_count":16,"max_players":24,"Bots":0,"server_type":"Dedicated","server_os":"Linux","password":true,"vac":true,"version":"7757534","steam_id":85568392924470000,"keywords":["nocrits","nodmgspread","payload","uncletopia"],"game_id":440,"stv_port":27026,"stv_name":"Uncletopia | San Francisco | 2 | All Maps | STV","players":[{"user_id":269,"name":":3","steam_id":76561198048754646,"connected_time":239000000000,"state":"active","ping":55},{"user_id":268,"name":"naturia","steam_id":76561198092317849,"connected_time":517000000000,"state":"active","ping":56},{"user_id":251,"name":"mewtek","steam_id":76561198138599995,"connected_time":2845000000000,"state":"active","ping":60},{"user_id":250,"name":"joe biden's stinkiest kitten","steam_id":76561198189074887,"connected_time":2847000000000,"state":"active","ping":55},{"user_id":242,"name":"Fajita Master","steam_id":76561198329150962,"connected_time":3260000000000,"state":"active","ping":96},{"user_id":260,"name":"‚ùÑ Alice ‚ô•","steam_id":76561198869945051,"connected_time":2012000000000,"state":"active","ping":105},{"user_id":198,"name":"Ice cream sandwich","steam_id":76561198172748357,"connected_time":6871000000000,"state":"active","ping":54},{"user_id":264,"name":"smiley","steam_id":76561198049905252,"connected_time":1690000000000,"state":"active","ping":57},{"user_id":259,"name":"m","steam_id":76561198312741463,"connected_time":2423000000000,"state":"active","ping":44},{"user_id":241,"name":"BandAidStudios","steam_id":76561198891806457,"connected_time":3732000000000,"state":"active","ping":125},{"user_id":244,"name":"nescoceo","steam_id":76561198040801160,"connected_time":3234000000000,"state":"active","ping":55},{"user_id":240,"name":"Frakelord","steam_id":76561197970316904,"connected_time":3801000000000,"state":"active","ping":60},{"user_id":261,"name":"SDL","steam_id":76561198859719985,"connected_time":1950000000000,"state":"active","ping":95},{"user_id":162,"name":"deathstar0611","steam_id":76561198120476410,"connected_time":9920000000000,"state":"active","ping":65},{"user_id":256,"name":"Sir Galahad","steam_id":76561198195999859,"connected_time":2657000000000,"state":"active","ping":72},{"user_id":249,"name":"RiverMoot","steam_id":76561198081530179,"connected_time":3037000000000,"state":"active","ping":121}]},{"server_id":19,"name":"Uncletopia | San Francisco | 3 | Stopwatch Beta","name_short":"sfo-3","host":"sfo-1.us.uncletopia.com","port":27035,"enabled":true,"region":"us-west","cc":"us","latitude":37.77397,"longitude":-122.4313,"reserved":0,"last_update":"0001-01-01T00:00:00Z","name_a2s":"Uncletopia | San Francisco | 3 | Stopwatch Beta","protocol":17,"map":"pl_swiftwater_final1","folder":"tf","game":"Team Fortress","app_id":440,"player_count":0,"max_players":24,"Bots":0,"server_type":"Dedicated","server_os":"Linux","password":true,"vac":true,"version":"7757534","steam_id":85568392924742824,"keywords":["nocrits","nodmgspread","payload","uncletopia"],"game_id":440,"stv_port":27036,"stv_name":"Uncletopia | San Francisco | 3 | Stopwatch Beta | STV","players":null},{"server_id":20,"name":"Uncletopia | San Francisco | 4 | Community","name_short":"sfo-4","host":"sfo-1.us.uncletopia.com","port":27045,"enabled":true,"region":"us-west","cc":"us","latitude":37.77397,"longitude":-122.4313,"reserved":0,"last_update":"0001-01-01T00:00:00Z","name_a2s":"Uncletopia | San Francisco | 4 | Community","protocol":17,"map":"workshop/cp_glassworks_rc6a.ugc454118349","folder":"tf","game":"Team Fortress","app_id":440,"player_count":0,"max_players":24,"Bots":0,"server_type":"Dedicated","server_os":"Linux","password":true,"vac":true,"version":"7757534","steam_id":85568392924742826,"keywords":["cp","nocrits","nodmgspread","uncletopia"],"game_id":440,"stv_port":27046,"stv_name":"Uncletopia | San Francisco | 4 | Community | STV","players":null},{"server_id":141,"name":"Uncletopia | Sydney | 1 | All Maps","name_short":"syd-1","host":"syd-1.au.uncletopia.com","port":27015,"enabled":true,"region":"au","cc":"au","latitude":-33.865143,"longitude":151.2099,"reserved":0,"last_update":"0001-01-01T00:00:00Z","name_a2s":"Uncletopia | Sydney | 1 | All Maps","protocol":17,"map":"pl_snowycoast","folder":"tf","game":"Team Fortress","app_id":440,"player_count":24,"max_players":24,"Bots":0,"server_type":"Dedicated","server_os":"Linux","password":true,"vac":true,"version":"7757534","steam_id":85568392924470001,"keywords":["nocrits","nodmgspread","payload","uncletopia"],"game_id":440,"stv_port":27016,"stv_name":"Uncletopia | Sydney | 1 | All Maps | STV","players":[{"user_id":227,"name":"Chicken nugget enjoyer","steam_id":76561199084263464,"connected_time":171000000000,"state":"active","ping":156},{"user_id":224,"name":"Abraham Lincoln","steam_id":76561198095292515,"connected_time":448000000000,"state":"active","ping":67},{"user_id":214,"name":"EpicGuy4227","steam_id":76561198094132328,"connected_time":742000000000,"state":"active","ping":52},{"user_id":186,"name":"Corrupt","steam_id":76561198008567328,"connected_time":2687000000000,"state":"active","ping":119},{"user_id":80,"name":"Granola Escobar","steam_id":76561198059129270,"connected_time":9806000000000,"state":"active","ping":67},{"user_id":192,"name":"perturb","steam_id":76561198085124297,"connected_time":2103000000000,"state":"active","ping":56},{"user_id":213,"name":"alqwnq","steam_id":76561198133867907,"connected_time":779000000000,"state":"active","ping":75},{"user_id":220,"name":"old chunk of coal","steam_id":76561197990537324,"connected_time":695000000000,"state":"active","ping":109},{"user_id":221,"name":"hadouken","steam_id":76561198019740135,"connected_time":674000000000,"state":"active","ping":60},{"user_id":209,"name":"Chooka","steam_id":76561197992307814,"connected_time":1235000000000,"state":"active","ping":67},{"user_id":178,"name":"jrg","steam_id":76561197997362731,"connected_time":3114000000000,"state":"active","ping":45},{"user_id":43,"name":"Foxtonnes","steam_id":76561198007628373,"connected_time":12229000000000,"state":"active","ping":51},{"user_id":217,"name":"Splooge Fellow","steam_id":76561198067993108,"connected_time":700000000000,"state":"active","ping":43},{"user_id":216,"name":"Pompadouraus","steam_id":76561198327530525,"connected_time":731000000000,"state":"active","ping":75},{"user_id":179,"name":"Apteryx","steam_id":76561197976460834,"connected_time":3091000000000,"state":"active","ping":61},{"user_id":228,"name":"riskybiznutz","steam_id":76561198040467549,"connected_time":32000000000,"state":"active","ping":56},{"user_id":177,"name":"SaltierThanYou","steam_id":76561198444395188,"connected_time":3200000000000,"state":"active","ping":82},{"user_id":172,"name":"pants money","steam_id":76561198066256359,"connected_time":3724000000000,"state":"active","ping":53},{"user_id":194,"name":"MrMist","steam_id":76561199382679347,"connected_time":1779000000000,"state":"active","ping":67},{"user_id":200,"name":"Gwarp","steam_id":76561198061960926,"connected_time":1388000000000,"state":"active","ping":99},{"user_id":206,"name":"saudi ambassador messi","steam_id":76561198031293430,"connected_time":1258000000000,"state":"active","ping":89},{"user_id":153,"name":"Minimindd","steam_id":76561199006274892,"connected_time":4814000000000,"state":"active","ping":49},{"user_id":191,"name":"Mail Bomb Victim","steam_id":76561198284533039,"connected_time":2289000000000,"state":"active","ping":50},{"user_id":184,"name":"Drakeo","steam_id":76561198268859184,"connected_time":2861000000000,"state":"active","ping":109}]},{"server_id":123,"name":"Uncletopia | Sydney | 2 | All Maps","name_short":"syd-2","host":"syd-1.au.uncletopia.com","port":27025,"enabled":true,"region":"au","cc":"au","latitude":-33.865143,"longitude":151.2099,"reserved":0,"last_update":"0001-01-01T00:00:00Z","name_a2s":"Uncletopia | Sydney | 2 | All Maps","protocol":17,"map":"pl_frontier_final","folder":"tf","game":"Team Fortress","app_id":440,"player_count":0,"max_players":24,"Bots":0,"server_type":"Dedicated","server_os":"Linux","password":true,"vac":true,"version":"7757534","steam_id":85568392924470002,"keywords":["nocrits","nodmgspread","payload","uncletopia"],"game_id":440,"stv_port":27026,"stv_name":"Uncletopia | Sydney | 2 | All Maps | STV","players":null},{"server_id":395,"name":"Uncletopia | Sydney | 3 | All Maps","name_short":"syd-3","host":"syd-1.au.uncletopia.com","port":27035,"enabled":true,"region":"au","cc":"au","latitude":-33.865143,"longitude":151.2099,"reserved":0,"last_update":"0001-01-01T00:00:00Z","name_a2s":"Uncletopia | Sydney | 3 | All Maps","protocol":17,"map":"cp_sunshine","folder":"tf","game":"Team Fortress","app_id":440,"player_count":0,"max_players":24,"Bots":0,"server_type":"Dedicated","server_os":"Linux","password":true,"vac":true,"version":"7757534","steam_id":85568392925194467,"keywords":["cp","nocrits","nodmgspread","uncletopia"],"game_id":440,"stv_port":27036,"stv_name":"Uncletopia | Sydney | 3 | All Maps | STV","players":null},{"server_id":396,"name":"Uncletopia | Sydney | 4 | All Maps","name_short":"syd-4","host":"syd-1.au.uncletopia.com","port":27045,"enabled":true,"region":"au","cc":"au","latitude":-33.865143,"longitude":151.2099,"reserved":0,"last_update":"0001-01-01T00:00:00Z","name_a2s":"Uncletopia | Sydney | 4 | All Maps","protocol":17,"map":"koth_highpass","folder":"tf","game":"Team Fortress","app_id":440,"player_count":0,"max_players":24,"Bots":0,"server_type":"Dedicated","server_os":"Linux","password":true,"vac":true,"version":"7757534","steam_id":85568392925397958,"keywords":["cp","nocrits","nodmgspread","uncletopia"],"game_id":440,"stv_port":27046,"stv_name":"Uncletopia | Sydney | 4 | All Maps | STV","players":null},{"server_id":58,"name":"Uncletopia | Sydney | 5 | Stopwatch Beta","name_short":"syd-5","host":"syd-1.au.uncletopia.com","port":27055,"enabled":true,"region":"au","cc":"au","latitude":-33.865143,"longitude":151.2099,"reserved":0,"last_update":"0001-01-01T00:00:00Z","name_a2s":"Uncletopia | Sydney | 5 | Stopwatch Beta","protocol":17,"map":"workshop/cp_reckoner_rc6.ugc674719999","folder":"tf","game":"Team Fortress","app_id":440,"player_count":0,"max_players":24,"Bots":0,"server_type":"Dedicated","server_os":"Linux","password":true,"vac":true,"version":"7757534","steam_id":85568392925397959,"keywords":["cp","nocrits","nodmgspread","uncletopia"],"game_id":440,"stv_port":27056,"stv_name":"Uncletopia | Sydney | 5 | Stopwatch Beta | STV","players":null},{"server_id":59,"name":"Uncletopia | Sydney | 6 | Community","name_short":"syd-6","host":"syd-1.au.uncletopia.com","port":27065,"enabled":true,"region":"au","cc":"au","latitude":-33.865143,"longitude":151.2099,"reserved":0,"last_update":"0001-01-01T00:00:00Z","name_a2s":"Uncletopia | Sydney | 6 | Community","protocol":17,"map":"workshop/koth_slaughter_rc1.ugc1712845210","folder":"tf","game":"Team Fortress","app_id":440,"player_count":0,"max_players":24,"Bots":0,"server_type":"Dedicated","server_os":"Linux","password":true,"vac":true,"version":"7757534","steam_id":85568392925397960,"keywords":["cp","nocrits","nodmgspread","uncletopia"],"game_id":440,"stv_port":27066,"stv_name":"Uncletopia | Sydney | 6 | Community | STV","players":null},{"server_id":49,"name":"Uncletopia | Warsaw | 1 | All Maps","name_short":"waw-1","host":"waw-1.pl.uncletopia.com","port":27015,"enabled":true,"region":"eu","cc":"pl","latitude":52.2297,"longitude":21.017532,"reserved":0,"last_update":"0001-01-01T00:00:00Z","name_a2s":"","protocol":0,"map":"","folder":"","game":"","app_id":0,"player_count":0,"max_players":0,"Bots":0,"server_type":"","server_os":"","password":false,"vac":false,"version":"","steam_id":0,"keywords":null,"game_id":0,"stv_port":0,"stv_name":"","players":null},{"server_id":50,"name":"Uncletopia | Warsaw | 2 | All Maps","name_short":"waw-2","host":"waw-1.pl.uncletopia.com","port":27025,"enabled":true,"region":"eu","cc":"pl","latitude":52.2297,"longitude":21.017532,"reserved":0,"last_update":"0001-01-01T00:00:00Z","name_a2s":"Uncletopia | Warsaw | 2 | All Maps","protocol":17,"map":"koth_viaduct","folder":"tf","game":"Team Fortress","app_id":440,"player_count":0,"max_players":24,"Bots":0,"server_type":"Dedicated","server_os":"Linux","password":true,"vac":true,"version":"7757534","steam_id":85568392925397851,"keywords":["cp","nocrits","nodmgspread","uncletopia"],"game_id":440,"stv_port":27026,"stv_name":"Uncletopia | Warsaw | 2 | All Maps | STV","players":null},{"server_id":51,"name":"Uncletopia | Warsaw | 3 | All Maps","name_short":"waw-3","host":"waw-1.pl.uncletopia.com","port":27035,"enabled":true,"region":"eu","cc":"pl","latitude":52.2297,"longitude":21.017532,"reserved":0,"last_update":"0001-01-01T00:00:00Z","name_a2s":"Uncletopia | Warsaw | 3 | All Maps","protocol":17,"map":"pl_badwater","folder":"tf","game":"Team Fortress","app_id":440,"player_count":0,"max_players":24,"Bots":0,"server_type":"Dedicated","server_os":"Linux","password":true,"vac":true,"version":"7757534","steam_id":85568392925397852,"keywords":["nocrits","nodmgspread","payload","uncletopia"],"game_id":440,"stv_port":27036,"stv_name":"Uncletopia | Warsaw | 3 | All Maps | STV","players":null},{"server_id":52,"name":"Uncletopia | Warsaw | 4 | All Maps","name_short":"waw-4","host":"waw-1.pl.uncletopia.com","port":27045,"enabled":true,"region":"eu","cc":"pl","latitude":52.2297,"longitude":21.017532,"reserved":0,"last_update":"0001-01-01T00:00:00Z","name_a2s":"Uncletopia | Warsaw | 4 | All Maps","protocol":17,"map":"koth_lakeside_final","folder":"tf","game":"Team Fortress","app_id":440,"player_count":0,"max_players":24,"Bots":0,"server_type":"Dedicated","server_os":"Linux","password":true,"vac":true,"version":"7757534","steam_id":85568392925397853,"keywords":["cp","nocrits","nodmgspread","uncletopia"],"game_id":440,"stv_port":27046,"stv_name":"Uncletopia | Warsaw | 4 | All Maps | STV","players":null},{"server_id":53,"name":"Uncletopia | Warsaw | 5 | Stopwatch Beta","name_short":"waw-5","host":"waw-1.pl.uncletopia.com","port":27055,"enabled":true,"region":"eu","cc":"pl","latitude":52.2297,"longitude":21.017532,"reserved":0,"last_update":"0001-01-01T00:00:00Z","name_a2s":"Uncletopia | Warsaw | 5 | Stopwatch Beta","protocol":17,"map":"pl_borneo","folder":"tf","game":"Team Fortress","app_id":440,"player_count":0,"max_players":24,"Bots":0,"server_type":"Dedicated","server_os":"Linux","password":true,"vac":true,"version":"7757534","steam_id":85568392925397854,"keywords":["nocrits","nodmgspread","payload","uncletopia"],"game_id":440,"stv_port":27056,"stv_name":"Uncletopia | Warsaw | 5 | Stopwatch Beta | STV","players":null},{"server_id":54,"name":"Uncletopia | Warsaw | 6 | Community","name_short":"waw-6","host":"waw-1.pl.uncletopia.com","port":27065,"enabled":true,"region":"eu","cc":"pl","latitude":52.2297,"longitude":21.017532,"reserved":0,"last_update":"0001-01-01T00:00:00Z","name_a2s":"Uncletopia | Warsaw | 6 | Community","protocol":17,"map":"koth_lakeside_final","folder":"tf","game":"Team Fortress","app_id":440,"player_count":0,"max_players":24,"Bots":0,"server_type":"Dedicated","server_os":"Linux","password":true,"vac":true,"version":"7757534","steam_id":85568392925397856,"keywords":["cp","nocrits","nodmgspread","uncletopia"],"game_id":440,"stv_port":27066,"stv_name":"Uncletopia | Warsaw | 6 | Community | STV","players":null}]}