{"status":true,"message":"","result":[{"server_id":9,"name":"Uncletopia | Atlanta | 1 | All Maps","name_short":"atl-1","host":"atl-1.us.uncletopia.com","port":27015,"enabled":true,"region":"us-east","cc":"us","latitude":33.753746,"longitude":-84.38633,"reserved":0,"last_update":"0001-01-01T00:00:00Z","name_a2s":"Uncletopia | Atlanta | 1 | All Maps","protocol":17,"map":"cp_metalworks","folder":"tf","game":"Team Fortress","app_id":440,"player_count":24,"max_players":24,"Bots":0,"server_type":"Dedicated","server_os":"Linux","password":true,"vac":true,"version":"7708610","steam_id":85568392924469982,"keywords":["cp","nocrits","nodmgspread","uncletopia"],"game_id":440,"stv_port":27016,"stv_name":"Uncletopia | Atlanta | 1 | All Maps | STV","players":[{"user_id":212,"name":"Walmart Employee","steam_id":76561198840373909,"connected_time":690000000000,"state":"active","ping":60},{"user_id":184,"name":"Braixen","steam_id":76561198354314389,"connected_time":2796000000000,"state":"active","ping":62},{"user_id":209,"name":"sansa musa","steam_id":76561198163723555,"connected_time":981000000000,"state":"active","ping":75},{"user_id":24,"name":"monke gaming","steam_id":76561198838245430,"connected_time":15600000000000,"state":"active","ping":87},{"user_id":193,"name":"Sgt","steam_id":76561198139818111,"connected_time":1331000000000,"state":"active","ping":64},{"user_id":213,"name":"Dealyo","steam_id":76561198282395338,"connected_time":688000000000,"state":"active","ping":72},{"user_id":176,"name":"goodheartchris","steam_id":76561198045836210,"connected_time":3580000000000,"state":"active","ping":82},{"user_id":210,"name":"Rice2MeetYou","steam_id":76561198025504965,"connected_time":958000000000,"state":"active","ping":61},{"user_id":148,"name":"SuperJagops","steam_id":76561198034689716,"connected_time":6417000000000,"state":"active","ping":76},{"user_id":190,"name":"Skelebob","steam_id":76561198880649335,"connected_time":2000000000000,"state":"active","ping":60},{"user_id":71,"name":"timesool","steam_id":76561198367583372,"connected_time":11298000000000,"state":"active","ping":79},{"user_id":182,"name":"tacofever","steam_id":76561198010966507,"connected_time":2995000000000,"state":"active","ping":107},{"user_id":188,"name":"Mixomin","steam_id":76561198295061570,"connected_time":2408000000000,"state":"active","ping":74},{"user_id":216,"name":"my pee tastes like my poo","steam_id":76561198975505599,"connected_time":240000000000,"state":"active","ping":83},{"user_id":35,"name":"Cthulwho?","steam_id":76561198165550810,"connected_time":14396000000000,"state":"active","ping":62},{"user_id":153,"name":"Knightshade","steam_id":76561198047225393,"connected_time":6009000000000,"state":"active","ping":104},{"user_id":191,"name":"snoops","steam_id":76561197986760351,"connected_time":1867000000000,"state":"active","ping":76},{"user_id":218,"name":"Quansen","steam_id":76561198151594550,"connected_time":0,"state":"spawning","ping":0},{"user_id":202,"name":"ÒwÓ","steam_id":76561197997304387,"connected_time":1273000000000,"state":"active","ping":74},{"user_id":185,"name":"Takumi Fujiwara","steam_id":76561198146281101,"connected_time":2772000000000,"state":"active","ping":85},{"user_id":217,"name":"rlty","steam_id":76561198009395055,"connected_time":157000000000,"state":"active","ping":62},{"user_id":207,"name":"ATL1 | Lancer Fan Club","steam_id":76561198355495948,"connected_time":1201000000000,"state":"active","ping":82},{"user_id":211,"name":"rolt bagger","steam_id":76561198026664629,"connected_time":747000000000,"state":"active","ping":58},{"user_id":205,"name":"ash","steam_id":76561198127890645,"connected_time":1241000000000,"state":"active","ping":64}]},{"server_id":400,"name":"Uncletopia | Atlanta | 3 | All Maps","name_short":"atl-3","host":"atl-1.us.uncletopia.com","port":27035,"enabled":true,"region":"us-east","cc":"us","latitude":33.753746,"longitude":-84.38633,"reserved":0,"last_update":"0001-01-01T00:00:00Z","name_a2s":"Uncletopia | Atlanta | 3 | All Maps","protocol":17,"map":"pl_pier","folder":"tf","game":"Team Fortress","app_id":440,"player_count":23,"max_players":24,"Bots":0,"server_type":"Dedicated","server_os":"Linux","password":true,"vac":true,"version":"7708610","steam_id":85568392924515187,"keywords":["nocrits","nodmgspread","payload","uncletopia"],"game_id":440,"stv_port":27036,"stv_name":"Uncletopia | Atlanta | 3 | All Maps | STV","players":[{"user_id":54,"name":"PzVIIIMaus","steam_id":76561198346559365,"connected_time":2216000000000,"state":"active","ping":70},{"user_id":79,"name":"Bajooder","steam_id":76561199041110693,"connected_time":57000000000,"state":"active","ping":86},{"user_id":75,"name":"Sylvaris","steam_id":76561198156678773,"connected_time":158000000000,"state":"active","ping":77},{"user_id":71,"name":"Epicus Lusor","steam_id":76561198271981088,"connected_time":589000000000,"state":"active","ping":95},{"user_id":63,"name":"Recarsonated","steam_id":76561198171454785,"connected_time":1202000000000,"state":"active","ping":90},{"user_id":62,"name":"vinny6","steam_id":76561198386735728,"connected_time":1303000000000,"state":"active","ping":63},{"user_id":69,"name":"big guapo","steam_id":76561198103228695,"connected_time":672000000000,"state":"active","ping":66},{"user_id":72,"name":"Yoyo","steam_id":76561199122577289,"connected_time":550000000000,"state":"active","ping":64},{"user_id":80,"name":"Froggy Chair Enjoyer","steam_id":76561198844727250,"connected_time":48000000000,"state":"active","ping":75},{"user_id":77,"name":"CFGU || RAWRWAFL","steam_id":76561198032118386,"connected_time":127000000000,"state":"active","ping":97},{"user_id":73,"name":"Kace","steam_id":76561198847288697,"connected_time":454000000000,"state":"active","ping":82},{"user_id":78,"name":"★CamLikesCow★","steam_id":76561198140812640,"connected_time":108000000000,"state":"active","ping":62},{"user_id":81,"name":"Shadow15kDude420","steam_id":76561198825658971,"connected_time":38000000000,"state":"active","ping":106},{"user_id":66,"name":"murderous deer","steam_id":76561198350832152,"connected_time":1137000000000,"state":"active","ping":70},{"user_id":65,"name":"Hipp-Dip","steam_id":76561199027874633,"connected_time":1181000000000,"state":"active","ping":67},{"user_id":82,"name":"drdonutman","steam_id":76561197998488821,"connected_time":38000000000,"state":"active","ping":72},{"user_id":74,"name":"Doof","steam_id":76561198034031819,"connected_time":192000000000,"state":"active","ping":50},{"user_id":46,"name":"fudge lord","steam_id":76561198118318422,"connected_time":2801000000000,"state":"active","ping":62},{"user_id":57,"name":"BurnN8or101","steam_id":76561198132668224,"connected_time":1834000000000,"state":"active","ping":60},{"user_id":83,"name":"footoftheday","steam_id":76561198052712449,"connected_time":18000000000,"state":"active","ping":76},{"user_id":42,"name":"Tpoyo","steam_id":76561198049951724,"connected_time":2884000000000,"state":"active","ping":77},{"user_id":60,"name":"Eins","steam_id":76561199030343810,"connected_time":1477000000000,"state":"active","ping":42},{"user_id":55,"name":"Mury","steam_id":76561198069743049,"connected_time":2065000000000,"state":"active","ping":87}]},{"server_id":401,"name":"Uncletopia | Atlanta | 4 | No Payload","name_short":"atl-4","host":"atl-1.us.uncletopia.com","port":27045,"enabled":true,"region":"us-east","cc":"us","latitude":33.753746,"longitude":-84.38633,"reserved":0,"last_update":"0001-01-01T00:00:00Z","name_a2s":"Uncletopia | Atlanta | 4 | No Payload","protocol":17,"map":"pl_upward","folder":"tf","game":"Team Fortress","app_id":440,"player_count":0,"max_players":24,"Bots":0,"server_type":"Dedicated","server_os":"Linux","password":true,"vac":true,"version":"7708610","steam_id":85568392924515188,"keywords":["nocrits","nodmgspread","payload","uncletopia"],"game_id":440,"stv_port":0,"stv_name":"","players":null},{"server_id":2,"name":"Uncletopia | Chicago | 1 | All Maps","name_short":"chi-1","host":"chi-1.us.uncletopia.com","port":27015,"enabled":true,"region":"us-central","cc":"us","latitude":41.881832,"longitude":-87.62318,"reserved":0,"last_update":"0001-01-01T00:00:00Z","name_a2s":"Uncletopia | Chicago | 1 | All Maps","protocol":17,"map":"koth_highpass","folder":"tf","game":"Team Fortress","app_id":440,"player_count":3,"max_players":24,"Bots":0,"server_type":"Dedicated","server_os":"Linux","password":true,"vac":true,"version":"7708610","steam_id":85568392924469984,"keywords":["cp","nocrits","nodmgspread","uncletopia"],"game_id":440,"stv_port":0,"stv_name":"","players":[{"user_id":13,"name":"Merchants of Misery","steam_id":76561199188142396,"connected_time":89000000000,"state":"active","ping":68},{"user_id":9,"name":"O'brien","steam_id":76561198289339403,"connected_time":543000000000,"state":"active","ping":79},{"user_id":10,"name":"Fancyassasin","steam_id":76561198331864258,"connected_time":484000000000,"state":"active","ping":63}]},{"server_id":106,"name":"Uncletopia | Chicago | 2 | All Maps","name_short":"chi-2","host":"chi-1.us.uncletopia.com","port":27025,"enabled":true,"region":"us-central","cc":"us","latitude":41.881832,"longitude":-87.62318,"reserved":0,"last_update":"0001-01-01T00:00:00Z","name_a2s":"Uncletopia | Chicago | 2 | All Maps","protocol":17,"map":"cp_sunshine","folder":"tf","game":"Team Fortress","app_id":440,"player_count":0,"max_players":24,"Bots":0,"server_type":"Dedicated","server_os":"Linux","password":true,"vac":true,"version":"7708610","steam_id":85568392924469985,"keywords":["cp","nocrits","nodmgspread","uncletopia"],"game_id":440,"stv_port":0,"stv_name":"","players":null},{"server_id":402,"name":"Uncletopia | Chicago | 3 | All Maps","name_short":"chi-3","host":"chi-1.us.uncletopia.com","port":27035,"enabled":true,"region":"us-central","cc":"us","latitude":41.881832,"longitude":-87.62318,"reserved":0,"last_update":"0001-01-01T00:00:00Z","name_a2s":"Uncletopia | Chicago | 3 | All Maps","protocol":17,"map":"cp_dustbowl","folder":"tf","game":"Team Fortress","app_id":440,"player_count":0,"max_players":24,"Bots":0,"server_type":"Dedicated","server_os":"Linux","password":true,"vac":true,"version":"7708610","steam_id":85568392924515191,"keywords":["cp","nocrits","nodmgspread","uncletopia"],"game_id":440,"stv_port":0,"stv_name":"","players":null},{"server_id":403,"name":"Uncletopia | Chicago | 4 | All Maps","name_short":"chi-4","host":"chi-1.us.uncletopia.com","port":27045,"enabled":true,"region":"us-central","cc":"us","latitude":41.881832,"longitude":-87.62318,"reserved":0,"last_update":"0001-01-01T00:00:00Z","name_a2s":"Uncletopia | Chicago | 4 | All Maps","protocol":17,"map":"koth_highpass","folder":"tf","game":"Team Fortress","app_id":440,"player_count":0,"max_players":24,"Bots":0,"server_type":"Dedicated","server_os":"Linux","password":true,"vac":true,"version":"7708610","steam_id":85568392924515193,"keywords":["cp","nocrits","nodmgspread","uncletopia"],"game_id":440,"stv_port":27046,"stv_name":"Uncletopia | Chicago | 4 | All Maps | STV","players":null},{"server_id":36,"name":"Uncletopia | Chicago | 5 | All Maps","name_short":"chi-5","host":"chi-2.us.uncletopia.com","port":27015,"enabled":true,"region":"us-central","cc":"us","latitude":41.881832,"longitude":-87.62318,"reserved":0,"last_update":"0001-01-01T00:00:00Z","name_a2s":"Uncletopia | Chicago | 5 | All Maps","protocol":17,"map":"cp_snakewater_final1","folder":"tf","game":"Team Fortress","app_id":440,"player_count":0,"max_players":24,"Bots":0,"server_type":"Dedicated","server_os":"Linux","password":true,"vac":true,"version":"7708610","steam_id":85568392924866362,"keywords":["cp","nocrits","nodmgspread","uncletopia"],"game_id":440,"stv_port":0,"stv_name":"","players":null},{"server_id":37,"name":"Uncletopia | Chicago | 6 | All Maps","name_short":"chi-6","host":"chi-2.us.uncletopia.com","port":27025,"enabled":true,"region":"us-central","cc":"us","latitude":41.881832,"longitude":-87.62318,"reserved":0,"last_update":"0001-01-01T00:00:00Z","name_a2s":"Uncletopia | Chicago | 6 | All Maps","protocol":17,"map":"koth_cascade","folder":"tf","game":"Team Fortress","app_id":440,"player_count":0,"max_players":24,"Bots":0,"server_type":"Dedicated","server_os":"Linux","password":true,"vac":true,"version":"7708610","steam_id":85568392924866363,"keywords":["cp","nocrits","nodmgspread","uncletopia"],"game_id":440,"stv_port":0,"stv_name":"","players":null},{"server_id":38,"name":"Uncletopia | Chicago | 7 | No Payload","name_short":"chi-7","host":"chi-2.us.uncletopia.com","port":27035,"enabled":true,"region":"us-central","cc":"us","latitude":41.881832,"longitude":-87.62318,"reserved":0,"last_update":"0001-01-01T00:00:00Z","name_a2s":"Uncletopia | Chicago | 7 | No Payload","protocol":17,"map":"koth_viaduct","folder":"tf","game":"Team Fortress","app_id":440,"player_count":0,"max_players":24,"Bots":0,"server_type":"Dedicated","server_os":"Linux","password":true,"vac":true,"version":"7708610","steam_id":85568392924866364,"keywords":["cp","nocrits","nodmgspread","uncletopia"],"game_id":440,"stv_port":0,"stv_name":"","players":null},{"server_id":39,"name":"Uncletopia | Chicago | 8 | Community","name_short":"chi-8","host":"chi-2.us.uncletopia.com","port":27045,"enabled":true,"region":"us-central","cc":"us","latitude":41.881832,"longitude":-87.62318,"reserved":0,"last_update":"0001-01-01T00:00:00Z","name_a2s":"Uncletopia | Chicago | 8 | Community","protocol":17,"map":"workshop/koth_bagel_rc5.ugc2514036946","folder":"tf","game":"Team Fortress","app_id":440,"player_count":0,"max_players":24,"Bots":0,"server_type":"Dedicated","server_os":"Linux","password":true,"vac":true,"version":"7708610","steam_id":85568392924866365,"keywords":["cp","nocrits","nodmgspread","uncletopia"],"game_id":440,"stv_port":27046,"stv_name":"Uncletopia | Chicago | 8 | Community | STV","players":null},{"server_id":8,"name":"Uncletopia | Dallas | 1 | All Maps","name_short":"dal-1","host":"dal-1.us.uncletopia.com","port":27015,"enabled":true,"region":"us-central","cc":"us","latitude":32.779167,"longitude":-96.80889,"reserved":0,"last_update":"0001-01-01T00:00:00Z","name_a2s":"Uncletopia | Dallas | 1 | All Maps","protocol":17,"map":"pl_snowycoast","folder":"tf","game":"Team Fortress","app_id":440,"player_count":24,"max_players":24,"Bots":0,"server_type":"Dedicated","server_os":"Linux","password":true,"vac":true,"version":"7708610","steam_id":85568392924469986,"keywords":["nocrits","nodmgspread","payload","uncletopia"],"game_id":440,"stv_port":27016,"stv_name":"Uncletopia | Dallas | 1 | All Maps | STV","players":[{"user_id":46,"name":"paj","steam_id":76561198080026026,"connected_time":2681000000000,"state":"active","ping":77},{"user_id":58,"name":"the engineer","steam_id":76561198101203842,"connected_time":2229000000000,"state":"active","ping":58},{"user_id":25,"name":"the senate","steam_id":76561198353542913,"connected_time":3930000000000,"state":"active","ping":130},{"user_id":47,"name":"{907}DarkestFury","steam_id":76561198103662458,"connected_time":2658000000000,"state":"active","ping":120},{"user_id":79,"name":"OwlOddity","steam_id":76561198389068053,"connected_time":66000000000,"state":"spawning","ping":67},{"user_id":66,"name":"uBlock Origin","steam_id":76561198296332500,"connected_time":1865000000000,"state":"active","ping":46},{"user_id":30,"name":"BlueBoi2006","steam_id":76561199150475057,"connected_time":3303000000000,"state":"active","ping":57},{"user_id":78,"name":"There must be those who remembe","steam_id":76561198286792807,"connected_time":171000000000,"state":"active","ping":103},{"user_id":50,"name":"Normalux","steam_id":76561198293891426,"connected_time":2591000000000,"state":"active","ping":111},{"user_id":61,"name":"firetamer2","steam_id":76561198040886980,"connected_time":2145000000000,"state":"active","ping":82},{"user_id":31,"name":"Rugbmilk","steam_id":76561199389283507,"connected_time":3291000000000,"state":"active","ping":94},{"user_id":37,"name":"pumpkin lord","steam_id":76561198880607518,"connected_time":2930000000000,"state":"active","ping":79},{"user_id":70,"name":"hierodule","steam_id":76561198023229665,"connected_time":1379000000000,"state":"active","ping":91},{"user_id":77,"name":"Leclerc","steam_id":76561198972619900,"connected_time":345000000000,"state":"active","ping":47},{"user_id":36,"name":"Horizons","steam_id":76561198106417594,"connected_time":2973000000000,"state":"active","ping":58},{"user_id":49,"name":"Scout from TF2","steam_id":76561198140651185,"connected_time":2604000000000,"state":"active","ping":62},{"user_id":39,"name":"Captain Squidboy","steam_id":76561199122366842,"connected_time":2845000000000,"state":"active","ping":89},{"user_id":76,"name":"MrActionJaxon","steam_id":76561198093549908,"connected_time":456000000000,"state":"active","ping":52},{"user_id":72,"name":"The Horselords and Animal Gods","steam_id":76561197975094050,"connected_time":1124000000000,"state":"active","ping":73},{"user_id":67,"name":"Whapper","steam_id":76561198044029606,"connected_time":1542000000000,"state":"active","ping":83},{"user_id":75,"name":"lag","steam_id":76561197963872739,"connected_time":467000000000,"state":"active","ping":72},{"user_id":60,"name":"Fredfredfood","steam_id":76561198072824802,"connected_time":2172000000000,"state":"active","ping":69},{"user_id":54,"name":"Owl Pacino","steam_id":76561197979970666,"connected_time":2524000000000,"state":"active","ping":75},{"user_id":71,"name":"i hate gamers","steam_id":76561198288743767,"connected_time":1228000000000,"state":"active","ping":78}]},{"server_id":108,"name":"Uncletopia | Dallas | 2 | All Maps","name_short":"dal-2","host":"dal-1.us.uncletopia.com","port":27025,"enabled":true,"region":"us-central","cc":"us","latitude":32.779167,"longitude":-96.80889,"reserved":0,"last_update":"0001-01-01T00:00:00Z","name_a2s":"Uncletopia | Dallas | 2 | All Maps","protocol":17,"map":"koth_cascade","folder":"tf","game":"Team Fortress","app_id":440,"player_count":4,"max_players":24,"Bots":0,"server_type":"Dedicated","server_os":"Linux","password":true,"vac":true,"version":"7708610","steam_id":85568392924469988,"keywords":["cp","nocrits","nodmgspread","uncletopia"],"game_id":440,"stv_port":27026,"stv_name":"Uncletopia | Dallas | 2 | All Maps | STV","players":[{"user_id":7,"name":"Sera","steam_id":76561198986265728,"connected_time":902000000000,"state":"active","ping":65},{"user_id":8,"name":"bit","steam_id":76561199122544464,"connected_time":877000000000,"state":"active","ping":92},{"user_id":9,"name":"Jailbreak","steam_id":76561198802085218,"connected_time":611000000000,"state":"active","ping":48},{"user_id":10,"name":"cooperson","steam_id":76561198276866938,"connected_time":506000000000,"state":"active","ping":90}]},{"server_id":5,"name":"Uncletopia | Frankfurt | 1 | All Maps","name_short":"frk-1","host":"frk-1.de.uncletopia.com","port":27015,"enabled":true,"region":"eu","cc":"de","latitude":50.110924,"longitude":8.682127,"reserved":0,"last_update":"0001-01-01T00:00:00Z","name_a2s":"Uncletopia | Frankfurt | 1 | All Maps","protocol":17,"map":"cp_process_final","folder":"tf","game":"Team Fortress","app_id":440,"player_count":24,"max_players":24,"Bots":0,"server_type":"Dedicated","server_os":"Linux","password":true,"vac":true,"version":"7708610","steam_id":85568392924469989,"keywords":["cp","nocrits","nodmgspread","uncletopia"],"game_id":440,"stv_port":27016,"stv_name":"Uncletopia | Frankfurt | 1 | All Maps | STV","players":[{"user_id":322,"name":"Bones","steam_id":76561198065081225,"connected_time":1979000000000,"state":"active","ping":59},{"user_id":327,"name":"Dummy","steam_id":76561198349741126,"connected_time":1353000000000,"state":"active","ping":75},{"user_id":324,"name":"Rudebwoyyy","steam_id":76561199387956486,"connected_time":1625000000000,"state":"active","ping":54},{"user_id":296,"name":"Bill Clinton Gaming","steam_id":76561199093399286,"connected_time":3261000000000,"state":"active","ping":94},{"user_id":314,"name":"Shlyk","steam_id":76561198333387103,"connected_time":2368000000000,"state":"active","ping":96},{"user_id":333,"name":"ribs","steam_id":76561198354735240,"connected_time":422000000000,"state":"active","ping":62},{"user_id":315,"name":"cafè","steam_id":76561198037938833,"connected_time":2358000000000,"state":"active","ping":53},{"user_id":337,"name":"Cillian","steam_id":76561199046965320,"connected_time":278000000000,"state":"active","ping":81},{"user_id":308,"name":"ghost","steam_id":76561198189940229,"connected_time":2994000000000,"state":"active","ping":56},{"user_id":318,"name":"LarsInABox","steam_id":76561198028329262,"connected_time":2324000000000,"state":"active","ping":70},{"user_id":136,"name":"amogus","steam_id":76561198119439177,"connected_time":15407000000000,"state":"active","ping":55},{"user_id":321,"name":"Smashy_3","steam_id":76561198946398831,"connected_time":2278000000000,"state":"active","ping":49},{"user_id":304,"name":"Markein","steam_id":76561198360754280,"connected_time":3147000000000,"state":"active","ping":33},{"user_id":338,"name":"r4ngerr","steam_id":76561198111721072,"connected_time":249000000000,"state":"active","ping":91},{"user_id":306,"name":"Fran","steam_id":76561199070516960,"connected_time":3140000000000,"state":"active","ping":63},{"user_id":339,"name":"meriones","steam_id":76561198034234373,"connected_time":141000000000,"state":"active","ping":58},{"user_id":291,"name":"Cippo95","steam_id":76561198255311582,"connected_time":3619000000000,"state":"active","ping":83},{"user_id":273,"name":"Cardbrige","steam_id":76561198294453886,"connected_time":5061000000000,"state":"active","ping":53},{"user_id":335,"name":"hasansaeedifar","steam_id":76561198974563618,"connected_time":334000000000,"state":"active","ping":147},{"user_id":280,"name":"Festdoktor","steam_id":76561198058159271,"connected_time":4425000000000,"state":"active","ping":61},{"user_id":336,"name":"Ok","steam_id":76561198356826506,"connected_time":301000000000,"state":"active","ping":51},{"user_id":289,"name":"anairat","steam_id":76561198863788240,"connected_time":4154000000000,"state":"active","ping":79},{"user_id":311,"name":"Mikaela Reid","steam_id":76561198079941049,"connected_time":2713000000000,"state":"active","ping":36},{"user_id":331,"name":"Santa's Clause","steam_id":76561198117247903,"connected_time":1081000000000,"state":"active","ping":54}]},{"server_id":110,"name":"Uncletopia | Frankfurt | 2 | All Maps","name_short":"frk-2","host":"frk-1.de.uncletopia.com","port":27025,"enabled":true,"region":"eu","cc":"de","latitude":50.110924,"longitude":8.682127,"reserved":0,"last_update":"0001-01-01T00:00:00Z","name_a2s":"Uncletopia | Frankfurt | 2 | All Maps","protocol":17,"map":"pl_barnblitz","folder":"tf","game":"Team Fortress","app_id":440,"player_count":24,"max_players":24,"Bots":0,"server_type":"Dedicated","server_os":"Linux","password":true,"vac":true,"version":"7708610","steam_id":85568392924469990,"keywords":["nocrits","nodmgspread","payload","uncletopia"],"game_id":440,"stv_port":27026,"stv_name":"Uncletopia | Frankfurt | 2 | All Maps | STV","players":[{"user_id":204,"name":"mercedes ben","steam_id":76561198000147423,"connected_time":400000000000,"state":"active","ping":58},{"user_id":191,"name":"Tymqs","steam_id":76561198186541753,"connected_time":975000000000,"state":"active","ping":92},{"user_id":182,"name":"lulu","steam_id":76561199147764133,"connected_time":1666000000000,"state":"active","ping":68},{"user_id":160,"name":"Pasta goblin with a touchpad","steam_id":76561198803330799,"connected_time":2404000000000,"state":"active","ping":131},{"user_id":192,"name":"tomix7","steam_id":76561198365122597,"connected_time":965000000000,"state":"active","ping":53},{"user_id":185,"name":"sinx | nebitan","steam_id":76561198879865374,"connected_time":1393000000000,"state":"active","ping":78},{"user_id":207,"name":"Highnachtsmann","steam_id":76561198044784226,"connected_time":96000000000,"state":"active","ping":61},{"user_id":206,"name":"ОrangePortals","steam_id":76561198282172748,"connected_time":218000000000,"state":"active","ping":120},{"user_id":186,"name":"NikodemosPL","steam_id":76561198271226975,"connected_time":1364000000000,"state":"active","ping":127},{"user_id":197,"name":"Dakkafex","steam_id":76561198020254869,"connected_time":805000000000,"state":"active","ping":48},{"user_id":169,"name":"Dingus","steam_id":76561198140514058,"connected_time":2144000000000,"state":"active","ping":43},{"user_id":205,"name":"WESTMOB | EasyEryk","steam_id":76561198139164781,"connected_time":356000000000,"state":"active","ping":55},{"user_id":114,"name":".::[SerafeTTiN]::.","steam_id":76561198009471724,"connected_time":5733000000000,"state":"active","ping":90},{"user_id":201,"name":"AWP Bodyshot :) ❤","steam_id":76561198029928533,"connected_time":580000000000,"state":"active","ping":45},{"user_id":188,"name":"thomas the wank engine","steam_id":76561199013435970,"connected_time":1266000000000,"state":"active","ping":83},{"user_id":109,"name":"jorj3821","steam_id":76561198844794367,"connected_time":6034000000000,"state":"active","ping":75},{"user_id":133,"name":"Here's Johnny!","steam_id":76561198065506317,"connected_time":4277000000000,"state":"active","ping":58},{"user_id":194,"name":"Cobb Salads","steam_id":76561197971140507,"connected_time":940000000000,"state":"active","ping":59},{"user_id":195,"name":"mat","steam_id":76561198824697295,"connected_time":902000000000,"state":"active","ping":70},{"user_id":203,"name":"Dolcelatte","steam_id":76561198038501770,"connected_time":429000000000,"state":"active","ping":47},{"user_id":202,"name":"Gordon Birdman","steam_id":76561198013382324,"connected_time":447000000000,"state":"active","ping":77},{"user_id":198,"name":"Fishsick lord","steam_id":76561198887904255,"connected_time":799000000000,"state":"active","ping":182},{"user_id":199,"name":"paidhumor","steam_id":76561199441509432,"connected_time":787000000000,"state":"active","ping":112},{"user_id":200,"name":"Shynii","steam_id":76561198194682105,"connected_time":760000000000,"state":"active","ping":72}]},{"server_id":308,"name":"Uncletopia | Frankfurt | 3 | All Maps","name_short":"frk-3","host":"frk-1.de.uncletopia.com","port":27035,"enabled":true,"region":"eu","cc":"de","latitude":50.110924,"longitude":8.682127,"reserved":0,"last_update":"0001-01-01T00:00:00Z","name_a2s":"Uncletopia | Frankfurt | 3 | All Maps","protocol":17,"map":"pl_coal_event","folder":"tf","game":"Team Fortress","app_id":440,"player_count":21,"max_players":24,"Bots":0,"server_type":"Dedicated","server_os":"Linux","password":true,"vac":true,"version":"7708610","steam_id":85568392924504274,"keywords":["nocrits","nodmgspread","payload","uncletopia"],"game_id":440,"stv_port":27036,"stv_name":"Uncletopia | Frankfurt | 3 | All Maps | STV","players":[{"user_id":280,"name":"license to lose","steam_id":76561198401241979,"connected_time":1423000000000,"state":"active","ping":59},{"user_id":279,"name":"no1","steam_id":76561198067524060,"connected_time":1475000000000,"state":"active","ping":90},{"user_id":300,"name":"Crisps","steam_id":76561198088973774,"connected_time":55000000000,"state":"active","ping":42},{"user_id":294,"name":"obelsik","steam_id":76561199203511638,"connected_time":293000000000,"state":"active","ping":179},{"user_id":303,"name":"Such XD","steam_id":76561198129454909,"connected_time":15000000000,"state":"active","ping":74},{"user_id":292,"name":"food","steam_id":76561198308341534,"connected_time":820000000000,"state":"active","ping":59},{"user_id":299,"name":"EST_R33kid","steam_id":76561198947039734,"connected_time":121000000000,"state":"active","ping":76},{"user_id":297,"name":"DKshadow73","steam_id":76561198031607905,"connected_time":200000000000,"state":"active","ping":64},{"user_id":258,"name":"Nibiru_Agent","steam_id":76561198796404149,"connected_time":3679000000000,"state":"active","ping":106},{"user_id":291,"name":"Empyrean","steam_id":76561198138552502,"connected_time":974000000000,"state":"active","ping":65},{"user_id":243,"name":"cacapo","steam_id":76561198022255760,"connected_time":4543000000000,"state":"active","ping":127},{"user_id":298,"name":"akakez","steam_id":76561198095432821,"connected_time":181000000000,"state":"active","ping":116},{"user_id":282,"name":"pl_badwater","steam_id":76561198152184280,"connected_time":1363000000000,"state":"active","ping":72},{"user_id":283,"name":"pl_zławoda","steam_id":76561198040588109,"connected_time":1357000000000,"state":"active","ping":78},{"user_id":302,"name":"PerskuleBenener","steam_id":76561198156899375,"connected_time":31000000000,"state":"spawning","ping":89},{"user_id":284,"name":"filo","steam_id":76561198103633797,"connected_time":1325000000000,"state":"active","ping":79},{"user_id":304,"name":"Brick Samson","steam_id":76561198019076104,"connected_time":12000000000,"state":"spawning","ping":104},{"user_id":305,"name":"Big Coke","steam_id":76561198132644586,"connected_time":5000000000,"state":"spawning","ping":85},{"user_id":276,"name":"opaacic","steam_id":76561199158514501,"connected_time":1833000000000,"state":"active","ping":72},{"user_id":275,"name":"Miiukade","steam_id":76561198089157860,"connected_time":2233000000000,"state":"active","ping":139},{"user_id":274,"name":"Raxor","steam_id":76561198239927434,"connected_time":2270000000000,"state":"active","ping":89}]},{"server_id":309,"name":"Uncletopia | Frankfurt | 4 | All Maps","name_short":"frk-4","host":"frk-1.de.uncletopia.com","port":27045,"enabled":true,"region":"eu","cc":"de","latitude":50.110924,"longitude":8.682127,"reserved":0,"last_update":"0001-01-01T00:00:00Z","name_a2s":"Uncletopia | Frankfurt | 4 | All Maps","protocol":17,"map":"koth_highpass","folder":"tf","game":"Team Fortress","app_id":440,"player_count":0,"max_players":24,"Bots":0,"server_type":"Dedicated","server_os":"Linux","password":true,"vac":true,"version":"7708610","steam_id":85568392924504275,"keywords":["cp","nocrits","nodmgspread","uncletopia"],"game_id":440,"stv_port":27046,"stv_name":"Uncletopia | Frankfurt | 4 | All Maps | STV","players":null},{"server_id":310,"name":"Uncletopia | Frankfurt | 5 | All Maps","name_short":"frk-5","host":"frk-1.de.uncletopia.com","port":27055,"enabled":true,"region":"eu","cc":"de","latitude":50.110924,"longitude":8.682127,"reserved":0,"last_update":"0001-01-01T00:00:00Z","name_a2s":"Uncletopia | Frankfurt | 5 | All Maps","protocol":17,"map":"pl_pier","folder":"tf","game":"Team Fortress","app_id":440,"player_count":24,"max_players":24,"Bots":0,"server_type":"Dedicated","server_os":"Linux","password":true,"vac":true,"version":"7708610","steam_id":85568392924504277,"keywords":["nocrits","nodmgspread","payload","uncletopia"],"game_id":440,"stv_port":27056,"stv_name":"Uncletopia | Frankfurt | 5 | All Maps | STV","players":[{"user_id":317,"name":"jaMie","steam_id":76561198170148783,"connected_time":493000000000,"state":"active","ping":62},{"user_id":287,"name":"Salih","steam_id":76561198287934839,"connected_time":1613000000000,"state":"active","ping":56},{"user_id":268,"name":"( ]KROAN[ )","steam_id":76561198022840710,"connected_time":3531000000000,"state":"active","ping":64},{"user_id":323,"name":"Krabs","steam_id":76561198161679477,"connected_time":252000000000,"state":"active","ping":48},{"user_id":312,"name":"Shelly1052","steam_id":76561199043551053,"connected_time":676000000000,"state":"active","ping":54},{"user_id":303,"name":"Oh no","steam_id":76561199116413509,"connected_time":1020000000000,"state":"active","ping":66},{"user_id":327,"name":"Chromatic","steam_id":76561198355976286,"connected_time":18000000000,"state":"spawning","ping":133},{"user_id":310,"name":"Car Gear","steam_id":76561199183213205,"connected_time":693000000000,"state":"active","ping":48},{"user_id":265,"name":"[UiF] Sgt. Beebo","steam_id":76561198061094637,"connected_time":3611000000000,"state":"active","ping":56},{"user_id":311,"name":"Sneaky boi","steam_id":76561199195985387,"connected_time":693000000000,"state":"active","ping":83},{"user_id":316,"name":"Dommy","steam_id":76561197990864747,"connected_time":506000000000,"state":"active","ping":47},{"user_id":304,"name":"[PW]aloxuhik","steam_id":76561197997042174,"connected_time":1000000000000,"state":"active","ping":60},{"user_id":313,"name":"cheated on the pregnancy test","steam_id":76561199107068627,"connected_time":595000000000,"state":"active","ping":158},{"user_id":300,"name":"gfjhsdf","steam_id":76561198136736426,"connected_time":1321000000000,"state":"active","ping":52},{"user_id":264,"name":"[UiF] BafTac r/f*ckcars","steam_id":76561198060547050,"connected_time":3662000000000,"state":"active","ping":46},{"user_id":318,"name":"Gay Potato","steam_id":76561198018859519,"connected_time":410000000000,"state":"active","ping":57},{"user_id":292,"name":"76561198205267113","steam_id":76561198048250715,"connected_time":1484000000000,"state":"active","ping":46},{"user_id":315,"name":"roblan11","steam_id":76561198066839258,"connected_time":588000000000,"state":"active","ping":45},{"user_id":297,"name":"Cosemi@pvpro.com","steam_id":76561198355804096,"connected_time":1409000000000,"state":"active","ping":74},{"user_id":308,"name":"Sheerluck Holmes","steam_id":76561198051161936,"connected_time":915000000000,"state":"active","ping":65},{"user_id":325,"name":"where is my egg?","steam_id":76561198172542535,"connected_time":207000000000,"state":"active","ping":88},{"user_id":326,"name":"Dominus.","steam_id":76561199065917088,"connected_time":62000000000,"state":"active","ping":63},{"user_id":320,"name":"david","steam_id":76561198412873102,"connected_time":375000000000,"state":"active","ping":70},{"user_id":324,"name":"Spazmatic","steam_id":76561198060956170,"connected_time":252000000000,"state":"active","ping":102}]},{"server_id":311,"name":"Uncletopia | Frankfurt | 6 | All Maps","name_short":"frk-6","host":"frk-1.de.uncletopia.com","port":27065,"enabled":true,"region":"eu","cc":"de","latitude":50.110924,"longitude":8.682127,"reserved":0,"last_update":"0001-01-01T00:00:00Z","name_a2s":"Uncletopia | Frankfurt | 6 | All Maps","protocol":17,"map":"koth_lakeside_final","folder":"tf","game":"Team Fortress","app_id":440,"player_count":0,"max_players":24,"Bots":0,"server_type":"Dedicated","server_os":"Linux","password":true,"vac":true,"version":"7708610","steam_id":85568392924504278,"keywords":["cp","nocrits","nodmgspread","uncletopia"],"game_id":440,"stv_port":0,"stv_name":"","players":null},{"server_id":23,"name":"Uncletopia | Frankfurt | 7 | No Payload","name_short":"frk-7","host":"frk-1.de.uncletopia.com","port":27075,"enabled":true,"region":"eu","cc":"de","latitude":50.110924,"longitude":8.682127,"reserved":0,"last_update":"0001-01-01T00:00:00Z","name_a2s":"Uncletopia | Frankfurt | 7 | No Payload","protocol":17,"map":"cp_steel","folder":"tf","game":"Team Fortress","app_id":440,"player_count":0,"max_players":24,"Bots":0,"server_type":"Dedicated","server_os":"Linux","password":true,"vac":true,"version":"7708610","steam_id":85568392924742827,"keywords":["cp","nocrits","nodmgspread","uncletopia"],"game_id":440,"stv_port":27076,"stv_name":"Uncletopia | Frankfurt | 7 | No Payload | STV","players":null},{"server_id":24,"name":"Uncletopia | Frankfurt | 8 | Community","name_short":"frk-8","host":"frk-1.de.uncletopia.com","port":27085,"enabled":true,"region":"eu","cc":"de","latitude":50.110924,"longitude":8.682127,"reserved":0,"last_update":"0001-01-01T00:00:00Z","name_a2s":"Uncletopia | Frankfurt | 8 | Community","protocol":17,"map":"workshop/koth_ashville_final.ugc2130459942","folder":"tf","game":"Team Fortress","app_id":440,"player_count":1,"max_players":24,"Bots":0,"server_type":"Dedicated","server_os":"Linux","password":true,"vac":true,"version":"7708610","steam_id":85568392924742828,"keywords":["cp","nocrits","nodmgspread","uncletopia"],"game_id":440,"stv_port":27086,"stv_name":"Uncletopia | Frankfurt | 8 | Community | STV","players":[{"user_id":18,"name":"fried","steam_id":76561198307522022,"connected_time":2507000000000,"state":"active","ping":49}]},{"server_id":202,"name":"Uncletopia | Hong Kong | 1 | All Maps","name_short":"hgk-1","host":"hgk-1.hk.uncletopia.com","port":27015,"enabled":true,"region":"asia","cc":"hk","latitude":22.302711,"longitude":114.177216,"reserved":0,"last_update":"0001-01-01T00:00:00Z","name_a2s":"Uncletopia | Hong Kong | 1 | All Maps","protocol":17,"map":"pl_swiftwater_final1","folder":"tf","game":"Team Fortress","app_id":440,"player_count":24,"max_players":24,"Bots":0,"server_type":"Dedicated","server_os":"Linux","password":true,"vac":true,"version":"7708610","steam_id":85568392924494504,"keywords":["nocrits","nodmgspread","payload","uncletopia"],"game_id":440,"stv_port":27016,"stv_name":"Uncletopia | Hong Kong | 1 | All Maps | STV","players":[{"user_id":657,"name":"Kall","steam_id":76561197993608660,"connected_time":5082000000000,"state":"active","ping":91},{"user_id":712,"name":"UwU","steam_id":76561198823521095,"connected_time":2203000000000,"state":"active","ping":45},{"user_id":716,"name":"s1452095","steam_id":76561199443071230,"connected_time":1527000000000,"state":"active","ping":55},{"user_id":732,"name":"새벽한시(1AM)","steam_id":76561198360026912,"connected_time":599000000000,"state":"active","ping":88},{"user_id":720,"name":"dunkleshreken","steam_id":76561198044875028,"connected_time":1355000000000,"state":"active","ping":101},{"user_id":721,"name":"0range","steam_id":76561198241996524,"connected_time":1339000000000,"state":"active","ping":76},{"user_id":693,"name":"Wakiiiz","steam_id":76561198850134590,"connected_time":3461000000000,"state":"active","ping":54},{"user_id":722,"name":"Yes'Tir'Day","steam_id":76561198091798037,"connected_time":1323000000000,"state":"active","ping":103},{"user_id":665,"name":"Nimbus","steam_id":76561198877713016,"connected_time":4830000000000,"state":"active","ping":87},{"user_id":635,"name":"SissyFemboy♡","steam_id":76561198841376347,"connected_time":7306000000000,"state":"active","ping":55},{"user_id":731,"name":"Apriliayyds","steam_id":76561198143916650,"connected_time":622000000000,"state":"active","ping":86},{"user_id":739,"name":"TonXD","steam_id":76561199024372559,"connected_time":249000000000,"state":"active","ping":105},{"user_id":736,"name":"Karmen","steam_id":76561198131270946,"connected_time":448000000000,"state":"active","ping":105},{"user_id":641,"name":"tiden2000","steam_id":76561198092969425,"connected_time":7015000000000,"state":"active","ping":95},{"user_id":734,"name":"NathellaBoi","steam_id":76561198093299560,"connected_time":521000000000,"state":"active","ping":72},{"user_id":730,"name":"spy main wannabe","steam_id":76561198096451072,"connected_time":657000000000,"state":"active","ping":101},{"user_id":738,"name":"Crippling Depression","steam_id":76561199198723894,"connected_time":299000000000,"state":"active","ping":89},{"user_id":735,"name":"AverRed","steam_id":76561198275440021,"connected_time":477000000000,"state":"active","ping":76},{"user_id":726,"name":"Mr. Trek","steam_id":76561198974576734,"connected_time":1032000000000,"state":"active","ping":67},{"user_id":714,"name":"DD","steam_id":76561198892818182,"connected_time":2158000000000,"state":"active","ping":103},{"user_id":672,"name":"the real is real!!!!!!","steam_id":76561198442507642,"connected_time":3910000000000,"state":"active","ping":77},{"user_id":678,"name":"gob lin","steam_id":76561198379597982,"connected_time":3806000000000,"state":"active","ping":64},{"user_id":691,"name":"Linus Meth Tips","steam_id":76561198827014993,"connected_time":3559000000000,"state":"active","ping":82},{"user_id":729,"name":"Lone_11","steam_id":76561198232088216,"connected_time":678000000000,"state":"active","ping":92}]},{"server_id":1,"name":"Uncletopia | Los Angeles | 1 | All Maps","name_short":"lax-1","host":"lax-1.us.uncletopia.com","port":27015,"enabled":true,"region":"us-west","cc":"us","latitude":33.94279,"longitude":-118.41004,"reserved":0,"last_update":"0001-01-01T00:00:00Z","name_a2s":"Uncletopia | Los Angeles | 1 | All Maps","protocol":17,"map":"cp_process_final","folder":"tf","game":"Team Fortress","app_id":440,"player_count":0,"max_players":24,"Bots":0,"server_type":"Dedicated","server_os":"Linux","password":true,"vac":true,"version":"7708610","steam_id":85568392924469991,"keywords":["cp","nocrits","nodmgspread","uncletopia"],"game_id":440,"stv_port":0,"stv_name":"","players":null},{"server_id":112,"name":"Uncletopia | Los Angeles | 2 | All Maps","name_short":"lax-2","host":"lax-1.us.uncletopia.com","port":27025,"enabled":true,"region":"us-west","cc":"us","latitude":33.94279,"longitude":-118.41004,"reserved":0,"last_update":"0001-01-01T00:00:00Z","name_a2s":"Uncletopia | Los Angeles | 2 | All Maps","protocol":17,"map":"cp_altitude","folder":"tf","game":"Team Fortress","app_id":440,"player_count":0,"max_players":24,"Bots":0,"server_type":"Dedicated","server_os":"Linux","password":true,"vac":true,"version":"7708610","steam_id":85568392924469992,"keywords":["cp","nocrits","nodmgspread","uncletopia"],"game_id":440,"stv_port":0,"stv_name":"","players":null},{"server_id":324,"name":"Uncletopia | Los Angeles | 3 | All Maps","name_short":"lax-3","host":"lax-1.us.uncletopia.com","port":27035,"enabled":true,"region":"us-west","cc":"us","latitude":33.94279,"longitude":-118.41004,"reserved":0,"last_update":"0001-01-01T00:00:00Z","name_a2s":"Uncletopia | Los Angeles | 3 | All Maps","protocol":17,"map":"cp_altitude","folder":"tf","game":"Team Fortress","app_id":440,"player_count":0,"max_players":24,"Bots":0,"server_type":"Dedicated","server_os":"Linux","password":true,"vac":true,"version":"7708610","steam_id":85568392924510198,"keywords":["cp","nocrits","nodmgspread","uncletopia"],"game_id":440,"stv_port":0,"stv_name":"","players":null},{"server_id":25,"name":"Uncletopia | Los Angeles | 4 | No Payload","name_short":"lax-4","host":"lax-1.us.uncletopia.com","port":27045,"enabled":true,"region":"us-west","cc":"us","latitude":33.94279,"longitude":-118.41004,"reserved":0,"last_update":"0001-01-01T00:00:00Z","name_a2s":"Uncletopia | Los Angeles | 4 | No Payload","protocol":17,"map":"pl_upward","folder":"tf","game":"Team Fortress","app_id":440,"player_count":0,"max_players":24,"Bots":0,"server_type":"Dedicated","server_os":"Linux","password":true,"vac":true,"version":"7708610","steam_id":85568392924510199,"keywords":["nocrits","nodmgspread","payload","uncletopia"],"game_id":440,"stv_port":0,"stv_name":"","players":null},{"server_id":11,"name":"Uncletopia | London | 1 | All Maps","name_short":"lon-1","host":"lon-1.uk.uncletopia.com","port":27015,"enabled":true,"region":"eu","cc":"gb","latitude":51.509865,"longitude":-0.118092,"reserved":0,"last_update":"0001-01-01T00:00:00Z","name_a2s":"Uncletopia | London | 1 | All Maps","protocol":17,"map":"pl_frontier_final","folder":"tf","game":"Team Fortress","app_id":440,"player_count":13,"max_players":24,"Bots":0,"server_type":"Dedicated","server_os":"Linux","password":true,"vac":true,"version":"7708610","steam_id":85568392924367362,"keywords":["nocrits","nodmgspread","payload","uncletopia"],"game_id":440,"stv_port":27016,"stv_name":"Uncletopia | London | 1 | All Maps | STV","players":[{"user_id":219,"name":"shin","steam_id":76561198039757757,"connected_time":1081000000000,"state":"active","ping":36},{"user_id":224,"name":"onslaught","steam_id":76561197960881723,"connected_time":407000000000,"state":"active","ping":89},{"user_id":221,"name":"RandomName","steam_id":76561198055552108,"connected_time":736000000000,"state":"active","ping":49},{"user_id":190,"name":"Audiofall","steam_id":76561198208814216,"connected_time":2795000000000,"state":"active","ping":49},{"user_id":222,"name":"johncenx","steam_id":76561198366703672,"connected_time":590000000000,"state":"active","ping":68},{"user_id":225,"name":"leaf eater","steam_id":76561198083359604,"connected_time":378000000000,"state":"active","ping":66},{"user_id":226,"name":"fröga","steam_id":76561198412559828,"connected_time":301000000000,"state":"active","ping":104},{"user_id":228,"name":"Graceium","steam_id":76561198271802336,"connected_time":55000000000,"state":"active","ping":47},{"user_id":229,"name":"LasagnaLarry22","steam_id":76561198089478290,"connected_time":50000000000,"state":"active","ping":32},{"user_id":230,"name":"BreadTeleporter","steam_id":76561198041456843,"connected_time":35000000000,"state":"active","ping":44},{"user_id":167,"name":"CM32MAker","steam_id":76561199157487382,"connected_time":4582000000000,"state":"active","ping":152},{"user_id":217,"name":"Bunnytt","steam_id":76561198340246275,"connected_time":1473000000000,"state":"active","ping":103},{"user_id":215,"name":"Ruralchain","steam_id":76561198803915402,"connected_time":1548000000000,"state":"active","ping":91}]},{"server_id":114,"name":"Uncletopia | London | 2 | All Maps","name_short":"lon-2","host":"lon-1.uk.uncletopia.com","port":27025,"enabled":true,"region":"eu","cc":"gb","latitude":51.509865,"longitude":-0.118092,"reserved":0,"last_update":"0001-01-01T00:00:00Z","name_a2s":"Uncletopia | London | 2 | All Maps","protocol":17,"map":"koth_highpass","folder":"tf","game":"Team Fortress","app_id":440,"player_count":0,"max_players":24,"Bots":0,"server_type":"Dedicated","server_os":"Linux","password":true,"vac":true,"version":"7708610","steam_id":85568392924470941,"keywords":["cp","nocrits","nodmgspread","uncletopia"],"game_id":440,"stv_port":27026,"stv_name":"Uncletopia | London | 2 | All Maps | STV","players":null},{"server_id":320,"name":"Uncletopia | London | 3 | All Maps","name_short":"lon-3","host":"lon-1.uk.uncletopia.com","port":27035,"enabled":true,"region":"eu","cc":"gb","latitude":51.509865,"longitude":-0.118092,"reserved":0,"last_update":"0001-01-01T00:00:00Z","name_a2s":"Uncletopia | London | 3 | All Maps","protocol":17,"map":"pl_frontier_final","folder":"tf","game":"Team Fortress","app_id":440,"player_count":24,"max_players":24,"Bots":0,"server_type":"Dedicated","server_os":"Linux","password":true,"vac":true,"version":"7708610","steam_id":85568392924510192,"keywords":["nocrits","nodmgspread","payload","uncletopia"],"game_id":440,"stv_port":27036,"stv_name":"Uncletopia | London | 3 | All Maps | STV","players":[{"user_id":85,"name":"yummy_treat_for_mr_beast","steam_id":76561198010251613,"connected_time":2011000000000,"state":"active","ping":75},{"user_id":82,"name":"Ing. Gadurlan","steam_id":76561198049191632,"connected_time":2529000000000,"state":"active","ping":75},{"user_id":109,"name":"Saul Goodsex","steam_id":76561198173218318,"connected_time":758000000000,"state":"active","ping":46},{"user_id":111,"name":"firenickblood","steam_id":76561199302529256,"connected_time":659000000000,"state":"active","ping":60},{"user_id":66,"name":"romaingallo","steam_id":76561198268112907,"connected_time":3754000000000,"state":"active","ping":52},{"user_id":93,"name":"Mankor","steam_id":76561198020439322,"connected_time":1739000000000,"state":"active","ping":64},{"user_id":71,"name":"¡!Ulexos!¡","steam_id":76561198087502998,"connected_time":3362000000000,"state":"active","ping":75},{"user_id":54,"name":"clean carp","steam_id":76561198127053294,"connected_time":4185000000000,"state":"active","ping":68},{"user_id":107,"name":"Pumpkin Tutter","steam_id":76561198039725179,"connected_time":810000000000,"state":"active","ping":52},{"user_id":112,"name":"syla8215","steam_id":76561199007869949,"connected_time":583000000000,"state":"active","ping":67},{"user_id":113,"name":"Biały","steam_id":76561197996016988,"connected_time":543000000000,"state":"active","ping":82},{"user_id":94,"name":"Shawty","steam_id":76561198256704286,"connected_time":1694000000000,"state":"active","ping":71},{"user_id":115,"name":"Roman Polansky","steam_id":76561198108321988,"connected_time":462000000000,"state":"active","ping":154},{"user_id":96,"name":"Hexagon","steam_id":76561198151205758,"connected_time":1639000000000,"state":"active","ping":65},{"user_id":78,"name":"lisnin2deathgrips/gec :3","steam_id":76561199013457963,"connected_time":2701000000000,"state":"active","ping":45},{"user_id":116,"name":"Peter","steam_id":76561198120327435,"connected_time":436000000000,"state":"active","ping":79},{"user_id":117,"name":"ender","steam_id":76561198840955715,"connected_time":407000000000,"state":"active","ping":34},{"user_id":105,"name":"Ace","steam_id":76561198453289465,"connected_time":959000000000,"state":"active","ping":73},{"user_id":46,"name":"maakgis","steam_id":76561198851703804,"connected_time":4441000000000,"state":"active","ping":125},{"user_id":67,"name":"random_player691","steam_id":76561199209946306,"connected_time":3745000000000,"state":"active","ping":61},{"user_id":118,"name":"sigma female","steam_id":76561198298576765,"connected_time":370000000000,"state":"active","ping":70},{"user_id":98,"name":"Blacksheep","steam_id":76561198019621063,"connected_time":1582000000000,"state":"active","ping":45},{"user_id":76,"name":"non_ai","steam_id":76561198270951938,"connected_time":2933000000000,"state":"active","ping":115},{"user_id":92,"name":"Mr. Mundy","steam_id":76561198132008918,"connected_time":1817000000000,"state":"active","ping":86}]},{"server_id":321,"name":"Uncletopia | London | 4 | All Maps","name_short":"lon-4","host":"lon-1.uk.uncletopia.com","port":27045,"enabled":true,"region":"eu","cc":"gb","latitude":51.509865,"longitude":-0.118092,"reserved":0,"last_update":"0001-01-01T00:00:00Z","name_a2s":"Uncletopia | London | 4 | All Maps","protocol":17,"map":"pl_frontier_final","folder":"tf","game":"Team Fortress","app_id":440,"player_count":24,"max_players":24,"Bots":0,"server_type":"Dedicated","server_os":"Linux","password":true,"vac":true,"version":"7708610","steam_id":85568392924510193,"keywords":["nocrits","nodmgspread","payload","uncletopia"],"game_id":440,"stv_port":27046,"stv_name":"Uncletopia | London | 4 | All Maps | STV","players":[{"user_id":384,"name":"Emil","steam_id":76561198084773066,"connected_time":162000000000,"state":"active","ping":59},{"user_id":333,"name":"'93","steam_id":76561199216923710,"connected_time":3022000000000,"state":"active","ping":144},{"user_id":379,"name":"Dire-Wolf","steam_id":76561198267622248,"connected_time":230000000000,"state":"active","ping":164},{"user_id":378,"name":"I am a box","steam_id":76561199184671939,"connected_time":261000000000,"state":"active","ping":112},{"user_id":357,"name":"Karsapaali","steam_id":76561198322322739,"connected_time":1854000000000,"state":"active","ping":90},{"user_id":365,"name":"Iron_Dave_Qc","steam_id":76561198159325213,"connected_time":973000000000,"state":"active","ping":121},{"user_id":331,"name":"Economic crisis","steam_id":76561198063562843,"connected_time":3209000000000,"state":"active","ping":118},{"user_id":334,"name":"Ixsus\u003c3","steam_id":76561198094756869,"connected_time":2973000000000,"state":"active","ping":62},{"user_id":382,"name":"Bargon","steam_id":76561198964641940,"connected_time":214000000000,"state":"active","ping":75},{"user_id":356,"name":"Pahlberg","steam_id":76561198208547929,"connected_time":1887000000000,"state":"active","ping":75},{"user_id":377,"name":"MrGoodBytes","steam_id":76561198180895953,"connected_time":440000000000,"state":"active","ping":60},{"user_id":364,"name":"Nova","steam_id":76561198415791639,"connected_time":1130000000000,"state":"active","ping":49},{"user_id":388,"name":"Paulie \"Walnuts\" Gualtieri","steam_id":76561198364121077,"connected_time":4000000000,"state":"spawning","ping":89},{"user_id":385,"name":"Amon Gus","steam_id":76561199094540960,"connected_time":108000000000,"state":"active","ping":51},{"user_id":371,"name":"ashley","steam_id":76561198448551449,"connected_time":847000000000,"state":"active","ping":41},{"user_id":257,"name":"Bubu","steam_id":76561199305428573,"connected_time":6323000000000,"state":"active","ping":53},{"user_id":380,"name":"miro罪","steam_id":76561198196357213,"connected_time":228000000000,"state":"active","ping":85},{"user_id":369,"name":"FRANKY!!!","steam_id":76561199211305343,"connected_time":893000000000,"state":"active","ping":199},{"user_id":354,"name":"JohnMat2","steam_id":76561199007662486,"connected_time":2185000000000,"state":"active","ping":62},{"user_id":383,"name":"23","steam_id":76561198149347502,"connected_time":201000000000,"state":"active","ping":78},{"user_id":386,"name":"Godot","steam_id":76561198339980449,"connected_time":86000000000,"state":"active","ping":70},{"user_id":374,"name":"Gearslut","steam_id":76561198114601678,"connected_time":686000000000,"state":"active","ping":52},{"user_id":387,"name":"ToniGAM3S","steam_id":76561198128605351,"connected_time":67000000000,"state":"active","ping":64},{"user_id":372,"name":"Highground","steam_id":76561199197544789,"connected_time":844000000000,"state":"active","ping":145}]},{"server_id":21,"name":"Uncletopia | London | 5 | All Maps","name_short":"lon-5","host":"lon-1.uk.uncletopia.com","port":27055,"enabled":true,"region":"eu","cc":"gb","latitude":51.509865,"longitude":-0.118092,"reserved":0,"last_update":"0001-01-01T00:00:00Z","name_a2s":"Uncletopia | London | 5 | All Maps","protocol":17,"map":"pl_barnblitz","folder":"tf","game":"Team Fortress","app_id":440,"player_count":0,"max_players":24,"Bots":0,"server_type":"Dedicated","server_os":"Linux","password":true,"vac":true,"version":"7708610","steam_id":85568392924742829,"keywords":["nocrits","nodmgspread","payload","uncletopia"],"game_id":440,"stv_port":27056,"stv_name":"Uncletopia | London | 5 | All Maps | STV","players":null},{"server_id":22,"name":"Uncletopia | London | 6 | All Maps","name_short":"lon-6","host":"lon-1.uk.uncletopia.com","port":27065,"enabled":true,"region":"eu","cc":"gb","latitude":51.509865,"longitude":-0.118092,"reserved":0,"last_update":"0001-01-01T00:00:00Z","name_a2s":"Uncletopia | London | 6 | All Maps","protocol":17,"map":"cp_steel","folder":"tf","game":"Team Fortress","app_id":440,"player_count":3,"max_players":24,"Bots":0,"server_type":"Dedicated","server_os":"Linux","password":true,"vac":true,"version":"7708610","steam_id":85568392924742830,"keywords":["cp","nocrits","nodmgspread","uncletopia"],"game_id":440,"stv_port":27066,"stv_name":"Uncletopia | London | 6 | All Maps | STV","players":[{"user_id":342,"name":"Monke Gaming","steam_id":76561199122133427,"connected_time":2145000000000,"state":"active","ping":122},{"user_id":376,"name":"WhatsABun","steam_id":76561199077421272,"connected_time":340000000000,"state":"active","ping":67},{"user_id":375,"name":"Zoran Snajper","steam_id":76561198312564061,"connected_time":530000000000,"state":"active","ping":71}]},{"server_id":40,"name":"Uncletopia | London | 7 | No Payload","name_short":"lon-7","host":"lon-1.uk.uncletopia.com","port":27075,"enabled":true,"region":"eu","cc":"gb","latitude":51.509865,"longitude":-0.118092,"reserved":0,"last_update":"0001-01-01T00:00:00Z","name_a2s":"Uncletopia | London | 7 | No Payload","protocol":17,"map":"koth_king","folder":"tf","game":"Team Fortress","app_id":440,"player_count":0,"max_players":24,"Bots":0,"server_type":"Dedicated","server_os":"Linux","password":true,"vac":true,"version":"7708610","steam_id":85568392924964314,"keywords":["cp","nocrits","nodmgspread","uncletopia"],"game_id":440,"stv_port":27076,"stv_name":"Uncletopia | London | 7 | No Payload | STV","players":null},{"server_id":41,"name":"Uncletopia | London | 8 | Community","name_short":"lon-8","host":"lon-1.uk.uncletopia.com","port":27085,"enabled":true,"region":"eu","cc":"gb","latitude":51.509865,"longitude":-0.118092,"reserved":0,"last_update":"0001-01-01T00:00:00Z","name_a2s":"Uncletopia | London | 8 | Community","protocol":17,"map":"workshop/cp_overgrown_rc7b.ugc503939302","folder":"tf","game":"Team Fortress","app_id":440,"player_count":0,"max_players":24,"Bots":0,"server_type":"Dedicated","server_os":"Linux","password":true,"vac":true,"version":"7708610","steam_id":85568392924964315,"keywords":["cp","nocrits","nodmgspread","uncletopia"],"game_id":440,"stv_port":27086,"stv_name":"Uncletopia | London | 8 | Community | STV","players":null},{"server_id":300,"name":"Uncletopia | Montréal | 1 | All Maps","name_short":"mtl-1","host":"mtl-1.ca.uncletopia.com","port":27015,"enabled":true,"region":"us-east","cc":"ca","latitude":45.50889,"longitude":-73.56167,"reserved":0,"last_update":"0001-01-01T00:00:00Z","name_a2s":"Uncletopia | Montréal | 1 | All Maps","protocol":17,"map":"pl_barnblitz","folder":"tf","game":"Team Fortress","app_id":440,"player_count":0,"max_players":24,"Bots":0,"server_type":"Dedicated","server_os":"Linux","password":true,"vac":true,"version":"7708610","steam_id":85568392924500087,"keywords":["nocrits","nodmgspread","payload","uncletopia"],"game_id":440,"stv_port":0,"stv_name":"","players":null},{"server_id":301,"name":"Uncletopia | Montréal | 2 | All Maps","name_short":"mtl-2","host":"mtl-1.ca.uncletopia.com","port":27025,"enabled":true,"region":"us-east","cc":"ca","latitude":45.50889,"longitude":-73.56167,"reserved":0,"last_update":"0001-01-01T00:00:00Z","name_a2s":"Uncletopia | Montréal | 2 | All Maps","protocol":17,"map":"pl_frontier_final","folder":"tf","game":"Team Fortress","app_id":440,"player_count":0,"max_players":24,"Bots":0,"server_type":"Dedicated","server_os":"Linux","password":true,"vac":true,"version":"7708610","steam_id":85568392924500088,"keywords":["nocrits","nodmgspread","payload","uncletopia"],"game_id":440,"stv_port":0,"stv_name":"","players":null},{"server_id":302,"name":"Uncletopia | Montréal | 3 | All Maps","name_short":"mtl-3","host":"mtl-1.ca.uncletopia.com","port":27035,"enabled":true,"region":"us-east","cc":"ca","latitude":45.50889,"longitude":-73.56167,"reserved":0,"last_update":"0001-01-01T00:00:00Z","name_a2s":"Uncletopia | Montréal | 3 | All Maps","protocol":17,"map":"pl_snowycoast","folder":"tf","game":"Team Fortress","app_id":440,"player_count":0,"max_players":24,"Bots":0,"server_type":"Dedicated","server_os":"Linux","password":true,"vac":true,"version":"7708610","steam_id":85568392924500089,"keywords":["nocrits","nodmgspread","payload","uncletopia"],"game_id":440,"stv_port":0,"stv_name":"","players":null},{"server_id":303,"name":"Uncletopia | Montréal | 4 | No Payload","name_short":"mtl-4","host":"mtl-1.ca.uncletopia.com","port":27045,"enabled":true,"region":"us-east","cc":"ca","latitude":45.50889,"longitude":-73.56167,"reserved":0,"last_update":"0001-01-01T00:00:00Z","name_a2s":"Uncletopia | Montréal | 4 | No Payload","protocol":17,"map":"pl_frontier_final","folder":"tf","game":"Team Fortress","app_id":440,"player_count":0,"max_players":24,"Bots":0,"server_type":"Dedicated","server_os":"Linux","password":true,"vac":true,"version":"7708610","steam_id":85568392924500090,"keywords":["nocrits","nodmgspread","payload","uncletopia"],"game_id":440,"stv_port":0,"stv_name":"","players":null},{"server_id":13,"name":"Uncletopia | New York City | 1 | All Maps","name_short":"nyc-1","host":"nyc-1.us.uncletopia.com","port":27015,"enabled":true,"region":"us-east","cc":"us","latitude":40.73061,"longitude":-73.93524,"reserved":0,"last_update":"0001-01-01T00:00:00Z","name_a2s":"Uncletopia | New York City | 1 | All Maps","protocol":17,"map":"koth_highpass","folder":"tf","game":"Team Fortress","app_id":440,"player_count":0,"max_players":24,"Bots":0,"server_type":"Dedicated","server_os":"Linux","password":true,"vac":true,"version":"7708610","steam_id":85568392924469993,"keywords":["cp","nocrits","nodmgspread","uncletopia"],"game_id":440,"stv_port":27016,"stv_name":"Uncletopia | New York City | 1 | All Maps | STV","players":null},{"server_id":14,"name":"Uncletopia | New York City | 2 | All Maps","name_short":"nyc-2","host":"nyc-1.us.uncletopia.com","port":27025,"enabled":true,"region":"us-east","cc":"us","latitude":40.73061,"longitude":-73.93524,"reserved":0,"last_update":"0001-01-01T00:00:00Z","name_a2s":"Uncletopia | New York City | 2 | All Maps","protocol":17,"map":"cp_sunshine","folder":"tf","game":"Team Fortress","app_id":440,"player_count":0,"max_players":24,"Bots":0,"server_type":"Dedicated","server_os":"Linux","password":true,"vac":true,"version":"7708610","steam_id":85568392924469994,"keywords":["cp","nocrits","nodmgspread","uncletopia"],"game_id":440,"stv_port":27026,"stv_name":"Uncletopia | New York City | 2 | All Maps | STV","players":null},{"server_id":15,"name":"Uncletopia | New York City | 3 | All Maps","name_short":"nyc-3","host":"nyc-1.us.uncletopia.com","port":27035,"enabled":true,"region":"us-east","cc":"us","latitude":40.73061,"longitude":-73.93524,"reserved":0,"last_update":"0001-01-01T00:00:00Z","name_a2s":"Uncletopia | New York City | 3 | All Maps","protocol":17,"map":"cp_sunshine","folder":"tf","game":"Team Fortress","app_id":440,"player_count":0,"max_players":24,"Bots":0,"server_type":"Dedicated","server_os":"Linux","password":true,"vac":true,"version":"7708610","steam_id":85568392924742820,"keywords":["cp","nocrits","nodmgspread","uncletopia"],"game_id":440,"stv_port":0,"stv_name":"","players":null},{"server_id":16,"name":"Uncletopia | New York City | 4 | Community","name_short":"nyc-4","host":"nyc-1.us.uncletopia.com","port":27045,"enabled":true,"region":"us-east","cc":"us","latitude":40.73061,"longitude":-73.93524,"reserved":0,"last_update":"0001-01-01T00:00:00Z","name_a2s":"Uncletopia | New York City | 4 | Community","protocol":17,"map":"pl_badwater","folder":"tf","game":"Team Fortress","app_id":440,"player_count":0,"max_players":24,"Bots":0,"server_type":"Dedicated","server_os":"Linux","password":true,"vac":true,"version":"7708610","steam_id":85568392924742821,"keywords":["nocrits","nodmgspread","payload","uncletopia"],"game_id":440,"stv_port":0,"stv_name":"","players":null},{"server_id":142,"name":"Uncletopia | São Paulo | 1 | All Maps","name_short":"sao-1","host":"sao-1.br.uncletopia.com","port":27015,"enabled":true,"region":"sa","cc":"br","latitude":-23.533773,"longitude":-46.62529,"reserved":0,"last_update":"0001-01-01T00:00:00Z","name_a2s":"Uncletopia | São Paulo | 1 | All Maps","protocol":17,"map":"koth_cascade","folder":"tf","game":"Team Fortress","app_id":440,"player_count":0,"max_players":24,"Bots":0,"server_type":"Dedicated","server_os":"Linux","password":true,"vac":true,"version":"7708610","steam_id":85568392924469996,"keywords":["cp","nocrits","nodmgspread","uncletopia"],"game_id":440,"stv_port":27016,"stv_name":"Uncletopia | São Paulo | 1 | All Maps | STV","players":null},{"server_id":143,"name":"Uncletopia | São Paulo | 2 | All Maps","name_short":"sao-2","host":"sao-2.br.uncletopia.com","port":27015,"enabled":true,"region":"sa","cc":"br","latitude":-23.533773,"longitude":-46.62529,"reserved":0,"last_update":"0001-01-01T00:00:00Z","name_a2s":"Uncletopia | São Paulo | 2 | All Maps","protocol":17,"map":"koth_lakeside_final","folder":"tf","game":"Team Fortress","app_id":440,"player_count":0,"max_players":24,"Bots":0,"server_type":"Dedicated","server_os":"Linux","password":true,"vac":true,"version":"7708610","steam_id":85568392924485349,"keywords":["cp","nocrits","nodmgspread","uncletopia"],"game_id":440,"stv_port":0,"stv_name":"","players":null},{"server_id":7,"name":"Uncletopia | Seattle | 1 | All Maps","name_short":"sea-1","host":"sea-1.us.uncletopia.com","port":27015,"enabled":true,"region":"us-west","cc":"us","latitude":47.608013,"longitude":-122.33517,"reserved":0,"last_update":"0001-01-01T00:00:00Z","name_a2s":"Uncletopia | Seattle | 1 | All Maps","protocol":17,"map":"koth_cascade","folder":"tf","game":"Team Fortress","app_id":440,"player_count":0,"max_players":24,"Bots":0,"server_type":"Dedicated","server_os":"Linux","password":true,"vac":true,"version":"7708610","steam_id":85568392924469997,"keywords":["cp","nocrits","nodmgspread","uncletopia"],"game_id":440,"stv_port":0,"stv_name":"","players":null},{"server_id":119,"name":"Uncletopia | Seattle | 2 | All Maps","name_short":"sea-2","host":"sea-1.us.uncletopia.com","port":27025,"enabled":true,"region":"us-west","cc":"us","latitude":47.608013,"longitude":-122.33517,"reserved":0,"last_update":"0001-01-01T00:00:00Z","name_a2s":"Uncletopia | Seattle | 2 | All Maps","protocol":17,"map":"cp_process_final","folder":"tf","game":"Team Fortress","app_id":440,"player_count":0,"max_players":24,"Bots":0,"server_type":"Dedicated","server_os":"Linux","password":true,"vac":true,"version":"7708610","steam_id":85568392924469998,"keywords":["cp","nocrits","nodmgspread","uncletopia"],"game_id":440,"stv_port":0,"stv_name":"","players":null},{"server_id":17,"name":"Uncletopia | San Francisco | 1 | All Maps","name_short":"sfo-1","host":"sfo-1.us.uncletopia.com","port":27015,"enabled":true,"region":"us-west","cc":"us","latitude":37.77397,"longitude":-122.4313,"reserved":0,"last_update":"0001-01-01T00:00:00Z","name_a2s":"Uncletopia | San Francisco | 1 | All Maps","protocol":17,"map":"cp_sunshine","folder":"tf","game":"Team Fortress","app_id":440,"player_count":0,"max_players":24,"Bots":0,"server_type":"Dedicated","server_os":"Linux","password":true,"vac":true,"version":"7708610","steam_id":85568392924469999,"keywords":["cp","nocrits","nodmgspread","uncletopia"],"game_id":440,"stv_port":0,"stv_name":"","players":null},{"server_id":18,"name":"Uncletopia | San Francisco | 2 | All Maps","name_short":"sfo-2","host":"sfo-1.us.uncletopia.com","port":27025,"enabled":true,"region":"us-west","cc":"us","latitude":37.77397,"longitude":-122.4313,"reserved":0,"last_update":"0001-01-01T00:00:00Z","name_a2s":"Uncletopia | San Francisco | 2 | All Maps","protocol":17,"map":"koth_cascade","folder":"tf","game":"Team Fortress","app_id":440,"player_count":0,"max_players":24,"Bots":0,"server_type":"Dedicated","server_os":"Linux","password":true,"vac":true,"version":"7708610","steam_id":85568392924470000,"keywords":["cp","nocrits","nodmgspread","uncletopia"],"game_id":440,"stv_port":0,"stv_name":"","players":null},{"server_id":19,"name":"Uncletopia | San Francisco | 3 | No Payload","name_short":"sfo-3","host":"sfo-1.us.uncletopia.com","port":27035,"enabled":true,"region":"us-west","cc":"us","latitude":37.77397,"longitude":-122.4313,"reserved":0,"last_update":"0001-01-01T00:00:00Z","name_a2s":"Uncletopia | San Francisco | 3 | No Payload","protocol":17,"map":"cp_snakewater_final1","folder":"tf","game":"Team Fortress","app_id":440,"player_count":0,"max_players":24,"Bots":0,"server_type":"Dedicated","server_os":"Linux","password":true,"vac":true,"version":"7708610","steam_id":85568392924742824,"keywords":["cp","nocrits","nodmgspread","uncletopia"],"game_id":440,"stv_port":0,"stv_name":"","players":null},{"server_id":20,"name":"Uncletopia | San Francisco | 4 | Community","name_short":"sfo-4","host":"sfo-1.us.uncletopia.com","port":27045,"enabled":true,"region":"us-west","cc":"us","latitude":37.77397,"longitude":-122.4313,"reserved":0,"last_update":"0001-01-01T00:00:00Z","name_a2s":"Uncletopia | San Francisco | 4 | Community","protocol":17,"map":"pl_barnblitz","folder":"tf","game":"Team Fortress","app_id":440,"player_count":0,"max_players":24,"Bots":0,"server_type":"Dedicated","server_os":"Linux","password":true,"vac":true,"version":"7708610","steam_id":85568392924742826,"keywords":["nocrits","nodmgspread","payload","uncletopia"],"game_id":440,"stv_port":0,"stv_name":"","players":null},{"server_id":141,"name":"Uncletopia | Sydney | 1 | All Maps","name_short":"syd-1","host":"syd-1.au.uncletopia.com","port":27015,"enabled":true,"region":"au","cc":"au","latitude":-33.865143,"longitude":151.2099,"reserved":0,"last_update":"0001-01-01T00:00:00Z","name_a2s":"Uncletopia | Sydney | 1 | All Maps","protocol":17,"map":"pl_snowycoast","folder":"tf","game":"Team Fortress","app_id":440,"player_count":10,"max_players":24,"Bots":0,"server_type":"Dedicated","server_os":"Linux","password":true,"vac":true,"version":"7708610","steam_id":85568392924470001,"keywords":["nocrits","nodmgspread","payload","uncletopia"],"game_id":440,"stv_port":27016,"stv_name":"Uncletopia | Sydney | 1 | All Maps | STV","players":[{"user_id":915,"name":"Shor","steam_id":76561198309142768,"connected_time":957000000000,"state":"active","ping":60},{"user_id":921,"name":"burfdae boi","steam_id":76561199000827969,"connected_time":213000000000,"state":"active","ping":31},{"user_id":899,"name":"warwick 400x1","steam_id":76561198280237790,"connected_time":1863000000000,"state":"active","ping":72},{"user_id":922,"name":"i like balls","steam_id":76561199010558927,"connected_time":142000000000,"state":"active","ping":151},{"user_id":917,"name":"zkamarov","steam_id":76561198043655319,"connected_time":859000000000,"state":"active","ping":48},{"user_id":894,"name":"Soru","steam_id":76561198010844786,"connected_time":2277000000000,"state":"active","ping":59},{"user_id":876,"name":"¿eTheRealMe?","steam_id":76561198033297147,"connected_time":3771000000000,"state":"active","ping":99},{"user_id":897,"name":"Spirit of Speedshots","steam_id":76561198443799054,"connected_time":2022000000000,"state":"active","ping":44},{"user_id":893,"name":"[-ScarPe-]","steam_id":76561199379429440,"connected_time":2450000000000,"state":"active","ping":59},{"user_id":906,"name":"Squilliam.","steam_id":76561198013114541,"connected_time":1677000000000,"state":"active","ping":40}]},{"server_id":123,"name":"Uncletopia | Sydney | 2 | All Maps","name_short":"syd-2","host":"syd-1.au.uncletopia.com","port":27025,"enabled":true,"region":"au","cc":"au","latitude":-33.865143,"longitude":151.2099,"reserved":0,"last_update":"0001-01-01T00:00:00Z","name_a2s":"Uncletopia | Sydney | 2 | All Maps","protocol":17,"map":"koth_cascade","folder":"tf","game":"Team Fortress","app_id":440,"player_count":0,"max_players":24,"Bots":0,"server_type":"Dedicated","server_os":"Linux","password":true,"vac":true,"version":"7708610","steam_id":85568392924470002,"keywords":["cp","nocrits","nodmgspread","uncletopia"],"game_id":440,"stv_port":27026,"stv_name":"Uncletopia | Sydney | 2 | All Maps | STV","players":null},{"server_id":395,"name":"Uncletopia | Sydney | 3 | All Maps","name_short":"syd-3","host":"syd-1.au.uncletopia.com","port":27035,"enabled":true,"region":"au","cc":"au","latitude":-33.865143,"longitude":151.2099,"reserved":0,"last_update":"0001-01-01T00:00:00Z","name_a2s":"Uncletopia | Sydney | 3 | All Maps","protocol":17,"map":"koth_viaduct","folder":"tf","game":"Team Fortress","app_id":440,"player_count":0,"max_players":24,"Bots":0,"server_type":"Dedicated","server_os":"Linux","password":true,"vac":true,"version":"7708610","steam_id":85568392925194467,"keywords":["cp","nocrits","nodmgspread","uncletopia"],"game_id":440,"stv_port":27036,"stv_name":"Uncletopia | Sydney | 3 | All Maps | STV","players":null},{"server_id":396,"name":"Uncletopia | Sydney | 4 | All Maps","name_short":"syd-4","host":"syd-1.au.uncletopia.com","port":27045,"enabled":true,"region":"au","cc":"au","latitude":-33.865143,"longitude":151.2099,"reserved":0,"last_update":"0001-01-01T00:00:00Z","name_a2s":"Uncletopia | Sydney | 4 | All Maps","protocol":17,"map":"pl_barnblitz","folder":"tf","game":"Team Fortress","app_id":440,"player_count":0,"max_players":24,"Bots":0,"server_type":"Dedicated","server_os":"Linux","password":true,"vac":true,"version":"7708610","steam_id":85568392925397958,"keywords":["nocrits","nodmgspread","payload","uncletopia"],"game_id":440,"stv_port":27046,"stv_name":"Uncletopia | Sydney | 4 | All Maps | STV","players":null},{"server_id":58,"name":"Uncletopia | Sydney | 5 | No Payload","name_short":"syd-5","host":"syd-1.au.uncletopia.com","port":27055,"enabled":true,"region":"au","cc":"au","latitude":-33.865143,"longitude":151.2099,"reserved":0,"last_update":"0001-01-01T00:00:00Z","name_a2s":"Uncletopia | Sydney | 5 | No Payload","protocol":17,"map":"koth_cascade","folder":"tf","game":"Team Fortress","app_id":440,"player_count":0,"max_players":24,"Bots":0,"server_type":"Dedicated","server_os":"Linux","password":true,"vac":true,"version":"7708610","steam_id":85568392925397959,"keywords":["cp","nocrits","nodmgspread","uncletopia"],"game_id":440,"stv_port":0,"stv_name":"","players":null},{"server_id":59,"name":"Uncletopia | Sydney | 6 | Community","name_short":"syd-6","host":"syd-1.au.uncletopia.com","port":27065,"enabled":true,"region":"au","cc":"au","latitude":-33.865143,"longitude":151.2099,"reserved":0,"last_update":"0001-01-01T00:00:00Z","name_a2s":"Uncletopia | Sydney | 6 | Community","protocol":17,"map":"workshop/koth_synthetic_rc6a.ugc1549817316","folder":"tf","game":"Team Fortress","app_id":440,"player_count":0,"max_players":24,"Bots":0,"server_type":"Dedicated","server_os":"Linux","password":true,"vac":true,"version":"7708610","steam_id":85568392925397960,"keywords":["cp","nocrits","nodmgspread","uncletopia"],"game_id":440,"stv_port":27066,"stv_name":"Uncletopia | Sydney | 6 | Community | STV","players":null},{"server_id":49,"name":"Uncletopia | Warsaw | 1 | All Maps","name_short":"waw-1","host":"waw-1.pl.uncletopia.com","port":27015,"enabled":true,"region":"eu","cc":"pl","latitude":52.2297,"longitude":21.017532,"reserved":0,"last_update":"0001-01-01T00:00:00Z","name_a2s":"Uncletopia | Warsaw | 1 | All Maps","protocol":17,"map":"cp_mountainlab","folder":"tf","game":"Team Fortress","app_id":440,"player_count":0,"max_players":24,"Bots":0,"server_type":"Dedicated","server_os":"Linux","password":true,"vac":true,"version":"7708610","steam_id":85568392925397850,"keywords":["cp","nocrits","nodmgspread","uncletopia"],"game_id":440,"stv_port":0,"stv_name":"","players":null},{"server_id":50,"name":"Uncletopia | Warsaw | 2 | All Maps","name_short":"waw-2","host":"waw-1.pl.uncletopia.com","port":27025,"enabled":true,"region":"eu","cc":"pl","latitude":52.2297,"longitude":21.017532,"reserved":0,"last_update":"0001-01-01T00:00:00Z","name_a2s":"Uncletopia | Warsaw | 2 | All Maps","protocol":17,"map":"koth_highpass","folder":"tf","game":"Team Fortress","app_id":440,"player_count":0,"max_players":24,"Bots":0,"server_type":"Dedicated","server_os":"Linux","password":true,"vac":true,"version":"7708610","steam_id":85568392925397851,"keywords":["cp","nocrits","nodmgspread","uncletopia"],"game_id":440,"stv_port":27026,"stv_name":"Uncletopia | Warsaw | 2 | All Maps | STV","players":null},{"server_id":51,"name":"Uncletopia | Warsaw | 3 | All Maps","name_short":"waw-3","host":"waw-1.pl.uncletopia.com","port":27035,"enabled":true,"region":"eu","cc":"pl","latitude":52.2297,"longitude":21.017532,"reserved":0,"last_update":"0001-01-01T00:00:00Z","name_a2s":"Uncletopia | Warsaw | 3 | All Maps","protocol":17,"map":"koth_cascade","folder":"tf","game":"Team Fortress","app_id":440,"player_count":0,"max_players":24,"Bots":0,"server_type":"Dedicated","server_os":"Linux","password":true,"vac":true,"version":"7708610","steam_id":85568392925397852,"keywords":["cp","nocrits","nodmgspread","uncletopia"],"game_id":440,"stv_port":0,"stv_name":"","players":null},{"server_id":52,"name":"Uncletopia | Warsaw | 4 | All Maps","name_short":"waw-4","host":"waw-1.pl.uncletopia.com","port":27045,"enabled":true,"region":"eu","cc":"pl","latitude":52.2297,"longitude":21.017532,"reserved":0,"last_update":"0001-01-01T00:00:00Z","name_a2s":"Uncletopia | Warsaw | 4 | All Maps","protocol":17,"map":"cp_dustbowl","folder":"tf","game":"Team Fortress","app_id":440,"player_count":0,"max_players":24,"Bots":0,"server_type":"Dedicated","server_os":"Linux","password":true,"vac":true,"version":"7708610","steam_id":85568392925397853,"keywords":["cp","nocrits","nodmgspread","uncletopia"],"game_id":440,"stv_port":27046,"stv_name":"Uncletopia | Warsaw | 4 | All Maps | STV","players":null},{"server_id":53,"name":"Uncletopia | Warsaw | 5 | No Payload","name_short":"waw-5","host":"waw-1.pl.uncletopia.com","port":27055,"enabled":true,"region":"eu","cc":"pl","latitude":52.2297,"longitude":21.017532,"reserved":0,"last_update":"0001-01-01T00:00:00Z","name_a2s":"Uncletopia | Warsaw | 5 | No Payload","protocol":17,"map":"koth_nucleus","folder":"tf","game":"Team Fortress","app_id":440,"player_count":0,"max_players":24,"Bots":0,"server_type":"Dedicated","server_os":"Linux","password":true,"vac":true,"version":"7708610","steam_id":85568392925397854,"keywords":["cp","nocrits","nodmgspread","uncletopia"],"game_id":440,"stv_port":27056,"stv_name":"Uncletopia | Warsaw | 5 | No Payload | STV","players":null},{"server_id":54,"name":"Uncletopia | Warsaw | 6 | Community","name_short":"waw-6","host":"waw-1.pl.uncletopia.com","port":27065,"enabled":true,"region":"eu","cc":"pl","latitude":52.2297,"longitude":21.017532,"reserved":0,"last_update":"0001-01-01T00:00:00Z","name_a2s":"Uncletopia | Warsaw | 6 | Community","protocol":17,"map":"koth_highpass","folder":"tf","game":"Team Fortress","app_id":440,"player_count":0,"max_players":24,"Bots":0,"server_type":"Dedicated","server_os":"Linux","password":true,"vac":true,"version":"7708610","steam_id":85568392925397856,"keywords":["cp","nocrits","nodmgspread","uncletopia"],"game_id":440,"stv_port":0,"stv_name":"","players":null}]}