{"status":true,"message":"","result":[{"server_id":9,"name":"Uncletopia | Atlanta | 1 | All Maps","name_short":"atl-1","host":"atl-1.us.uncletopia.com","port":27015,"enabled":true,"region":"us-east","cc":"us","latitude":33.753746,"longitude":-84.38633,"reserved":0,"last_update":"0001-01-01T00:00:00Z","name_a2s":"Uncletopia | Atlanta | 1 | All Maps","protocol":17,"map":"pl_barnblitz","folder":"tf","game":"Team Fortress","app_id":440,"player_count":24,"max_players":24,"Bots":0,"server_type":"Dedicated","server_os":"Linux","password":true,"vac":true,"version":"7757534","steam_id":85568392924469982,"keywords":["nocrits","nodmgspread","payload","uncletopia"],"game_id":440,"stv_port":27016,"stv_name":"Uncletopia | Atlanta | 1 | All Maps | STV","players":[{"user_id":184,"name":"DededeMain | trade.tf","steam_id":76561198310951632,"connected_time":6806000000000,"state":"active","ping":82},{"user_id":240,"name":"kite","steam_id":76561198346516392,"connected_time":1460000000000,"state":"active","ping":79},{"user_id":179,"name":"morphine","steam_id":76561198072124799,"connected_time":7084000000000,"state":"active","ping":76},{"user_id":252,"name":"∆ê’å—¥∆≥","steam_id":76561198099470277,"connected_time":184000000000,"state":"active","ping":67},{"user_id":224,"name":"Toonice","steam_id":76561198402994885,"connected_time":2463000000000,"state":"active","ping":81},{"user_id":246,"name":"marguerite","steam_id":76561198170873495,"connected_time":621000000000,"state":"active","ping":58},{"user_id":238,"name":"The BIG Show","steam_id":76561199127423378,"connected_time":1472000000000,"state":"active","ping":115},{"user_id":245,"name":"DFR Le4n!!!","steam_id":76561198045522596,"connected_time":713000000000,"state":"active","ping":60},{"user_id":242,"name":"Nephs","steam_id":76561198136763403,"connected_time":1329000000000,"state":"active","ping":83},{"user_id":200,"name":"CBT Hammer","steam_id":76561198263631055,"connected_time":4307000000000,"state":"active","ping":44},{"user_id":230,"name":"nothere","steam_id":76561198341624641,"connected_time":1790000000000,"state":"active","ping":60},{"user_id":244,"name":"yomo","steam_id":76561198063175935,"connected_time":848000000000,"state":"active","ping":58},{"user_id":193,"name":"ash","steam_id":76561198127890645,"connected_time":5578000000000,"state":"active","ping":60},{"user_id":241,"name":"Pixler544","steam_id":76561198240575132,"connected_time":1428000000000,"state":"active","ping":66},{"user_id":157,"name":"Derplish","steam_id":76561198831714443,"connected_time":9425000000000,"state":"active","ping":80},{"user_id":239,"name":"john01k","steam_id":76561198059731548,"connected_time":1467000000000,"state":"active","ping":76},{"user_id":247,"name":"DFR DeezNoodlez","steam_id":76561198246700372,"connected_time":409000000000,"state":"active","ping":55},{"user_id":243,"name":"scrotal recall","steam_id":76561198135945598,"connected_time":1295000000000,"state":"active","ping":63},{"user_id":219,"name":"rose","steam_id":76561198048882285,"connected_time":2862000000000,"state":"active","ping":60},{"user_id":251,"name":"Zesno","steam_id":76561198075216015,"connected_time":219000000000,"state":"active","ping":64},{"user_id":249,"name":"thomasdee725!!!","steam_id":76561199189526173,"connected_time":320000000000,"state":"active","ping":677},{"user_id":233,"name":"HarryjusttHarry","steam_id":76561198982810452,"connected_time":1630000000000,"state":"active","ping":77},{"user_id":228,"name":"lil hog","steam_id":76561199230929836,"connected_time":2051000000000,"state":"active","ping":71},{"user_id":235,"name":"Sophie","steam_id":76561198170408057,"connected_time":1630000000000,"state":"active","ping":46}]},{"server_id":104,"name":"Uncletopia | Atlanta | 2 | All Maps","name_short":"atl-2","host":"atl-1.us.uncletopia.com","port":27025,"enabled":true,"region":"us-east","cc":"us","latitude":33.753746,"longitude":-84.38633,"reserved":0,"last_update":"0001-01-01T00:00:00Z","name_a2s":"Uncletopia | Atlanta | 2 | All Maps","protocol":17,"map":"koth_cascade","folder":"tf","game":"Team Fortress","app_id":440,"player_count":0,"max_players":24,"Bots":0,"server_type":"Dedicated","server_os":"Linux","password":true,"vac":true,"version":"7757534","steam_id":85568392924469983,"keywords":["cp","nocrits","nodmgspread","uncletopia"],"game_id":440,"stv_port":27026,"stv_name":"Uncletopia | Atlanta | 2 | All Maps | STV","players":null},{"server_id":400,"name":"Uncletopia | Atlanta | 3 | Community","name_short":"atl-3","host":"atl-1.us.uncletopia.com","port":27035,"enabled":true,"region":"us-east","cc":"us","latitude":33.753746,"longitude":-84.38633,"reserved":0,"last_update":"0001-01-01T00:00:00Z","name_a2s":"Uncletopia | Atlanta | 3 | Community","protocol":17,"map":"workshop/pl_vigil_rc9.ugc1266210012","folder":"tf","game":"Team Fortress","app_id":440,"player_count":0,"max_players":24,"Bots":0,"server_type":"Dedicated","server_os":"Linux","password":true,"vac":true,"version":"7757534","steam_id":85568392924515187,"keywords":["nocrits","nodmgspread","payload","uncletopia"],"game_id":440,"stv_port":27036,"stv_name":"Uncletopia | Atlanta | 3 | Community | STV","players":null},{"server_id":401,"name":"Uncletopia | Atlanta | 4 | No Payload","name_short":"atl-4","host":"atl-1.us.uncletopia.com","port":27045,"enabled":true,"region":"us-east","cc":"us","latitude":33.753746,"longitude":-84.38633,"reserved":0,"last_update":"0001-01-01T00:00:00Z","name_a2s":"","protocol":0,"map":"","folder":"","game":"","app_id":0,"player_count":0,"max_players":0,"Bots":0,"server_type":"","server_os":"","password":false,"vac":false,"version":"","steam_id":0,"keywords":null,"game_id":0,"stv_port":0,"stv_name":"","players":null},{"server_id":2,"name":"Uncletopia | Chicago | 1 | All Maps","name_short":"chi-1","host":"chi-1.us.uncletopia.com","port":27015,"enabled":true,"region":"us-central","cc":"us","latitude":41.881832,"longitude":-87.62318,"reserved":0,"last_update":"0001-01-01T00:00:00Z","name_a2s":"Uncletopia | Chicago | 1 | All Maps","protocol":17,"map":"plr_bananabay","folder":"tf","game":"Team Fortress","app_id":440,"player_count":24,"max_players":24,"Bots":0,"server_type":"Dedicated","server_os":"Linux","password":true,"vac":true,"version":"7757534","steam_id":85568392924469984,"keywords":["nocrits","nodmgspread","payload","uncletopia"],"game_id":440,"stv_port":27016,"stv_name":"Uncletopia | Chicago | 1 | All Maps | STV","players":[{"user_id":252,"name":"FattSucc","steam_id":76561198009500503,"connected_time":1301000000000,"state":"active","ping":91},{"user_id":269,"name":"Crocodile(real)","steam_id":76561199190685448,"connected_time":252000000000,"state":"active","ping":110},{"user_id":236,"name":"Samitch","steam_id":76561198038247982,"connected_time":2759000000000,"state":"active","ping":59},{"user_id":201,"name":"Dairy Queen","steam_id":76561198285298576,"connected_time":5130000000000,"state":"active","ping":58},{"user_id":238,"name":"Henry Ota-Clay","steam_id":76561198053232470,"connected_time":2399000000000,"state":"active","ping":59},{"user_id":264,"name":"lifted tater","steam_id":76561198404564240,"connected_time":690000000000,"state":"active","ping":62},{"user_id":271,"name":"pee","steam_id":76561198378503656,"connected_time":170000000000,"state":"active","ping":45},{"user_id":272,"name":"ghoster","steam_id":76561199001918194,"connected_time":166000000000,"state":"active","ping":117},{"user_id":261,"name":"ìÜèCayenne Pepper ìÜè","steam_id":76561198124881810,"connected_time":712000000000,"state":"active","ping":125},{"user_id":246,"name":"NonZeroAxe","steam_id":76561198073449189,"connected_time":1972000000000,"state":"active","ping":65},{"user_id":166,"name":"tydogzilla","steam_id":76561198054254518,"connected_time":7549000000000,"state":"active","ping":60},{"user_id":260,"name":"sensitize","steam_id":76561198350134869,"connected_time":719000000000,"state":"active","ping":50},{"user_id":273,"name":"Ranger Plague","steam_id":76561198174647666,"connected_time":163000000000,"state":"active","ping":80},{"user_id":231,"name":"Rez","steam_id":76561198374251889,"connected_time":3183000000000,"state":"active","ping":94},{"user_id":229,"name":"LukaPalooza","steam_id":76561198856708121,"connected_time":3422000000000,"state":"active","ping":55},{"user_id":230,"name":"JimmyNeutron","steam_id":76561197993353322,"connected_time":3268000000000,"state":"active","ping":74},{"user_id":212,"name":"GumZie","steam_id":76561198202584223,"connected_time":3871000000000,"state":"active","ping":100},{"user_id":204,"name":"Bradz","steam_id":76561198175090085,"connected_time":5028000000000,"state":"active","ping":84},{"user_id":274,"name":"Wardin","steam_id":76561198096881855,"connected_time":107000000000,"state":"active","ping":62},{"user_id":244,"name":"Ceiling Man","steam_id":76561198003959902,"connected_time":2013000000000,"state":"active","ping":58},{"user_id":247,"name":"tinkercrab11","steam_id":76561198881792140,"connected_time":1951000000000,"state":"active","ping":77},{"user_id":235,"name":"cotton candy muncher","steam_id":76561198058998371,"connected_time":2968000000000,"state":"active","ping":67},{"user_id":241,"name":"MikeLovesRabbit","steam_id":76561197997742625,"connected_time":2340000000000,"state":"active","ping":65},{"user_id":250,"name":"Cocksneed Fartin","steam_id":76561198126675787,"connected_time":1672000000000,"state":"active","ping":76}]},{"server_id":106,"name":"Uncletopia | Chicago | 2 | All Maps","name_short":"chi-2","host":"chi-1.us.uncletopia.com","port":27025,"enabled":true,"region":"us-central","cc":"us","latitude":41.881832,"longitude":-87.62318,"reserved":0,"last_update":"0001-01-01T00:00:00Z","name_a2s":"Uncletopia | Chicago | 2 | All Maps","protocol":17,"map":"pl_frontier_final","folder":"tf","game":"Team Fortress","app_id":440,"player_count":19,"max_players":24,"Bots":0,"server_type":"Dedicated","server_os":"Linux","password":true,"vac":true,"version":"7757534","steam_id":85568392924469985,"keywords":["nocrits","nodmgspread","payload","uncletopia"],"game_id":440,"stv_port":27026,"stv_name":"Uncletopia | Chicago | 2 | All Maps | STV","players":[{"user_id":248,"name":"andyiscolorless","steam_id":76561199239870921,"connected_time":3309000000000,"state":"active","ping":138},{"user_id":200,"name":"Kieran","steam_id":76561198072788168,"connected_time":7558000000000,"state":"active","ping":75},{"user_id":266,"name":"Take the L","steam_id":76561198379223875,"connected_time":2137000000000,"state":"active","ping":70},{"user_id":280,"name":"iceetee","steam_id":76561198156275931,"connected_time":38000000000,"state":"active","ping":60},{"user_id":281,"name":"sqerkbo","steam_id":76561198080012700,"connected_time":12000000000,"state":"spawning","ping":51},{"user_id":279,"name":"AYAYA!!!","steam_id":76561198992102180,"connected_time":102000000000,"state":"active","ping":45},{"user_id":222,"name":"jeremimi","steam_id":76561198818225102,"connected_time":5746000000000,"state":"active","ping":119},{"user_id":274,"name":"adastra","steam_id":76561198152090448,"connected_time":723000000000,"state":"active","ping":74},{"user_id":282,"name":"W3BB3Y","steam_id":76561198141962813,"connected_time":1000000000,"state":"spawning","ping":25},{"user_id":267,"name":"Kimba","steam_id":76561199092078325,"connected_time":1720000000000,"state":"active","ping":86},{"user_id":261,"name":"a melty bologna sandwich","steam_id":76561198043602407,"connected_time":2540000000000,"state":"active","ping":75},{"user_id":224,"name":"Oopsie Daisy ‚ùã","steam_id":76561198042144492,"connected_time":5711000000000,"state":"active","ping":70},{"user_id":275,"name":"Fresh0c0","steam_id":76561198271933283,"connected_time":702000000000,"state":"active","ping":57},{"user_id":277,"name":"Sparky","steam_id":76561198114574421,"connected_time":644000000000,"state":"active","ping":73},{"user_id":69,"name":"Succubus_Lilith (She/They)","steam_id":76561198240578890,"connected_time":22987000000000,"state":"active","ping":69},{"user_id":254,"name":"box","steam_id":76561198985635309,"connected_time":2875000000000,"state":"active","ping":84},{"user_id":219,"name":"LegendaryMister151","steam_id":76561198064890524,"connected_time":5884000000000,"state":"active","ping":87},{"user_id":270,"name":"DragonHunter994","steam_id":76561199076203907,"connected_time":1708000000000,"state":"active","ping":80},{"user_id":228,"name":"„ÅÑ„Å°„Åî„Åæ„Çç","steam_id":76561198166100997,"connected_time":5549000000000,"state":"active","ping":76}]},{"server_id":402,"name":"Uncletopia | Chicago | 3 | All Maps","name_short":"chi-3","host":"chi-1.us.uncletopia.com","port":27035,"enabled":true,"region":"us-central","cc":"us","latitude":41.881832,"longitude":-87.62318,"reserved":0,"last_update":"0001-01-01T00:00:00Z","name_a2s":"Uncletopia | Chicago | 3 | All Maps","protocol":17,"map":"koth_viaduct","folder":"tf","game":"Team Fortress","app_id":440,"player_count":0,"max_players":24,"Bots":0,"server_type":"Dedicated","server_os":"Linux","password":true,"vac":true,"version":"7757534","steam_id":85568392924515191,"keywords":["cp","nocrits","nodmgspread","uncletopia"],"game_id":440,"stv_port":27036,"stv_name":"Uncletopia | Chicago | 3 | All Maps | STV","players":null},{"server_id":403,"name":"Uncletopia | Chicago | 4 | All Maps","name_short":"chi-4","host":"chi-1.us.uncletopia.com","port":27045,"enabled":true,"region":"us-central","cc":"us","latitude":41.881832,"longitude":-87.62318,"reserved":0,"last_update":"0001-01-01T00:00:00Z","name_a2s":"Uncletopia | Chicago | 4 | All Maps","protocol":17,"map":"cp_process_final","folder":"tf","game":"Team Fortress","app_id":440,"player_count":24,"max_players":24,"Bots":0,"server_type":"Dedicated","server_os":"Linux","password":true,"vac":true,"version":"7757534","steam_id":85568392924515193,"keywords":["cp","nocrits","nodmgspread","uncletopia"],"game_id":440,"stv_port":27046,"stv_name":"Uncletopia | Chicago | 4 | All Maps | STV","players":[{"user_id":121,"name":"pyco.bot","steam_id":76561199060005960,"connected_time":3368000000000,"state":"active","ping":74},{"user_id":21,"name":"Ritzy","steam_id":76561198381955342,"connected_time":12256000000000,"state":"active","ping":141},{"user_id":130,"name":"TechLegion","steam_id":76561198951606276,"connected_time":2542000000000,"state":"active","ping":82},{"user_id":17,"name":"cow tools","steam_id":76561198030291655,"connected_time":12378000000000,"state":"active","ping":48},{"user_id":126,"name":"Edder","steam_id":76561198011088393,"connected_time":2853000000000,"state":"active","ping":78},{"user_id":149,"name":"Antwan","steam_id":76561198246200638,"connected_time":473000000000,"state":"active","ping":61},{"user_id":138,"name":"cucumper","steam_id":76561198079504588,"connected_time":1168000000000,"state":"active","ping":74},{"user_id":141,"name":"Clear Sights","steam_id":76561198006215683,"connected_time":1053000000000,"state":"active","ping":63},{"user_id":151,"name":"(snoozer)","steam_id":76561198106322577,"connected_time":414000000000,"state":"active","ping":59},{"user_id":117,"name":"MINE_","steam_id":76561198092970200,"connected_time":3493000000000,"state":"active","ping":88},{"user_id":68,"name":"beatrix","steam_id":76561199057103062,"connected_time":8506000000000,"state":"active","ping":91},{"user_id":132,"name":"Dr Oshawott","steam_id":76561198042021629,"connected_time":2303000000000,"state":"active","ping":61},{"user_id":107,"name":"Aeonspassed","steam_id":76561198014016451,"connected_time":4516000000000,"state":"active","ping":50},{"user_id":127,"name":"Wild_Rumpus","steam_id":76561198066393719,"connected_time":2811000000000,"state":"active","ping":45},{"user_id":114,"name":"VividDragon","steam_id":76561198050659285,"connected_time":4097000000000,"state":"active","ping":66},{"user_id":152,"name":"porco dio","steam_id":76561198268174395,"connected_time":187000000000,"state":"active","ping":56},{"user_id":129,"name":"b","steam_id":76561198196769297,"connected_time":2624000000000,"state":"active","ping":54},{"user_id":143,"name":"PowerfulZat Twitch","steam_id":76561198856638893,"connected_time":848000000000,"state":"active","ping":86},{"user_id":146,"name":"I Know Right!","steam_id":76561198203817936,"connected_time":838000000000,"state":"active","ping":55},{"user_id":133,"name":"unlucky killer","steam_id":76561199039152146,"connected_time":2297000000000,"state":"active","ping":76},{"user_id":70,"name":"bimbo blow up doll! \u003c3","steam_id":76561198959541006,"connected_time":8496000000000,"state":"active","ping":74},{"user_id":135,"name":"catrinaisahuman","steam_id":76561198281355729,"connected_time":2268000000000,"state":"active","ping":64},{"user_id":109,"name":"kent C Straight","steam_id":76561198056190259,"connected_time":4320000000000,"state":"active","ping":65},{"user_id":140,"name":"88","steam_id":76561198017539604,"connected_time":1141000000000,"state":"active","ping":79}]},{"server_id":36,"name":"Uncletopia | Chicago | 5 | All Maps","name_short":"chi-5","host":"chi-2.us.uncletopia.com","port":27015,"enabled":true,"region":"us-central","cc":"us","latitude":41.881832,"longitude":-87.62318,"reserved":0,"last_update":"0001-01-01T00:00:00Z","name_a2s":"Uncletopia | Chicago | 5 | All Maps","protocol":17,"map":"koth_cascade","folder":"tf","game":"Team Fortress","app_id":440,"player_count":0,"max_players":24,"Bots":0,"server_type":"Dedicated","server_os":"Linux","password":true,"vac":true,"version":"7757534","steam_id":85568392924866362,"keywords":["cp","nocrits","nodmgspread","uncletopia"],"game_id":440,"stv_port":27016,"stv_name":"Uncletopia | Chicago | 5 | All Maps | STV","players":null},{"server_id":37,"name":"Uncletopia | Chicago | 6 | All Maps","name_short":"chi-6","host":"chi-2.us.uncletopia.com","port":27025,"enabled":true,"region":"us-central","cc":"us","latitude":41.881832,"longitude":-87.62318,"reserved":0,"last_update":"0001-01-01T00:00:00Z","name_a2s":"Uncletopia | Chicago | 6 | All Maps","protocol":17,"map":"cp_steel","folder":"tf","game":"Team Fortress","app_id":440,"player_count":24,"max_players":24,"Bots":0,"server_type":"Dedicated","server_os":"Linux","password":true,"vac":true,"version":"7757534","steam_id":85568392924866363,"keywords":["cp","nocrits","nodmgspread","uncletopia"],"game_id":440,"stv_port":27026,"stv_name":"Uncletopia | Chicago | 6 | All Maps | STV","players":[{"user_id":58,"name":"Tele Co","steam_id":76561198041909269,"connected_time":2959000000000,"state":"active","ping":86},{"user_id":85,"name":"Bee","steam_id":76561198074681324,"connected_time":1060000000000,"state":"active","ping":67},{"user_id":49,"name":"creeeeeee","steam_id":76561198392539722,"connected_time":3648000000000,"state":"active","ping":82},{"user_id":90,"name":"Someone You Know","steam_id":76561198196863118,"connected_time":520000000000,"state":"active","ping":75},{"user_id":96,"name":"Girly Gumballs","steam_id":76561198317001677,"connected_time":68000000000,"state":"active","ping":57},{"user_id":89,"name":"kitchen crusader","steam_id":76561199217620385,"connected_time":544000000000,"state":"active","ping":103},{"user_id":59,"name":"Nassu","steam_id":76561198147367577,"connected_time":2826000000000,"state":"active","ping":81},{"user_id":74,"name":"mothsprings","steam_id":76561198928604937,"connected_time":2189000000000,"state":"active","ping":82},{"user_id":88,"name":"mio","steam_id":76561198239286750,"connected_time":604000000000,"state":"active","ping":62},{"user_id":91,"name":"Banjo","steam_id":76561198167519036,"connected_time":484000000000,"state":"active","ping":184},{"user_id":95,"name":"Schmeple Tank Head","steam_id":76561199010857399,"connected_time":111000000000,"state":"active","ping":99},{"user_id":92,"name":"gameman351","steam_id":76561199191383378,"connected_time":460000000000,"state":"active","ping":88},{"user_id":97,"name":"Goofball","steam_id":76561198061211537,"connected_time":14000000000,"state":"spawning","ping":61},{"user_id":23,"name":"Fun-Loving Dog Witch","steam_id":76561198103496593,"connected_time":5920000000000,"state":"active","ping":66},{"user_id":77,"name":"Pop","steam_id":76561199012562851,"connected_time":1812000000000,"state":"active","ping":86},{"user_id":68,"name":"Zeek","steam_id":76561197987204351,"connected_time":2624000000000,"state":"active","ping":58},{"user_id":93,"name":"Jogdan","steam_id":76561199073308696,"connected_time":459000000000,"state":"active","ping":85},{"user_id":78,"name":"phfez","steam_id":76561198046150386,"connected_time":1776000000000,"state":"active","ping":75},{"user_id":52,"name":"twizted","steam_id":76561197960407274,"connected_time":3514000000000,"state":"active","ping":78},{"user_id":69,"name":"Mae","steam_id":76561198085815757,"connected_time":2410000000000,"state":"active","ping":72},{"user_id":75,"name":"shit bro","steam_id":76561199178885266,"connected_time":2189000000000,"state":"active","ping":60},{"user_id":32,"name":"Super Ghostbusters (Full Album)","steam_id":76561198057415490,"connected_time":5833000000000,"state":"active","ping":58},{"user_id":45,"name":"Icaras","steam_id":76561198416724843,"connected_time":4314000000000,"state":"active","ping":127},{"user_id":94,"name":"Ziath","steam_id":76561198094009164,"connected_time":408000000000,"state":"active","ping":68}]},{"server_id":38,"name":"Uncletopia | Chicago | 7 | Stopwatch Beta","name_short":"chi-7","host":"chi-2.us.uncletopia.com","port":27035,"enabled":true,"region":"us-central","cc":"us","latitude":41.881832,"longitude":-87.62318,"reserved":0,"last_update":"0001-01-01T00:00:00Z","name_a2s":"Uncletopia | Chicago | 7 | Stopwatch Beta","protocol":17,"map":"workshop/koth_product_final.ugc454272353","folder":"tf","game":"Team Fortress","app_id":440,"player_count":0,"max_players":24,"Bots":0,"server_type":"Dedicated","server_os":"Linux","password":true,"vac":true,"version":"7757534","steam_id":85568392924866364,"keywords":["cp","nocrits","nodmgspread","uncletopia"],"game_id":440,"stv_port":27036,"stv_name":"Uncletopia | Chicago | 7 | Stopwatch Beta | STV","players":null},{"server_id":39,"name":"Uncletopia | Chicago | 8 | Community","name_short":"chi-8","host":"chi-2.us.uncletopia.com","port":27045,"enabled":true,"region":"us-central","cc":"us","latitude":41.881832,"longitude":-87.62318,"reserved":0,"last_update":"0001-01-01T00:00:00Z","name_a2s":"Uncletopia | Chicago | 8 | Community","protocol":17,"map":"workshop/pl_cactuscanyon_redux_final2.ugc2579644293","folder":"tf","game":"Team Fortress","app_id":440,"player_count":16,"max_players":24,"Bots":0,"server_type":"Dedicated","server_os":"Linux","password":true,"vac":true,"version":"7757534","steam_id":85568392924866365,"keywords":["nocrits","nodmgspread","payload","uncletopia"],"game_id":440,"stv_port":27046,"stv_name":"Uncletopia | Chicago | 8 | Community | STV","players":[{"user_id":70,"name":"Reaper","steam_id":76561198435826103,"connected_time":42000000000,"state":"active","ping":73},{"user_id":55,"name":"Tohru","steam_id":76561198175722677,"connected_time":1404000000000,"state":"active","ping":47},{"user_id":68,"name":"hopefullythisnameisnttaken","steam_id":76561198979277765,"connected_time":136000000000,"state":"active","ping":144},{"user_id":71,"name":"Cedric","steam_id":76561198072090580,"connected_time":31000000000,"state":"active","ping":119},{"user_id":60,"name":"Darkmaen","steam_id":76561198060543390,"connected_time":814000000000,"state":"active","ping":138},{"user_id":49,"name":"Col Ngohk","steam_id":76561198241643372,"connected_time":1636000000000,"state":"active","ping":114},{"user_id":50,"name":"slack","steam_id":76561198000564263,"connected_time":1618000000000,"state":"active","ping":73},{"user_id":58,"name":"Milkman","steam_id":76561199089290269,"connected_time":1211000000000,"state":"active","ping":158},{"user_id":51,"name":"lanoc","steam_id":76561198055415367,"connected_time":1578000000000,"state":"active","ping":71},{"user_id":32,"name":"Gobbo Nikki","steam_id":76561198164401669,"connected_time":2043000000000,"state":"active","ping":60},{"user_id":65,"name":"wally","steam_id":76561198027450079,"connected_time":353000000000,"state":"active","ping":62},{"user_id":35,"name":"Cooldude95","steam_id":76561198881847928,"connected_time":1982000000000,"state":"active","ping":80},{"user_id":37,"name":"Hoofuyu","steam_id":76561199022142345,"connected_time":1907000000000,"state":"active","ping":71},{"user_id":40,"name":"Sunshine","steam_id":76561198885528098,"connected_time":1856000000000,"state":"active","ping":73},{"user_id":66,"name":"Wagemage","steam_id":76561198013625580,"connected_time":226000000000,"state":"active","ping":77},{"user_id":62,"name":"Fish_man_Jon","steam_id":76561198068158264,"connected_time":584000000000,"state":"active","ping":69}]},{"server_id":8,"name":"Uncletopia | Dallas | 1 | All Maps","name_short":"dal-1","host":"dal-1.us.uncletopia.com","port":27015,"enabled":true,"region":"us-central","cc":"us","latitude":32.779167,"longitude":-96.80889,"reserved":0,"last_update":"0001-01-01T00:00:00Z","name_a2s":"Uncletopia | Dallas | 1 | All Maps","protocol":17,"map":"koth_cascade","folder":"tf","game":"Team Fortress","app_id":440,"player_count":11,"max_players":24,"Bots":0,"server_type":"Dedicated","server_os":"Linux","password":true,"vac":true,"version":"7757534","steam_id":85568392924469986,"keywords":["cp","nocrits","nodmgspread","uncletopia"],"game_id":440,"stv_port":27016,"stv_name":"Uncletopia | Dallas | 1 | All Maps | STV","players":[{"user_id":15,"name":"TheEmeraldLiker","steam_id":76561198323926464,"connected_time":997000000000,"state":"active","ping":116},{"user_id":16,"name":"Underpaid distraction","steam_id":76561198040179901,"connected_time":943000000000,"state":"active","ping":75},{"user_id":20,"name":"tbug0408","steam_id":76561199061206374,"connected_time":797000000000,"state":"active","ping":78},{"user_id":21,"name":"Wem-worlds-of-wine.","steam_id":76561199321959230,"connected_time":757000000000,"state":"active","ping":54},{"user_id":22,"name":"objective permanence","steam_id":76561198050393061,"connected_time":728000000000,"state":"active","ping":90},{"user_id":32,"name":"frogeÀö*‚úß","steam_id":76561198103079986,"connected_time":60000000000,"state":"active","ping":82},{"user_id":31,"name":"F_L Ken","steam_id":76561198233988068,"connected_time":270000000000,"state":"active","ping":92},{"user_id":25,"name":"Doomagedden","steam_id":76561198272589475,"connected_time":508000000000,"state":"active","ping":52},{"user_id":33,"name":"anBee","steam_id":76561198050760807,"connected_time":29000000000,"state":"spawning","ping":84},{"user_id":28,"name":"\u003c blank \u003e","steam_id":76561198937717599,"connected_time":384000000000,"state":"active","ping":32},{"user_id":29,"name":"mboddy","steam_id":76561197997190809,"connected_time":345000000000,"state":"active","ping":108}]},{"server_id":108,"name":"Uncletopia | Dallas | 2 | All Maps","name_short":"dal-2","host":"dal-1.us.uncletopia.com","port":27025,"enabled":true,"region":"us-central","cc":"us","latitude":32.779167,"longitude":-96.80889,"reserved":0,"last_update":"0001-01-01T00:00:00Z","name_a2s":"Uncletopia | Dallas | 2 | All Maps","protocol":17,"map":"cp_snakewater_final1","folder":"tf","game":"Team Fortress","app_id":440,"player_count":23,"max_players":24,"Bots":0,"server_type":"Dedicated","server_os":"Linux","password":true,"vac":true,"version":"7757534","steam_id":85568392924469988,"keywords":["cp","nocrits","nodmgspread","uncletopia"],"game_id":440,"stv_port":27026,"stv_name":"Uncletopia | Dallas | 2 | All Maps | STV","players":[{"user_id":525,"name":"i fell in luv w dah bandz","steam_id":76561198042600523,"connected_time":485000000000,"state":"active","ping":56},{"user_id":520,"name":"Shaky Boi","steam_id":76561198129769783,"connected_time":1043000000000,"state":"active","ping":83},{"user_id":472,"name":"Chief Diggery K.","steam_id":76561198066629137,"connected_time":4736000000000,"state":"active","ping":77},{"user_id":500,"name":"ImRobinYaSon","steam_id":76561199105353405,"connected_time":2438000000000,"state":"active","ping":106},{"user_id":517,"name":"vividatant","steam_id":76561198367913885,"connected_time":1582000000000,"state":"active","ping":162},{"user_id":529,"name":"Void","steam_id":76561198308290211,"connected_time":373000000000,"state":"active","ping":85},{"user_id":412,"name":"The indomitable human spirit","steam_id":76561198282395338,"connected_time":9626000000000,"state":"active","ping":91},{"user_id":456,"name":"Moop","steam_id":76561198096984681,"connected_time":5900000000000,"state":"active","ping":59},{"user_id":524,"name":"NotNamedBob","steam_id":76561199482149729,"connected_time":678000000000,"state":"active","ping":63},{"user_id":531,"name":"MeMyBongusAndTheGreatOutdoors","steam_id":76561198097708978,"connected_time":321000000000,"state":"active","ping":53},{"user_id":501,"name":"what do?","steam_id":76561198211451184,"connected_time":2301000000000,"state":"active","ping":105},{"user_id":518,"name":"turkeysarefriendsz","steam_id":76561199074521322,"connected_time":1550000000000,"state":"active","ping":94},{"user_id":509,"name":"westward (was/were)","steam_id":76561198805512350,"connected_time":1738000000000,"state":"active","ping":107},{"user_id":522,"name":"pneumonia got hands","steam_id":76561198021227843,"connected_time":1041000000000,"state":"active","ping":62},{"user_id":533,"name":"Cosmic sR","steam_id":76561198081738675,"connected_time":47000000000,"state":"active","ping":73},{"user_id":527,"name":"Griffith","steam_id":76561198074407897,"connected_time":460000000000,"state":"active","ping":87},{"user_id":523,"name":"Humon Player","steam_id":76561198013593178,"connected_time":1018000000000,"state":"active","ping":57},{"user_id":481,"name":"CaptainKn1ght","steam_id":76561198018979695,"connected_time":4217000000000,"state":"active","ping":72},{"user_id":534,"name":"Alkimia","steam_id":76561198385763137,"connected_time":27000000000,"state":"active","ping":242},{"user_id":528,"name":"MattJettskie","steam_id":76561199229493583,"connected_time":442000000000,"state":"active","ping":93},{"user_id":532,"name":"the Real zamboni","steam_id":76561198070909414,"connected_time":67000000000,"state":"active","ping":87},{"user_id":496,"name":"scrapheap","steam_id":76561198202407087,"connected_time":3005000000000,"state":"active","ping":94},{"user_id":425,"name":"Drakon","steam_id":76561198078210822,"connected_time":8234000000000,"state":"active","ping":91}]},{"server_id":5,"name":"Uncletopia | Frankfurt | 1 | All Maps","name_short":"frk-1","host":"frk-1.de.uncletopia.com","port":27015,"enabled":true,"region":"eu","cc":"de","latitude":50.110924,"longitude":8.682127,"reserved":0,"last_update":"0001-01-01T00:00:00Z","name_a2s":"Uncletopia | Frankfurt | 1 | All Maps","protocol":17,"map":"pl_snowycoast","folder":"tf","game":"Team Fortress","app_id":440,"player_count":24,"max_players":24,"Bots":0,"server_type":"Dedicated","server_os":"Linux","password":true,"vac":true,"version":"7757534","steam_id":85568392924469989,"keywords":["nocrits","nodmgspread","payload","uncletopia"],"game_id":440,"stv_port":27016,"stv_name":"Uncletopia | Frankfurt | 1 | All Maps | STV","players":[{"user_id":338,"name":"N0tzz","steam_id":76561198391025653,"connected_time":6957000000000,"state":"active","ping":73},{"user_id":418,"name":"tallen","steam_id":76561198061708595,"connected_time":1868000000000,"state":"active","ping":81},{"user_id":364,"name":"√êoggo","steam_id":76561198208781180,"connected_time":5196000000000,"state":"active","ping":85},{"user_id":386,"name":"Carrotcracker","steam_id":76561198034862396,"connected_time":3542000000000,"state":"active","ping":71},{"user_id":410,"name":"Vanilla","steam_id":76561198073933435,"connected_time":2319000000000,"state":"active","ping":60},{"user_id":393,"name":"Sir Kiops","steam_id":76561198022769275,"connected_time":3347000000000,"state":"active","ping":106},{"user_id":423,"name":"zareski29","steam_id":76561199239730098,"connected_time":1054000000000,"state":"active","ping":179},{"user_id":392,"name":"Crunchips","steam_id":76561198004336818,"connected_time":3445000000000,"state":"active","ping":133},{"user_id":394,"name":"i look at gay people","steam_id":76561198078032019,"connected_time":3342000000000,"state":"active","ping":67},{"user_id":404,"name":"snoot","steam_id":76561198101899223,"connected_time":2567000000000,"state":"active","ping":75},{"user_id":414,"name":"pANDA","steam_id":76561199387065467,"connected_time":1904000000000,"state":"active","ping":89},{"user_id":431,"name":"Trebox78","steam_id":76561198071963357,"connected_time":480000000000,"state":"active","ping":86},{"user_id":416,"name":"Charles Darwin","steam_id":76561197973496139,"connected_time":1900000000000,"state":"active","ping":61},{"user_id":425,"name":"Zedifo","steam_id":76561198044032070,"connected_time":1052000000000,"state":"active","ping":43},{"user_id":408,"name":"scarecrowshelper","steam_id":76561198072260553,"connected_time":2365000000000,"state":"active","ping":50},{"user_id":405,"name":"kyuta","steam_id":76561198382281653,"connected_time":2561000000000,"state":"active","ping":75},{"user_id":426,"name":"ZackMcRizzl","steam_id":76561198062075870,"connected_time":1050000000000,"state":"active","ping":66},{"user_id":412,"name":"dn4k","steam_id":76561199221755690,"connected_time":2284000000000,"state":"active","ping":84},{"user_id":422,"name":"Nero Claudius","steam_id":76561198173936397,"connected_time":1447000000000,"state":"active","ping":90},{"user_id":370,"name":"cazador","steam_id":76561198123096922,"connected_time":5143000000000,"state":"active","ping":90},{"user_id":427,"name":"Ditto","steam_id":76561198849312451,"connected_time":1026000000000,"state":"active","ping":87},{"user_id":428,"name":"Flostro","steam_id":76561198259793697,"connected_time":989000000000,"state":"active","ping":63},{"user_id":401,"name":"Seron-Lowell","steam_id":76561198070291347,"connected_time":2734000000000,"state":"active","ping":46},{"user_id":384,"name":"BlinkedUp","steam_id":76561198249985618,"connected_time":3612000000000,"state":"active","ping":53}]},{"server_id":110,"name":"Uncletopia | Frankfurt | 2 | All Maps","name_short":"frk-2","host":"frk-1.de.uncletopia.com","port":27025,"enabled":true,"region":"eu","cc":"de","latitude":50.110924,"longitude":8.682127,"reserved":0,"last_update":"0001-01-01T00:00:00Z","name_a2s":"Uncletopia | Frankfurt | 2 | All Maps","protocol":17,"map":"cp_snakewater_final1","folder":"tf","game":"Team Fortress","app_id":440,"player_count":23,"max_players":24,"Bots":0,"server_type":"Dedicated","server_os":"Linux","password":true,"vac":true,"version":"7757534","steam_id":85568392924469990,"keywords":["cp","nocrits","nodmgspread","uncletopia"],"game_id":440,"stv_port":27026,"stv_name":"Uncletopia | Frankfurt | 2 | All Maps | STV","players":[{"user_id":640,"name":"Schelemago","steam_id":76561198074733578,"connected_time":1501000000000,"state":"active","ping":58},{"user_id":646,"name":"Qwerty","steam_id":76561198023525894,"connected_time":773000000000,"state":"active","ping":90},{"user_id":641,"name":"rabbitface26","steam_id":76561198327540113,"connected_time":1493000000000,"state":"active","ping":59},{"user_id":629,"name":"Toofy","steam_id":76561197989727907,"connected_time":2667000000000,"state":"active","ping":52},{"user_id":635,"name":"gort","steam_id":76561198060339391,"connected_time":1741000000000,"state":"active","ping":39},{"user_id":650,"name":"mkwii","steam_id":76561198062507768,"connected_time":332000000000,"state":"active","ping":53},{"user_id":614,"name":"BoBunny McGlitter","steam_id":76561198057403817,"connected_time":3054000000000,"state":"active","ping":72},{"user_id":648,"name":"makarov","steam_id":76561198363892870,"connected_time":582000000000,"state":"active","ping":71},{"user_id":624,"name":"The Bushman","steam_id":76561198152576682,"connected_time":2909000000000,"state":"active","ping":78},{"user_id":615,"name":"finbar","steam_id":76561198056812396,"connected_time":3042000000000,"state":"active","ping":83},{"user_id":632,"name":"Better Call Medic","steam_id":76561198939711234,"connected_time":2204000000000,"state":"active","ping":116},{"user_id":652,"name":"Tonne","steam_id":76561197970856766,"connected_time":22000000000,"state":"spawning","ping":44},{"user_id":642,"name":"Savussy","steam_id":76561198388201179,"connected_time":1292000000000,"state":"active","ping":64},{"user_id":643,"name":"‚ô• trixy ‚ô•","steam_id":76561199474154775,"connected_time":1271000000000,"state":"active","ping":55},{"user_id":637,"name":"r06u3","steam_id":76561198254099253,"connected_time":1523000000000,"state":"active","ping":183},{"user_id":616,"name":"Mental","steam_id":76561198057117092,"connected_time":3042000000000,"state":"active","ping":52},{"user_id":617,"name":"zak","steam_id":76561197998895428,"connected_time":2970000000000,"state":"active","ping":57},{"user_id":630,"name":"Zelmor","steam_id":76561197997708311,"connected_time":2646000000000,"state":"active","ping":63},{"user_id":618,"name":"Mineran","steam_id":76561198357224424,"connected_time":2963000000000,"state":"active","ping":84},{"user_id":649,"name":"Wiki","steam_id":76561198106666604,"connected_time":467000000000,"state":"active","ping":68},{"user_id":620,"name":"rizzstraining order","steam_id":76561198255576760,"connected_time":2958000000000,"state":"active","ping":46},{"user_id":651,"name":"Joy","steam_id":76561198155314925,"connected_time":48000000000,"state":"active","ping":65},{"user_id":622,"name":"Steen","steam_id":76561198122992510,"connected_time":2936000000000,"state":"active","ping":45}]},{"server_id":308,"name":"Uncletopia | Frankfurt | 3 | All Maps","name_short":"frk-3","host":"frk-1.de.uncletopia.com","port":27035,"enabled":true,"region":"eu","cc":"de","latitude":50.110924,"longitude":8.682127,"reserved":0,"last_update":"0001-01-01T00:00:00Z","name_a2s":"Uncletopia | Frankfurt | 3 | All Maps","protocol":17,"map":"cp_gorge","folder":"tf","game":"Team Fortress","app_id":440,"player_count":0,"max_players":24,"Bots":0,"server_type":"Dedicated","server_os":"Linux","password":true,"vac":true,"version":"7757534","steam_id":85568392924504274,"keywords":["cp","nocrits","nodmgspread","uncletopia"],"game_id":440,"stv_port":27036,"stv_name":"Uncletopia | Frankfurt | 3 | All Maps | STV","players":null},{"server_id":309,"name":"Uncletopia | Frankfurt | 4 | All Maps","name_short":"frk-4","host":"frk-1.de.uncletopia.com","port":27045,"enabled":true,"region":"eu","cc":"de","latitude":50.110924,"longitude":8.682127,"reserved":0,"last_update":"0001-01-01T00:00:00Z","name_a2s":"Uncletopia | Frankfurt | 4 | All Maps","protocol":17,"map":"pl_borneo","folder":"tf","game":"Team Fortress","app_id":440,"player_count":24,"max_players":24,"Bots":0,"server_type":"Dedicated","server_os":"Linux","password":true,"vac":true,"version":"7757534","steam_id":85568392924504275,"keywords":["nocrits","nodmgspread","payload","uncletopia"],"game_id":440,"stv_port":27046,"stv_name":"Uncletopia | Frankfurt | 4 | All Maps | STV","players":[{"user_id":300,"name":"HurrpNana","steam_id":76561199102156562,"connected_time":3395000000000,"state":"active","ping":80},{"user_id":302,"name":"syms","steam_id":76561198066679812,"connected_time":3390000000000,"state":"active","ping":68},{"user_id":328,"name":"Szymekc","steam_id":76561198009541119,"connected_time":866000000000,"state":"active","ping":70},{"user_id":303,"name":"langston rendell","steam_id":76561199387063710,"connected_time":3345000000000,"state":"active","ping":86},{"user_id":313,"name":"MEGOS","steam_id":76561198172740637,"connected_time":2391000000000,"state":"active","ping":53},{"user_id":329,"name":"4","steam_id":76561197964945192,"connected_time":526000000000,"state":"active","ping":48},{"user_id":331,"name":"3igen3ggy","steam_id":76561197989548015,"connected_time":427000000000,"state":"active","ping":64},{"user_id":304,"name":"Huuvi","steam_id":76561198265451304,"connected_time":3307000000000,"state":"active","ping":82},{"user_id":242,"name":"Dewotter","steam_id":76561198007653168,"connected_time":6312000000000,"state":"active","ping":74},{"user_id":326,"name":"Homosapien","steam_id":76561197972035953,"connected_time":997000000000,"state":"active","ping":45},{"user_id":330,"name":"nynon","steam_id":76561197998432126,"connected_time":524000000000,"state":"active","ping":76},{"user_id":323,"name":"registered M203 owner","steam_id":76561199090545523,"connected_time":1240000000000,"state":"active","ping":46},{"user_id":287,"name":"ArmedWithWings","steam_id":76561198154615474,"connected_time":3642000000000,"state":"active","ping":87},{"user_id":320,"name":"olivia","steam_id":76561198288130849,"connected_time":1257000000000,"state":"active","ping":157},{"user_id":288,"name":"H-say","steam_id":76561198177400362,"connected_time":3637000000000,"state":"active","ping":98},{"user_id":311,"name":"üÉî Nugg1t(she/they)","steam_id":76561198065652251,"connected_time":2571000000000,"state":"active","ping":45},{"user_id":312,"name":"r4s1","steam_id":76561198024034917,"connected_time":2408000000000,"state":"active","ping":61},{"user_id":325,"name":"AftiksPL #femboygaming","steam_id":76561198875182686,"connected_time":1223000000000,"state":"active","ping":97},{"user_id":327,"name":"Sabi","steam_id":76561198202111522,"connected_time":990000000000,"state":"active","ping":72},{"user_id":316,"name":"KillerQueen (he/they/she)","steam_id":76561199019399725,"connected_time":2271000000000,"state":"active","ping":63},{"user_id":294,"name":"Tails8521","steam_id":76561198051747164,"connected_time":3544000000000,"state":"active","ping":63},{"user_id":295,"name":"78","steam_id":76561198208328357,"connected_time":3543000000000,"state":"active","ping":82},{"user_id":324,"name":"fine european prices","steam_id":76561198034955422,"connected_time":1234000000000,"state":"active","ping":69},{"user_id":332,"name":"RIFT","steam_id":76561198991622379,"connected_time":400000000000,"state":"active","ping":59}]},{"server_id":310,"name":"Uncletopia | Frankfurt | 5 | All Maps","name_short":"frk-5","host":"frk-1.de.uncletopia.com","port":27055,"enabled":true,"region":"eu","cc":"de","latitude":50.110924,"longitude":8.682127,"reserved":0,"last_update":"0001-01-01T00:00:00Z","name_a2s":"Uncletopia | Frankfurt | 5 | All Maps","protocol":17,"map":"pl_goldrush","folder":"tf","game":"Team Fortress","app_id":440,"player_count":0,"max_players":24,"Bots":0,"server_type":"Dedicated","server_os":"Linux","password":true,"vac":true,"version":"7757534","steam_id":85568392924504277,"keywords":["nocrits","nodmgspread","payload","uncletopia"],"game_id":440,"stv_port":27056,"stv_name":"Uncletopia | Frankfurt | 5 | All Maps | STV","players":null},{"server_id":311,"name":"Uncletopia | Frankfurt | 6 | All Maps","name_short":"frk-6","host":"frk-1.de.uncletopia.com","port":27065,"enabled":true,"region":"eu","cc":"de","latitude":50.110924,"longitude":8.682127,"reserved":0,"last_update":"0001-01-01T00:00:00Z","name_a2s":"Uncletopia | Frankfurt | 6 | All Maps","protocol":17,"map":"cp_gullywash_final1","folder":"tf","game":"Team Fortress","app_id":440,"player_count":24,"max_players":24,"Bots":0,"server_type":"Dedicated","server_os":"Linux","password":true,"vac":true,"version":"7757534","steam_id":85568392924504278,"keywords":["cp","nocrits","nodmgspread","uncletopia"],"game_id":440,"stv_port":27066,"stv_name":"Uncletopia | Frankfurt | 6 | All Maps | STV","players":[{"user_id":492,"name":"dotdotdot","steam_id":76561198057628751,"connected_time":558000000000,"state":"active","ping":62},{"user_id":479,"name":"Alan McDuty","steam_id":76561198059064903,"connected_time":1414000000000,"state":"active","ping":119},{"user_id":476,"name":"quack","steam_id":76561198121003465,"connected_time":2041000000000,"state":"active","ping":62},{"user_id":502,"name":"calum92","steam_id":76561197992188760,"connected_time":181000000000,"state":"active","ping":74},{"user_id":480,"name":"TTV/pablo_ricco","steam_id":76561198279839318,"connected_time":1395000000000,"state":"active","ping":86},{"user_id":485,"name":"Kozioro≈ºek","steam_id":76561198149816511,"connected_time":902000000000,"state":"active","ping":87},{"user_id":482,"name":"Psychicpie","steam_id":76561198126065206,"connected_time":1310000000000,"state":"active","ping":56},{"user_id":483,"name":"DonD","steam_id":76561198061496731,"connected_time":1192000000000,"state":"active","ping":78},{"user_id":484,"name":"ODanial","steam_id":76561198034854402,"connected_time":1071000000000,"state":"active","ping":97},{"user_id":486,"name":"L4gman","steam_id":76561198048227040,"connected_time":822000000000,"state":"active","ping":97},{"user_id":487,"name":"Pipp Petals2014","steam_id":76561198147668373,"connected_time":731000000000,"state":"active","ping":69},{"user_id":494,"name":"lofi beats","steam_id":76561199040253415,"connected_time":505000000000,"state":"active","ping":46},{"user_id":489,"name":"Professor Page","steam_id":76561198011949134,"connected_time":707000000000,"state":"active","ping":68},{"user_id":496,"name":"zoinks!","steam_id":76561198068645362,"connected_time":337000000000,"state":"active","ping":55},{"user_id":497,"name":"laser","steam_id":76561198036030697,"connected_time":279000000000,"state":"active","ping":62},{"user_id":499,"name":"kaelan","steam_id":76561198001425310,"connected_time":267000000000,"state":"active","ping":75},{"user_id":500,"name":"8 Ball","steam_id":76561197960988736,"connected_time":260000000000,"state":"active","ping":61},{"user_id":503,"name":"Lukas","steam_id":76561198009118452,"connected_time":173000000000,"state":"active","ping":54},{"user_id":504,"name":"Captain Scrumpe","steam_id":76561198032206577,"connected_time":151000000000,"state":"active","ping":82},{"user_id":505,"name":"mr.MR","steam_id":76561198151980974,"connected_time":148000000000,"state":"active","ping":65},{"user_id":506,"name":"biohazard.pt","steam_id":76561198088367808,"connected_time":117000000000,"state":"active","ping":88},{"user_id":507,"name":"Silva_mlon","steam_id":76561199310242047,"connected_time":111000000000,"state":"active","ping":75},{"user_id":469,"name":"Team Fortress","steam_id":76561198058722801,"connected_time":4056000000000,"state":"active","ping":54},{"user_id":508,"name":"Step back","steam_id":76561198063855616,"connected_time":109000000000,"state":"active","ping":75}]},{"server_id":23,"name":"Uncletopia | Frankfurt | 7 | Stopwatch Beta","name_short":"frk-7","host":"frk-1.de.uncletopia.com","port":27075,"enabled":true,"region":"eu","cc":"de","latitude":50.110924,"longitude":8.682127,"reserved":0,"last_update":"0001-01-01T00:00:00Z","name_a2s":"Uncletopia | Frankfurt | 7 | Stopwatch Beta","protocol":17,"map":"koth_highpass","folder":"tf","game":"Team Fortress","app_id":440,"player_count":0,"max_players":24,"Bots":0,"server_type":"Dedicated","server_os":"Linux","password":true,"vac":true,"version":"7757534","steam_id":85568392924742827,"keywords":["cp","nocrits","nodmgspread","uncletopia"],"game_id":440,"stv_port":27076,"stv_name":"Uncletopia | Frankfurt | 7 | Stopwatch Beta | STV","players":null},{"server_id":24,"name":"Uncletopia | Frankfurt | 8 | Community","name_short":"frk-8","host":"frk-1.de.uncletopia.com","port":27085,"enabled":true,"region":"eu","cc":"de","latitude":50.110924,"longitude":8.682127,"reserved":0,"last_update":"0001-01-01T00:00:00Z","name_a2s":"Uncletopia | Frankfurt | 8 | Community","protocol":17,"map":"workshop/pl_vigil_rc9.ugc1266210012","folder":"tf","game":"Team Fortress","app_id":440,"player_count":0,"max_players":24,"Bots":0,"server_type":"Dedicated","server_os":"Linux","password":true,"vac":true,"version":"7757534","steam_id":85568392924742828,"keywords":["nocrits","nodmgspread","payload","uncletopia"],"game_id":440,"stv_port":27086,"stv_name":"Uncletopia | Frankfurt | 8 | Community | STV","players":null},{"server_id":202,"name":"Uncletopia | Hong Kong | 1 | All Maps","name_short":"hgk-1","host":"hgk-1.hk.uncletopia.com","port":27015,"enabled":true,"region":"asia","cc":"hk","latitude":22.302711,"longitude":114.177216,"reserved":0,"last_update":"0001-01-01T00:00:00Z","name_a2s":"Uncletopia | Hong Kong | 1 | All Maps","protocol":17,"map":"koth_cascade","folder":"tf","game":"Team Fortress","app_id":440,"player_count":0,"max_players":24,"Bots":0,"server_type":"Dedicated","server_os":"Linux","password":true,"vac":true,"version":"7757534","steam_id":85568392924494504,"keywords":["cp","nocrits","nodmgspread","uncletopia"],"game_id":440,"stv_port":27016,"stv_name":"Uncletopia | Hong Kong | 1 | All Maps | STV","players":null},{"server_id":1,"name":"Uncletopia | Los Angeles | 1 | All Maps","name_short":"lax-1","host":"lax-1.us.uncletopia.com","port":27015,"enabled":true,"region":"us-west","cc":"us","latitude":33.94279,"longitude":-118.41004,"reserved":0,"last_update":"0001-01-01T00:00:00Z","name_a2s":"Uncletopia | Los Angeles | 1 | All Maps","protocol":17,"map":"pl_pier","folder":"tf","game":"Team Fortress","app_id":440,"player_count":24,"max_players":24,"Bots":0,"server_type":"Dedicated","server_os":"Linux","password":true,"vac":true,"version":"7757534","steam_id":85568392924469991,"keywords":["nocrits","nodmgspread","payload","uncletopia"],"game_id":440,"stv_port":27016,"stv_name":"Uncletopia | Los Angeles | 1 | All Maps | STV","players":[{"user_id":66,"name":"purple diesel","steam_id":76561197976548449,"connected_time":2547000000000,"state":"active","ping":117},{"user_id":79,"name":"TimTam Tom","steam_id":76561198045988062,"connected_time":2016000000000,"state":"active","ping":94},{"user_id":92,"name":"Auggy","steam_id":76561198041816037,"connected_time":506000000000,"state":"active","ping":63},{"user_id":93,"name":"sleep","steam_id":76561198212421513,"connected_time":457000000000,"state":"active","ping":50},{"user_id":43,"name":"Regular player #SaveTF2","steam_id":76561198036806850,"connected_time":4401000000000,"state":"active","ping":89},{"user_id":94,"name":"Len","steam_id":76561199141913673,"connected_time":365000000000,"state":"active","ping":31},{"user_id":58,"name":"Almond_Milk","steam_id":76561198332977071,"connected_time":3222000000000,"state":"active","ping":57},{"user_id":95,"name":"Mom","steam_id":76561198207936000,"connected_time":357000000000,"state":"active","ping":45},{"user_id":97,"name":"Mr. Yoshida","steam_id":76561198263829831,"connected_time":223000000000,"state":"active","ping":102},{"user_id":23,"name":"F3RRAL","steam_id":76561198172279275,"connected_time":5642000000000,"state":"active","ping":45},{"user_id":84,"name":"Chunk Stuffer","steam_id":76561198856508573,"connected_time":1229000000000,"state":"active","ping":70},{"user_id":98,"name":"Jewish Trickery","steam_id":76561198013740799,"connected_time":184000000000,"state":"active","ping":104},{"user_id":99,"name":"Nikocado Avocado","steam_id":76561198293893486,"connected_time":181000000000,"state":"active","ping":121},{"user_id":100,"name":"Fried Gabagool","steam_id":76561198198543126,"connected_time":164000000000,"state":"active","ping":59},{"user_id":59,"name":"Zeyno","steam_id":76561198797582823,"connected_time":3222000000000,"state":"active","ping":118},{"user_id":89,"name":"Clagger","steam_id":76561198066701092,"connected_time":612000000000,"state":"active","ping":64},{"user_id":101,"name":"Juul Room","steam_id":76561198132867238,"connected_time":106000000000,"state":"active","ping":78},{"user_id":82,"name":"XxX420UwUMaster666XxX","steam_id":76561199351137762,"connected_time":1412000000000,"state":"active","ping":80},{"user_id":102,"name":"Spookydrop","steam_id":76561199244978757,"connected_time":103000000000,"state":"active","ping":148},{"user_id":103,"name":"Shamrock Shake Oct.10.2020 @8pm","steam_id":76561198833313201,"connected_time":49000000000,"state":"active","ping":222},{"user_id":74,"name":"Pugzilla","steam_id":76561198108088960,"connected_time":2264000000000,"state":"active","ping":95},{"user_id":104,"name":"Skabbety","steam_id":76561198168044257,"connected_time":42000000000,"state":"active","ping":74},{"user_id":50,"name":"The Professor","steam_id":76561198046165617,"connected_time":4121000000000,"state":"active","ping":92},{"user_id":75,"name":"toodles","steam_id":76561198025463883,"connected_time":2201000000000,"state":"active","ping":83}]},{"server_id":112,"name":"Uncletopia | Los Angeles | 2 | All Maps","name_short":"lax-2","host":"lax-1.us.uncletopia.com","port":27025,"enabled":true,"region":"us-west","cc":"us","latitude":33.94279,"longitude":-118.41004,"reserved":0,"last_update":"0001-01-01T00:00:00Z","name_a2s":"Uncletopia | Los Angeles | 2 | All Maps","protocol":17,"map":"cp_dustbowl","folder":"tf","game":"Team Fortress","app_id":440,"player_count":23,"max_players":24,"Bots":0,"server_type":"Dedicated","server_os":"Linux","password":true,"vac":true,"version":"7757534","steam_id":85568392924469992,"keywords":["cp","nocrits","nodmgspread","uncletopia"],"game_id":440,"stv_port":27026,"stv_name":"Uncletopia | Los Angeles | 2 | All Maps | STV","players":[{"user_id":47,"name":"Jpzarde","steam_id":76561197978240364,"connected_time":607000000000,"state":"active","ping":84},{"user_id":52,"name":"[Zero] Lag","steam_id":76561198983494186,"connected_time":210000000000,"state":"active","ping":105},{"user_id":9,"name":"Tort boi","steam_id":76561198125327110,"connected_time":3526000000000,"state":"active","ping":80},{"user_id":32,"name":"The Loveable CHI.I.BI.","steam_id":76561198039262228,"connected_time":1168000000000,"state":"active","ping":113},{"user_id":14,"name":"Ice","steam_id":76561198045076794,"connected_time":2143000000000,"state":"active","ping":90},{"user_id":15,"name":"Xaukra","steam_id":76561198180742229,"connected_time":2086000000000,"state":"active","ping":135},{"user_id":16,"name":"XxDragon4321xX","steam_id":76561198046705735,"connected_time":2077000000000,"state":"active","ping":68},{"user_id":17,"name":"Dr. B Busta","steam_id":76561198206387303,"connected_time":2063000000000,"state":"active","ping":32},{"user_id":19,"name":"Shark Sandwich","steam_id":76561198025007938,"connected_time":1787000000000,"state":"active","ping":85},{"user_id":50,"name":"MonkeyNobody","steam_id":76561199451266605,"connected_time":466000000000,"state":"active","ping":53},{"user_id":22,"name":"MegaBitmap","steam_id":76561198086027059,"connected_time":1584000000000,"state":"active","ping":75},{"user_id":54,"name":"MightyRectangle","steam_id":76561198094236144,"connected_time":184000000000,"state":"active","ping":45},{"user_id":49,"name":"Jeremopolis","steam_id":76561198079467492,"connected_time":592000000000,"state":"active","ping":117},{"user_id":26,"name":"4 life","steam_id":76561198175961598,"connected_time":1412000000000,"state":"active","ping":61},{"user_id":40,"name":"Zombie Rehabilitation","steam_id":76561197962848916,"connected_time":1002000000000,"state":"active","ping":74},{"user_id":39,"name":"oxbudy","steam_id":76561198022120207,"connected_time":1033000000000,"state":"active","ping":80},{"user_id":29,"name":"Ellis","steam_id":76561198993634489,"connected_time":1368000000000,"state":"active","ping":47},{"user_id":55,"name":"frozenwasanokmovie","steam_id":76561198157407952,"connected_time":180000000000,"state":"active","ping":50},{"user_id":35,"name":"hatsune miku","steam_id":76561199445009981,"connected_time":1120000000000,"state":"active","ping":72},{"user_id":36,"name":"sertraline","steam_id":76561198055626638,"connected_time":1106000000000,"state":"active","ping":134},{"user_id":37,"name":"It's Just Moxxie","steam_id":76561199064959421,"connected_time":1091000000000,"state":"active","ping":60},{"user_id":38,"name":"Pathara44","steam_id":76561198048238620,"connected_time":1067000000000,"state":"active","ping":100},{"user_id":56,"name":"I'mFromSpace","steam_id":76561198808969653,"connected_time":180000000000,"state":"active","ping":69}]},{"server_id":324,"name":"Uncletopia | Los Angeles | 3 | All Maps","name_short":"lax-3","host":"lax-1.us.uncletopia.com","port":27035,"enabled":true,"region":"us-west","cc":"us","latitude":33.94279,"longitude":-118.41004,"reserved":0,"last_update":"0001-01-01T00:00:00Z","name_a2s":"Uncletopia | Los Angeles | 3 | All Maps","protocol":17,"map":"cp_process_final","folder":"tf","game":"Team Fortress","app_id":440,"player_count":0,"max_players":24,"Bots":0,"server_type":"Dedicated","server_os":"Linux","password":true,"vac":true,"version":"7757534","steam_id":85568392924510198,"keywords":["cp","nocrits","nodmgspread","uncletopia"],"game_id":440,"stv_port":27036,"stv_name":"Uncletopia | Los Angeles | 3 | All Maps | STV","players":null},{"server_id":25,"name":"Uncletopia | Los Angeles | 4 | Stopwatch Beta","name_short":"lax-4","host":"lax-1.us.uncletopia.com","port":27045,"enabled":true,"region":"us-west","cc":"us","latitude":33.94279,"longitude":-118.41004,"reserved":0,"last_update":"0001-01-01T00:00:00Z","name_a2s":"Uncletopia | Los Angeles | 4 | Stopwatch Beta","protocol":17,"map":"pl_swiftwater_final1","folder":"tf","game":"Team Fortress","app_id":440,"player_count":0,"max_players":24,"Bots":0,"server_type":"Dedicated","server_os":"Linux","password":true,"vac":true,"version":"7757534","steam_id":85568392924510199,"keywords":["nocrits","nodmgspread","payload","uncletopia"],"game_id":440,"stv_port":27046,"stv_name":"Uncletopia | Los Angeles | 4 | Stopwatch Beta | STV","players":null},{"server_id":11,"name":"Uncletopia | London | 1 | All Maps","name_short":"lon-1","host":"lon-1.uk.uncletopia.com","port":27015,"enabled":true,"region":"eu","cc":"gb","latitude":51.509865,"longitude":-0.118092,"reserved":0,"last_update":"0001-01-01T00:00:00Z","name_a2s":"Uncletopia | London | 1 | All Maps","protocol":17,"map":"pl_pier","folder":"tf","game":"Team Fortress","app_id":440,"player_count":24,"max_players":24,"Bots":0,"server_type":"Dedicated","server_os":"Linux","password":true,"vac":true,"version":"7757534","steam_id":85568392924367362,"keywords":["nocrits","nodmgspread","payload","uncletopia"],"game_id":440,"stv_port":27016,"stv_name":"Uncletopia | London | 1 | All Maps | STV","players":[{"user_id":732,"name":"Purps","steam_id":76561198053886680,"connected_time":3040000000000,"state":"active","ping":41},{"user_id":736,"name":"casual schizophrenic","steam_id":76561198255357694,"connected_time":2169000000000,"state":"active","ping":87},{"user_id":721,"name":"Cookies and Bakies","steam_id":76561198017442928,"connected_time":3386000000000,"state":"active","ping":67},{"user_id":750,"name":"blade","steam_id":76561198235739036,"connected_time":99000000000,"state":"active","ping":74},{"user_id":734,"name":"shooer! :D \u003e\u003c(((¬∫\u003e","steam_id":76561198110531281,"connected_time":2266000000000,"state":"active","ping":69},{"user_id":642,"name":"Uchi","steam_id":76561198119475305,"connected_time":8247000000000,"state":"active","ping":75},{"user_id":688,"name":"Ketich","steam_id":76561198021772703,"connected_time":5702000000000,"state":"active","ping":79},{"user_id":749,"name":"NuGs","steam_id":76561198305550934,"connected_time":334000000000,"state":"active","ping":48},{"user_id":739,"name":"Sparky","steam_id":76561198036754195,"connected_time":1439000000000,"state":"active","ping":50},{"user_id":672,"name":"LSKi","steam_id":76561198215470228,"connected_time":7152000000000,"state":"active","ping":56},{"user_id":740,"name":"Germanium_Ge","steam_id":76561198130561775,"connected_time":1430000000000,"state":"active","ping":59},{"user_id":702,"name":"Cataleptic","steam_id":76561197997966949,"connected_time":4901000000000,"state":"active","ping":59},{"user_id":737,"name":"Makumba","steam_id":76561198057014708,"connected_time":1770000000000,"state":"active","ping":70},{"user_id":709,"name":"Roachy","steam_id":76561198004508448,"connected_time":4637000000000,"state":"active","ping":45},{"user_id":729,"name":"–¢—Ä—É–ø –í–æ–ª–æ–¥—è","steam_id":76561198035718457,"connected_time":3086000000000,"state":"active","ping":92},{"user_id":741,"name":"YBOT554","steam_id":76561198836830645,"connected_time":1425000000000,"state":"active","ping":46},{"user_id":742,"name":"Dad","steam_id":76561198048551680,"connected_time":1403000000000,"state":"active","ping":56},{"user_id":670,"name":"Houlles","steam_id":76561198095277383,"connected_time":7230000000000,"state":"active","ping":49},{"user_id":743,"name":"mary","steam_id":76561198014828037,"connected_time":1402000000000,"state":"active","ping":55},{"user_id":731,"name":"mercurial","steam_id":76561198046227550,"connected_time":3071000000000,"state":"active","ping":56},{"user_id":744,"name":"MrBanana","steam_id":76561198116021623,"connected_time":1378000000000,"state":"active","ping":60},{"user_id":719,"name":"adm1ral_plunge","steam_id":76561198035342559,"connected_time":4080000000000,"state":"active","ping":51},{"user_id":745,"name":"-_-Steve-_-","steam_id":76561198318786687,"connected_time":1364000000000,"state":"active","ping":75},{"user_id":748,"name":"‚òÅ‚≠ç qBowN‚àº","steam_id":76561198000980532,"connected_time":587000000000,"state":"active","ping":56}]},{"server_id":114,"name":"Uncletopia | London | 2 | All Maps","name_short":"lon-2","host":"lon-1.uk.uncletopia.com","port":27025,"enabled":true,"region":"eu","cc":"gb","latitude":51.509865,"longitude":-0.118092,"reserved":0,"last_update":"0001-01-01T00:00:00Z","name_a2s":"Uncletopia | London | 2 | All Maps","protocol":17,"map":"cp_process_final","folder":"tf","game":"Team Fortress","app_id":440,"player_count":24,"max_players":24,"Bots":0,"server_type":"Dedicated","server_os":"Linux","password":true,"vac":true,"version":"7757534","steam_id":85568392924470941,"keywords":["cp","nocrits","nodmgspread","uncletopia"],"game_id":440,"stv_port":27026,"stv_name":"Uncletopia | London | 2 | All Maps | STV","players":[{"user_id":718,"name":"aguy without amustache","steam_id":76561198397105421,"connected_time":2248000000000,"state":"active","ping":75},{"user_id":712,"name":"ScaryPurple","steam_id":76561198152813004,"connected_time":2698000000000,"state":"active","ping":52},{"user_id":676,"name":"kaa","steam_id":76561198044061430,"connected_time":5579000000000,"state":"active","ping":54},{"user_id":729,"name":"kuno","steam_id":76561198068081430,"connected_time":1706000000000,"state":"active","ping":40},{"user_id":650,"name":"weird gamer","steam_id":76561198047749446,"connected_time":7922000000000,"state":"active","ping":57},{"user_id":704,"name":"Voks_","steam_id":76561198159687785,"connected_time":3239000000000,"state":"active","ping":75},{"user_id":738,"name":"Dr. Mike","steam_id":76561197991205793,"connected_time":132000000000,"state":"active","ping":87},{"user_id":726,"name":"Max Andrew","steam_id":76561198158955194,"connected_time":1777000000000,"state":"active","ping":57},{"user_id":715,"name":"Udinese Dion","steam_id":76561198067931573,"connected_time":2534000000000,"state":"active","ping":61},{"user_id":735,"name":"Battersüå∏","steam_id":76561198927992205,"connected_time":1378000000000,"state":"active","ping":54},{"user_id":707,"name":"NitPig","steam_id":76561198212991935,"connected_time":3188000000000,"state":"active","ping":133},{"user_id":656,"name":"Ross from F.R.I.E.N.D.S.","steam_id":76561198008511665,"connected_time":7586000000000,"state":"active","ping":53},{"user_id":723,"name":"Tort","steam_id":76561198329646769,"connected_time":1835000000000,"state":"active","ping":61},{"user_id":724,"name":"tiia","steam_id":76561198046196005,"connected_time":1829000000000,"state":"active","ping":52},{"user_id":691,"name":"NinjaTuna","steam_id":76561198034569315,"connected_time":4985000000000,"state":"active","ping":51},{"user_id":736,"name":"gary1239871","steam_id":76561199262295365,"connected_time":480000000000,"state":"active","ping":53},{"user_id":720,"name":"Dirty Joe","steam_id":76561198142418870,"connected_time":1880000000000,"state":"active","ping":45},{"user_id":719,"name":"CptHavvock","steam_id":76561199189740651,"connected_time":2193000000000,"state":"active","ping":89},{"user_id":709,"name":"Spotmonkey","steam_id":76561198003994092,"connected_time":3111000000000,"state":"active","ping":58},{"user_id":725,"name":"mt","steam_id":76561197961319303,"connected_time":1822000000000,"state":"active","ping":62},{"user_id":672,"name":"Redkiller","steam_id":76561199453655288,"connected_time":6223000000000,"state":"active","ping":140},{"user_id":690,"name":"tuber","steam_id":76561198086644199,"connected_time":4998000000000,"state":"active","ping":49},{"user_id":701,"name":"Een schaap zonder slaap","steam_id":76561198084808410,"connected_time":3436000000000,"state":"active","ping":59},{"user_id":733,"name":"Romu3","steam_id":76561198055484251,"connected_time":1636000000000,"state":"active","ping":126}]},{"server_id":320,"name":"Uncletopia | London | 3 | All Maps","name_short":"lon-3","host":"lon-1.uk.uncletopia.com","port":27035,"enabled":true,"region":"eu","cc":"gb","latitude":51.509865,"longitude":-0.118092,"reserved":0,"last_update":"0001-01-01T00:00:00Z","name_a2s":"Uncletopia | London | 3 | All Maps","protocol":17,"map":"koth_lakeside_final","folder":"tf","game":"Team Fortress","app_id":440,"player_count":1,"max_players":24,"Bots":0,"server_type":"Dedicated","server_os":"Linux","password":true,"vac":true,"version":"7757534","steam_id":85568392924510192,"keywords":["cp","nocrits","nodmgspread","uncletopia"],"game_id":440,"stv_port":27036,"stv_name":"Uncletopia | London | 3 | All Maps | STV","players":[{"user_id":70,"name":"JOHN GAMING (#1 gunspy)","steam_id":76561199085822219,"connected_time":637000000000,"state":"active","ping":88}]},{"server_id":321,"name":"Uncletopia | London | 4 | All Maps","name_short":"lon-4","host":"lon-1.uk.uncletopia.com","port":27045,"enabled":true,"region":"eu","cc":"gb","latitude":51.509865,"longitude":-0.118092,"reserved":0,"last_update":"0001-01-01T00:00:00Z","name_a2s":"Uncletopia | London | 4 | All Maps","protocol":17,"map":"pl_upward","folder":"tf","game":"Team Fortress","app_id":440,"player_count":24,"max_players":24,"Bots":0,"server_type":"Dedicated","server_os":"Linux","password":true,"vac":true,"version":"7757534","steam_id":85568392924510193,"keywords":["nocrits","nodmgspread","payload","uncletopia"],"game_id":440,"stv_port":27046,"stv_name":"Uncletopia | London | 4 | All Maps | STV","players":[{"user_id":336,"name":"LIGHTWEIGHT BABY","steam_id":76561198002761980,"connected_time":1079000000000,"state":"active","ping":57},{"user_id":293,"name":"Like A G6","steam_id":76561199380849468,"connected_time":4053000000000,"state":"active","ping":59},{"user_id":340,"name":"Kamanie","steam_id":76561198135448255,"connected_time":801000000000,"state":"active","ping":60},{"user_id":334,"name":"FatGuySandwich","steam_id":76561198126078799,"connected_time":1763000000000,"state":"active","ping":67},{"user_id":339,"name":"Fat Pigeon","steam_id":76561198817940142,"connected_time":845000000000,"state":"active","ping":45},{"user_id":196,"name":"Envy","steam_id":76561198132723219,"connected_time":10219000000000,"state":"active","ping":105},{"user_id":234,"name":"THE ENGIE MAIN#SAVETF2","steam_id":76561198872904989,"connected_time":8747000000000,"state":"active","ping":33},{"user_id":316,"name":"Haydn","steam_id":76561198014665457,"connected_time":2652000000000,"state":"active","ping":58},{"user_id":333,"name":"JamesPepega","steam_id":76561198019156154,"connected_time":1807000000000,"state":"active","ping":77},{"user_id":327,"name":"porngamer","steam_id":76561198204620491,"connected_time":1995000000000,"state":"active","ping":32},{"user_id":349,"name":"Deacon Dracul","steam_id":76561198046880663,"connected_time":56000000000,"state":"active","ping":93},{"user_id":345,"name":"Koi-Koi","steam_id":76561198045527771,"connected_time":728000000000,"state":"active","ping":57},{"user_id":317,"name":"It's time","steam_id":76561198061197114,"connected_time":2632000000000,"state":"active","ping":77},{"user_id":318,"name":"Cpt_frost","steam_id":76561198218034817,"connected_time":2625000000000,"state":"active","ping":35},{"user_id":335,"name":"Ziltoid","steam_id":76561198020753675,"connected_time":1151000000000,"state":"active","ping":74},{"user_id":348,"name":"Thing","steam_id":76561197997904403,"connected_time":389000000000,"state":"active","ping":96},{"user_id":347,"name":"acskama","steam_id":76561198136743845,"connected_time":552000000000,"state":"active","ping":75},{"user_id":346,"name":"I sell exotic parrots","steam_id":76561199192434258,"connected_time":596000000000,"state":"active","ping":88},{"user_id":304,"name":"RuneShine","steam_id":76561198007098323,"connected_time":3508000000000,"state":"active","ping":55},{"user_id":326,"name":"scarfweather","steam_id":76561198121331836,"connected_time":2374000000000,"state":"active","ping":47},{"user_id":320,"name":"\u003c  \u003e #savetf2","steam_id":76561199213338939,"connected_time":2600000000000,"state":"active","ping":131},{"user_id":302,"name":"Clitorina","steam_id":76561198077570815,"connected_time":3590000000000,"state":"active","ping":44},{"user_id":344,"name":"zdX","steam_id":76561198163735277,"connected_time":770000000000,"state":"active","ping":65},{"user_id":322,"name":"Estamie","steam_id":76561198058527691,"connected_time":2508000000000,"state":"active","ping":72}]},{"server_id":21,"name":"Uncletopia | London | 5 | All Maps","name_short":"lon-5","host":"lon-1.uk.uncletopia.com","port":27055,"enabled":true,"region":"eu","cc":"gb","latitude":51.509865,"longitude":-0.118092,"reserved":0,"last_update":"0001-01-01T00:00:00Z","name_a2s":"Uncletopia | London | 5 | All Maps","protocol":17,"map":"koth_cascade","folder":"tf","game":"Team Fortress","app_id":440,"player_count":4,"max_players":24,"Bots":0,"server_type":"Dedicated","server_os":"Linux","password":true,"vac":true,"version":"7757534","steam_id":85568392924742829,"keywords":["cp","nocrits","nodmgspread","uncletopia"],"game_id":440,"stv_port":27056,"stv_name":"Uncletopia | London | 5 | All Maps | STV","players":[{"user_id":69,"name":"ThatFezGuy","steam_id":76561198205537964,"connected_time":654000000000,"state":"active","ping":53},{"user_id":70,"name":"nyx","steam_id":76561198096016781,"connected_time":640000000000,"state":"active","ping":60},{"user_id":71,"name":"Strafely","steam_id":76561199242567438,"connected_time":311000000000,"state":"active","ping":69},{"user_id":72,"name":"David Random","steam_id":76561198144497918,"connected_time":19000000000,"state":"active","ping":62}]},{"server_id":22,"name":"Uncletopia | London | 6 | All Maps","name_short":"lon-6","host":"lon-1.uk.uncletopia.com","port":27065,"enabled":true,"region":"eu","cc":"gb","latitude":51.509865,"longitude":-0.118092,"reserved":0,"last_update":"0001-01-01T00:00:00Z","name_a2s":"Uncletopia | London | 6 | All Maps","protocol":17,"map":"cp_5gorge","folder":"tf","game":"Team Fortress","app_id":440,"player_count":24,"max_players":24,"Bots":0,"server_type":"Dedicated","server_os":"Linux","password":true,"vac":true,"version":"7757534","steam_id":85568392924742830,"keywords":["cp","nocrits","nodmgspread","uncletopia"],"game_id":440,"stv_port":27066,"stv_name":"Uncletopia | London | 6 | All Maps | STV","players":[{"user_id":497,"name":"BJ","steam_id":76561198146229582,"connected_time":1613000000000,"state":"active","ping":76},{"user_id":476,"name":"fiyahstorm","steam_id":76561197992574261,"connected_time":3077000000000,"state":"active","ping":40},{"user_id":509,"name":"Mr. Caesar","steam_id":76561198166329161,"connected_time":1369000000000,"state":"active","ping":54},{"user_id":444,"name":"MorVill","steam_id":76561198809859945,"connected_time":5634000000000,"state":"active","ping":54},{"user_id":513,"name":"Daga","steam_id":76561198055450219,"connected_time":1106000000000,"state":"active","ping":39},{"user_id":405,"name":"Providence","steam_id":76561198003920270,"connected_time":7805000000000,"state":"active","ping":70},{"user_id":499,"name":"ARYZON","steam_id":76561198070705087,"connected_time":1592000000000,"state":"active","ping":47},{"user_id":398,"name":"Fofenho","steam_id":76561198436817109,"connected_time":8223000000000,"state":"active","ping":55},{"user_id":450,"name":"Mrbluuub","steam_id":76561199273847084,"connected_time":5035000000000,"state":"active","ping":88},{"user_id":514,"name":"The tea fort to hevy wepons guy","steam_id":76561199360783914,"connected_time":980000000000,"state":"active","ping":101},{"user_id":515,"name":"‚òÅ Lou1smeister ‚òÅ","steam_id":76561198004032968,"connected_time":448000000000,"state":"active","ping":68},{"user_id":511,"name":"Enda","steam_id":76561198202980164,"connected_time":1227000000000,"state":"active","ping":89},{"user_id":512,"name":"JujuBalu","steam_id":76561198207253071,"connected_time":1190000000000,"state":"active","ping":43},{"user_id":493,"name":"Chef","steam_id":76561198392489772,"connected_time":2317000000000,"state":"active","ping":63},{"user_id":489,"name":"Boxtrot","steam_id":76561198026321441,"connected_time":2427000000000,"state":"active","ping":73},{"user_id":426,"name":"thepro-strong","steam_id":76561198047359132,"connected_time":6927000000000,"state":"active","ping":74},{"user_id":470,"name":"5tv^","steam_id":76561198063129586,"connected_time":3800000000000,"state":"active","ping":44},{"user_id":500,"name":"csnipery","steam_id":76561199435280050,"connected_time":1588000000000,"state":"active","ping":74},{"user_id":473,"name":"TheEventGuy","steam_id":76561197972797744,"connected_time":3436000000000,"state":"active","ping":74},{"user_id":472,"name":"screenshot2020-25-09","steam_id":76561198255275650,"connected_time":3543000000000,"state":"active","ping":65},{"user_id":435,"name":"alan","steam_id":76561198306947435,"connected_time":6485000000000,"state":"active","ping":67},{"user_id":504,"name":"Sta≈Ñczyk","steam_id":76561197998906563,"connected_time":1511000000000,"state":"active","ping":44},{"user_id":505,"name":"A Succulent Chinese Meal","steam_id":76561198069472440,"connected_time":1505000000000,"state":"active","ping":60},{"user_id":502,"name":"Miku","steam_id":76561198127793996,"connected_time":1538000000000,"state":"active","ping":60}]},{"server_id":40,"name":"Uncletopia | London | 7 | No Payload","name_short":"lon-7","host":"lon-1.uk.uncletopia.com","port":27075,"enabled":true,"region":"eu","cc":"gb","latitude":51.509865,"longitude":-0.118092,"reserved":0,"last_update":"0001-01-01T00:00:00Z","name_a2s":"Uncletopia | London | 7 | No Payload","protocol":17,"map":"cp_sunshine","folder":"tf","game":"Team Fortress","app_id":440,"player_count":24,"max_players":24,"Bots":0,"server_type":"Dedicated","server_os":"Linux","password":true,"vac":true,"version":"7757534","steam_id":85568392924964314,"keywords":["cp","nocrits","nodmgspread","uncletopia"],"game_id":440,"stv_port":27076,"stv_name":"Uncletopia | London | 7 | No Payload | STV","players":[{"user_id":176,"name":"Nithle","steam_id":76561198025372740,"connected_time":950000000000,"state":"active","ping":30},{"user_id":125,"name":"Kowakum","steam_id":76561197998125950,"connected_time":5170000000000,"state":"active","ping":114},{"user_id":171,"name":"‚ô• aura ‚ô•","steam_id":76561198066258544,"connected_time":1514000000000,"state":"active","ping":60},{"user_id":182,"name":"Awrejaceg","steam_id":76561198111229919,"connected_time":108000000000,"state":"active","ping":72},{"user_id":129,"name":"j o n","steam_id":76561199229511741,"connected_time":4724000000000,"state":"active","ping":53},{"user_id":179,"name":"Subterranean","steam_id":76561198106684566,"connected_time":840000000000,"state":"active","ping":75},{"user_id":126,"name":"Dr.Cranium","steam_id":76561197992726926,"connected_time":5161000000000,"state":"active","ping":113},{"user_id":146,"name":"Jonathan","steam_id":76561198087988880,"connected_time":3033000000000,"state":"active","ping":52},{"user_id":115,"name":"Der Herr Doktor","steam_id":76561198119476089,"connected_time":5495000000000,"state":"active","ping":73},{"user_id":163,"name":"Garoiop","steam_id":76561198082326459,"connected_time":1667000000000,"state":"active","ping":38},{"user_id":159,"name":"CiVillain","steam_id":76561198059617732,"connected_time":2494000000000,"state":"active","ping":81},{"user_id":147,"name":"Grumtsior","steam_id":76561198043563111,"connected_time":3020000000000,"state":"active","ping":66},{"user_id":102,"name":"‚ú™ m_br3","steam_id":76561198044981990,"connected_time":6116000000000,"state":"active","ping":84},{"user_id":173,"name":"Locke","steam_id":76561198339408300,"connected_time":1388000000000,"state":"active","ping":61},{"user_id":138,"name":"quickfast","steam_id":76561199438900919,"connected_time":3828000000000,"state":"active","ping":43},{"user_id":165,"name":"waffle toaster","steam_id":76561198799089628,"connected_time":1664000000000,"state":"active","ping":45},{"user_id":183,"name":"multiflex","steam_id":76561198049639319,"connected_time":16000000000,"state":"spawning","ping":106},{"user_id":170,"name":"torn","steam_id":76561198223003236,"connected_time":1551000000000,"state":"active","ping":35},{"user_id":172,"name":"Casual gamer","steam_id":76561198257062729,"connected_time":1503000000000,"state":"active","ping":83},{"user_id":180,"name":"4nalpr0d","steam_id":76561198052092018,"connected_time":495000000000,"state":"active","ping":40},{"user_id":175,"name":"Rintse","steam_id":76561198065679312,"connected_time":1079000000000,"state":"active","ping":56},{"user_id":181,"name":"Blackstar","steam_id":76561198052222426,"connected_time":403000000000,"state":"active","ping":61},{"user_id":178,"name":"HilldogGaming","steam_id":76561198082209322,"connected_time":861000000000,"state":"active","ping":70},{"user_id":143,"name":"VŒªliant","steam_id":76561198057042087,"connected_time":3364000000000,"state":"active","ping":48}]},{"server_id":41,"name":"Uncletopia | London | 8 | Community","name_short":"lon-8","host":"lon-1.uk.uncletopia.com","port":27085,"enabled":true,"region":"eu","cc":"gb","latitude":51.509865,"longitude":-0.118092,"reserved":0,"last_update":"0001-01-01T00:00:00Z","name_a2s":"Uncletopia | London | 8 | Community","protocol":17,"map":"pl_barnblitz","folder":"tf","game":"Team Fortress","app_id":440,"player_count":0,"max_players":24,"Bots":0,"server_type":"Dedicated","server_os":"Linux","password":true,"vac":true,"version":"7757534","steam_id":85568392924964315,"keywords":["nocrits","nodmgspread","payload","uncletopia"],"game_id":440,"stv_port":27086,"stv_name":"Uncletopia | London | 8 | Community | STV","players":null},{"server_id":300,"name":"Uncletopia | Montr√©al | 1 | All Maps","name_short":"mtl-1","host":"mtl-1.ca.uncletopia.com","port":27015,"enabled":true,"region":"us-east","cc":"ca","latitude":45.50889,"longitude":-73.56167,"reserved":0,"last_update":"0001-01-01T00:00:00Z","name_a2s":"Uncletopia | Montr√©al | 1 | All Maps","protocol":17,"map":"pl_snowycoast","folder":"tf","game":"Team Fortress","app_id":440,"player_count":0,"max_players":24,"Bots":0,"server_type":"Dedicated","server_os":"Linux","password":true,"vac":true,"version":"7757534","steam_id":85568392924500087,"keywords":["nocrits","nodmgspread","payload","uncletopia"],"game_id":440,"stv_port":27016,"stv_name":"Uncletopia | Montr√©al | 1 | All Maps | STV","players":null},{"server_id":301,"name":"Uncletopia | Montr√©al | 2 | All Maps","name_short":"mtl-2","host":"mtl-1.ca.uncletopia.com","port":27025,"enabled":true,"region":"us-east","cc":"ca","latitude":45.50889,"longitude":-73.56167,"reserved":0,"last_update":"0001-01-01T00:00:00Z","name_a2s":"Uncletopia | Montr√©al | 2 | All Maps","protocol":17,"map":"pl_snowycoast","folder":"tf","game":"Team Fortress","app_id":440,"player_count":0,"max_players":24,"Bots":0,"server_type":"Dedicated","server_os":"Linux","password":true,"vac":true,"version":"7757534","steam_id":85568392924500088,"keywords":["nocrits","nodmgspread","payload","uncletopia"],"game_id":440,"stv_port":27026,"stv_name":"Uncletopia | Montr√©al | 2 | All Maps | STV","players":null},{"server_id":302,"name":"Uncletopia | Montr√©al | 3 | All Maps","name_short":"mtl-3","host":"mtl-1.ca.uncletopia.com","port":27035,"enabled":true,"region":"us-east","cc":"ca","latitude":45.50889,"longitude":-73.56167,"reserved":0,"last_update":"0001-01-01T00:00:00Z","name_a2s":"Uncletopia | Montr√©al | 3 | All Maps","protocol":17,"map":"pl_badwater","folder":"tf","game":"Team Fortress","app_id":440,"player_count":24,"max_players":24,"Bots":0,"server_type":"Dedicated","server_os":"Linux","password":true,"vac":true,"version":"7757534","steam_id":85568392924500089,"keywords":["nocrits","nodmgspread","payload","uncletopia"],"game_id":440,"stv_port":27036,"stv_name":"Uncletopia | Montr√©al | 3 | All Maps | STV","players":[{"user_id":22,"name":"Red","steam_id":76561198255311543,"connected_time":930000000000,"state":"active","ping":73},{"user_id":15,"name":"liamdunn2008","steam_id":76561199017906046,"connected_time":2501000000000,"state":"active","ping":53},{"user_id":16,"name":"Spimtmot733","steam_id":76561199029189825,"connected_time":1339000000000,"state":"active","ping":68},{"user_id":17,"name":"The Real Jetpack Jackson","steam_id":76561199009471455,"connected_time":1243000000000,"state":"active","ping":117},{"user_id":18,"name":"griff928","steam_id":76561198149614679,"connected_time":1204000000000,"state":"active","ping":105},{"user_id":20,"name":"jr_rusty","steam_id":76561198313937899,"connected_time":1072000000000,"state":"active","ping":230},{"user_id":45,"name":"Jebus, Son Of Gode","steam_id":76561198045169741,"connected_time":190000000000,"state":"active","ping":75},{"user_id":23,"name":"Lesbian Chungus","steam_id":76561198055964295,"connected_time":857000000000,"state":"active","ping":56},{"user_id":43,"name":"Noid","steam_id":76561198227804500,"connected_time":297000000000,"state":"active","ping":83},{"user_id":44,"name":"poiuytrewqwqwqwqwqwqwqwqwqwqwqw","steam_id":76561199105253001,"connected_time":293000000000,"state":"active","ping":68},{"user_id":26,"name":"nemaxilb","steam_id":76561199074875663,"connected_time":768000000000,"state":"active","ping":93},{"user_id":39,"name":"Shades McKenzie","steam_id":76561198007051107,"connected_time":487000000000,"state":"active","ping":59},{"user_id":28,"name":"SketchyEtchaSketch","steam_id":76561198143747486,"connected_time":739000000000,"state":"active","ping":99},{"user_id":29,"name":"Jasper Zawn","steam_id":76561198077651204,"connected_time":719000000000,"state":"active","ping":68},{"user_id":40,"name":"a_person_159","steam_id":76561199024416326,"connected_time":473000000000,"state":"active","ping":48},{"user_id":31,"name":"LemonZest","steam_id":76561199196369249,"connected_time":702000000000,"state":"active","ping":73},{"user_id":37,"name":"saucing","steam_id":76561198209623111,"connected_time":552000000000,"state":"active","ping":59},{"user_id":33,"name":"Ursus Ludius","steam_id":76561198025470722,"connected_time":666000000000,"state":"active","ping":91},{"user_id":46,"name":"‡ºò ‚ãÜÀöüéßCaffeine‚òï*Àñ¬∞","steam_id":76561199259309294,"connected_time":170000000000,"state":"active","ping":74},{"user_id":47,"name":"Kirbo","steam_id":76561199185303303,"connected_time":163000000000,"state":"active","ping":91},{"user_id":48,"name":"an inebriated newt fancier","steam_id":76561197985428155,"connected_time":153000000000,"state":"active","ping":55},{"user_id":49,"name":"ScaryTree","steam_id":76561199384362833,"connected_time":138000000000,"state":"active","ping":128},{"user_id":50,"name":"Belmore","steam_id":76561198009355231,"connected_time":130000000000,"state":"active","ping":130},{"user_id":51,"name":"dde6khkg","steam_id":76561198042561537,"connected_time":106000000000,"state":"active","ping":120}]},{"server_id":303,"name":"Uncletopia | Montr√©al | 4 | No Payload","name_short":"mtl-4","host":"mtl-1.ca.uncletopia.com","port":27045,"enabled":true,"region":"us-east","cc":"ca","latitude":45.50889,"longitude":-73.56167,"reserved":0,"last_update":"0001-01-01T00:00:00Z","name_a2s":"Uncletopia | Montr√©al | 4 | No Payload","protocol":17,"map":"ctf_sawmill","folder":"tf","game":"Team Fortress","app_id":440,"player_count":0,"max_players":24,"Bots":0,"server_type":"Dedicated","server_os":"Linux","password":true,"vac":true,"version":"7757534","steam_id":85568392924500090,"keywords":["ctf","nocrits","nodmgspread","uncletopia"],"game_id":440,"stv_port":27046,"stv_name":"Uncletopia | Montr√©al | 4 | No Payload | STV","players":null},{"server_id":13,"name":"Uncletopia | New York City | 1 | All Maps","name_short":"nyc-1","host":"nyc-1.us.uncletopia.com","port":27015,"enabled":true,"region":"us-east","cc":"us","latitude":40.73061,"longitude":-73.93524,"reserved":0,"last_update":"0001-01-01T00:00:00Z","name_a2s":"Uncletopia | New York City | 1 | All Maps","protocol":17,"map":"cp_gravelpit","folder":"tf","game":"Team Fortress","app_id":440,"player_count":23,"max_players":24,"Bots":0,"server_type":"Dedicated","server_os":"Linux","password":true,"vac":true,"version":"7757534","steam_id":85568392924469993,"keywords":["cp","nocrits","nodmgspread","uncletopia"],"game_id":440,"stv_port":27016,"stv_name":"Uncletopia | New York City | 1 | All Maps | STV","players":[{"user_id":358,"name":"flappyflap2","steam_id":76561198285048973,"connected_time":3089000000000,"state":"active","ping":34},{"user_id":338,"name":"Neonstrip","steam_id":76561198032261834,"connected_time":4141000000000,"state":"active","ping":147},{"user_id":373,"name":"fi_ji","steam_id":76561198126087725,"connected_time":1175000000000,"state":"active","ping":59},{"user_id":376,"name":"sinJR","steam_id":76561198375912686,"connected_time":1156000000000,"state":"active","ping":166},{"user_id":354,"name":"Miro","steam_id":76561198936412406,"connected_time":3829000000000,"state":"active","ping":86},{"user_id":317,"name":"frizzle fried","steam_id":76561198062991744,"connected_time":6693000000000,"state":"active","ping":60},{"user_id":393,"name":"Tsar","steam_id":76561197992381854,"connected_time":133000000000,"state":"active","ping":47},{"user_id":378,"name":"that fat croc from donkey kong","steam_id":76561198159172495,"connected_time":1102000000000,"state":"active","ping":136},{"user_id":340,"name":"CartoonFreack","steam_id":76561198165179061,"connected_time":4136000000000,"state":"active","ping":136},{"user_id":383,"name":"‚ô°Alyx‚ô°","steam_id":76561198024303978,"connected_time":894000000000,"state":"active","ping":54},{"user_id":385,"name":"Decolour","steam_id":76561199045608372,"connected_time":862000000000,"state":"active","ping":53},{"user_id":367,"name":"Menacing Pile of Frogs","steam_id":76561198360134800,"connected_time":1985000000000,"state":"active","ping":51},{"user_id":369,"name":"Porcupine's Revenge!","steam_id":76561199121615234,"connected_time":1877000000000,"state":"active","ping":53},{"user_id":344,"name":"laszlo","steam_id":76561198141198352,"connected_time":4074000000000,"state":"active","ping":61},{"user_id":384,"name":"HOT SOUP","steam_id":76561199077389918,"connected_time":882000000000,"state":"active","ping":63},{"user_id":365,"name":"Dreszerg","steam_id":76561198838757422,"connected_time":2098000000000,"state":"active","ping":88},{"user_id":389,"name":"Ramalho","steam_id":76561198909009076,"connected_time":261000000000,"state":"active","ping":165},{"user_id":361,"name":"noah","steam_id":76561198173310157,"connected_time":2906000000000,"state":"active","ping":62},{"user_id":390,"name":"g00bur","steam_id":76561197993622520,"connected_time":217000000000,"state":"active","ping":57},{"user_id":395,"name":"evoL","steam_id":76561198149410261,"connected_time":49000000000,"state":"active","ping":64},{"user_id":368,"name":"Strange Diplomat","steam_id":76561198428191920,"connected_time":1902000000000,"state":"active","ping":49},{"user_id":356,"name":"BigDeac","steam_id":76561198091237274,"connected_time":3341000000000,"state":"active","ping":71},{"user_id":394,"name":"Inkmix","steam_id":76561198854070384,"connected_time":124000000000,"state":"active","ping":137}]},{"server_id":14,"name":"Uncletopia | New York City | 2 | All Maps","name_short":"nyc-2","host":"nyc-1.us.uncletopia.com","port":27025,"enabled":true,"region":"us-east","cc":"us","latitude":40.73061,"longitude":-73.93524,"reserved":0,"last_update":"0001-01-01T00:00:00Z","name_a2s":"Uncletopia | New York City | 2 | All Maps","protocol":17,"map":"pl_barnblitz","folder":"tf","game":"Team Fortress","app_id":440,"player_count":24,"max_players":24,"Bots":0,"server_type":"Dedicated","server_os":"Linux","password":true,"vac":true,"version":"7757534","steam_id":85568392924469994,"keywords":["nocrits","nodmgspread","payload","uncletopia"],"game_id":440,"stv_port":27026,"stv_name":"Uncletopia | New York City | 2 | All Maps | STV","players":[{"user_id":220,"name":"Pine","steam_id":76561198114193659,"connected_time":2064000000000,"state":"active","ping":46},{"user_id":95,"name":"VALENCE","steam_id":76561198118492031,"connected_time":10735000000000,"state":"active","ping":78},{"user_id":195,"name":"L0amie","steam_id":76561198366790101,"connected_time":3571000000000,"state":"active","ping":69},{"user_id":174,"name":"ÔºîÔºê Ôº¶Ôº∞Ôº≥","steam_id":76561198272394965,"connected_time":5065000000000,"state":"active","ping":121},{"user_id":223,"name":"bingle fantano 2","steam_id":76561197997139225,"connected_time":1180000000000,"state":"active","ping":53},{"user_id":221,"name":"Idk","steam_id":76561198971629959,"connected_time":1606000000000,"state":"active","ping":126},{"user_id":187,"name":"Lovedaddy","steam_id":76561198006569710,"connected_time":3822000000000,"state":"active","ping":72},{"user_id":230,"name":"Daddys Home","steam_id":76561198034702011,"connected_time":447000000000,"state":"active","ping":62},{"user_id":228,"name":"Alice in Rubberland","steam_id":76561198087328346,"connected_time":453000000000,"state":"active","ping":60},{"user_id":222,"name":"The Foolish Samurai","steam_id":76561198094494945,"connected_time":1581000000000,"state":"active","ping":122},{"user_id":212,"name":"M9 Shyamalan","steam_id":76561198149425560,"connected_time":2474000000000,"state":"active","ping":99},{"user_id":229,"name":"Bymo","steam_id":76561199037626505,"connected_time":451000000000,"state":"active","ping":48},{"user_id":226,"name":"Broadway Rose","steam_id":76561198046083342,"connected_time":492000000000,"state":"active","ping":35},{"user_id":231,"name":"Chezaus","steam_id":76561198317397837,"connected_time":446000000000,"state":"active","ping":83},{"user_id":232,"name":"Swifgz","steam_id":76561198162875756,"connected_time":439000000000,"state":"active","ping":40},{"user_id":197,"name":"Panckakebro","steam_id":76561198106419992,"connected_time":3541000000000,"state":"active","ping":90},{"user_id":233,"name":"Kidzbopsicle","steam_id":76561198047660691,"connected_time":421000000000,"state":"active","ping":35},{"user_id":211,"name":"Alejandro_the_Lucario","steam_id":76561199229731503,"connected_time":2486000000000,"state":"active","ping":73},{"user_id":224,"name":"A Puppy","steam_id":76561198828184456,"connected_time":825000000000,"state":"active","ping":47},{"user_id":225,"name":"Bush.exe","steam_id":76561198124385307,"connected_time":794000000000,"state":"active","ping":67},{"user_id":234,"name":"orcluvr69","steam_id":76561198068712028,"connected_time":418000000000,"state":"active","ping":62},{"user_id":172,"name":"RollBox","steam_id":76561197997473474,"connected_time":5109000000000,"state":"active","ping":78},{"user_id":203,"name":"‡πñ√êiestow","steam_id":76561198046662484,"connected_time":3386000000000,"state":"active","ping":78},{"user_id":176,"name":"Troglodyte","steam_id":76561198257410914,"connected_time":4870000000000,"state":"active","ping":82}]},{"server_id":15,"name":"Uncletopia | New York City | 3 | Stopwatch Beta","name_short":"nyc-3","host":"nyc-1.us.uncletopia.com","port":27035,"enabled":true,"region":"us-east","cc":"us","latitude":40.73061,"longitude":-73.93524,"reserved":0,"last_update":"0001-01-01T00:00:00Z","name_a2s":"Uncletopia | New York City | 3 | Stopwatch Beta","protocol":17,"map":"pl_upward","folder":"tf","game":"Team Fortress","app_id":440,"player_count":0,"max_players":24,"Bots":0,"server_type":"Dedicated","server_os":"Linux","password":true,"vac":true,"version":"7757534","steam_id":85568392924742820,"keywords":["nocrits","nodmgspread","payload","uncletopia"],"game_id":440,"stv_port":27036,"stv_name":"Uncletopia | New York City | 3 | Stopwatch Beta | STV","players":null},{"server_id":16,"name":"Uncletopia | New York City | 4 | Community","name_short":"nyc-4","host":"nyc-1.us.uncletopia.com","port":27045,"enabled":true,"region":"us-east","cc":"us","latitude":40.73061,"longitude":-73.93524,"reserved":0,"last_update":"0001-01-01T00:00:00Z","name_a2s":"Uncletopia | New York City | 4 | Community","protocol":17,"map":"pl_swiftwater_final1","folder":"tf","game":"Team Fortress","app_id":440,"player_count":0,"max_players":24,"Bots":0,"server_type":"Dedicated","server_os":"Linux","password":true,"vac":true,"version":"7757534","steam_id":85568392924742821,"keywords":["nocrits","nodmgspread","payload","uncletopia"],"game_id":440,"stv_port":27046,"stv_name":"Uncletopia | New York City | 4 | Community | STV","players":null},{"server_id":142,"name":"Uncletopia | S√£o Paulo | 1 | All Maps","name_short":"sao-1","host":"sao-1.br.uncletopia.com","port":27015,"enabled":true,"region":"sa","cc":"br","latitude":-23.533773,"longitude":-46.62529,"reserved":0,"last_update":"0001-01-01T00:00:00Z","name_a2s":"Uncletopia | S√£o Paulo | 1 | All Maps","protocol":17,"map":"koth_lakeside_final","folder":"tf","game":"Team Fortress","app_id":440,"player_count":0,"max_players":24,"Bots":0,"server_type":"Dedicated","server_os":"Linux","password":true,"vac":true,"version":"7757534","steam_id":85568392924469996,"keywords":["cp","nocrits","nodmgspread","uncletopia"],"game_id":440,"stv_port":27016,"stv_name":"Uncletopia | S√£o Paulo | 1 | All Maps | STV","players":null},{"server_id":143,"name":"Uncletopia | S√£o Paulo | 2 | All Maps","name_short":"sao-2","host":"sao-2.br.uncletopia.com","port":27015,"enabled":true,"region":"sa","cc":"br","latitude":-23.533773,"longitude":-46.62529,"reserved":0,"last_update":"0001-01-01T00:00:00Z","name_a2s":"Uncletopia | S√£o Paulo | 2 | All Maps","protocol":17,"map":"cp_altitude","folder":"tf","game":"Team Fortress","app_id":440,"player_count":0,"max_players":24,"Bots":0,"server_type":"Dedicated","server_os":"Linux","password":true,"vac":true,"version":"7757534","steam_id":85568392924485349,"keywords":["cp","nocrits","nodmgspread","uncletopia"],"game_id":440,"stv_port":27016,"stv_name":"Uncletopia | S√£o Paulo | 2 | All Maps | STV","players":null},{"server_id":7,"name":"Uncletopia | Seattle | 1 | All Maps","name_short":"sea-1","host":"sea-1.us.uncletopia.com","port":27015,"enabled":true,"region":"us-west","cc":"us","latitude":47.608013,"longitude":-122.33517,"reserved":0,"last_update":"0001-01-01T00:00:00Z","name_a2s":"Uncletopia | Seattle | 1 | All Maps","protocol":17,"map":"cp_dustbowl","folder":"tf","game":"Team Fortress","app_id":440,"player_count":24,"max_players":24,"Bots":0,"server_type":"Dedicated","server_os":"Linux","password":true,"vac":true,"version":"7757534","steam_id":85568392924469997,"keywords":["cp","nocrits","nodmgspread","uncletopia"],"game_id":440,"stv_port":27016,"stv_name":"Uncletopia | Seattle | 1 | All Maps | STV","players":[{"user_id":399,"name":"the duke","steam_id":76561198104912220,"connected_time":1971000000000,"state":"active","ping":113},{"user_id":406,"name":"Boyaredeen","steam_id":76561198880492636,"connected_time":1409000000000,"state":"active","ping":55},{"user_id":387,"name":"BorstchBag","steam_id":76561198155294045,"connected_time":2637000000000,"state":"active","ping":73},{"user_id":351,"name":"Boo! Boo I Say!","steam_id":76561198272427405,"connected_time":5171000000000,"state":"active","ping":125},{"user_id":417,"name":"Juicy Duce","steam_id":76561198061088803,"connected_time":346000000000,"state":"active","ping":140},{"user_id":409,"name":"Shazzy","steam_id":76561198145460523,"connected_time":1278000000000,"state":"active","ping":46},{"user_id":418,"name":"Smiles","steam_id":76561198107197973,"connected_time":326000000000,"state":"active","ping":65},{"user_id":375,"name":"mrhazman","steam_id":76561198040467069,"connected_time":3635000000000,"state":"active","ping":56},{"user_id":324,"name":"ejschild745","steam_id":76561199013388867,"connected_time":6963000000000,"state":"active","ping":75},{"user_id":360,"name":"CulleY Man","steam_id":76561199062966834,"connected_time":4962000000000,"state":"active","ping":60},{"user_id":424,"name":"‚ùü‚ùõ‚ùü Satoshi","steam_id":76561198231132872,"connected_time":111000000000,"state":"active","ping":76},{"user_id":400,"name":"squash","steam_id":76561198150281353,"connected_time":1878000000000,"state":"active","ping":57},{"user_id":381,"name":"luiggi (that's me)","steam_id":76561199111418221,"connected_time":3239000000000,"state":"active","ping":40},{"user_id":342,"name":"Mr8bittripper","steam_id":76561198133894229,"connected_time":5487000000000,"state":"active","ping":48},{"user_id":416,"name":"They/Them Rattussy","steam_id":76561198238186628,"connected_time":364000000000,"state":"active","ping":76},{"user_id":414,"name":"Username","steam_id":76561198855586261,"connected_time":607000000000,"state":"active","ping":60},{"user_id":402,"name":"Frank (#ripJimmyCarter)","steam_id":76561198126681511,"connected_time":1796000000000,"state":"active","ping":93},{"user_id":410,"name":"Mico (Mico)","steam_id":76561198125462953,"connected_time":1273000000000,"state":"active","ping":46},{"user_id":379,"name":"Johnny McTony","steam_id":76561198450316656,"connected_time":3333000000000,"state":"active","ping":85},{"user_id":421,"name":"Akustin","steam_id":76561198110015463,"connected_time":219000000000,"state":"active","ping":83},{"user_id":395,"name":"Puppermint Latte","steam_id":76561198076054697,"connected_time":2078000000000,"state":"active","ping":98},{"user_id":396,"name":"Vincent Van Bro","steam_id":76561197966919802,"connected_time":2070000000000,"state":"active","ping":60},{"user_id":415,"name":"Mango Pod","steam_id":76561199093733603,"connected_time":416000000000,"state":"active","ping":83},{"user_id":423,"name":"Agent86","steam_id":76561198046794593,"connected_time":125000000000,"state":"active","ping":95}]},{"server_id":119,"name":"Uncletopia | Seattle | 2 | All Maps","name_short":"sea-2","host":"sea-1.us.uncletopia.com","port":27025,"enabled":true,"region":"us-west","cc":"us","latitude":47.608013,"longitude":-122.33517,"reserved":0,"last_update":"0001-01-01T00:00:00Z","name_a2s":"Uncletopia | Seattle | 2 | All Maps","protocol":17,"map":"pl_snowycoast","folder":"tf","game":"Team Fortress","app_id":440,"player_count":24,"max_players":24,"Bots":0,"server_type":"Dedicated","server_os":"Linux","password":true,"vac":true,"version":"7757534","steam_id":85568392924469998,"keywords":["nocrits","nodmgspread","payload","uncletopia"],"game_id":440,"stv_port":27026,"stv_name":"Uncletopia | Seattle | 2 | All Maps | STV","players":[{"user_id":80,"name":"Truly Cryo","steam_id":76561198347497484,"connected_time":7905000000000,"state":"active","ping":154},{"user_id":137,"name":"Piggy","steam_id":76561198000399862,"connected_time":1314000000000,"state":"active","ping":98},{"user_id":102,"name":"Bubbamanme","steam_id":76561198119778504,"connected_time":6287000000000,"state":"active","ping":58},{"user_id":139,"name":"GgDionne","steam_id":76561198079684772,"connected_time":1289000000000,"state":"active","ping":49},{"user_id":140,"name":"SuperFresh","steam_id":76561198200723198,"connected_time":1284000000000,"state":"active","ping":86},{"user_id":141,"name":"Big Time Bobby","steam_id":76561198935266162,"connected_time":1278000000000,"state":"active","ping":117},{"user_id":134,"name":"Vin","steam_id":76561198137057777,"connected_time":2112000000000,"state":"active","ping":58},{"user_id":112,"name":"Drapph","steam_id":76561199384213314,"connected_time":4732000000000,"state":"active","ping":113},{"user_id":147,"name":"Sir Coreden","steam_id":76561198008430589,"connected_time":577000000000,"state":"active","ping":108},{"user_id":148,"name":"exephur","steam_id":76561198135763234,"connected_time":430000000000,"state":"active","ping":69},{"user_id":149,"name":"MoldyCoffee936","steam_id":76561198099061153,"connected_time":261000000000,"state":"active","ping":74},{"user_id":67,"name":"Knox","steam_id":76561198965045525,"connected_time":8159000000000,"state":"active","ping":161},{"user_id":104,"name":"Keamy","steam_id":76561199471434875,"connected_time":5499000000000,"state":"active","ping":45},{"user_id":130,"name":"Gaiduk","steam_id":76561198112323877,"connected_time":2586000000000,"state":"active","ping":140},{"user_id":142,"name":"Sirpiggy","steam_id":76561198294985303,"connected_time":1274000000000,"state":"active","ping":146},{"user_id":146,"name":"Goat","steam_id":76561198130683707,"connected_time":997000000000,"state":"active","ping":79},{"user_id":121,"name":"PopcornBucketGames","steam_id":76561199089562026,"connected_time":3414000000000,"state":"active","ping":56},{"user_id":37,"name":"Goldensliv","steam_id":76561198161673891,"connected_time":9940000000000,"state":"active","ping":75},{"user_id":39,"name":"Sprit ‚ô•","steam_id":76561198268780781,"connected_time":9909000000000,"state":"active","ping":102},{"user_id":115,"name":"Speedy","steam_id":76561198080761661,"connected_time":4205000000000,"state":"active","ping":132},{"user_id":143,"name":"ImChom","steam_id":76561198970425609,"connected_time":1274000000000,"state":"active","ping":69},{"user_id":124,"name":"greens beans","steam_id":76561198153611491,"connected_time":2952000000000,"state":"active","ping":45},{"user_id":144,"name":"Diesel","steam_id":76561198448815852,"connected_time":1261000000000,"state":"active","ping":75},{"user_id":129,"name":"Maw","steam_id":76561199101486383,"connected_time":2693000000000,"state":"active","ping":128}]},{"server_id":406,"name":"Uncletopia | Seattle | 3 | Stopwatch Beta","name_short":"sea-3","host":"sea-1.us.uncletopia.com","port":27035,"enabled":true,"region":"us-west","cc":"us","latitude":47.608013,"longitude":-122.33517,"reserved":0,"last_update":"0001-01-01T00:00:00Z","name_a2s":"Uncletopia | Seattle | 3 | Stopwatch Beta","protocol":17,"map":"workshop/pl_barnblitz_pro7.ugc582280235","folder":"tf","game":"Team Fortress","app_id":440,"player_count":0,"max_players":24,"Bots":0,"server_type":"Dedicated","server_os":"Linux","password":true,"vac":true,"version":"7757534","steam_id":85568392924515217,"keywords":["nocrits","nodmgspread","payload","uncletopia"],"game_id":440,"stv_port":27036,"stv_name":"Uncletopia | Seattle | 3 | Stopwatch Beta | STV","players":null},{"server_id":17,"name":"Uncletopia | San Francisco | 1 | All Maps","name_short":"sfo-1","host":"sfo-1.us.uncletopia.com","port":27015,"enabled":true,"region":"us-west","cc":"us","latitude":37.77397,"longitude":-122.4313,"reserved":0,"last_update":"0001-01-01T00:00:00Z","name_a2s":"Uncletopia | San Francisco | 1 | All Maps","protocol":17,"map":"koth_viaduct","folder":"tf","game":"Team Fortress","app_id":440,"player_count":0,"max_players":24,"Bots":0,"server_type":"Dedicated","server_os":"Linux","password":true,"vac":true,"version":"7757534","steam_id":85568392924469999,"keywords":["cp","nocrits","nodmgspread","uncletopia"],"game_id":440,"stv_port":27016,"stv_name":"Uncletopia | San Francisco | 1 | All Maps | STV","players":null},{"server_id":18,"name":"Uncletopia | San Francisco | 2 | All Maps","name_short":"sfo-2","host":"sfo-1.us.uncletopia.com","port":27025,"enabled":true,"region":"us-west","cc":"us","latitude":37.77397,"longitude":-122.4313,"reserved":0,"last_update":"0001-01-01T00:00:00Z","name_a2s":"Uncletopia | San Francisco | 2 | All Maps","protocol":17,"map":"koth_highpass","folder":"tf","game":"Team Fortress","app_id":440,"player_count":0,"max_players":24,"Bots":0,"server_type":"Dedicated","server_os":"Linux","password":true,"vac":true,"version":"7757534","steam_id":85568392924470000,"keywords":["cp","nocrits","nodmgspread","uncletopia"],"game_id":440,"stv_port":27026,"stv_name":"Uncletopia | San Francisco | 2 | All Maps | STV","players":null},{"server_id":19,"name":"Uncletopia | San Francisco | 3 | Stopwatch Beta","name_short":"sfo-3","host":"sfo-1.us.uncletopia.com","port":27035,"enabled":true,"region":"us-west","cc":"us","latitude":37.77397,"longitude":-122.4313,"reserved":0,"last_update":"0001-01-01T00:00:00Z","name_a2s":"Uncletopia | San Francisco | 3 | Stopwatch Beta","protocol":17,"map":"koth_lakeside_final","folder":"tf","game":"Team Fortress","app_id":440,"player_count":0,"max_players":24,"Bots":0,"server_type":"Dedicated","server_os":"Linux","password":true,"vac":true,"version":"7757534","steam_id":85568392924742824,"keywords":["cp","nocrits","nodmgspread","uncletopia"],"game_id":440,"stv_port":27036,"stv_name":"Uncletopia | San Francisco | 3 | Stopwatch Beta | STV","players":null},{"server_id":20,"name":"Uncletopia | San Francisco | 4 | Community","name_short":"sfo-4","host":"sfo-1.us.uncletopia.com","port":27045,"enabled":true,"region":"us-west","cc":"us","latitude":37.77397,"longitude":-122.4313,"reserved":0,"last_update":"0001-01-01T00:00:00Z","name_a2s":"Uncletopia | San Francisco | 4 | Community","protocol":17,"map":"workshop/koth_product_final.ugc454272353","folder":"tf","game":"Team Fortress","app_id":440,"player_count":0,"max_players":24,"Bots":0,"server_type":"Dedicated","server_os":"Linux","password":true,"vac":true,"version":"7757534","steam_id":85568392924742826,"keywords":["cp","nocrits","nodmgspread","uncletopia"],"game_id":440,"stv_port":27046,"stv_name":"Uncletopia | San Francisco | 4 | Community | STV","players":null},{"server_id":141,"name":"Uncletopia | Sydney | 1 | All Maps","name_short":"syd-1","host":"syd-1.au.uncletopia.com","port":27015,"enabled":true,"region":"au","cc":"au","latitude":-33.865143,"longitude":151.2099,"reserved":0,"last_update":"0001-01-01T00:00:00Z","name_a2s":"Uncletopia | Sydney | 1 | All Maps","protocol":17,"map":"koth_viaduct","folder":"tf","game":"Team Fortress","app_id":440,"player_count":0,"max_players":24,"Bots":0,"server_type":"Dedicated","server_os":"Linux","password":true,"vac":true,"version":"7757534","steam_id":85568392924470001,"keywords":["cp","nocrits","nodmgspread","uncletopia"],"game_id":440,"stv_port":27016,"stv_name":"Uncletopia | Sydney | 1 | All Maps | STV","players":null},{"server_id":123,"name":"Uncletopia | Sydney | 2 | All Maps","name_short":"syd-2","host":"syd-1.au.uncletopia.com","port":27025,"enabled":true,"region":"au","cc":"au","latitude":-33.865143,"longitude":151.2099,"reserved":0,"last_update":"0001-01-01T00:00:00Z","name_a2s":"Uncletopia | Sydney | 2 | All Maps","protocol":17,"map":"cp_process_final","folder":"tf","game":"Team Fortress","app_id":440,"player_count":0,"max_players":24,"Bots":0,"server_type":"Dedicated","server_os":"Linux","password":true,"vac":true,"version":"7757534","steam_id":85568392924470002,"keywords":["cp","nocrits","nodmgspread","uncletopia"],"game_id":440,"stv_port":27026,"stv_name":"Uncletopia | Sydney | 2 | All Maps | STV","players":null},{"server_id":395,"name":"Uncletopia | Sydney | 3 | All Maps","name_short":"syd-3","host":"syd-1.au.uncletopia.com","port":27035,"enabled":true,"region":"au","cc":"au","latitude":-33.865143,"longitude":151.2099,"reserved":0,"last_update":"0001-01-01T00:00:00Z","name_a2s":"Uncletopia | Sydney | 3 | All Maps","protocol":17,"map":"pl_swiftwater_final1","folder":"tf","game":"Team Fortress","app_id":440,"player_count":0,"max_players":24,"Bots":0,"server_type":"Dedicated","server_os":"Linux","password":true,"vac":true,"version":"7757534","steam_id":85568392925194467,"keywords":["nocrits","nodmgspread","payload","uncletopia"],"game_id":440,"stv_port":27036,"stv_name":"Uncletopia | Sydney | 3 | All Maps | STV","players":null},{"server_id":396,"name":"Uncletopia | Sydney | 4 | All Maps","name_short":"syd-4","host":"syd-1.au.uncletopia.com","port":27045,"enabled":true,"region":"au","cc":"au","latitude":-33.865143,"longitude":151.2099,"reserved":0,"last_update":"0001-01-01T00:00:00Z","name_a2s":"Uncletopia | Sydney | 4 | All Maps","protocol":17,"map":"koth_highpass","folder":"tf","game":"Team Fortress","app_id":440,"player_count":0,"max_players":24,"Bots":0,"server_type":"Dedicated","server_os":"Linux","password":true,"vac":true,"version":"7757534","steam_id":85568392925397958,"keywords":["cp","nocrits","nodmgspread","uncletopia"],"game_id":440,"stv_port":27046,"stv_name":"Uncletopia | Sydney | 4 | All Maps | STV","players":null},{"server_id":58,"name":"Uncletopia | Sydney | 5 | Stopwatch Beta","name_short":"syd-5","host":"syd-1.au.uncletopia.com","port":27055,"enabled":true,"region":"au","cc":"au","latitude":-33.865143,"longitude":151.2099,"reserved":0,"last_update":"0001-01-01T00:00:00Z","name_a2s":"Uncletopia | Sydney | 5 | Stopwatch Beta","protocol":17,"map":"koth_cascade","folder":"tf","game":"Team Fortress","app_id":440,"player_count":0,"max_players":24,"Bots":0,"server_type":"Dedicated","server_os":"Linux","password":true,"vac":true,"version":"7757534","steam_id":85568392925397959,"keywords":["cp","nocrits","nodmgspread","uncletopia"],"game_id":440,"stv_port":27056,"stv_name":"Uncletopia | Sydney | 5 | Stopwatch Beta | STV","players":null},{"server_id":59,"name":"Uncletopia | Sydney | 6 | Community","name_short":"syd-6","host":"syd-1.au.uncletopia.com","port":27065,"enabled":true,"region":"au","cc":"au","latitude":-33.865143,"longitude":151.2099,"reserved":0,"last_update":"0001-01-01T00:00:00Z","name_a2s":"Uncletopia | Sydney | 6 | Community","protocol":17,"map":"workshop/pl_corrode_rc2.ugc546577989","folder":"tf","game":"Team Fortress","app_id":440,"player_count":0,"max_players":24,"Bots":0,"server_type":"Dedicated","server_os":"Linux","password":true,"vac":true,"version":"7757534","steam_id":85568392925397960,"keywords":["nocrits","nodmgspread","payload","uncletopia"],"game_id":440,"stv_port":27066,"stv_name":"Uncletopia | Sydney | 6 | Community | STV","players":null},{"server_id":49,"name":"Uncletopia | Warsaw | 1 | All Maps","name_short":"waw-1","host":"waw-1.pl.uncletopia.com","port":27015,"enabled":true,"region":"eu","cc":"pl","latitude":52.2297,"longitude":21.017532,"reserved":0,"last_update":"0001-01-01T00:00:00Z","name_a2s":"","protocol":0,"map":"","folder":"","game":"","app_id":0,"player_count":0,"max_players":0,"Bots":0,"server_type":"","server_os":"","password":false,"vac":false,"version":"","steam_id":0,"keywords":null,"game_id":0,"stv_port":0,"stv_name":"","players":null},{"server_id":50,"name":"Uncletopia | Warsaw | 2 | All Maps","name_short":"waw-2","host":"waw-1.pl.uncletopia.com","port":27025,"enabled":true,"region":"eu","cc":"pl","latitude":52.2297,"longitude":21.017532,"reserved":0,"last_update":"0001-01-01T00:00:00Z","name_a2s":"Uncletopia | Warsaw | 2 | All Maps","protocol":17,"map":"cp_sunshine","folder":"tf","game":"Team Fortress","app_id":440,"player_count":0,"max_players":24,"Bots":0,"server_type":"Dedicated","server_os":"Linux","password":true,"vac":true,"version":"7757534","steam_id":85568392925397851,"keywords":["cp","nocrits","nodmgspread","uncletopia"],"game_id":440,"stv_port":27026,"stv_name":"Uncletopia | Warsaw | 2 | All Maps | STV","players":null},{"server_id":51,"name":"Uncletopia | Warsaw | 3 | All Maps","name_short":"waw-3","host":"waw-1.pl.uncletopia.com","port":27035,"enabled":true,"region":"eu","cc":"pl","latitude":52.2297,"longitude":21.017532,"reserved":0,"last_update":"0001-01-01T00:00:00Z","name_a2s":"Uncletopia | Warsaw | 3 | All Maps","protocol":17,"map":"koth_cascade","folder":"tf","game":"Team Fortress","app_id":440,"player_count":0,"max_players":24,"Bots":0,"server_type":"Dedicated","server_os":"Linux","password":true,"vac":true,"version":"7757534","steam_id":85568392925397852,"keywords":["cp","nocrits","nodmgspread","uncletopia"],"game_id":440,"stv_port":27036,"stv_name":"Uncletopia | Warsaw | 3 | All Maps | STV","players":null},{"server_id":52,"name":"Uncletopia | Warsaw | 4 | All Maps","name_short":"waw-4","host":"waw-1.pl.uncletopia.com","port":27045,"enabled":true,"region":"eu","cc":"pl","latitude":52.2297,"longitude":21.017532,"reserved":0,"last_update":"0001-01-01T00:00:00Z","name_a2s":"Uncletopia | Warsaw | 4 | All Maps","protocol":17,"map":"koth_lakeside_final","folder":"tf","game":"Team Fortress","app_id":440,"player_count":0,"max_players":24,"Bots":0,"server_type":"Dedicated","server_os":"Linux","password":true,"vac":true,"version":"7757534","steam_id":85568392925397853,"keywords":["cp","nocrits","nodmgspread","uncletopia"],"game_id":440,"stv_port":27046,"stv_name":"Uncletopia | Warsaw | 4 | All Maps | STV","players":null},{"server_id":53,"name":"Uncletopia | Warsaw | 5 | Stopwatch Beta","name_short":"waw-5","host":"waw-1.pl.uncletopia.com","port":27055,"enabled":true,"region":"eu","cc":"pl","latitude":52.2297,"longitude":21.017532,"reserved":0,"last_update":"0001-01-01T00:00:00Z","name_a2s":"Uncletopia | Warsaw | 5 | Stopwatch Beta","protocol":17,"map":"pl_borneo","folder":"tf","game":"Team Fortress","app_id":440,"player_count":0,"max_players":24,"Bots":0,"server_type":"Dedicated","server_os":"Linux","password":true,"vac":true,"version":"7757534","steam_id":85568392925397854,"keywords":["nocrits","nodmgspread","payload","uncletopia"],"game_id":440,"stv_port":27056,"stv_name":"Uncletopia | Warsaw | 5 | Stopwatch Beta | STV","players":null},{"server_id":54,"name":"Uncletopia | Warsaw | 6 | Community","name_short":"waw-6","host":"waw-1.pl.uncletopia.com","port":27065,"enabled":true,"region":"eu","cc":"pl","latitude":52.2297,"longitude":21.017532,"reserved":0,"last_update":"0001-01-01T00:00:00Z","name_a2s":"Uncletopia | Warsaw | 6 | Community","protocol":17,"map":"koth_lakeside_final","folder":"tf","game":"Team Fortress","app_id":440,"player_count":0,"max_players":24,"Bots":0,"server_type":"Dedicated","server_os":"Linux","password":true,"vac":true,"version":"7757534","steam_id":85568392925397856,"keywords":["cp","nocrits","nodmgspread","uncletopia"],"game_id":440,"stv_port":27066,"stv_name":"Uncletopia | Warsaw | 6 | Community | STV","players":null}]}