{"status":true,"message":"","result":[{"server_id":9,"name":"Uncletopia | Atlanta | 1 | All Maps","name_short":"atl-1","host":"atl-1.us.uncletopia.com","port":27015,"enabled":true,"region":"us-east","cc":"us","latitude":33.753746,"longitude":-84.38633,"reserved":0,"last_update":"0001-01-01T00:00:00Z","name_a2s":"Uncletopia | Atlanta | 1 | All Maps","protocol":17,"map":"pl_badwater","folder":"tf","game":"Team Fortress","app_id":440,"player_count":24,"max_players":24,"Bots":0,"server_type":"Dedicated","server_os":"Linux","password":true,"vac":true,"version":"7757534","steam_id":85568392924469982,"keywords":["nocrits","nodmgspread","payload","uncletopia"],"game_id":440,"stv_port":27016,"stv_name":"Uncletopia | Atlanta | 1 | All Maps | STV","players":[{"user_id":560,"name":"COFFIN FILLER","steam_id":76561198018271944,"connected_time":962000000000,"state":"active","ping":76},{"user_id":556,"name":"rose","steam_id":76561198048882285,"connected_time":2269000000000,"state":"active","ping":60},{"user_id":554,"name":"ATL1 | Psionic Box","steam_id":76561198151019322,"connected_time":2315000000000,"state":"active","ping":60},{"user_id":561,"name":"AttackCommander","steam_id":76561198111522679,"connected_time":950000000000,"state":"active","ping":75},{"user_id":538,"name":"O'Keearns","steam_id":76561198042213797,"connected_time":3522000000000,"state":"active","ping":46},{"user_id":542,"name":"MyamE","steam_id":76561198133278462,"connected_time":3332000000000,"state":"active","ping":71},{"user_id":521,"name":"ATL1 | Lancer Fan Club","steam_id":76561198355495948,"connected_time":5095000000000,"state":"active","ping":85},{"user_id":562,"name":"PingableUsername","steam_id":76561198138760165,"connected_time":938000000000,"state":"active","ping":84},{"user_id":553,"name":"--_Cook_--","steam_id":76561198080855748,"connected_time":2325000000000,"state":"active","ping":46},{"user_id":507,"name":"ATL1 | on my hunting trip","steam_id":76561198315341646,"connected_time":7142000000000,"state":"active","ping":75},{"user_id":567,"name":"melancholy","steam_id":76561198024301465,"connected_time":441000000000,"state":"active","ping":42},{"user_id":531,"name":"Just PYE","steam_id":76561199439622967,"connected_time":4472000000000,"state":"active","ping":84},{"user_id":568,"name":"Kidzbopsicle","steam_id":76561198047660691,"connected_time":273000000000,"state":"active","ping":59},{"user_id":523,"name":"mayhem","steam_id":76561199246637881,"connected_time":4792000000000,"state":"active","ping":58},{"user_id":541,"name":"bogginwater","steam_id":76561198155547142,"connected_time":3376000000000,"state":"active","ping":68},{"user_id":569,"name":"Fl0w","steam_id":76561198153961049,"connected_time":269000000000,"state":"active","ping":75},{"user_id":566,"name":"Rio\u003c33333","steam_id":76561198299175965,"connected_time":475000000000,"state":"active","ping":58},{"user_id":565,"name":"guac","steam_id":76561198025481672,"connected_time":623000000000,"state":"active","ping":75},{"user_id":550,"name":"BackwardsEagle","steam_id":76561199013712612,"connected_time":2799000000000,"state":"active","ping":82},{"user_id":495,"name":"eish","steam_id":76561198089463603,"connected_time":8280000000000,"state":"active","ping":134},{"user_id":570,"name":"Jonatello","steam_id":76561198045699189,"connected_time":269000000000,"state":"active","ping":155},{"user_id":572,"name":"PUDDLES","steam_id":76561198110832624,"connected_time":115000000000,"state":"active","ping":79},{"user_id":571,"name":"Asolator0","steam_id":76561198095809798,"connected_time":259000000000,"state":"active","ping":118},{"user_id":516,"name":"ATLS1 | p4ka","steam_id":76561198315291317,"connected_time":6208000000000,"state":"active","ping":78}]},{"server_id":400,"name":"Uncletopia | Atlanta | 3 | Community","name_short":"atl-3","host":"atl-1.us.uncletopia.com","port":27035,"enabled":true,"region":"us-east","cc":"us","latitude":33.753746,"longitude":-84.38633,"reserved":0,"last_update":"0001-01-01T00:00:00Z","name_a2s":"Uncletopia | Atlanta | 3 | Community","protocol":17,"map":"workshop/pl_cactuscanyon_redux_final1.ugc2579644293","folder":"tf","game":"Team Fortress","app_id":440,"player_count":24,"max_players":24,"Bots":0,"server_type":"Dedicated","server_os":"Linux","password":true,"vac":true,"version":"7757534","steam_id":85568392924515187,"keywords":["nocrits","nodmgspread","payload","uncletopia"],"game_id":440,"stv_port":27036,"stv_name":"Uncletopia | Atlanta | 3 | Community | STV","players":[{"user_id":98,"name":"Al3x","steam_id":76561198056006234,"connected_time":2111000000000,"state":"active","ping":75},{"user_id":127,"name":"scrapheap","steam_id":76561198202407087,"connected_time":267000000000,"state":"active","ping":87},{"user_id":131,"name":"hatchetax","steam_id":76561199013337543,"connected_time":20000000000,"state":"active","ping":210},{"user_id":120,"name":"medic enthusiast","steam_id":76561198323031964,"connected_time":797000000000,"state":"active","ping":77},{"user_id":79,"name":"Soy Blaster","steam_id":76561197971948876,"connected_time":4003000000000,"state":"active","ping":82},{"user_id":109,"name":"Ch4n","steam_id":76561198797670090,"connected_time":1051000000000,"state":"active","ping":59},{"user_id":121,"name":"Transbian mommy GF","steam_id":76561198153233822,"connected_time":760000000000,"state":"active","ping":80},{"user_id":73,"name":"Protocenturian","steam_id":76561198063997260,"connected_time":4486000000000,"state":"active","ping":85},{"user_id":85,"name":"White Noiz","steam_id":76561198116408865,"connected_time":2968000000000,"state":"active","ping":73},{"user_id":69,"name":"floofy","steam_id":76561198389769098,"connected_time":4762000000000,"state":"active","ping":89},{"user_id":130,"name":"how do i girl???","steam_id":76561198050290565,"connected_time":83000000000,"state":"active","ping":65},{"user_id":101,"name":"Shitstain","steam_id":76561199388529538,"connected_time":2022000000000,"state":"active","ping":86},{"user_id":86,"name":"Bzamo","steam_id":76561198039883392,"connected_time":2962000000000,"state":"active","ping":57},{"user_id":102,"name":"Takareer","steam_id":76561198001751765,"connected_time":2021000000000,"state":"active","ping":74},{"user_id":110,"name":"cwaggs76","steam_id":76561199013048778,"connected_time":1037000000000,"state":"active","ping":89},{"user_id":111,"name":"BenBen07","steam_id":76561198129584634,"connected_time":1037000000000,"state":"active","ping":73},{"user_id":118,"name":"I-die-often","steam_id":76561197996780327,"connected_time":872000000000,"state":"active","ping":97},{"user_id":89,"name":"Dylanardo","steam_id":76561198294726950,"connected_time":2925000000000,"state":"active","ping":77},{"user_id":117,"name":"Sharper Spoon","steam_id":76561198877130687,"connected_time":897000000000,"state":"active","ping":91},{"user_id":126,"name":"Shwal","steam_id":76561198138840448,"connected_time":563000000000,"state":"active","ping":65},{"user_id":129,"name":"Reversed","steam_id":76561198136433466,"connected_time":202000000000,"state":"active","ping":71},{"user_id":71,"name":"Greasy Rickey","steam_id":76561198301468342,"connected_time":4547000000000,"state":"active","ping":74},{"user_id":106,"name":"Hulkster","steam_id":76561198278156353,"connected_time":1759000000000,"state":"active","ping":119},{"user_id":123,"name":"Lynux","steam_id":76561198343651916,"connected_time":717000000000,"state":"active","ping":123}]},{"server_id":401,"name":"Uncletopia | Atlanta | 4 | No Payload","name_short":"atl-4","host":"atl-1.us.uncletopia.com","port":27045,"enabled":true,"region":"us-east","cc":"us","latitude":33.753746,"longitude":-84.38633,"reserved":0,"last_update":"0001-01-01T00:00:00Z","name_a2s":"","protocol":0,"map":"","folder":"","game":"","app_id":0,"player_count":0,"max_players":0,"Bots":0,"server_type":"","server_os":"","password":false,"vac":false,"version":"","steam_id":0,"keywords":null,"game_id":0,"stv_port":0,"stv_name":"","players":null},{"server_id":2,"name":"Uncletopia | Chicago | 1 | All Maps","name_short":"chi-1","host":"chi-1.us.uncletopia.com","port":27015,"enabled":true,"region":"us-central","cc":"us","latitude":41.881832,"longitude":-87.62318,"reserved":0,"last_update":"0001-01-01T00:00:00Z","name_a2s":"Uncletopia | Chicago | 1 | All Maps","protocol":17,"map":"cp_steel","folder":"tf","game":"Team Fortress","app_id":440,"player_count":24,"max_players":24,"Bots":0,"server_type":"Dedicated","server_os":"Linux","password":true,"vac":true,"version":"7757534","steam_id":85568392924469984,"keywords":["cp","nocrits","nodmgspread","uncletopia"],"game_id":440,"stv_port":27016,"stv_name":"Uncletopia | Chicago | 1 | All Maps | STV","players":[{"user_id":301,"name":"tricky","steam_id":76561198143206173,"connected_time":4713000000000,"state":"active","ping":76},{"user_id":291,"name":"JimmyWings","steam_id":76561198999925713,"connected_time":5553000000000,"state":"active","ping":62},{"user_id":365,"name":"the burger","steam_id":76561198070835952,"connected_time":865000000000,"state":"active","ping":53},{"user_id":340,"name":"RaddahRaddah","steam_id":76561198194462829,"connected_time":2247000000000,"state":"active","ping":57},{"user_id":364,"name":"LazyRat","steam_id":76561198014066794,"connected_time":955000000000,"state":"active","ping":113},{"user_id":374,"name":"uhooter","steam_id":76561198007829078,"connected_time":530000000000,"state":"active","ping":48},{"user_id":375,"name":"rude boi","steam_id":76561198006783260,"connected_time":426000000000,"state":"active","ping":60},{"user_id":369,"name":"Baka!⑨⑨⑨⑨","steam_id":76561198152948254,"connected_time":852000000000,"state":"active","ping":60},{"user_id":345,"name":"vv","steam_id":76561198134813102,"connected_time":2158000000000,"state":"active","ping":57},{"user_id":351,"name":"Couriadore","steam_id":76561198055814008,"connected_time":1607000000000,"state":"active","ping":63},{"user_id":367,"name":"shonyred","steam_id":76561198056336908,"connected_time":862000000000,"state":"active","ping":75},{"user_id":286,"name":"CamSoup","steam_id":76561198202483168,"connected_time":5987000000000,"state":"active","ping":71},{"user_id":305,"name":"WillyOmNom","steam_id":76561198345656852,"connected_time":4669000000000,"state":"active","ping":63},{"user_id":358,"name":"KingCrawful","steam_id":76561198104291657,"connected_time":1295000000000,"state":"active","ping":60},{"user_id":377,"name":"BlackLynx","steam_id":76561198290299822,"connected_time":64000000000,"state":"active","ping":57},{"user_id":376,"name":"Tusk","steam_id":76561199066977033,"connected_time":155000000000,"state":"active","ping":67},{"user_id":370,"name":".JIFF","steam_id":76561198045181760,"connected_time":844000000000,"state":"active","ping":61},{"user_id":335,"name":"Tallyden","steam_id":76561197998572962,"connected_time":2513000000000,"state":"active","ping":72},{"user_id":349,"name":"Leviathan","steam_id":76561197997528907,"connected_time":1824000000000,"state":"active","ping":60},{"user_id":337,"name":"Death By SNU SNU","steam_id":76561198022988035,"connected_time":2481000000000,"state":"active","ping":75},{"user_id":324,"name":"¤Soarin'¤","steam_id":76561198042715635,"connected_time":3564000000000,"state":"active","ping":58},{"user_id":372,"name":"richard clock","steam_id":76561198048455671,"connected_time":780000000000,"state":"active","ping":57},{"user_id":310,"name":"G-G-G-GAMERSHOT","steam_id":76561198798980951,"connected_time":4525000000000,"state":"active","ping":58},{"user_id":350,"name":"mossy_woods","steam_id":76561198284350370,"connected_time":1738000000000,"state":"active","ping":73}]},{"server_id":106,"name":"Uncletopia | Chicago | 2 | All Maps","name_short":"chi-2","host":"chi-1.us.uncletopia.com","port":27025,"enabled":true,"region":"us-central","cc":"us","latitude":41.881832,"longitude":-87.62318,"reserved":0,"last_update":"0001-01-01T00:00:00Z","name_a2s":"Uncletopia | Chicago | 2 | All Maps","protocol":17,"map":"pl_pier","folder":"tf","game":"Team Fortress","app_id":440,"player_count":24,"max_players":24,"Bots":0,"server_type":"Dedicated","server_os":"Linux","password":true,"vac":true,"version":"7757534","steam_id":85568392924469985,"keywords":["nocrits","nodmgspread","payload","uncletopia"],"game_id":440,"stv_port":27026,"stv_name":"Uncletopia | Chicago | 2 | All Maps | STV","players":[{"user_id":498,"name":"Emperor Dankatine","steam_id":76561198044741086,"connected_time":4845000000000,"state":"active","ping":79},{"user_id":632,"name":"Kafka (Retard)","steam_id":76561198073897823,"connected_time":765000000000,"state":"active","ping":73},{"user_id":467,"name":"Phil Collins","steam_id":76561198068868644,"connected_time":6172000000000,"state":"active","ping":105},{"user_id":641,"name":"all of brasil","steam_id":76561197979056451,"connected_time":411000000000,"state":"active","ping":93},{"user_id":634,"name":"jingojay","steam_id":76561198878551745,"connected_time":733000000000,"state":"active","ping":91},{"user_id":633,"name":"Mortimer Khan","steam_id":76561197968829990,"connected_time":755000000000,"state":"active","ping":83},{"user_id":560,"name":"› snow","steam_id":76561198109783729,"connected_time":2026000000000,"state":"active","ping":47},{"user_id":515,"name":"deadpixel","steam_id":76561198150249843,"connected_time":3922000000000,"state":"active","ping":46},{"user_id":606,"name":"Hentai Lord","steam_id":76561199030449654,"connected_time":1462000000000,"state":"active","ping":79},{"user_id":643,"name":"Moo...","steam_id":76561198125233120,"connected_time":271000000000,"state":"active","ping":98},{"user_id":444,"name":"Viokik","steam_id":76561198408846602,"connected_time":7750000000000,"state":"active","ping":62},{"user_id":639,"name":"Yeti","steam_id":76561198035450920,"connected_time":511000000000,"state":"active","ping":80},{"user_id":489,"name":"ＳＬＶＴＣＨＡＭＰ","steam_id":76561198883157736,"connected_time":5025000000000,"state":"active","ping":111},{"user_id":517,"name":"Zero","steam_id":76561199383267408,"connected_time":3859000000000,"state":"active","ping":71},{"user_id":617,"name":"conscripted monk","steam_id":76561199029246232,"connected_time":1137000000000,"state":"active","ping":74},{"user_id":561,"name":"ApertureCity","steam_id":76561198004153607,"connected_time":2017000000000,"state":"active","ping":88},{"user_id":638,"name":"Evan","steam_id":76561197972292926,"connected_time":652000000000,"state":"active","ping":74},{"user_id":522,"name":"Ślimak","steam_id":76561198296476784,"connected_time":3179000000000,"state":"active","ping":144},{"user_id":640,"name":"Freezing0K","steam_id":76561198142170847,"connected_time":446000000000,"state":"active","ping":99},{"user_id":636,"name":"wheresgeorge","steam_id":76561198986281248,"connected_time":723000000000,"state":"active","ping":81},{"user_id":642,"name":"Lognes","steam_id":76561198076569769,"connected_time":390000000000,"state":"active","ping":164},{"user_id":637,"name":"DaPenguinGuy","steam_id":76561199013344573,"connected_time":717000000000,"state":"active","ping":62},{"user_id":526,"name":"self sufficient kitten","steam_id":76561197960592612,"connected_time":3123000000000,"state":"active","ping":90},{"user_id":592,"name":"airbus a320","steam_id":76561199062294158,"connected_time":1612000000000,"state":"active","ping":57}]},{"server_id":402,"name":"Uncletopia | Chicago | 3 | All Maps","name_short":"chi-3","host":"chi-1.us.uncletopia.com","port":27035,"enabled":true,"region":"us-central","cc":"us","latitude":41.881832,"longitude":-87.62318,"reserved":0,"last_update":"0001-01-01T00:00:00Z","name_a2s":"Uncletopia | Chicago | 3 | All Maps","protocol":17,"map":"pl_barnblitz","folder":"tf","game":"Team Fortress","app_id":440,"player_count":24,"max_players":24,"Bots":0,"server_type":"Dedicated","server_os":"Linux","password":true,"vac":true,"version":"7757534","steam_id":85568392924515191,"keywords":["nocrits","nodmgspread","payload","uncletopia"],"game_id":440,"stv_port":27036,"stv_name":"Uncletopia | Chicago | 3 | All Maps | STV","players":[{"user_id":250,"name":"gettysburg","steam_id":76561198016157051,"connected_time":1777000000000,"state":"active","ping":74},{"user_id":240,"name":"ElBentz","steam_id":76561199059582221,"connected_time":2413000000000,"state":"active","ping":104},{"user_id":273,"name":"Buttery","steam_id":76561198086053311,"connected_time":290000000000,"state":"active","ping":72},{"user_id":275,"name":"Sprinklingmydoughnut","steam_id":76561198168009092,"connected_time":124000000000,"state":"active","ping":84},{"user_id":272,"name":"WoshTheTriangle","steam_id":76561198120928409,"connected_time":418000000000,"state":"active","ping":66},{"user_id":158,"name":"DJ Sheeve","steam_id":76561198095910139,"connected_time":6926000000000,"state":"active","ping":55},{"user_id":268,"name":"Nobody","steam_id":76561198160544586,"connected_time":838000000000,"state":"active","ping":66},{"user_id":277,"name":":D","steam_id":76561198130690686,"connected_time":75000000000,"state":"active","ping":102},{"user_id":263,"name":"Legit_Jaxer","steam_id":76561198172234053,"connected_time":1197000000000,"state":"active","ping":107},{"user_id":274,"name":"Dark Lord","steam_id":76561198044199150,"connected_time":282000000000,"state":"active","ping":89},{"user_id":278,"name":"Squidy","steam_id":76561198209147369,"connected_time":46000000000,"state":"active","ping":132},{"user_id":271,"name":"Aer0","steam_id":76561198799656067,"connected_time":536000000000,"state":"active","ping":61},{"user_id":209,"name":"Discourse","steam_id":76561198984286678,"connected_time":4105000000000,"state":"active","ping":60},{"user_id":265,"name":"Predicta","steam_id":76561198017630616,"connected_time":934000000000,"state":"active","ping":51},{"user_id":266,"name":"experienced virgin","steam_id":76561198174428289,"connected_time":909000000000,"state":"active","ping":75},{"user_id":253,"name":"Demoman With One Joke","steam_id":76561197993467034,"connected_time":1742000000000,"state":"active","ping":50},{"user_id":229,"name":"Mino092","steam_id":76561198211729631,"connected_time":3053000000000,"state":"active","ping":83},{"user_id":264,"name":"Triforce141","steam_id":76561198063896776,"connected_time":1192000000000,"state":"active","ping":75},{"user_id":279,"name":"shalankawanak","steam_id":76561198987719376,"connected_time":45000000000,"state":"active","ping":60},{"user_id":280,"name":"Tourmaline","steam_id":76561198987049358,"connected_time":2000000000,"state":"spawning","ping":46},{"user_id":245,"name":"Shattered Soul","steam_id":76561198322226862,"connected_time":2118000000000,"state":"active","ping":55},{"user_id":232,"name":"Amazingamerhawk","steam_id":76561199064935924,"connected_time":3003000000000,"state":"active","ping":57},{"user_id":269,"name":"Crafty","steam_id":76561199217624073,"connected_time":771000000000,"state":"active","ping":107},{"user_id":204,"name":"Veridian","steam_id":76561198096334078,"connected_time":4386000000000,"state":"active","ping":75}]},{"server_id":403,"name":"Uncletopia | Chicago | 4 | All Maps","name_short":"chi-4","host":"chi-1.us.uncletopia.com","port":27045,"enabled":true,"region":"us-central","cc":"us","latitude":41.881832,"longitude":-87.62318,"reserved":0,"last_update":"0001-01-01T00:00:00Z","name_a2s":"Uncletopia | Chicago | 4 | All Maps","protocol":17,"map":"pl_badwater","folder":"tf","game":"Team Fortress","app_id":440,"player_count":24,"max_players":24,"Bots":0,"server_type":"Dedicated","server_os":"Linux","password":true,"vac":true,"version":"7757534","steam_id":85568392924515193,"keywords":["nocrits","nodmgspread","payload","uncletopia"],"game_id":440,"stv_port":27046,"stv_name":"Uncletopia | Chicago | 4 | All Maps | STV","players":[{"user_id":796,"name":"Toasty Gyro","steam_id":76561198001026643,"connected_time":598000000000,"state":"active","ping":48},{"user_id":747,"name":"Moshi Man","steam_id":76561198038249762,"connected_time":3220000000000,"state":"active","ping":47},{"user_id":783,"name":"cat (real)","steam_id":76561198885041703,"connected_time":1387000000000,"state":"active","ping":70},{"user_id":790,"name":"Iris","steam_id":76561198065037378,"connected_time":673000000000,"state":"active","ping":71},{"user_id":784,"name":"triangleman","steam_id":76561198972733542,"connected_time":1382000000000,"state":"active","ping":61},{"user_id":723,"name":"jade","steam_id":76561198055611029,"connected_time":4471000000000,"state":"active","ping":59},{"user_id":789,"name":"Emails","steam_id":76561198836919458,"connected_time":683000000000,"state":"active","ping":77},{"user_id":791,"name":"Sudo","steam_id":76561198123714026,"connected_time":663000000000,"state":"active","ping":100},{"user_id":785,"name":"Blide","steam_id":76561198997708598,"connected_time":817000000000,"state":"active","ping":67},{"user_id":777,"name":"Joe2","steam_id":76561199088646500,"connected_time":1641000000000,"state":"active","ping":77},{"user_id":753,"name":"Gian","steam_id":76561198041434512,"connected_time":3092000000000,"state":"active","ping":112},{"user_id":751,"name":"MrVegasAguitar","steam_id":76561198084466946,"connected_time":3157000000000,"state":"active","ping":86},{"user_id":797,"name":"pablo","steam_id":76561198395577807,"connected_time":313000000000,"state":"active","ping":45},{"user_id":787,"name":"Pixeled","steam_id":76561198088917077,"connected_time":786000000000,"state":"active","ping":88},{"user_id":756,"name":"LalitoTV","steam_id":76561198334302951,"connected_time":2952000000000,"state":"active","ping":119},{"user_id":792,"name":"Lost (15)","steam_id":76561198093713427,"connected_time":660000000000,"state":"active","ping":60},{"user_id":793,"name":"leumas","steam_id":76561198240408540,"connected_time":657000000000,"state":"active","ping":59},{"user_id":799,"name":"justaids96","steam_id":76561199036695414,"connected_time":227000000000,"state":"active","ping":63},{"user_id":772,"name":"Dr_Spek","steam_id":76561198128667701,"connected_time":2126000000000,"state":"active","ping":63},{"user_id":794,"name":"The Foreskinner","steam_id":76561198274942231,"connected_time":650000000000,"state":"active","ping":146},{"user_id":798,"name":"FUSION","steam_id":76561197972659738,"connected_time":242000000000,"state":"active","ping":59},{"user_id":766,"name":"Tannenbaum Trotsky","steam_id":76561199101638460,"connected_time":2326000000000,"state":"active","ping":62},{"user_id":779,"name":"PootZilla","steam_id":76561198073870352,"connected_time":1618000000000,"state":"active","ping":84},{"user_id":746,"name":"wheres my drink?","steam_id":76561198031675881,"connected_time":3358000000000,"state":"active","ping":69}]},{"server_id":36,"name":"Uncletopia | Chicago | 5 | All Maps","name_short":"chi-5","host":"chi-2.us.uncletopia.com","port":27015,"enabled":true,"region":"us-central","cc":"us","latitude":41.881832,"longitude":-87.62318,"reserved":0,"last_update":"0001-01-01T00:00:00Z","name_a2s":"Uncletopia | Chicago | 5 | All Maps","protocol":17,"map":"cp_process_final","folder":"tf","game":"Team Fortress","app_id":440,"player_count":24,"max_players":24,"Bots":0,"server_type":"Dedicated","server_os":"Linux","password":true,"vac":true,"version":"7757534","steam_id":85568392924866362,"keywords":["cp","nocrits","nodmgspread","uncletopia"],"game_id":440,"stv_port":27016,"stv_name":"Uncletopia | Chicago | 5 | All Maps | STV","players":[{"user_id":87,"name":"Swshbcklr","steam_id":76561197969421355,"connected_time":8445000000000,"state":"active","ping":62},{"user_id":116,"name":"gaming elliptical","steam_id":76561198013456569,"connected_time":5889000000000,"state":"active","ping":49},{"user_id":177,"name":"prdxninja","steam_id":76561198170081774,"connected_time":115000000000,"state":"active","ping":41},{"user_id":161,"name":"DIRTY_DAN","steam_id":76561199024109064,"connected_time":2331000000000,"state":"active","ping":50},{"user_id":150,"name":"Mattron1","steam_id":76561198012270524,"connected_time":3465000000000,"state":"active","ping":86},{"user_id":175,"name":"popfulmail","steam_id":76561198865971290,"connected_time":148000000000,"state":"active","ping":86},{"user_id":138,"name":"DO NOT call me BART SIMPSON!!","steam_id":76561198069113375,"connected_time":4199000000000,"state":"active","ping":71},{"user_id":178,"name":"iceman","steam_id":76561198135397441,"connected_time":114000000000,"state":"active","ping":75},{"user_id":171,"name":"BasicPeaches","steam_id":76561198190890150,"connected_time":1247000000000,"state":"active","ping":78},{"user_id":172,"name":"Lia_Rein","steam_id":76561198151569597,"connected_time":989000000000,"state":"active","ping":155},{"user_id":179,"name":"grandma","steam_id":76561198203789568,"connected_time":104000000000,"state":"active","ping":45},{"user_id":180,"name":"Gaming123","steam_id":76561198801780168,"connected_time":104000000000,"state":"active","ping":74},{"user_id":181,"name":"kiwiichie ₍ᐢᐢ₎","steam_id":76561198315449521,"connected_time":93000000000,"state":"active","ping":91},{"user_id":182,"name":"Eclipse530","steam_id":76561198897055930,"connected_time":49000000000,"state":"active","ping":63},{"user_id":183,"name":"ihavetapeworms","steam_id":76561198357040313,"connected_time":34000000000,"state":"spawning","ping":88},{"user_id":128,"name":"Funny Skeleton Man","steam_id":76561198264262564,"connected_time":5512000000000,"state":"active","ping":80},{"user_id":159,"name":"Winter the Witchie","steam_id":76561198151971178,"connected_time":2486000000000,"state":"active","ping":57},{"user_id":111,"name":"HumFreY","steam_id":76561198076639682,"connected_time":6526000000000,"state":"active","ping":73},{"user_id":166,"name":"Steev Stanman","steam_id":76561198048417796,"connected_time":2294000000000,"state":"active","ping":46},{"user_id":167,"name":"Nivet Fox","steam_id":76561198135362867,"connected_time":2287000000000,"state":"active","ping":45},{"user_id":168,"name":"Moofins","steam_id":76561198050291949,"connected_time":1968000000000,"state":"active","ping":70},{"user_id":176,"name":"jubattz","steam_id":76561198044874072,"connected_time":145000000000,"state":"active","ping":60},{"user_id":184,"name":"Ka Xin Yu","steam_id":76561198057116531,"connected_time":31000000000,"state":"active","ping":50},{"user_id":185,"name":"Dr. Pleasant","steam_id":76561198111945101,"connected_time":29000000000,"state":"active","ping":81}]},{"server_id":37,"name":"Uncletopia | Chicago | 6 | All Maps","name_short":"chi-6","host":"chi-2.us.uncletopia.com","port":27025,"enabled":true,"region":"us-central","cc":"us","latitude":41.881832,"longitude":-87.62318,"reserved":0,"last_update":"0001-01-01T00:00:00Z","name_a2s":"Uncletopia | Chicago | 6 | All Maps","protocol":17,"map":"pl_upward","folder":"tf","game":"Team Fortress","app_id":440,"player_count":24,"max_players":24,"Bots":0,"server_type":"Dedicated","server_os":"Linux","password":true,"vac":true,"version":"7757534","steam_id":85568392924866363,"keywords":["nocrits","nodmgspread","payload","uncletopia"],"game_id":440,"stv_port":27026,"stv_name":"Uncletopia | Chicago | 6 | All Maps | STV","players":[{"user_id":593,"name":"surrender to the void","steam_id":76561198055494039,"connected_time":2508000000000,"state":"active","ping":79},{"user_id":624,"name":"HRT","steam_id":76561198013781132,"connected_time":989000000000,"state":"active","ping":92},{"user_id":545,"name":"Apple Zoo","steam_id":76561198013732450,"connected_time":4631000000000,"state":"active","ping":53},{"user_id":533,"name":"Citizen⁵","steam_id":76561198053856640,"connected_time":5850000000000,"state":"active","ping":70},{"user_id":613,"name":"clio","steam_id":76561198141700569,"connected_time":1418000000000,"state":"active","ping":74},{"user_id":621,"name":"Turtle","steam_id":76561198098121333,"connected_time":1031000000000,"state":"active","ping":68},{"user_id":549,"name":"jolo","steam_id":76561198042831480,"connected_time":4531000000000,"state":"active","ping":69},{"user_id":622,"name":"thecal","steam_id":76561198307893384,"connected_time":1022000000000,"state":"active","ping":54},{"user_id":574,"name":"Red on Red","steam_id":76561198802356746,"connected_time":3517000000000,"state":"active","ping":90},{"user_id":615,"name":"ClericsRose","steam_id":76561198011013806,"connected_time":1298000000000,"state":"active","ping":80},{"user_id":625,"name":"carp","steam_id":76561198042865147,"connected_time":978000000000,"state":"active","ping":57},{"user_id":627,"name":"Deal yo","steam_id":76561198282395338,"connected_time":856000000000,"state":"active","ping":67},{"user_id":584,"name":"Randy Butternubs","steam_id":76561197983738629,"connected_time":2869000000000,"state":"active","ping":60},{"user_id":632,"name":"watterson :3","steam_id":76561198035536955,"connected_time":337000000000,"state":"active","ping":73},{"user_id":597,"name":"the real big sips","steam_id":76561197999945358,"connected_time":2485000000000,"state":"active","ping":72},{"user_id":602,"name":"prestige worldwide (wide)","steam_id":76561198045655893,"connected_time":2226000000000,"state":"active","ping":71},{"user_id":633,"name":"skilaruh","steam_id":76561198413172611,"connected_time":313000000000,"state":"active","ping":61},{"user_id":605,"name":"Brass beast heavy","steam_id":76561198274197623,"connected_time":1909000000000,"state":"active","ping":135},{"user_id":623,"name":"puddin","steam_id":76561198287779085,"connected_time":1016000000000,"state":"active","ping":95},{"user_id":629,"name":"Murrdogg","steam_id":76561198210491188,"connected_time":725000000000,"state":"active","ping":62},{"user_id":617,"name":"pipepeepi","steam_id":76561198845905873,"connected_time":1103000000000,"state":"active","ping":60},{"user_id":630,"name":"Rudy","steam_id":76561198013456828,"connected_time":664000000000,"state":"active","ping":71},{"user_id":626,"name":"My dad owns Club Penguin.","steam_id":76561198032864436,"connected_time":942000000000,"state":"active","ping":74},{"user_id":612,"name":"KevCraft","steam_id":76561199000622939,"connected_time":1423000000000,"state":"active","ping":77}]},{"server_id":38,"name":"Uncletopia | Chicago | 7 | Stopwatch Beta","name_short":"chi-7","host":"chi-2.us.uncletopia.com","port":27035,"enabled":true,"region":"us-central","cc":"us","latitude":41.881832,"longitude":-87.62318,"reserved":0,"last_update":"0001-01-01T00:00:00Z","name_a2s":"Uncletopia | Chicago | 7 | Stopwatch Beta","protocol":17,"map":"koth_lakeside_final","folder":"tf","game":"Team Fortress","app_id":440,"player_count":0,"max_players":24,"Bots":0,"server_type":"Dedicated","server_os":"Linux","password":true,"vac":true,"version":"7757534","steam_id":85568392924866364,"keywords":["cp","nocrits","nodmgspread","uncletopia"],"game_id":440,"stv_port":27036,"stv_name":"Uncletopia | Chicago | 7 | Stopwatch Beta | STV","players":null},{"server_id":39,"name":"Uncletopia | Chicago | 8 | Community","name_short":"chi-8","host":"chi-2.us.uncletopia.com","port":27045,"enabled":true,"region":"us-central","cc":"us","latitude":41.881832,"longitude":-87.62318,"reserved":0,"last_update":"0001-01-01T00:00:00Z","name_a2s":"Uncletopia | Chicago | 8 | Community","protocol":17,"map":"workshop/rd_asteroid_redux_b1.ugc2154902912","folder":"tf","game":"Team Fortress","app_id":440,"player_count":0,"max_players":24,"Bots":0,"server_type":"Dedicated","server_os":"Linux","password":true,"vac":true,"version":"7757534","steam_id":85568392924866365,"keywords":["beta","nocrits","nodmgspread","rd","uncletopia"],"game_id":440,"stv_port":27046,"stv_name":"Uncletopia | Chicago | 8 | Community | STV","players":null},{"server_id":8,"name":"Uncletopia | Dallas | 1 | All Maps","name_short":"dal-1","host":"dal-1.us.uncletopia.com","port":27015,"enabled":true,"region":"us-central","cc":"us","latitude":32.779167,"longitude":-96.80889,"reserved":0,"last_update":"0001-01-01T00:00:00Z","name_a2s":"Uncletopia | Dallas | 1 | All Maps","protocol":17,"map":"pl_upward","folder":"tf","game":"Team Fortress","app_id":440,"player_count":24,"max_players":24,"Bots":0,"server_type":"Dedicated","server_os":"Linux","password":true,"vac":true,"version":"7757534","steam_id":85568392924469986,"keywords":["nocrits","nodmgspread","payload","uncletopia"],"game_id":440,"stv_port":27016,"stv_name":"Uncletopia | Dallas | 1 | All Maps | STV","players":[{"user_id":379,"name":"Ryo31337","steam_id":76561198063083553,"connected_time":2537000000000,"state":"active","ping":48},{"user_id":363,"name":"the real babytron","steam_id":76561197989627918,"connected_time":3908000000000,"state":"active","ping":98},{"user_id":348,"name":"SeniorPigu","steam_id":76561198072001437,"connected_time":4565000000000,"state":"active","ping":115},{"user_id":408,"name":"Metatron","steam_id":76561198332386371,"connected_time":421000000000,"state":"active","ping":64},{"user_id":412,"name":"Fatcat.win(false) ;","steam_id":76561198069007806,"connected_time":25000000000,"state":"spawning","ping":52},{"user_id":401,"name":"[]{}#^*+=","steam_id":76561198127039453,"connected_time":580000000000,"state":"active","ping":72},{"user_id":395,"name":"Young, Hot, and Full of Grease","steam_id":76561198101092551,"connected_time":1186000000000,"state":"active","ping":74},{"user_id":373,"name":"Punished Shitster","steam_id":76561198150452857,"connected_time":2848000000000,"state":"active","ping":79},{"user_id":407,"name":"ThatFrog","steam_id":76561198437198904,"connected_time":468000000000,"state":"active","ping":79},{"user_id":397,"name":"ALDOMLG","steam_id":76561198343776095,"connected_time":698000000000,"state":"active","ping":99},{"user_id":394,"name":"[LINUX] Purple Penguin Pybro","steam_id":76561198093538786,"connected_time":1319000000000,"state":"active","ping":45},{"user_id":387,"name":"Lemon Demon Enthusiast","steam_id":76561199026721822,"connected_time":1886000000000,"state":"active","ping":87},{"user_id":374,"name":"Treb","steam_id":76561197972961422,"connected_time":2818000000000,"state":"active","ping":94},{"user_id":411,"name":"griddy","steam_id":76561198825658971,"connected_time":69000000000,"state":"active","ping":77},{"user_id":359,"name":"Ballista","steam_id":76561197983182562,"connected_time":4237000000000,"state":"active","ping":53},{"user_id":403,"name":"cook (not cock)","steam_id":76561198073106278,"connected_time":547000000000,"state":"active","ping":62},{"user_id":398,"name":"Noble Sax","steam_id":76561198183283495,"connected_time":694000000000,"state":"active","ping":55},{"user_id":404,"name":"Colepie","steam_id":76561198037853211,"connected_time":526000000000,"state":"active","ping":50},{"user_id":405,"name":"Ixcarsis","steam_id":76561198880674783,"connected_time":526000000000,"state":"active","ping":79},{"user_id":358,"name":"iluvtoust","steam_id":76561198869269207,"connected_time":4334000000000,"state":"active","ping":50},{"user_id":406,"name":"uzr","steam_id":76561198799343084,"connected_time":524000000000,"state":"active","ping":82},{"user_id":375,"name":"Jared In Target","steam_id":76561198372449718,"connected_time":2817000000000,"state":"active","ping":52},{"user_id":410,"name":"Fantastic Mr. Fox Appreciator","steam_id":76561198096306325,"connected_time":93000000000,"state":"active","ping":89},{"user_id":413,"name":"quaker","steam_id":76561198370001653,"connected_time":11000000000,"state":"spawning","ping":75}]},{"server_id":108,"name":"Uncletopia | Dallas | 2 | All Maps","name_short":"dal-2","host":"dal-1.us.uncletopia.com","port":27025,"enabled":true,"region":"us-central","cc":"us","latitude":32.779167,"longitude":-96.80889,"reserved":0,"last_update":"0001-01-01T00:00:00Z","name_a2s":"Uncletopia | Dallas | 2 | All Maps","protocol":17,"map":"cp_dustbowl","folder":"tf","game":"Team Fortress","app_id":440,"player_count":24,"max_players":24,"Bots":0,"server_type":"Dedicated","server_os":"Linux","password":true,"vac":true,"version":"7757534","steam_id":85568392924469988,"keywords":["cp","nocrits","nodmgspread","uncletopia"],"game_id":440,"stv_port":27026,"stv_name":"Uncletopia | Dallas | 2 | All Maps | STV","players":[{"user_id":190,"name":"Psych03","steam_id":76561198061753667,"connected_time":1285000000000,"state":"active","ping":74},{"user_id":215,"name":"SiltyStar85","steam_id":76561198309175923,"connected_time":40000000000,"state":"active","ping":100},{"user_id":191,"name":"neo","steam_id":76561197960772594,"connected_time":1272000000000,"state":"active","ping":73},{"user_id":192,"name":"Meeps0825","steam_id":76561198080430008,"connected_time":1262000000000,"state":"active","ping":45},{"user_id":178,"name":"Antifa Supersoldier","steam_id":76561198141816516,"connected_time":1586000000000,"state":"active","ping":45},{"user_id":213,"name":"plink","steam_id":76561198057829889,"connected_time":132000000000,"state":"active","ping":105},{"user_id":207,"name":"schnedwob","steam_id":76561197999146588,"connected_time":494000000000,"state":"active","ping":55},{"user_id":176,"name":"StraySheep","steam_id":76561198256003811,"connected_time":1683000000000,"state":"active","ping":75},{"user_id":212,"name":"The Sicilian Defense","steam_id":76561198117525735,"connected_time":243000000000,"state":"active","ping":75},{"user_id":193,"name":"boy who stinks good","steam_id":76561198149565822,"connected_time":1208000000000,"state":"active","ping":83},{"user_id":151,"name":"Oh Captain","steam_id":76561198143992609,"connected_time":3896000000000,"state":"active","ping":90},{"user_id":157,"name":"NGsterson","steam_id":76561198162108154,"connected_time":3395000000000,"state":"active","ping":93},{"user_id":169,"name":"FearTheJynx","steam_id":76561198136487957,"connected_time":2265000000000,"state":"active","ping":66},{"user_id":197,"name":"EvilPigglet","steam_id":76561197987243470,"connected_time":822000000000,"state":"active","ping":147},{"user_id":214,"name":"Amoxicilina","steam_id":76561198168486429,"connected_time":96000000000,"state":"active","ping":99},{"user_id":206,"name":"Zenny #saveTF2","steam_id":76561199105729447,"connected_time":543000000000,"state":"active","ping":57},{"user_id":196,"name":"Titar Industries","steam_id":76561198143078476,"connected_time":866000000000,"state":"active","ping":97},{"user_id":186,"name":"✩BONGO✩","steam_id":76561198018040930,"connected_time":1395000000000,"state":"active","ping":37},{"user_id":210,"name":"Rabbit Captain Guykatsu","steam_id":76561198035469897,"connected_time":336000000000,"state":"active","ping":80},{"user_id":188,"name":"Ko - こ - 코","steam_id":76561198035726982,"connected_time":1387000000000,"state":"active","ping":64},{"user_id":164,"name":"Genius Meme","steam_id":76561198162911254,"connected_time":2981000000000,"state":"active","ping":84},{"user_id":89,"name":"Ghaeril","steam_id":76561198047880019,"connected_time":9071000000000,"state":"active","ping":57},{"user_id":211,"name":"OyasumePunpun","steam_id":76561198861509184,"connected_time":320000000000,"state":"active","ping":176},{"user_id":203,"name":"Troy","steam_id":76561198005572722,"connected_time":676000000000,"state":"active","ping":88}]},{"server_id":5,"name":"Uncletopia | Frankfurt | 1 | All Maps","name_short":"frk-1","host":"frk-1.de.uncletopia.com","port":27015,"enabled":true,"region":"eu","cc":"de","latitude":50.110924,"longitude":8.682127,"reserved":0,"last_update":"0001-01-01T00:00:00Z","name_a2s":"Uncletopia | Frankfurt | 1 | All Maps","protocol":17,"map":"koth_cascade","folder":"tf","game":"Team Fortress","app_id":440,"player_count":0,"max_players":24,"Bots":0,"server_type":"Dedicated","server_os":"Linux","password":true,"vac":true,"version":"7757534","steam_id":85568392924469989,"keywords":["cp","nocrits","nodmgspread","uncletopia"],"game_id":440,"stv_port":27016,"stv_name":"Uncletopia | Frankfurt | 1 | All Maps | STV","players":null},{"server_id":110,"name":"Uncletopia | Frankfurt | 2 | All Maps","name_short":"frk-2","host":"frk-1.de.uncletopia.com","port":27025,"enabled":true,"region":"eu","cc":"de","latitude":50.110924,"longitude":8.682127,"reserved":0,"last_update":"0001-01-01T00:00:00Z","name_a2s":"Uncletopia | Frankfurt | 2 | All Maps","protocol":17,"map":"cp_dustbowl","folder":"tf","game":"Team Fortress","app_id":440,"player_count":0,"max_players":24,"Bots":0,"server_type":"Dedicated","server_os":"Linux","password":true,"vac":true,"version":"7757534","steam_id":85568392924469990,"keywords":["cp","nocrits","nodmgspread","uncletopia"],"game_id":440,"stv_port":27026,"stv_name":"Uncletopia | Frankfurt | 2 | All Maps | STV","players":null},{"server_id":308,"name":"Uncletopia | Frankfurt | 3 | All Maps","name_short":"frk-3","host":"frk-1.de.uncletopia.com","port":27035,"enabled":true,"region":"eu","cc":"de","latitude":50.110924,"longitude":8.682127,"reserved":0,"last_update":"0001-01-01T00:00:00Z","name_a2s":"Uncletopia | Frankfurt | 3 | All Maps","protocol":17,"map":"koth_lakeside_final","folder":"tf","game":"Team Fortress","app_id":440,"player_count":0,"max_players":24,"Bots":0,"server_type":"Dedicated","server_os":"Linux","password":true,"vac":true,"version":"7757534","steam_id":85568392924504274,"keywords":["cp","nocrits","nodmgspread","uncletopia"],"game_id":440,"stv_port":27036,"stv_name":"Uncletopia | Frankfurt | 3 | All Maps | STV","players":null},{"server_id":309,"name":"Uncletopia | Frankfurt | 4 | All Maps","name_short":"frk-4","host":"frk-1.de.uncletopia.com","port":27045,"enabled":true,"region":"eu","cc":"de","latitude":50.110924,"longitude":8.682127,"reserved":0,"last_update":"0001-01-01T00:00:00Z","name_a2s":"Uncletopia | Frankfurt | 4 | All Maps","protocol":17,"map":"pl_swiftwater_final1","folder":"tf","game":"Team Fortress","app_id":440,"player_count":22,"max_players":24,"Bots":0,"server_type":"Dedicated","server_os":"Linux","password":true,"vac":true,"version":"7757534","steam_id":85568392924504275,"keywords":["nocrits","nodmgspread","payload","uncletopia"],"game_id":440,"stv_port":27046,"stv_name":"Uncletopia | Frankfurt | 4 | All Maps | STV","players":[{"user_id":548,"name":"Bobo","steam_id":76561198052308399,"connected_time":1257000000000,"state":"active","ping":58},{"user_id":466,"name":"Efeca","steam_id":76561198018923829,"connected_time":8574000000000,"state":"active","ping":63},{"user_id":510,"name":"Refurbished Boy","steam_id":76561197995834697,"connected_time":5297000000000,"state":"active","ping":85},{"user_id":549,"name":"wiko","steam_id":76561198192182682,"connected_time":1025000000000,"state":"active","ping":88},{"user_id":503,"name":"SuperBob103","steam_id":76561199175360012,"connected_time":5389000000000,"state":"active","ping":61},{"user_id":488,"name":"KittyKate ❤","steam_id":76561198116340817,"connected_time":7529000000000,"state":"active","ping":60},{"user_id":553,"name":"SOCIALITE","steam_id":76561198973862597,"connected_time":505000000000,"state":"active","ping":78},{"user_id":550,"name":"originally dogshit","steam_id":76561198173695818,"connected_time":600000000000,"state":"active","ping":67},{"user_id":498,"name":"BuzzBees ❤","steam_id":76561198101502273,"connected_time":6564000000000,"state":"active","ping":61},{"user_id":537,"name":"brainrot","steam_id":76561199414716848,"connected_time":2438000000000,"state":"active","ping":76},{"user_id":551,"name":"the rizzler","steam_id":76561198151768815,"connected_time":544000000000,"state":"active","ping":74},{"user_id":552,"name":"Penis Contortionist","steam_id":76561198073663784,"connected_time":538000000000,"state":"active","ping":48},{"user_id":538,"name":"niccy","steam_id":76561199090247178,"connected_time":2376000000000,"state":"active","ping":98},{"user_id":554,"name":"l3m9n","steam_id":76561198816003075,"connected_time":503000000000,"state":"active","ping":75},{"user_id":533,"name":"Superintendent","steam_id":76561198074863163,"connected_time":2803000000000,"state":"active","ping":80},{"user_id":423,"name":"Seb, Comrade","steam_id":76561198040279587,"connected_time":12217000000000,"state":"active","ping":107},{"user_id":547,"name":"Scottish Resistance Enjoyer","steam_id":76561197977122134,"connected_time":1639000000000,"state":"active","ping":62},{"user_id":539,"name":"return-efficiency aficionado","steam_id":76561198144597089,"connected_time":2354000000000,"state":"active","ping":45},{"user_id":540,"name":"Hood","steam_id":76561199229682408,"connected_time":2333000000000,"state":"active","ping":53},{"user_id":543,"name":"stepbro","steam_id":76561198119607160,"connected_time":2183000000000,"state":"active","ping":70},{"user_id":555,"name":"Justin Weaver","steam_id":76561198276282082,"connected_time":480000000000,"state":"active","ping":70},{"user_id":556,"name":"=PB=","steam_id":76561197999146612,"connected_time":412000000000,"state":"active","ping":55}]},{"server_id":310,"name":"Uncletopia | Frankfurt | 5 | All Maps","name_short":"frk-5","host":"frk-1.de.uncletopia.com","port":27055,"enabled":true,"region":"eu","cc":"de","latitude":50.110924,"longitude":8.682127,"reserved":0,"last_update":"0001-01-01T00:00:00Z","name_a2s":"Uncletopia | Frankfurt | 5 | All Maps","protocol":17,"map":"pl_barnblitz","folder":"tf","game":"Team Fortress","app_id":440,"player_count":0,"max_players":24,"Bots":0,"server_type":"Dedicated","server_os":"Linux","password":true,"vac":true,"version":"7757534","steam_id":85568392924504277,"keywords":["nocrits","nodmgspread","payload","uncletopia"],"game_id":440,"stv_port":27056,"stv_name":"Uncletopia | Frankfurt | 5 | All Maps | STV","players":null},{"server_id":311,"name":"Uncletopia | Frankfurt | 6 | All Maps","name_short":"frk-6","host":"frk-1.de.uncletopia.com","port":27065,"enabled":true,"region":"eu","cc":"de","latitude":50.110924,"longitude":8.682127,"reserved":0,"last_update":"0001-01-01T00:00:00Z","name_a2s":"Uncletopia | Frankfurt | 6 | All Maps","protocol":17,"map":"koth_cascade","folder":"tf","game":"Team Fortress","app_id":440,"player_count":5,"max_players":24,"Bots":0,"server_type":"Dedicated","server_os":"Linux","password":true,"vac":true,"version":"7757534","steam_id":85568392924504278,"keywords":["cp","nocrits","nodmgspread","uncletopia"],"game_id":440,"stv_port":27066,"stv_name":"Uncletopia | Frankfurt | 6 | All Maps | STV","players":[{"user_id":528,"name":"Truegr","steam_id":76561198811912339,"connected_time":517000000000,"state":"active","ping":59},{"user_id":529,"name":"Canteloupe","steam_id":76561199187764012,"connected_time":469000000000,"state":"active","ping":130},{"user_id":530,"name":"Half-Life 4 Enjoyer","steam_id":76561198846784757,"connected_time":346000000000,"state":"active","ping":66},{"user_id":526,"name":"F2P gameing","steam_id":76561198834713682,"connected_time":1297000000000,"state":"active","ping":68},{"user_id":519,"name":"Leszy","steam_id":76561198372172135,"connected_time":2612000000000,"state":"active","ping":59}]},{"server_id":23,"name":"Uncletopia | Frankfurt | 7 | Stopwatch Beta","name_short":"frk-7","host":"frk-1.de.uncletopia.com","port":27075,"enabled":true,"region":"eu","cc":"de","latitude":50.110924,"longitude":8.682127,"reserved":0,"last_update":"0001-01-01T00:00:00Z","name_a2s":"Uncletopia | Frankfurt | 7 | Stopwatch Beta","protocol":17,"map":"workshop/koth_ashville_final.ugc2130459942","folder":"tf","game":"Team Fortress","app_id":440,"player_count":0,"max_players":24,"Bots":0,"server_type":"Dedicated","server_os":"Linux","password":true,"vac":true,"version":"7757534","steam_id":85568392924742827,"keywords":["cp","nocrits","nodmgspread","uncletopia"],"game_id":440,"stv_port":27076,"stv_name":"Uncletopia | Frankfurt | 7 | Stopwatch Beta | STV","players":null},{"server_id":24,"name":"Uncletopia | Frankfurt | 8 | Community","name_short":"frk-8","host":"frk-1.de.uncletopia.com","port":27085,"enabled":true,"region":"eu","cc":"de","latitude":50.110924,"longitude":8.682127,"reserved":0,"last_update":"0001-01-01T00:00:00Z","name_a2s":"Uncletopia | Frankfurt | 8 | Community","protocol":17,"map":"workshop/cp_caldera_rc2.ugc2834196889","folder":"tf","game":"Team Fortress","app_id":440,"player_count":0,"max_players":24,"Bots":0,"server_type":"Dedicated","server_os":"Linux","password":true,"vac":true,"version":"7757534","steam_id":85568392924742828,"keywords":["cp","nocrits","nodmgspread","uncletopia"],"game_id":440,"stv_port":27086,"stv_name":"Uncletopia | Frankfurt | 8 | Community | STV","players":null},{"server_id":202,"name":"Uncletopia | Hong Kong | 1 | All Maps","name_short":"hgk-1","host":"hgk-1.hk.uncletopia.com","port":27015,"enabled":true,"region":"asia","cc":"hk","latitude":22.302711,"longitude":114.177216,"reserved":0,"last_update":"0001-01-01T00:00:00Z","name_a2s":"Uncletopia | Hong Kong | 1 | All Maps","protocol":17,"map":"cp_sunshine","folder":"tf","game":"Team Fortress","app_id":440,"player_count":0,"max_players":24,"Bots":0,"server_type":"Dedicated","server_os":"Linux","password":true,"vac":true,"version":"7757534","steam_id":85568392924494504,"keywords":["cp","nocrits","nodmgspread","uncletopia"],"game_id":440,"stv_port":27016,"stv_name":"Uncletopia | Hong Kong | 1 | All Maps | STV","players":null},{"server_id":1,"name":"Uncletopia | Los Angeles | 1 | All Maps","name_short":"lax-1","host":"lax-1.us.uncletopia.com","port":27015,"enabled":true,"region":"us-west","cc":"us","latitude":33.94279,"longitude":-118.41004,"reserved":0,"last_update":"0001-01-01T00:00:00Z","name_a2s":"Uncletopia | Los Angeles | 1 | All Maps","protocol":17,"map":"koth_lakeside_final","folder":"tf","game":"Team Fortress","app_id":440,"player_count":7,"max_players":24,"Bots":0,"server_type":"Dedicated","server_os":"Linux","password":true,"vac":true,"version":"7757534","steam_id":85568392924469991,"keywords":["cp","nocrits","nodmgspread","uncletopia"],"game_id":440,"stv_port":27016,"stv_name":"Uncletopia | Los Angeles | 1 | All Maps | STV","players":[{"user_id":10,"name":"Chaos2020","steam_id":76561198994743458,"connected_time":703000000000,"state":"active","ping":62},{"user_id":9,"name":"AcidBat3","steam_id":76561198169389335,"connected_time":738000000000,"state":"active","ping":48},{"user_id":11,"name":"Manx","steam_id":76561197977134062,"connected_time":689000000000,"state":"active","ping":102},{"user_id":12,"name":"Nibotshooter","steam_id":76561199284825579,"connected_time":658000000000,"state":"active","ping":104},{"user_id":13,"name":"teh mummy","steam_id":76561198044123636,"connected_time":607000000000,"state":"active","ping":33},{"user_id":14,"name":"Wackydavo","steam_id":76561197990094209,"connected_time":361000000000,"state":"active","ping":90},{"user_id":15,"name":"Mud (rip apetor)","steam_id":76561198356426602,"connected_time":146000000000,"state":"active","ping":34}]},{"server_id":112,"name":"Uncletopia | Los Angeles | 2 | All Maps","name_short":"lax-2","host":"lax-1.us.uncletopia.com","port":27025,"enabled":true,"region":"us-west","cc":"us","latitude":33.94279,"longitude":-118.41004,"reserved":0,"last_update":"0001-01-01T00:00:00Z","name_a2s":"Uncletopia | Los Angeles | 2 | All Maps","protocol":17,"map":"koth_viaduct","folder":"tf","game":"Team Fortress","app_id":440,"player_count":0,"max_players":24,"Bots":0,"server_type":"Dedicated","server_os":"Linux","password":true,"vac":true,"version":"7757534","steam_id":85568392924469992,"keywords":["cp","nocrits","nodmgspread","uncletopia"],"game_id":440,"stv_port":27026,"stv_name":"Uncletopia | Los Angeles | 2 | All Maps | STV","players":null},{"server_id":324,"name":"Uncletopia | Los Angeles | 3 | All Maps","name_short":"lax-3","host":"lax-1.us.uncletopia.com","port":27035,"enabled":true,"region":"us-west","cc":"us","latitude":33.94279,"longitude":-118.41004,"reserved":0,"last_update":"0001-01-01T00:00:00Z","name_a2s":"Uncletopia | Los Angeles | 3 | All Maps","protocol":17,"map":"koth_lakeside_final","folder":"tf","game":"Team Fortress","app_id":440,"player_count":0,"max_players":24,"Bots":0,"server_type":"Dedicated","server_os":"Linux","password":true,"vac":true,"version":"7757534","steam_id":85568392924510198,"keywords":["cp","nocrits","nodmgspread","uncletopia"],"game_id":440,"stv_port":27036,"stv_name":"Uncletopia | Los Angeles | 3 | All Maps | STV","players":null},{"server_id":25,"name":"Uncletopia | Los Angeles | 4 | Stopwatch Beta","name_short":"lax-4","host":"lax-1.us.uncletopia.com","port":27045,"enabled":true,"region":"us-west","cc":"us","latitude":33.94279,"longitude":-118.41004,"reserved":0,"last_update":"0001-01-01T00:00:00Z","name_a2s":"Uncletopia | Los Angeles | 4 | Stopwatch Beta","protocol":17,"map":"cp_dustbowl","folder":"tf","game":"Team Fortress","app_id":440,"player_count":0,"max_players":24,"Bots":0,"server_type":"Dedicated","server_os":"Linux","password":true,"vac":true,"version":"7757534","steam_id":85568392924510199,"keywords":["cp","nocrits","nodmgspread","uncletopia"],"game_id":440,"stv_port":27046,"stv_name":"Uncletopia | Los Angeles | 4 | Stopwatch Beta | STV","players":null},{"server_id":11,"name":"Uncletopia | London | 1 | All Maps","name_short":"lon-1","host":"lon-1.uk.uncletopia.com","port":27015,"enabled":true,"region":"eu","cc":"gb","latitude":51.509865,"longitude":-0.118092,"reserved":0,"last_update":"0001-01-01T00:00:00Z","name_a2s":"Uncletopia | London | 1 | All Maps","protocol":17,"map":"pl_frontier_final","folder":"tf","game":"Team Fortress","app_id":440,"player_count":0,"max_players":24,"Bots":0,"server_type":"Dedicated","server_os":"Linux","password":true,"vac":true,"version":"7757534","steam_id":85568392924367362,"keywords":["nocrits","nodmgspread","payload","uncletopia"],"game_id":440,"stv_port":27016,"stv_name":"Uncletopia | London | 1 | All Maps | STV","players":null},{"server_id":114,"name":"Uncletopia | London | 2 | All Maps","name_short":"lon-2","host":"lon-1.uk.uncletopia.com","port":27025,"enabled":true,"region":"eu","cc":"gb","latitude":51.509865,"longitude":-0.118092,"reserved":0,"last_update":"0001-01-01T00:00:00Z","name_a2s":"Uncletopia | London | 2 | All Maps","protocol":17,"map":"pl_barnblitz","folder":"tf","game":"Team Fortress","app_id":440,"player_count":0,"max_players":24,"Bots":0,"server_type":"Dedicated","server_os":"Linux","password":true,"vac":true,"version":"7757534","steam_id":85568392924470941,"keywords":["nocrits","nodmgspread","payload","uncletopia"],"game_id":440,"stv_port":27026,"stv_name":"Uncletopia | London | 2 | All Maps | STV","players":null},{"server_id":320,"name":"Uncletopia | London | 3 | All Maps","name_short":"lon-3","host":"lon-1.uk.uncletopia.com","port":27035,"enabled":true,"region":"eu","cc":"gb","latitude":51.509865,"longitude":-0.118092,"reserved":0,"last_update":"0001-01-01T00:00:00Z","name_a2s":"Uncletopia | London | 3 | All Maps","protocol":17,"map":"pl_swiftwater_final1","folder":"tf","game":"Team Fortress","app_id":440,"player_count":0,"max_players":24,"Bots":0,"server_type":"Dedicated","server_os":"Linux","password":true,"vac":true,"version":"7757534","steam_id":85568392924510192,"keywords":["nocrits","nodmgspread","payload","uncletopia"],"game_id":440,"stv_port":27036,"stv_name":"Uncletopia | London | 3 | All Maps | STV","players":null},{"server_id":321,"name":"Uncletopia | London | 4 | All Maps","name_short":"lon-4","host":"lon-1.uk.uncletopia.com","port":27045,"enabled":true,"region":"eu","cc":"gb","latitude":51.509865,"longitude":-0.118092,"reserved":0,"last_update":"0001-01-01T00:00:00Z","name_a2s":"Uncletopia | London | 4 | All Maps","protocol":17,"map":"cp_dustbowl","folder":"tf","game":"Team Fortress","app_id":440,"player_count":0,"max_players":24,"Bots":0,"server_type":"Dedicated","server_os":"Linux","password":true,"vac":true,"version":"7757534","steam_id":85568392924510193,"keywords":["cp","nocrits","nodmgspread","uncletopia"],"game_id":440,"stv_port":27046,"stv_name":"Uncletopia | London | 4 | All Maps | STV","players":null},{"server_id":21,"name":"Uncletopia | London | 5 | All Maps","name_short":"lon-5","host":"lon-1.uk.uncletopia.com","port":27055,"enabled":true,"region":"eu","cc":"gb","latitude":51.509865,"longitude":-0.118092,"reserved":0,"last_update":"0001-01-01T00:00:00Z","name_a2s":"Uncletopia | London | 5 | All Maps","protocol":17,"map":"cp_altitude","folder":"tf","game":"Team Fortress","app_id":440,"player_count":0,"max_players":24,"Bots":0,"server_type":"Dedicated","server_os":"Linux","password":true,"vac":true,"version":"7757534","steam_id":85568392924742829,"keywords":["cp","nocrits","nodmgspread","uncletopia"],"game_id":440,"stv_port":27056,"stv_name":"Uncletopia | London | 5 | All Maps | STV","players":null},{"server_id":22,"name":"Uncletopia | London | 6 | All Maps","name_short":"lon-6","host":"lon-1.uk.uncletopia.com","port":27065,"enabled":true,"region":"eu","cc":"gb","latitude":51.509865,"longitude":-0.118092,"reserved":0,"last_update":"0001-01-01T00:00:00Z","name_a2s":"Uncletopia | London | 6 | All Maps","protocol":17,"map":"cp_altitude","folder":"tf","game":"Team Fortress","app_id":440,"player_count":0,"max_players":24,"Bots":0,"server_type":"Dedicated","server_os":"Linux","password":true,"vac":true,"version":"7757534","steam_id":85568392924742830,"keywords":["cp","nocrits","nodmgspread","uncletopia"],"game_id":440,"stv_port":27066,"stv_name":"Uncletopia | London | 6 | All Maps | STV","players":null},{"server_id":40,"name":"Uncletopia | London | 7 | No Payload","name_short":"lon-7","host":"lon-1.uk.uncletopia.com","port":27075,"enabled":true,"region":"eu","cc":"gb","latitude":51.509865,"longitude":-0.118092,"reserved":0,"last_update":"0001-01-01T00:00:00Z","name_a2s":"Uncletopia | London | 7 | No Payload","protocol":17,"map":"koth_highpass","folder":"tf","game":"Team Fortress","app_id":440,"player_count":0,"max_players":24,"Bots":0,"server_type":"Dedicated","server_os":"Linux","password":true,"vac":true,"version":"7757534","steam_id":85568392924964314,"keywords":["cp","nocrits","nodmgspread","uncletopia"],"game_id":440,"stv_port":27076,"stv_name":"Uncletopia | London | 7 | No Payload | STV","players":null},{"server_id":41,"name":"Uncletopia | London | 8 | Community","name_short":"lon-8","host":"lon-1.uk.uncletopia.com","port":27085,"enabled":true,"region":"eu","cc":"gb","latitude":51.509865,"longitude":-0.118092,"reserved":0,"last_update":"0001-01-01T00:00:00Z","name_a2s":"Uncletopia | London | 8 | Community","protocol":17,"map":"workshop/rd_asteroid_redux_b1.ugc2154902912","folder":"tf","game":"Team Fortress","app_id":440,"player_count":0,"max_players":24,"Bots":0,"server_type":"Dedicated","server_os":"Linux","password":true,"vac":true,"version":"7757534","steam_id":85568392924964315,"keywords":["beta","nocrits","nodmgspread","rd","uncletopia"],"game_id":440,"stv_port":27086,"stv_name":"Uncletopia | London | 8 | Community | STV","players":null},{"server_id":300,"name":"Uncletopia | Montréal | 1 | All Maps","name_short":"mtl-1","host":"mtl-1.ca.uncletopia.com","port":27015,"enabled":true,"region":"us-east","cc":"ca","latitude":45.50889,"longitude":-73.56167,"reserved":0,"last_update":"0001-01-01T00:00:00Z","name_a2s":"Uncletopia | Montréal | 1 | All Maps","protocol":17,"map":"koth_highpass","folder":"tf","game":"Team Fortress","app_id":440,"player_count":0,"max_players":24,"Bots":0,"server_type":"Dedicated","server_os":"Linux","password":true,"vac":true,"version":"7757534","steam_id":85568392924500087,"keywords":["cp","nocrits","nodmgspread","uncletopia"],"game_id":440,"stv_port":27016,"stv_name":"Uncletopia | Montréal | 1 | All Maps | STV","players":null},{"server_id":301,"name":"Uncletopia | Montréal | 2 | All Maps","name_short":"mtl-2","host":"mtl-1.ca.uncletopia.com","port":27025,"enabled":true,"region":"us-east","cc":"ca","latitude":45.50889,"longitude":-73.56167,"reserved":0,"last_update":"0001-01-01T00:00:00Z","name_a2s":"Uncletopia | Montréal | 2 | All Maps","protocol":17,"map":"cp_process_final","folder":"tf","game":"Team Fortress","app_id":440,"player_count":0,"max_players":24,"Bots":0,"server_type":"Dedicated","server_os":"Linux","password":true,"vac":true,"version":"7757534","steam_id":85568392924500088,"keywords":["cp","nocrits","nodmgspread","uncletopia"],"game_id":440,"stv_port":27026,"stv_name":"Uncletopia | Montréal | 2 | All Maps | STV","players":null},{"server_id":302,"name":"Uncletopia | Montréal | 3 | All Maps","name_short":"mtl-3","host":"mtl-1.ca.uncletopia.com","port":27035,"enabled":true,"region":"us-east","cc":"ca","latitude":45.50889,"longitude":-73.56167,"reserved":0,"last_update":"0001-01-01T00:00:00Z","name_a2s":"Uncletopia | Montréal | 3 | All Maps","protocol":17,"map":"cp_dustbowl","folder":"tf","game":"Team Fortress","app_id":440,"player_count":0,"max_players":24,"Bots":0,"server_type":"Dedicated","server_os":"Linux","password":true,"vac":true,"version":"7757534","steam_id":85568392924500089,"keywords":["cp","nocrits","nodmgspread","uncletopia"],"game_id":440,"stv_port":27036,"stv_name":"Uncletopia | Montréal | 3 | All Maps | STV","players":null},{"server_id":303,"name":"Uncletopia | Montréal | 4 | No Payload","name_short":"mtl-4","host":"mtl-1.ca.uncletopia.com","port":27045,"enabled":true,"region":"us-east","cc":"ca","latitude":45.50889,"longitude":-73.56167,"reserved":0,"last_update":"0001-01-01T00:00:00Z","name_a2s":"Uncletopia | Montréal | 4 | No Payload","protocol":17,"map":"koth_highpass","folder":"tf","game":"Team Fortress","app_id":440,"player_count":0,"max_players":24,"Bots":0,"server_type":"Dedicated","server_os":"Linux","password":true,"vac":true,"version":"7757534","steam_id":85568392924500090,"keywords":["cp","nocrits","nodmgspread","uncletopia"],"game_id":440,"stv_port":27046,"stv_name":"Uncletopia | Montréal | 4 | No Payload | STV","players":null},{"server_id":13,"name":"Uncletopia | New York City | 1 | All Maps","name_short":"nyc-1","host":"nyc-1.us.uncletopia.com","port":27015,"enabled":true,"region":"us-east","cc":"us","latitude":40.73061,"longitude":-73.93524,"reserved":0,"last_update":"0001-01-01T00:00:00Z","name_a2s":"Uncletopia | New York City | 1 | All Maps","protocol":17,"map":"cp_sunshine","folder":"tf","game":"Team Fortress","app_id":440,"player_count":24,"max_players":24,"Bots":0,"server_type":"Dedicated","server_os":"Linux","password":true,"vac":true,"version":"7757534","steam_id":85568392924469993,"keywords":["cp","nocrits","nodmgspread","uncletopia"],"game_id":440,"stv_port":27016,"stv_name":"Uncletopia | New York City | 1 | All Maps | STV","players":[{"user_id":241,"name":"Rockguy21","steam_id":76561198121303359,"connected_time":1527000000000,"state":"active","ping":60},{"user_id":238,"name":"brotalium","steam_id":76561198055439054,"connected_time":1552000000000,"state":"active","ping":56},{"user_id":209,"name":"ExoTheFlyingFish","steam_id":76561198034388243,"connected_time":3571000000000,"state":"active","ping":45},{"user_id":237,"name":"Dross","steam_id":76561198042172372,"connected_time":1574000000000,"state":"active","ping":54},{"user_id":229,"name":"Heropon","steam_id":76561198105224481,"connected_time":2263000000000,"state":"active","ping":65},{"user_id":221,"name":"ven","steam_id":76561198017539604,"connected_time":3370000000000,"state":"active","ping":75},{"user_id":247,"name":"coolfalcon168","steam_id":76561198948665710,"connected_time":393000000000,"state":"active","ping":62},{"user_id":235,"name":"Hi, I'm Jesus","steam_id":76561198015327152,"connected_time":1584000000000,"state":"active","ping":48},{"user_id":251,"name":"Yeagle","steam_id":76561199086620299,"connected_time":4000000000,"state":"spawning","ping":88},{"user_id":245,"name":"Sapphireblitz","steam_id":76561198272635379,"connected_time":750000000000,"state":"active","ping":73},{"user_id":213,"name":"Nonbank","steam_id":76561199229805023,"connected_time":3558000000000,"state":"active","ping":93},{"user_id":250,"name":"Kepi","steam_id":76561198795923860,"connected_time":79000000000,"state":"active","ping":48},{"user_id":158,"name":"Richard \"Waterhate'n\" Nixon","steam_id":76561198092161655,"connected_time":4934000000000,"state":"active","ping":79},{"user_id":63,"name":"/Loss/-Soul-","steam_id":76561198096899089,"connected_time":6726000000000,"state":"active","ping":133},{"user_id":248,"name":"TLG, Certified Gamer Mom","steam_id":76561198076669951,"connected_time":102000000000,"state":"connecting","ping":0},{"user_id":246,"name":"Confused","steam_id":76561199104541756,"connected_time":491000000000,"state":"active","ping":65},{"user_id":159,"name":"Dat Franklin Pierce Do","steam_id":76561198027749453,"connected_time":4930000000000,"state":"active","ping":57},{"user_id":244,"name":"The Drunk Clown","steam_id":76561197986850426,"connected_time":881000000000,"state":"active","ping":75},{"user_id":243,"name":"AFairFew","steam_id":76561198194484645,"connected_time":1350000000000,"state":"active","ping":135},{"user_id":218,"name":"A Puppy","steam_id":76561198828184456,"connected_time":3425000000000,"state":"active","ping":48},{"user_id":79,"name":"MrCalmL.I","steam_id":76561198966598137,"connected_time":6383000000000,"state":"active","ping":62},{"user_id":249,"name":"Spirosity","steam_id":76561198013485753,"connected_time":85000000000,"state":"active","ping":59},{"user_id":252,"name":"jar of peanut butter","steam_id":76561199384471896,"connected_time":0,"state":"spawning","ping":17},{"user_id":177,"name":"Teddy \"The Bear\" Roosevelt","steam_id":76561198022397601,"connected_time":4503000000000,"state":"active","ping":85}]},{"server_id":14,"name":"Uncletopia | New York City | 2 | All Maps","name_short":"nyc-2","host":"nyc-1.us.uncletopia.com","port":27025,"enabled":true,"region":"us-east","cc":"us","latitude":40.73061,"longitude":-73.93524,"reserved":0,"last_update":"0001-01-01T00:00:00Z","name_a2s":"Uncletopia | New York City | 2 | All Maps","protocol":17,"map":"cp_mossrock","folder":"tf","game":"Team Fortress","app_id":440,"player_count":24,"max_players":24,"Bots":0,"server_type":"Dedicated","server_os":"Linux","password":true,"vac":true,"version":"7757534","steam_id":85568392924469994,"keywords":["cp","nocrits","nodmgspread","uncletopia"],"game_id":440,"stv_port":27026,"stv_name":"Uncletopia | New York City | 2 | All Maps | STV","players":[{"user_id":494,"name":"Xavibite","steam_id":76561198209380493,"connected_time":4995000000000,"state":"active","ping":44},{"user_id":544,"name":"Haveltherock27","steam_id":76561199219844391,"connected_time":1283000000000,"state":"active","ping":93},{"user_id":534,"name":"Obelix","steam_id":76561198274715109,"connected_time":2406000000000,"state":"active","ping":45},{"user_id":542,"name":"Forest_Dragon93","steam_id":76561199064900666,"connected_time":1497000000000,"state":"active","ping":101},{"user_id":540,"name":"chuck","steam_id":76561198102300433,"connected_time":1567000000000,"state":"active","ping":72},{"user_id":551,"name":"Lin","steam_id":76561198143746480,"connected_time":679000000000,"state":"active","ping":120},{"user_id":511,"name":"Dicksuck Mcgee","steam_id":76561198028577159,"connected_time":3606000000000,"state":"active","ping":74},{"user_id":528,"name":"Lawtumn","steam_id":76561198347286009,"connected_time":2596000000000,"state":"active","ping":59},{"user_id":454,"name":"b4rry","steam_id":76561198365887154,"connected_time":7897000000000,"state":"active","ping":59},{"user_id":557,"name":"Swifgz","steam_id":76561198162875756,"connected_time":157000000000,"state":"active","ping":45},{"user_id":549,"name":"bensneb","steam_id":76561198046110099,"connected_time":838000000000,"state":"active","ping":67},{"user_id":541,"name":"Magik","steam_id":76561198200169706,"connected_time":1565000000000,"state":"active","ping":40},{"user_id":509,"name":"minecraft","steam_id":76561198023595873,"connected_time":3890000000000,"state":"active","ping":77},{"user_id":553,"name":"monqueer","steam_id":76561199125615716,"connected_time":656000000000,"state":"active","ping":94},{"user_id":558,"name":"hotline miami 2 enjoyer","steam_id":76561198995705248,"connected_time":146000000000,"state":"active","ping":98},{"user_id":548,"name":"muzikelretifhbr","steam_id":76561198445169719,"connected_time":947000000000,"state":"active","ping":121},{"user_id":518,"name":"LocalGoose","steam_id":76561198154176702,"connected_time":3472000000000,"state":"active","ping":66},{"user_id":559,"name":"pablo","steam_id":76561199190247198,"connected_time":130000000000,"state":"active","ping":118},{"user_id":521,"name":"e0e0","steam_id":76561198293839750,"connected_time":3165000000000,"state":"active","ping":48},{"user_id":554,"name":"Pennis the Menace","steam_id":76561198254878037,"connected_time":654000000000,"state":"active","ping":84},{"user_id":484,"name":"PinkLemonade","steam_id":76561198799286228,"connected_time":5418000000000,"state":"active","ping":60},{"user_id":533,"name":"Nichnolte","steam_id":76561198051811176,"connected_time":2506000000000,"state":"active","ping":182},{"user_id":468,"name":"Infineable","steam_id":76561198358100698,"connected_time":6789000000000,"state":"active","ping":80},{"user_id":526,"name":"sam","steam_id":76561198217362968,"connected_time":2678000000000,"state":"active","ping":66}]},{"server_id":15,"name":"Uncletopia | New York City | 3 | Stopwatch Beta","name_short":"nyc-3","host":"nyc-1.us.uncletopia.com","port":27035,"enabled":true,"region":"us-east","cc":"us","latitude":40.73061,"longitude":-73.93524,"reserved":0,"last_update":"0001-01-01T00:00:00Z","name_a2s":"Uncletopia | New York City | 3 | Stopwatch Beta","protocol":17,"map":"koth_lakeside_final","folder":"tf","game":"Team Fortress","app_id":440,"player_count":0,"max_players":24,"Bots":0,"server_type":"Dedicated","server_os":"Linux","password":true,"vac":true,"version":"7757534","steam_id":85568392924742820,"keywords":["cp","nocrits","nodmgspread","uncletopia"],"game_id":440,"stv_port":27036,"stv_name":"Uncletopia | New York City | 3 | Stopwatch Beta | STV","players":null},{"server_id":16,"name":"Uncletopia | New York City | 4 | Community","name_short":"nyc-4","host":"nyc-1.us.uncletopia.com","port":27045,"enabled":true,"region":"us-east","cc":"us","latitude":40.73061,"longitude":-73.93524,"reserved":0,"last_update":"0001-01-01T00:00:00Z","name_a2s":"Uncletopia | New York City | 4 | Community","protocol":17,"map":"workshop/pl_fifthcurve_rc1.ugc648227046","folder":"tf","game":"Team Fortress","app_id":440,"player_count":24,"max_players":24,"Bots":0,"server_type":"Dedicated","server_os":"Linux","password":true,"vac":true,"version":"7757534","steam_id":85568392924742821,"keywords":["nocrits","nodmgspread","payload","uncletopia"],"game_id":440,"stv_port":27046,"stv_name":"Uncletopia | New York City | 4 | Community | STV","players":[{"user_id":164,"name":"bojack from the show bojack hor","steam_id":76561198053006712,"connected_time":1039000000000,"state":"active","ping":39},{"user_id":178,"name":"flange","steam_id":76561198040182692,"connected_time":380000000000,"state":"active","ping":109},{"user_id":145,"name":"Poptart From Mars","steam_id":76561197979930960,"connected_time":2250000000000,"state":"active","ping":100},{"user_id":128,"name":"tabasco","steam_id":76561198355094896,"connected_time":2806000000000,"state":"active","ping":63},{"user_id":165,"name":"The Necronomiconeconomist","steam_id":76561198010358323,"connected_time":1034000000000,"state":"active","ping":102},{"user_id":109,"name":"viper","steam_id":76561198839942937,"connected_time":3621000000000,"state":"active","ping":69},{"user_id":166,"name":"BroDuck","steam_id":76561198000217789,"connected_time":1016000000000,"state":"active","ping":51},{"user_id":133,"name":"mediyogurt","steam_id":76561198141148538,"connected_time":2586000000000,"state":"active","ping":87},{"user_id":144,"name":"austinsmith","steam_id":76561198167838540,"connected_time":2268000000000,"state":"active","ping":77},{"user_id":168,"name":"Rojopro7","steam_id":76561198858914445,"connected_time":970000000000,"state":"active","ping":138},{"user_id":147,"name":"Infinitytacos","steam_id":76561198884260211,"connected_time":2248000000000,"state":"active","ping":62},{"user_id":169,"name":"Model CHP-3Y","steam_id":76561198107806145,"connected_time":924000000000,"state":"active","ping":64},{"user_id":151,"name":"trapsis","steam_id":76561198069474149,"connected_time":1745000000000,"state":"active","ping":43},{"user_id":162,"name":"Your Local Jester","steam_id":76561199120223717,"connected_time":1247000000000,"state":"active","ping":62},{"user_id":176,"name":"Jacky\u003c3","steam_id":76561198143718063,"connected_time":506000000000,"state":"active","ping":76},{"user_id":135,"name":"Milk Testing Man","steam_id":76561198013841873,"connected_time":2507000000000,"state":"active","ping":74},{"user_id":177,"name":"UWBW","steam_id":76561198007524241,"connected_time":428000000000,"state":"active","ping":76},{"user_id":180,"name":"Bel","steam_id":76561198213140033,"connected_time":323000000000,"state":"active","ping":99},{"user_id":171,"name":"Cayenne","steam_id":76561198004614086,"connected_time":810000000000,"state":"active","ping":74},{"user_id":157,"name":"cellogamer","steam_id":76561198016937098,"connected_time":1510000000000,"state":"active","ping":54},{"user_id":172,"name":"DJ Absolute Garbage","steam_id":76561198068000747,"connected_time":732000000000,"state":"active","ping":47},{"user_id":174,"name":":3 (Registered Terrorist)","steam_id":76561198866678182,"connected_time":669000000000,"state":"active","ping":87},{"user_id":179,"name":"Aristotle Voulton","steam_id":76561198100174923,"connected_time":333000000000,"state":"active","ping":87},{"user_id":141,"name":"peee pee man","steam_id":76561198044979205,"connected_time":2379000000000,"state":"active","ping":57}]},{"server_id":142,"name":"Uncletopia | São Paulo | 1 | All Maps","name_short":"sao-1","host":"sao-1.br.uncletopia.com","port":27015,"enabled":true,"region":"sa","cc":"br","latitude":-23.533773,"longitude":-46.62529,"reserved":0,"last_update":"0001-01-01T00:00:00Z","name_a2s":"Uncletopia | São Paulo | 1 | All Maps","protocol":17,"map":"koth_cascade","folder":"tf","game":"Team Fortress","app_id":440,"player_count":0,"max_players":24,"Bots":0,"server_type":"Dedicated","server_os":"Linux","password":true,"vac":true,"version":"7757534","steam_id":85568392924469996,"keywords":["cp","nocrits","nodmgspread","uncletopia"],"game_id":440,"stv_port":27016,"stv_name":"Uncletopia | São Paulo | 1 | All Maps | STV","players":null},{"server_id":143,"name":"Uncletopia | São Paulo | 2 | All Maps","name_short":"sao-2","host":"sao-2.br.uncletopia.com","port":27015,"enabled":true,"region":"sa","cc":"br","latitude":-23.533773,"longitude":-46.62529,"reserved":0,"last_update":"0001-01-01T00:00:00Z","name_a2s":"Uncletopia | São Paulo | 2 | All Maps","protocol":17,"map":"koth_viaduct","folder":"tf","game":"Team Fortress","app_id":440,"player_count":0,"max_players":24,"Bots":0,"server_type":"Dedicated","server_os":"Linux","password":true,"vac":true,"version":"7757534","steam_id":85568392924485349,"keywords":["cp","nocrits","nodmgspread","uncletopia"],"game_id":440,"stv_port":27016,"stv_name":"Uncletopia | São Paulo | 2 | All Maps | STV","players":null},{"server_id":7,"name":"Uncletopia | Seattle | 1 | All Maps","name_short":"sea-1","host":"sea-1.us.uncletopia.com","port":27015,"enabled":true,"region":"us-west","cc":"us","latitude":47.608013,"longitude":-122.33517,"reserved":0,"last_update":"0001-01-01T00:00:00Z","name_a2s":"Uncletopia | Seattle | 1 | All Maps","protocol":17,"map":"pl_swiftwater_final1","folder":"tf","game":"Team Fortress","app_id":440,"player_count":23,"max_players":24,"Bots":0,"server_type":"Dedicated","server_os":"Linux","password":true,"vac":true,"version":"7757534","steam_id":85568392924469997,"keywords":["nocrits","nodmgspread","payload","uncletopia"],"game_id":440,"stv_port":27016,"stv_name":"Uncletopia | Seattle | 1 | All Maps | STV","players":[{"user_id":408,"name":"The_Pacific_gamer","steam_id":76561198089491446,"connected_time":2171000000000,"state":"active","ping":46},{"user_id":426,"name":"Villchip","steam_id":76561198198599982,"connected_time":1058000000000,"state":"active","ping":53},{"user_id":422,"name":"Keamy","steam_id":76561199471434875,"connected_time":1346000000000,"state":"active","ping":43},{"user_id":436,"name":"Dallas","steam_id":76561198066542919,"connected_time":802000000000,"state":"active","ping":67},{"user_id":420,"name":"poop gaming","steam_id":76561197997341630,"connected_time":1596000000000,"state":"active","ping":49},{"user_id":423,"name":"Fish 3","steam_id":76561199180388333,"connected_time":1195000000000,"state":"active","ping":90},{"user_id":437,"name":"Flyingcat9000","steam_id":76561198179561797,"connected_time":771000000000,"state":"active","ping":59},{"user_id":431,"name":"scamper","steam_id":76561199093768105,"connected_time":960000000000,"state":"active","ping":81},{"user_id":427,"name":"o o o o o o o o o","steam_id":76561197993757506,"connected_time":1040000000000,"state":"active","ping":82},{"user_id":442,"name":"pigswill","steam_id":76561197999081865,"connected_time":476000000000,"state":"active","ping":126},{"user_id":447,"name":"The Super Mario Bros. Movie","steam_id":76561198871692156,"connected_time":90000000000,"state":"active","ping":51},{"user_id":432,"name":"HomesliceHobbes","steam_id":76561198042770895,"connected_time":948000000000,"state":"active","ping":42},{"user_id":448,"name":"The World Is Changing™","steam_id":76561198042952845,"connected_time":2000000000,"state":"spawning","ping":63},{"user_id":396,"name":"Minedark","steam_id":76561198250995706,"connected_time":2931000000000,"state":"active","ping":58},{"user_id":389,"name":"Els","steam_id":76561198354718934,"connected_time":3195000000000,"state":"active","ping":99},{"user_id":440,"name":"Sevfront","steam_id":76561198249207818,"connected_time":663000000000,"state":"active","ping":119},{"user_id":433,"name":"!","steam_id":76561198298645133,"connected_time":916000000000,"state":"active","ping":99},{"user_id":441,"name":"WillieMakit","steam_id":76561197985391684,"connected_time":582000000000,"state":"active","ping":103},{"user_id":415,"name":"Wang of Wall St","steam_id":76561198047460598,"connected_time":2065000000000,"state":"active","ping":139},{"user_id":445,"name":"Typhoid","steam_id":76561198067791086,"connected_time":453000000000,"state":"active","ping":74},{"user_id":419,"name":":)","steam_id":76561199333653688,"connected_time":1667000000000,"state":"active","ping":91},{"user_id":358,"name":"chadwain","steam_id":76561198123477485,"connected_time":5334000000000,"state":"active","ping":76},{"user_id":363,"name":"Klone","steam_id":76561198854485605,"connected_time":5139000000000,"state":"active","ping":118}]},{"server_id":119,"name":"Uncletopia | Seattle | 2 | All Maps","name_short":"sea-2","host":"sea-1.us.uncletopia.com","port":27025,"enabled":true,"region":"us-west","cc":"us","latitude":47.608013,"longitude":-122.33517,"reserved":0,"last_update":"0001-01-01T00:00:00Z","name_a2s":"Uncletopia | Seattle | 2 | All Maps","protocol":17,"map":"pl_badwater","folder":"tf","game":"Team Fortress","app_id":440,"player_count":24,"max_players":24,"Bots":0,"server_type":"Dedicated","server_os":"Linux","password":true,"vac":true,"version":"7757534","steam_id":85568392924469998,"keywords":["nocrits","nodmgspread","payload","uncletopia"],"game_id":440,"stv_port":27026,"stv_name":"Uncletopia | Seattle | 2 | All Maps | STV","players":[{"user_id":689,"name":"MCman","steam_id":76561198412110305,"connected_time":2700000000000,"state":"active","ping":94},{"user_id":694,"name":"Thanks Ants","steam_id":76561197966221018,"connected_time":2316000000000,"state":"active","ping":48},{"user_id":700,"name":"bigindarug","steam_id":76561198165784818,"connected_time":1552000000000,"state":"active","ping":71},{"user_id":728,"name":"Inadequate","steam_id":76561198108263810,"connected_time":116000000000,"state":"active","ping":109},{"user_id":701,"name":"suave","steam_id":76561198294281809,"connected_time":1530000000000,"state":"active","ping":88},{"user_id":717,"name":"armpit fetishist","steam_id":76561199008452637,"connected_time":1105000000000,"state":"active","ping":39},{"user_id":693,"name":"BOR XOR","steam_id":76561198063294776,"connected_time":2546000000000,"state":"active","ping":93},{"user_id":725,"name":"Gary, 40, soul sucking 9-5","steam_id":76561198073812888,"connected_time":594000000000,"state":"active","ping":40},{"user_id":721,"name":"Punished Jeff #NeverSimpAgain","steam_id":76561198304252584,"connected_time":777000000000,"state":"active","ping":69},{"user_id":722,"name":"Free Use Vaporeon","steam_id":76561198118847920,"connected_time":734000000000,"state":"active","ping":72},{"user_id":709,"name":"Maj","steam_id":76561198128811267,"connected_time":1286000000000,"state":"active","ping":64},{"user_id":723,"name":"Pah-Wraith Gul Dukat","steam_id":76561198033918106,"connected_time":730000000000,"state":"active","ping":79},{"user_id":639,"name":"Kewlbeyblader","steam_id":76561199102005597,"connected_time":6961000000000,"state":"active","ping":58},{"user_id":705,"name":"FiddyFoMike","steam_id":76561198057072581,"connected_time":1425000000000,"state":"active","ping":73},{"user_id":726,"name":"Merach","steam_id":76561197994544587,"connected_time":540000000000,"state":"active","ping":59},{"user_id":711,"name":"AmiableNebula","steam_id":76561198094306627,"connected_time":1201000000000,"state":"active","ping":77},{"user_id":718,"name":"RaixaR","steam_id":76561198025289430,"connected_time":1020000000000,"state":"active","ping":82},{"user_id":652,"name":"worker","steam_id":76561198039608940,"connected_time":5971000000000,"state":"active","ping":56},{"user_id":696,"name":"criticalfox","steam_id":76561198821606350,"connected_time":1806000000000,"state":"active","ping":174},{"user_id":716,"name":"Moychel","steam_id":76561198135551500,"connected_time":1112000000000,"state":"active","ping":94},{"user_id":727,"name":"VampWolfDoll (She/Her)","steam_id":76561198102301491,"connected_time":512000000000,"state":"active","ping":137},{"user_id":641,"name":"AverageWaifuEnjoyer","steam_id":76561198237127898,"connected_time":6936000000000,"state":"active","ping":52},{"user_id":687,"name":"faye","steam_id":76561198044176988,"connected_time":3101000000000,"state":"active","ping":104},{"user_id":698,"name":"taxevader123","steam_id":76561199230213724,"connected_time":1630000000000,"state":"active","ping":70}]},{"server_id":406,"name":"Uncletopia | Seattle | 3 | Stopwatch Beta","name_short":"sea-3","host":"sea-1.us.uncletopia.com","port":27035,"enabled":true,"region":"us-west","cc":"us","latitude":47.608013,"longitude":-122.33517,"reserved":0,"last_update":"0001-01-01T00:00:00Z","name_a2s":"Uncletopia | Seattle | 3 | Stopwatch Beta","protocol":17,"map":"cp_process_final","folder":"tf","game":"Team Fortress","app_id":440,"player_count":24,"max_players":24,"Bots":0,"server_type":"Dedicated","server_os":"Linux","password":true,"vac":true,"version":"7757534","steam_id":85568392924515217,"keywords":["cp","nocrits","nodmgspread","uncletopia"],"game_id":440,"stv_port":27036,"stv_name":"Uncletopia | Seattle | 3 | Stopwatch Beta | STV","players":[{"user_id":81,"name":"Comrade General Vladimir Pootis","steam_id":76561198085318894,"connected_time":709000000000,"state":"active","ping":136},{"user_id":83,"name":"Brutus","steam_id":76561198213163211,"connected_time":651000000000,"state":"active","ping":126},{"user_id":92,"name":"iivy","steam_id":76561198068464819,"connected_time":39000000000,"state":"active","ping":52},{"user_id":82,"name":"Riske","steam_id":76561198115840568,"connected_time":672000000000,"state":"active","ping":117},{"user_id":41,"name":"BirdScruff","steam_id":76561198349249196,"connected_time":3236000000000,"state":"active","ping":123},{"user_id":68,"name":"supernova1241","steam_id":76561198325215872,"connected_time":1115000000000,"state":"active","ping":125},{"user_id":75,"name":"Barack OBidoof","steam_id":76561198035142993,"connected_time":906000000000,"state":"active","ping":120},{"user_id":85,"name":"Akira","steam_id":76561198294601519,"connected_time":587000000000,"state":"active","ping":44},{"user_id":86,"name":".9 lg","steam_id":76561198092238353,"connected_time":552000000000,"state":"active","ping":76},{"user_id":90,"name":"Nova","steam_id":76561198121160693,"connected_time":402000000000,"state":"active","ping":113},{"user_id":44,"name":"hold up let him stew","steam_id":76561198069199626,"connected_time":2651000000000,"state":"active","ping":48},{"user_id":87,"name":"Kolya the Western Spy","steam_id":76561198170406647,"connected_time":546000000000,"state":"active","ping":124},{"user_id":72,"name":"Shmebulock","steam_id":76561198046941925,"connected_time":1022000000000,"state":"active","ping":128},{"user_id":73,"name":"023e20902o0239ee02390o239e","steam_id":76561198175741741,"connected_time":982000000000,"state":"active","ping":78},{"user_id":64,"name":"ShredMaan","steam_id":76561198429982138,"connected_time":1189000000000,"state":"active","ping":87},{"user_id":88,"name":"ro","steam_id":76561198935253634,"connected_time":537000000000,"state":"active","ping":84},{"user_id":74,"name":"ClosetBotany","steam_id":76561198088324821,"connected_time":936000000000,"state":"active","ping":45},{"user_id":63,"name":"pudding","steam_id":76561199089788373,"connected_time":1236000000000,"state":"active","ping":72},{"user_id":89,"name":"AUSTRALIUM GIBUS","steam_id":76561198111890714,"connected_time":532000000000,"state":"active","ping":84},{"user_id":66,"name":"Hotsaucebauce","steam_id":76561199070938363,"connected_time":1151000000000,"state":"active","ping":88},{"user_id":67,"name":"Gingie","steam_id":76561198258981931,"connected_time":1140000000000,"state":"active","ping":87},{"user_id":76,"name":"engi","steam_id":76561199193020423,"connected_time":904000000000,"state":"active","ping":85},{"user_id":78,"name":"oil","steam_id":76561198099980149,"connected_time":860000000000,"state":"active","ping":77},{"user_id":80,"name":"Andy","steam_id":76561198043115724,"connected_time":837000000000,"state":"active","ping":69}]},{"server_id":17,"name":"Uncletopia | San Francisco | 1 | All Maps","name_short":"sfo-1","host":"sfo-1.us.uncletopia.com","port":27015,"enabled":true,"region":"us-west","cc":"us","latitude":37.77397,"longitude":-122.4313,"reserved":0,"last_update":"0001-01-01T00:00:00Z","name_a2s":"Uncletopia | San Francisco | 1 | All Maps","protocol":17,"map":"pl_pier","folder":"tf","game":"Team Fortress","app_id":440,"player_count":24,"max_players":24,"Bots":0,"server_type":"Dedicated","server_os":"Linux","password":true,"vac":true,"version":"7757534","steam_id":85568392924469999,"keywords":["nocrits","nodmgspread","payload","uncletopia"],"game_id":440,"stv_port":27016,"stv_name":"Uncletopia | San Francisco | 1 | All Maps | STV","players":[{"user_id":164,"name":"SparklingSquids","steam_id":76561199245793673,"connected_time":3092000000000,"state":"active","ping":75},{"user_id":170,"name":"hoopswoop9","steam_id":76561199203050556,"connected_time":2972000000000,"state":"active","ping":71},{"user_id":193,"name":"hardfork","steam_id":76561197960958019,"connected_time":1726000000000,"state":"active","ping":60},{"user_id":183,"name":"Satori Komeiji","steam_id":76561198158211423,"connected_time":2472000000000,"state":"active","ping":57},{"user_id":206,"name":"YASAI JUICE","steam_id":76561198131971992,"connected_time":651000000000,"state":"active","ping":88},{"user_id":153,"name":"selling rice","steam_id":76561198063357023,"connected_time":4387000000000,"state":"active","ping":45},{"user_id":205,"name":"cloud","steam_id":76561198142185527,"connected_time":713000000000,"state":"active","ping":61},{"user_id":201,"name":"heck","steam_id":76561198315694520,"connected_time":1004000000000,"state":"active","ping":51},{"user_id":213,"name":"look a meme","steam_id":76561198841304902,"connected_time":199000000000,"state":"active","ping":127},{"user_id":195,"name":"WaterWorks","steam_id":76561198801899310,"connected_time":1592000000000,"state":"active","ping":40},{"user_id":214,"name":"doghouse","steam_id":76561198000319035,"connected_time":148000000000,"state":"active","ping":73},{"user_id":215,"name":"DRACO$","steam_id":76561198389198223,"connected_time":105000000000,"state":"active","ping":48},{"user_id":196,"name":"Uprightmoss7528","steam_id":76561199200138486,"connected_time":1588000000000,"state":"active","ping":77},{"user_id":203,"name":"Igrium","steam_id":76561198119549811,"connected_time":780000000000,"state":"active","ping":53},{"user_id":159,"name":"warmdogwater","steam_id":76561198183845683,"connected_time":3654000000000,"state":"active","ping":143},{"user_id":154,"name":"GELBOZO","steam_id":76561198265097499,"connected_time":4355000000000,"state":"active","ping":130},{"user_id":216,"name":"Florist","steam_id":76561198009121060,"connected_time":43000000000,"state":"active","ping":73},{"user_id":210,"name":"็็็็็","steam_id":76561198118859752,"connected_time":498000000000,"state":"active","ping":59},{"user_id":189,"name":"Sal In Haiti","steam_id":76561198055452939,"connected_time":2197000000000,"state":"active","ping":70},{"user_id":192,"name":"TrevBev45","steam_id":76561198273637677,"connected_time":1871000000000,"state":"active","ping":136},{"user_id":197,"name":"Neowudan","steam_id":76561198136850867,"connected_time":1564000000000,"state":"active","ping":117},{"user_id":209,"name":"A Aron","steam_id":76561198044701629,"connected_time":545000000000,"state":"active","ping":66},{"user_id":212,"name":"Tort boi","steam_id":76561198125327110,"connected_time":340000000000,"state":"active","ping":64}]},{"server_id":18,"name":"Uncletopia | San Francisco | 2 | All Maps","name_short":"sfo-2","host":"sfo-1.us.uncletopia.com","port":27025,"enabled":true,"region":"us-west","cc":"us","latitude":37.77397,"longitude":-122.4313,"reserved":0,"last_update":"0001-01-01T00:00:00Z","name_a2s":"Uncletopia | San Francisco | 2 | All Maps","protocol":17,"map":"koth_viaduct","folder":"tf","game":"Team Fortress","app_id":440,"player_count":0,"max_players":24,"Bots":0,"server_type":"Dedicated","server_os":"Linux","password":true,"vac":true,"version":"7757534","steam_id":85568392924470000,"keywords":["cp","nocrits","nodmgspread","uncletopia"],"game_id":440,"stv_port":27026,"stv_name":"Uncletopia | San Francisco | 2 | All Maps | STV","players":null},{"server_id":19,"name":"Uncletopia | San Francisco | 3 | Stopwatch Beta","name_short":"sfo-3","host":"sfo-1.us.uncletopia.com","port":27035,"enabled":true,"region":"us-west","cc":"us","latitude":37.77397,"longitude":-122.4313,"reserved":0,"last_update":"0001-01-01T00:00:00Z","name_a2s":"Uncletopia | San Francisco | 3 | Stopwatch Beta","protocol":17,"map":"cp_snakewater_final1","folder":"tf","game":"Team Fortress","app_id":440,"player_count":0,"max_players":24,"Bots":0,"server_type":"Dedicated","server_os":"Linux","password":true,"vac":true,"version":"7757534","steam_id":85568392924742824,"keywords":["cp","nocrits","nodmgspread","uncletopia"],"game_id":440,"stv_port":27036,"stv_name":"Uncletopia | San Francisco | 3 | Stopwatch Beta | STV","players":null},{"server_id":20,"name":"Uncletopia | San Francisco | 4 | Community","name_short":"sfo-4","host":"sfo-1.us.uncletopia.com","port":27045,"enabled":true,"region":"us-west","cc":"us","latitude":37.77397,"longitude":-122.4313,"reserved":0,"last_update":"0001-01-01T00:00:00Z","name_a2s":"Uncletopia | San Francisco | 4 | Community","protocol":17,"map":"workshop/cp_mannbase_rc2a.ugc1900737467","folder":"tf","game":"Team Fortress","app_id":440,"player_count":12,"max_players":24,"Bots":0,"server_type":"Dedicated","server_os":"Linux","password":true,"vac":true,"version":"7757534","steam_id":85568392924742826,"keywords":["cp","nocrits","nodmgspread","uncletopia"],"game_id":440,"stv_port":27046,"stv_name":"Uncletopia | San Francisco | 4 | Community | STV","players":[{"user_id":356,"name":"red","steam_id":76561199221486283,"connected_time":786000000000,"state":"active","ping":91},{"user_id":361,"name":"Eden","steam_id":76561198075587475,"connected_time":445000000000,"state":"active","ping":91},{"user_id":364,"name":"Mickmissión","steam_id":76561199133527421,"connected_time":342000000000,"state":"active","ping":57},{"user_id":365,"name":"Hard Soap","steam_id":76561198267905614,"connected_time":318000000000,"state":"active","ping":126},{"user_id":355,"name":"NANO","steam_id":76561199009634635,"connected_time":1165000000000,"state":"active","ping":42},{"user_id":357,"name":"Endangered Spy Crab","steam_id":76561199309516341,"connected_time":770000000000,"state":"active","ping":67},{"user_id":358,"name":"La Moosh","steam_id":76561198917918982,"connected_time":752000000000,"state":"active","ping":112},{"user_id":360,"name":"Wacks","steam_id":76561198079476100,"connected_time":718000000000,"state":"active","ping":53},{"user_id":363,"name":"Grumbo Goobo","steam_id":76561198044493669,"connected_time":428000000000,"state":"active","ping":108},{"user_id":366,"name":"El Viejo Paulino","steam_id":76561198211944169,"connected_time":21000000000,"state":"spawning","ping":350},{"user_id":367,"name":"reverie","steam_id":76561198168158637,"connected_time":14000000000,"state":"spawning","ping":149},{"user_id":287,"name":"EL JEFE","steam_id":76561198077618439,"connected_time":7634000000000,"state":"active","ping":46}]},{"server_id":141,"name":"Uncletopia | Sydney | 1 | All Maps","name_short":"syd-1","host":"syd-1.au.uncletopia.com","port":27015,"enabled":true,"region":"au","cc":"au","latitude":-33.865143,"longitude":151.2099,"reserved":0,"last_update":"0001-01-01T00:00:00Z","name_a2s":"Uncletopia | Sydney | 1 | All Maps","protocol":17,"map":"pl_barnblitz","folder":"tf","game":"Team Fortress","app_id":440,"player_count":20,"max_players":24,"Bots":0,"server_type":"Dedicated","server_os":"Linux","password":true,"vac":true,"version":"7757534","steam_id":85568392924470001,"keywords":["nocrits","nodmgspread","payload","uncletopia"],"game_id":440,"stv_port":27016,"stv_name":"Uncletopia | Sydney | 1 | All Maps | STV","players":[{"user_id":217,"name":"Alsander And Ciaran","steam_id":76561198192632255,"connected_time":412000000000,"state":"active","ping":90},{"user_id":203,"name":"✪ dwippin","steam_id":76561198099342389,"connected_time":1144000000000,"state":"active","ping":53},{"user_id":218,"name":"eekynetwo(F2P Piss Sniper)","steam_id":76561198990017441,"connected_time":355000000000,"state":"active","ping":146},{"user_id":226,"name":"xX_sexhaver_Xx(real)","steam_id":76561199205171109,"connected_time":40000000000,"state":"active","ping":60},{"user_id":178,"name":"the love fairy","steam_id":76561198101267218,"connected_time":3056000000000,"state":"active","ping":58},{"user_id":201,"name":"Shadow Puppeteer","steam_id":76561198151121997,"connected_time":1224000000000,"state":"active","ping":72},{"user_id":225,"name":"shredda264","steam_id":76561198079873281,"connected_time":110000000000,"state":"active","ping":46},{"user_id":202,"name":"g9spel","steam_id":76561199439536360,"connected_time":1209000000000,"state":"active","ping":54},{"user_id":222,"name":"Bykeshgoly","steam_id":76561198075046784,"connected_time":200000000000,"state":"active","ping":60},{"user_id":194,"name":"Lancer","steam_id":76561198122813810,"connected_time":2114000000000,"state":"active","ping":90},{"user_id":195,"name":"Asl:3x","steam_id":76561198972095766,"connected_time":2059000000000,"state":"active","ping":32},{"user_id":223,"name":"Bork Pelly","steam_id":76561198157250318,"connected_time":175000000000,"state":"active","ping":54},{"user_id":224,"name":"Bamooxa","steam_id":76561198067160709,"connected_time":152000000000,"state":"active","ping":76},{"user_id":162,"name":"Raypest","steam_id":76561197980678745,"connected_time":3725000000000,"state":"active","ping":44},{"user_id":206,"name":"Doctor Estonia","steam_id":76561198057365089,"connected_time":1069000000000,"state":"active","ping":100},{"user_id":196,"name":"cimpact","steam_id":76561198452258917,"connected_time":2048000000000,"state":"active","ping":152},{"user_id":167,"name":"RoverTw0","steam_id":76561198025416071,"connected_time":3614000000000,"state":"active","ping":40},{"user_id":187,"name":"crah","steam_id":76561198310550094,"connected_time":2672000000000,"state":"active","ping":53},{"user_id":188,"name":"ziah","steam_id":76561198159375596,"connected_time":2655000000000,"state":"active","ping":54},{"user_id":123,"name":"jcoll444","steam_id":76561198143025380,"connected_time":6467000000000,"state":"active","ping":58}]},{"server_id":123,"name":"Uncletopia | Sydney | 2 | All Maps","name_short":"syd-2","host":"syd-1.au.uncletopia.com","port":27025,"enabled":true,"region":"au","cc":"au","latitude":-33.865143,"longitude":151.2099,"reserved":0,"last_update":"0001-01-01T00:00:00Z","name_a2s":"Uncletopia | Sydney | 2 | All Maps","protocol":17,"map":"koth_highpass","folder":"tf","game":"Team Fortress","app_id":440,"player_count":0,"max_players":24,"Bots":0,"server_type":"Dedicated","server_os":"Linux","password":true,"vac":true,"version":"7757534","steam_id":85568392924470002,"keywords":["cp","nocrits","nodmgspread","uncletopia"],"game_id":440,"stv_port":27026,"stv_name":"Uncletopia | Sydney | 2 | All Maps | STV","players":null},{"server_id":395,"name":"Uncletopia | Sydney | 3 | All Maps","name_short":"syd-3","host":"syd-1.au.uncletopia.com","port":27035,"enabled":true,"region":"au","cc":"au","latitude":-33.865143,"longitude":151.2099,"reserved":0,"last_update":"0001-01-01T00:00:00Z","name_a2s":"Uncletopia | Sydney | 3 | All Maps","protocol":17,"map":"cp_altitude","folder":"tf","game":"Team Fortress","app_id":440,"player_count":0,"max_players":24,"Bots":0,"server_type":"Dedicated","server_os":"Linux","password":true,"vac":true,"version":"7757534","steam_id":85568392925194467,"keywords":["cp","nocrits","nodmgspread","uncletopia"],"game_id":440,"stv_port":27036,"stv_name":"Uncletopia | Sydney | 3 | All Maps | STV","players":null},{"server_id":396,"name":"Uncletopia | Sydney | 4 | All Maps","name_short":"syd-4","host":"syd-1.au.uncletopia.com","port":27045,"enabled":true,"region":"au","cc":"au","latitude":-33.865143,"longitude":151.2099,"reserved":0,"last_update":"0001-01-01T00:00:00Z","name_a2s":"Uncletopia | Sydney | 4 | All Maps","protocol":17,"map":"cp_process_final","folder":"tf","game":"Team Fortress","app_id":440,"player_count":0,"max_players":24,"Bots":0,"server_type":"Dedicated","server_os":"Linux","password":true,"vac":true,"version":"7757534","steam_id":85568392925397958,"keywords":["cp","nocrits","nodmgspread","uncletopia"],"game_id":440,"stv_port":27046,"stv_name":"Uncletopia | Sydney | 4 | All Maps | STV","players":null},{"server_id":58,"name":"Uncletopia | Sydney | 5 | Stopwatch Beta","name_short":"syd-5","host":"syd-1.au.uncletopia.com","port":27055,"enabled":true,"region":"au","cc":"au","latitude":-33.865143,"longitude":151.2099,"reserved":0,"last_update":"0001-01-01T00:00:00Z","name_a2s":"Uncletopia | Sydney | 5 | Stopwatch Beta","protocol":17,"map":"koth_cascade","folder":"tf","game":"Team Fortress","app_id":440,"player_count":0,"max_players":24,"Bots":0,"server_type":"Dedicated","server_os":"Linux","password":true,"vac":true,"version":"7757534","steam_id":85568392925397959,"keywords":["cp","nocrits","nodmgspread","uncletopia"],"game_id":440,"stv_port":27056,"stv_name":"Uncletopia | Sydney | 5 | Stopwatch Beta | STV","players":null},{"server_id":59,"name":"Uncletopia | Sydney | 6 | Community","name_short":"syd-6","host":"syd-1.au.uncletopia.com","port":27065,"enabled":true,"region":"au","cc":"au","latitude":-33.865143,"longitude":151.2099,"reserved":0,"last_update":"0001-01-01T00:00:00Z","name_a2s":"Uncletopia | Sydney | 6 | Community","protocol":17,"map":"workshop/pl_corrode_rc2.ugc546577989","folder":"tf","game":"Team Fortress","app_id":440,"player_count":0,"max_players":24,"Bots":0,"server_type":"Dedicated","server_os":"Linux","password":true,"vac":true,"version":"7757534","steam_id":85568392925397960,"keywords":["nocrits","nodmgspread","payload","uncletopia"],"game_id":440,"stv_port":27066,"stv_name":"Uncletopia | Sydney | 6 | Community | STV","players":null},{"server_id":49,"name":"Uncletopia | Warsaw | 1 | All Maps","name_short":"waw-1","host":"waw-1.pl.uncletopia.com","port":27015,"enabled":true,"region":"eu","cc":"pl","latitude":52.2297,"longitude":21.017532,"reserved":0,"last_update":"0001-01-01T00:00:00Z","name_a2s":"","protocol":0,"map":"","folder":"","game":"","app_id":0,"player_count":0,"max_players":0,"Bots":0,"server_type":"","server_os":"","password":false,"vac":false,"version":"","steam_id":0,"keywords":null,"game_id":0,"stv_port":0,"stv_name":"","players":null},{"server_id":50,"name":"Uncletopia | Warsaw | 2 | All Maps","name_short":"waw-2","host":"waw-1.pl.uncletopia.com","port":27025,"enabled":true,"region":"eu","cc":"pl","latitude":52.2297,"longitude":21.017532,"reserved":0,"last_update":"0001-01-01T00:00:00Z","name_a2s":"Uncletopia | Warsaw | 2 | All Maps","protocol":17,"map":"koth_lakeside_final","folder":"tf","game":"Team Fortress","app_id":440,"player_count":0,"max_players":24,"Bots":0,"server_type":"Dedicated","server_os":"Linux","password":true,"vac":true,"version":"7757534","steam_id":85568392925397851,"keywords":["cp","nocrits","nodmgspread","uncletopia"],"game_id":440,"stv_port":27026,"stv_name":"Uncletopia | Warsaw | 2 | All Maps | STV","players":null},{"server_id":51,"name":"Uncletopia | Warsaw | 3 | All Maps","name_short":"waw-3","host":"waw-1.pl.uncletopia.com","port":27035,"enabled":true,"region":"eu","cc":"pl","latitude":52.2297,"longitude":21.017532,"reserved":0,"last_update":"0001-01-01T00:00:00Z","name_a2s":"Uncletopia | Warsaw | 3 | All Maps","protocol":17,"map":"pl_badwater","folder":"tf","game":"Team Fortress","app_id":440,"player_count":0,"max_players":24,"Bots":0,"server_type":"Dedicated","server_os":"Linux","password":true,"vac":true,"version":"7757534","steam_id":85568392925397852,"keywords":["nocrits","nodmgspread","payload","uncletopia"],"game_id":440,"stv_port":27036,"stv_name":"Uncletopia | Warsaw | 3 | All Maps | STV","players":null},{"server_id":52,"name":"Uncletopia | Warsaw | 4 | All Maps","name_short":"waw-4","host":"waw-1.pl.uncletopia.com","port":27045,"enabled":true,"region":"eu","cc":"pl","latitude":52.2297,"longitude":21.017532,"reserved":0,"last_update":"0001-01-01T00:00:00Z","name_a2s":"Uncletopia | Warsaw | 4 | All Maps","protocol":17,"map":"pl_borneo","folder":"tf","game":"Team Fortress","app_id":440,"player_count":0,"max_players":24,"Bots":0,"server_type":"Dedicated","server_os":"Linux","password":true,"vac":true,"version":"7757534","steam_id":85568392925397853,"keywords":["nocrits","nodmgspread","payload","uncletopia"],"game_id":440,"stv_port":27046,"stv_name":"Uncletopia | Warsaw | 4 | All Maps | STV","players":null},{"server_id":53,"name":"Uncletopia | Warsaw | 5 | Stopwatch Beta","name_short":"waw-5","host":"waw-1.pl.uncletopia.com","port":27055,"enabled":true,"region":"eu","cc":"pl","latitude":52.2297,"longitude":21.017532,"reserved":0,"last_update":"0001-01-01T00:00:00Z","name_a2s":"Uncletopia | Warsaw | 5 | Stopwatch Beta","protocol":17,"map":"workshop/pl_badwater_pro_v12.ugc2142942074","folder":"tf","game":"Team Fortress","app_id":440,"player_count":0,"max_players":24,"Bots":0,"server_type":"Dedicated","server_os":"Linux","password":true,"vac":true,"version":"7757534","steam_id":85568392925397854,"keywords":["nocrits","nodmgspread","payload","uncletopia"],"game_id":440,"stv_port":27056,"stv_name":"Uncletopia | Warsaw | 5 | Stopwatch Beta | STV","players":null},{"server_id":54,"name":"Uncletopia | Warsaw | 6 | Community","name_short":"waw-6","host":"waw-1.pl.uncletopia.com","port":27065,"enabled":true,"region":"eu","cc":"pl","latitude":52.2297,"longitude":21.017532,"reserved":0,"last_update":"0001-01-01T00:00:00Z","name_a2s":"Uncletopia | Warsaw | 6 | Community","protocol":17,"map":"koth_highpass","folder":"tf","game":"Team Fortress","app_id":440,"player_count":0,"max_players":24,"Bots":0,"server_type":"Dedicated","server_os":"Linux","password":true,"vac":true,"version":"7757534","steam_id":85568392925397856,"keywords":["cp","nocrits","nodmgspread","uncletopia"],"game_id":440,"stv_port":27066,"stv_name":"Uncletopia | Warsaw | 6 | Community | STV","players":null}]}