{"status":true,"message":"","result":[{"server_id":9,"name":"Uncletopia | Atlanta | 1 | All Maps","name_short":"atl-1","host":"atl-1.us.uncletopia.com","port":27015,"enabled":true,"region":"us-east","cc":"us","latitude":33.753746,"longitude":-84.38633,"reserved":0,"last_update":"0001-01-01T00:00:00Z","name_a2s":"Uncletopia | Atlanta | 1 | All Maps","protocol":17,"map":"koth_viaduct","folder":"tf","game":"Team Fortress","app_id":440,"player_count":0,"max_players":24,"Bots":0,"server_type":"Dedicated","server_os":"Linux","password":true,"vac":true,"version":"7882260","steam_id":85568392924469982,"keywords":["cp","nocrits","nodmgspread","uncletopia"],"game_id":440,"stv_port":27016,"stv_name":"Uncletopia | Atlanta | 1 | All Maps | STV","players":null},{"server_id":104,"name":"Uncletopia | Atlanta | 2 | All Maps","name_short":"atl-2","host":"atl-1.us.uncletopia.com","port":27025,"enabled":true,"region":"us-east","cc":"us","latitude":33.753746,"longitude":-84.38633,"reserved":0,"last_update":"0001-01-01T00:00:00Z","name_a2s":"Uncletopia | Atlanta | 2 | All Maps","protocol":17,"map":"pl_barnblitz","folder":"tf","game":"Team Fortress","app_id":440,"player_count":24,"max_players":24,"Bots":0,"server_type":"Dedicated","server_os":"Linux","password":true,"vac":true,"version":"7882260","steam_id":85568392924469983,"keywords":["nocrits","nodmgspread","payload","uncletopia"],"game_id":440,"stv_port":27026,"stv_name":"Uncletopia | Atlanta | 2 | All Maps | STV","players":[{"user_id":116,"name":"oopsboom24","steam_id":76561199105248648,"connected_time":4257000000000,"state":"active","ping":92},{"user_id":154,"name":"SHADY SWEATER SALESMAN","steam_id":76561198014616865,"connected_time":942000000000,"state":"active","ping":74},{"user_id":150,"name":"Mint Jelly","steam_id":76561197991286751,"connected_time":1022000000000,"state":"active","ping":57},{"user_id":147,"name":"throat_man","steam_id":76561199321657653,"connected_time":1144000000000,"state":"active","ping":115},{"user_id":156,"name":"amagicowl","steam_id":76561199060487814,"connected_time":758000000000,"state":"active","ping":107},{"user_id":149,"name":"FWWM","steam_id":76561198387852168,"connected_time":1117000000000,"state":"active","ping":80},{"user_id":142,"name":"Bastee1021","steam_id":76561199456141163,"connected_time":1663000000000,"state":"active","ping":120},{"user_id":144,"name":"Bongo Bill","steam_id":76561198028004398,"connected_time":1572000000000,"state":"active","ping":72},{"user_id":85,"name":"BLANKE","steam_id":76561198129610485,"connected_time":5982000000000,"state":"active","ping":80},{"user_id":135,"name":"Hoxcit","steam_id":76561198166872339,"connected_time":2225000000000,"state":"active","ping":122},{"user_id":86,"name":"younggflylyfe","steam_id":76561199477357832,"connected_time":5971000000000,"state":"active","ping":54},{"user_id":141,"name":"BuncusBeffer","steam_id":76561198285936616,"connected_time":2039000000000,"state":"active","ping":118},{"user_id":111,"name":"Jack Horner in a F-16","steam_id":76561198062438923,"connected_time":4419000000000,"state":"active","ping":95},{"user_id":120,"name":"Trixie Lulamoon","steam_id":76561198046661611,"connected_time":3255000000000,"state":"active","ping":60},{"user_id":153,"name":"*‧˚kitsu ʚ♥ɞ","steam_id":76561198091741658,"connected_time":960000000000,"state":"active","ping":87},{"user_id":123,"name":"Oopsie Daisy ❋","steam_id":76561198042144492,"connected_time":3100000000000,"state":"active","ping":51},{"user_id":138,"name":"HAIL SATAN","steam_id":76561198085906239,"connected_time":2175000000000,"state":"active","ping":75},{"user_id":152,"name":"Cookies n Milk","steam_id":76561198071075134,"connected_time":994000000000,"state":"active","ping":87},{"user_id":139,"name":"pt","steam_id":76561198143023330,"connected_time":2137000000000,"state":"active","ping":105},{"user_id":155,"name":"Titus Tyrwitt","steam_id":76561197990779673,"connected_time":939000000000,"state":"active","ping":59},{"user_id":157,"name":"Ripheart","steam_id":76561198089661561,"connected_time":154000000000,"state":"active","ping":51},{"user_id":90,"name":"Hycanth","steam_id":76561197992512197,"connected_time":5864000000000,"state":"active","ping":116},{"user_id":117,"name":"kingjeffry2012@hotmail.com","steam_id":76561198314104415,"connected_time":3680000000000,"state":"active","ping":56},{"user_id":129,"name":"KFC Rat","steam_id":76561198135128086,"connected_time":2344000000000,"state":"active","ping":108}]},{"server_id":400,"name":"Uncletopia | Atlanta | 3 | Community","name_short":"atl-3","host":"atl-1.us.uncletopia.com","port":27035,"enabled":true,"region":"us-east","cc":"us","latitude":33.753746,"longitude":-84.38633,"reserved":0,"last_update":"0001-01-01T00:00:00Z","name_a2s":"Uncletopia | Atlanta | 3 | Community","protocol":17,"map":"cp_sunshine","folder":"tf","game":"Team Fortress","app_id":440,"player_count":0,"max_players":24,"Bots":0,"server_type":"Dedicated","server_os":"Linux","password":true,"vac":true,"version":"7882260","steam_id":85568392924515187,"keywords":["cp","nocrits","nodmgspread","uncletopia"],"game_id":440,"stv_port":27036,"stv_name":"Uncletopia | Atlanta | 3 | Community | STV","players":null},{"server_id":401,"name":"Uncletopia | Atlanta | 4 | No Payload","name_short":"atl-4","host":"atl-1.us.uncletopia.com","port":27045,"enabled":true,"region":"us-east","cc":"us","latitude":33.753746,"longitude":-84.38633,"reserved":0,"last_update":"0001-01-01T00:00:00Z","name_a2s":"","protocol":0,"map":"","folder":"","game":"","app_id":0,"player_count":0,"max_players":0,"Bots":0,"server_type":"","server_os":"","password":false,"vac":false,"version":"","steam_id":0,"keywords":null,"game_id":0,"stv_port":0,"stv_name":"","players":null},{"server_id":2,"name":"Uncletopia | Chicago | 1 | All Maps","name_short":"chi-1","host":"chi-1.us.uncletopia.com","port":27015,"enabled":true,"region":"us-central","cc":"us","latitude":41.881832,"longitude":-87.62318,"reserved":0,"last_update":"0001-01-01T00:00:00Z","name_a2s":"Uncletopia | Chicago | 1 | All Maps","protocol":17,"map":"pl_frontier_final","folder":"tf","game":"Team Fortress","app_id":440,"player_count":2,"max_players":24,"Bots":0,"server_type":"Dedicated","server_os":"Linux","password":true,"vac":true,"version":"7882260","steam_id":85568392924469984,"keywords":["nocrits","nodmgspread","payload","uncletopia"],"game_id":440,"stv_port":27016,"stv_name":"Uncletopia | Chicago | 1 | All Maps | STV","players":[{"user_id":3,"name":"justNO11","steam_id":76561198915411375,"connected_time":304000000000,"state":"active","ping":77},{"user_id":4,"name":"William Wallace","steam_id":76561199343316814,"connected_time":169000000000,"state":"active","ping":65}]},{"server_id":106,"name":"Uncletopia | Chicago | 2 | All Maps","name_short":"chi-2","host":"chi-1.us.uncletopia.com","port":27025,"enabled":true,"region":"us-central","cc":"us","latitude":41.881832,"longitude":-87.62318,"reserved":0,"last_update":"0001-01-01T00:00:00Z","name_a2s":"Uncletopia | Chicago | 2 | All Maps","protocol":17,"map":"pl_frontier_final","folder":"tf","game":"Team Fortress","app_id":440,"player_count":0,"max_players":24,"Bots":0,"server_type":"Dedicated","server_os":"Linux","password":true,"vac":true,"version":"7882260","steam_id":85568392924469985,"keywords":["nocrits","nodmgspread","payload","uncletopia"],"game_id":440,"stv_port":27026,"stv_name":"Uncletopia | Chicago | 2 | All Maps | STV","players":null},{"server_id":402,"name":"Uncletopia | Chicago | 3 | All Maps","name_short":"chi-3","host":"chi-1.us.uncletopia.com","port":27035,"enabled":true,"region":"us-central","cc":"us","latitude":41.881832,"longitude":-87.62318,"reserved":0,"last_update":"0001-01-01T00:00:00Z","name_a2s":"Uncletopia | Chicago | 3 | All Maps","protocol":17,"map":"pl_snowycoast","folder":"tf","game":"Team Fortress","app_id":440,"player_count":0,"max_players":24,"Bots":0,"server_type":"Dedicated","server_os":"Linux","password":true,"vac":true,"version":"7882260","steam_id":85568392924515191,"keywords":["nocrits","nodmgspread","payload","uncletopia"],"game_id":440,"stv_port":27036,"stv_name":"Uncletopia | Chicago | 3 | All Maps | STV","players":null},{"server_id":403,"name":"Uncletopia | Chicago | 4 | All Maps","name_short":"chi-4","host":"chi-1.us.uncletopia.com","port":27045,"enabled":true,"region":"us-central","cc":"us","latitude":41.881832,"longitude":-87.62318,"reserved":0,"last_update":"0001-01-01T00:00:00Z","name_a2s":"Uncletopia | Chicago | 4 | All Maps","protocol":17,"map":"koth_cascade","folder":"tf","game":"Team Fortress","app_id":440,"player_count":0,"max_players":24,"Bots":0,"server_type":"Dedicated","server_os":"Linux","password":true,"vac":true,"version":"7882260","steam_id":85568392924515193,"keywords":["cp","nocrits","nodmgspread","uncletopia"],"game_id":440,"stv_port":27046,"stv_name":"Uncletopia | Chicago | 4 | All Maps | STV","players":null},{"server_id":36,"name":"Uncletopia | Chicago | 5 | All Maps","name_short":"chi-5","host":"chi-2.us.uncletopia.com","port":27015,"enabled":true,"region":"us-central","cc":"us","latitude":41.881832,"longitude":-87.62318,"reserved":0,"last_update":"0001-01-01T00:00:00Z","name_a2s":"Uncletopia | Chicago | 5 | All Maps","protocol":17,"map":"pl_badwater","folder":"tf","game":"Team Fortress","app_id":440,"player_count":0,"max_players":24,"Bots":0,"server_type":"Dedicated","server_os":"Linux","password":true,"vac":true,"version":"7882260","steam_id":85568392924866362,"keywords":["nocrits","nodmgspread","payload","uncletopia"],"game_id":440,"stv_port":27016,"stv_name":"Uncletopia | Chicago | 5 | All Maps | STV","players":null},{"server_id":37,"name":"Uncletopia | Chicago | 6 | All Maps","name_short":"chi-6","host":"chi-2.us.uncletopia.com","port":27025,"enabled":true,"region":"us-central","cc":"us","latitude":41.881832,"longitude":-87.62318,"reserved":0,"last_update":"0001-01-01T00:00:00Z","name_a2s":"Uncletopia | Chicago | 6 | All Maps","protocol":17,"map":"koth_cascade","folder":"tf","game":"Team Fortress","app_id":440,"player_count":0,"max_players":24,"Bots":0,"server_type":"Dedicated","server_os":"Linux","password":true,"vac":true,"version":"7882260","steam_id":85568392924866363,"keywords":["cp","nocrits","nodmgspread","uncletopia"],"game_id":440,"stv_port":27026,"stv_name":"Uncletopia | Chicago | 6 | All Maps | STV","players":null},{"server_id":38,"name":"Uncletopia | Chicago | 7 | Stopwatch Beta","name_short":"chi-7","host":"chi-2.us.uncletopia.com","port":27035,"enabled":true,"region":"us-central","cc":"us","latitude":41.881832,"longitude":-87.62318,"reserved":0,"last_update":"0001-01-01T00:00:00Z","name_a2s":"Uncletopia | Chicago | 7 | Stopwatch Beta","protocol":17,"map":"pl_borneo","folder":"tf","game":"Team Fortress","app_id":440,"player_count":0,"max_players":24,"Bots":0,"server_type":"Dedicated","server_os":"Linux","password":true,"vac":true,"version":"7882260","steam_id":85568392924866364,"keywords":["nocrits","nodmgspread","payload","uncletopia"],"game_id":440,"stv_port":27036,"stv_name":"Uncletopia | Chicago | 7 | Stopwatch Beta | STV","players":null},{"server_id":39,"name":"Uncletopia | Chicago | 8 | Community","name_short":"chi-8","host":"chi-2.us.uncletopia.com","port":27045,"enabled":true,"region":"us-central","cc":"us","latitude":41.881832,"longitude":-87.62318,"reserved":0,"last_update":"0001-01-01T00:00:00Z","name_a2s":"Uncletopia | Chicago | 8 | Community","protocol":17,"map":"cp_snakewater_final1","folder":"tf","game":"Team Fortress","app_id":440,"player_count":0,"max_players":24,"Bots":0,"server_type":"Dedicated","server_os":"Linux","password":true,"vac":true,"version":"7882260","steam_id":85568392924866365,"keywords":["cp","nocrits","nodmgspread","uncletopia"],"game_id":440,"stv_port":27046,"stv_name":"Uncletopia | Chicago | 8 | Community | STV","players":null},{"server_id":8,"name":"Uncletopia | Dallas | 1 | All Maps","name_short":"dal-1","host":"dal-1.us.uncletopia.com","port":27015,"enabled":true,"region":"us-central","cc":"us","latitude":32.779167,"longitude":-96.80889,"reserved":0,"last_update":"0001-01-01T00:00:00Z","name_a2s":"Uncletopia | Dallas | 1 | All Maps","protocol":17,"map":"pl_pier","folder":"tf","game":"Team Fortress","app_id":440,"player_count":0,"max_players":24,"Bots":0,"server_type":"Dedicated","server_os":"Linux","password":true,"vac":true,"version":"7882260","steam_id":85568392924469986,"keywords":["nocrits","nodmgspread","payload","uncletopia"],"game_id":440,"stv_port":27016,"stv_name":"Uncletopia | Dallas | 1 | All Maps | STV","players":null},{"server_id":108,"name":"Uncletopia | Dallas | 2 | All Maps","name_short":"dal-2","host":"dal-1.us.uncletopia.com","port":27025,"enabled":true,"region":"us-central","cc":"us","latitude":32.779167,"longitude":-96.80889,"reserved":0,"last_update":"0001-01-01T00:00:00Z","name_a2s":"Uncletopia | Dallas | 2 | All Maps","protocol":17,"map":"pl_barnblitz","folder":"tf","game":"Team Fortress","app_id":440,"player_count":0,"max_players":24,"Bots":0,"server_type":"Dedicated","server_os":"Linux","password":true,"vac":true,"version":"7882260","steam_id":85568392924469988,"keywords":["nocrits","nodmgspread","payload","uncletopia"],"game_id":440,"stv_port":27026,"stv_name":"Uncletopia | Dallas | 2 | All Maps | STV","players":null},{"server_id":5,"name":"Uncletopia | Frankfurt | 1 | All Maps","name_short":"frk-1","host":"frk-1.de.uncletopia.com","port":27015,"enabled":true,"region":"eu","cc":"de","latitude":50.110924,"longitude":8.682127,"reserved":0,"last_update":"0001-01-01T00:00:00Z","name_a2s":"Uncletopia | Frankfurt | 1 | All Maps","protocol":17,"map":"koth_cascade","folder":"tf","game":"Team Fortress","app_id":440,"player_count":24,"max_players":24,"Bots":0,"server_type":"Dedicated","server_os":"Linux","password":true,"vac":true,"version":"7882260","steam_id":85568392924469989,"keywords":["cp","nocrits","nodmgspread","uncletopia"],"game_id":440,"stv_port":27016,"stv_name":"Uncletopia | Frankfurt | 1 | All Maps | STV","players":[{"user_id":80,"name":"yuta","steam_id":76561198077922992,"connected_time":273000000000,"state":"active","ping":46},{"user_id":81,"name":"seeltf","steam_id":76561199014539176,"connected_time":244000000000,"state":"active","ping":82},{"user_id":82,"name":"krutoy","steam_id":76561198042468577,"connected_time":230000000000,"state":"active","ping":86},{"user_id":76,"name":"Zizman","steam_id":76561198446562910,"connected_time":742000000000,"state":"active","ping":146},{"user_id":83,"name":"dnl","steam_id":76561198074156929,"connected_time":217000000000,"state":"active","ping":89},{"user_id":71,"name":"petite mommy feet!","steam_id":76561197994492154,"connected_time":818000000000,"state":"active","ping":60},{"user_id":19,"name":"Vashontrash99","steam_id":76561199250946319,"connected_time":3695000000000,"state":"active","ping":120},{"user_id":24,"name":"quickfast","steam_id":76561199438900919,"connected_time":3185000000000,"state":"active","ping":52},{"user_id":73,"name":"john fortress","steam_id":76561198013237629,"connected_time":791000000000,"state":"active","ping":97},{"user_id":56,"name":"Chopperson_","steam_id":76561198873728497,"connected_time":2031000000000,"state":"active","ping":104},{"user_id":74,"name":"Mr_Joergen","steam_id":76561198364713702,"connected_time":764000000000,"state":"active","ping":68},{"user_id":26,"name":"Gregor","steam_id":76561199474923376,"connected_time":3126000000000,"state":"active","ping":80},{"user_id":51,"name":"wise ukrainian shaman","steam_id":76561198989398023,"connected_time":2067000000000,"state":"active","ping":102},{"user_id":32,"name":"dimitrij_6ix_god","steam_id":76561199023275543,"connected_time":3010000000000,"state":"active","ping":75},{"user_id":30,"name":"AidenJacks","steam_id":76561198263228457,"connected_time":3049000000000,"state":"active","ping":91},{"user_id":57,"name":"CAR DOOR","steam_id":76561198055283295,"connected_time":2007000000000,"state":"active","ping":45},{"user_id":85,"name":"Egg","steam_id":76561199360189459,"connected_time":83000000000,"state":"active","ping":76},{"user_id":58,"name":"wardex","steam_id":76561198058776834,"connected_time":2001000000000,"state":"active","ping":54},{"user_id":65,"name":"Zenssei","steam_id":76561198209895623,"connected_time":1377000000000,"state":"active","ping":109},{"user_id":86,"name":"THVG","steam_id":76561199156685368,"connected_time":80000000000,"state":"active","ping":62},{"user_id":69,"name":"svantezch","steam_id":76561198373831657,"connected_time":1204000000000,"state":"active","ping":81},{"user_id":59,"name":"cute face, violent heart","steam_id":76561198043836847,"connected_time":1981000000000,"state":"active","ping":71},{"user_id":50,"name":"hshs","steam_id":76561198314562513,"connected_time":2155000000000,"state":"active","ping":62},{"user_id":84,"name":"Hrodmund","steam_id":76561198024331014,"connected_time":155000000000,"state":"active","ping":84}]},{"server_id":110,"name":"Uncletopia | Frankfurt | 2 | All Maps","name_short":"frk-2","host":"frk-1.de.uncletopia.com","port":27025,"enabled":true,"region":"eu","cc":"de","latitude":50.110924,"longitude":8.682127,"reserved":0,"last_update":"0001-01-01T00:00:00Z","name_a2s":"Uncletopia | Frankfurt | 2 | All Maps","protocol":17,"map":"pl_frontier_final","folder":"tf","game":"Team Fortress","app_id":440,"player_count":24,"max_players":24,"Bots":0,"server_type":"Dedicated","server_os":"Linux","password":true,"vac":true,"version":"7882260","steam_id":85568392924469990,"keywords":["nocrits","nodmgspread","payload","uncletopia"],"game_id":440,"stv_port":27026,"stv_name":"Uncletopia | Frankfurt | 2 | All Maps | STV","players":[{"user_id":243,"name":"Purplenoogie","steam_id":76561198081872160,"connected_time":612000000000,"state":"active","ping":60},{"user_id":209,"name":"Ankle Dane","steam_id":76561198134378108,"connected_time":3837000000000,"state":"active","ping":108},{"user_id":236,"name":"goo :o","steam_id":76561199478550805,"connected_time":1077000000000,"state":"active","ping":53},{"user_id":44,"name":"Rin-Nakaret","steam_id":76561197971051188,"connected_time":14923000000000,"state":"active","ping":68},{"user_id":230,"name":"ARYZON","steam_id":76561198070705087,"connected_time":1314000000000,"state":"active","ping":45},{"user_id":241,"name":"mamalover2011","steam_id":76561198983097040,"connected_time":649000000000,"state":"active","ping":87},{"user_id":116,"name":"Ramzus","steam_id":76561198012385070,"connected_time":9065000000000,"state":"active","ping":88},{"user_id":185,"name":"El`Capitano Flex","steam_id":76561198061813730,"connected_time":5687000000000,"state":"active","ping":62},{"user_id":228,"name":"Eco","steam_id":76561199201938256,"connected_time":1463000000000,"state":"active","ping":86},{"user_id":152,"name":"SirVitek","steam_id":76561198142961758,"connected_time":7707000000000,"state":"active","ping":66},{"user_id":193,"name":"Fox in the Box","steam_id":76561198040183264,"connected_time":5404000000000,"state":"active","ping":106},{"user_id":180,"name":"BlobsOfWax","steam_id":76561198041752402,"connected_time":5906000000000,"state":"active","ping":58},{"user_id":215,"name":"Vezage","steam_id":76561198064916164,"connected_time":3193000000000,"state":"active","ping":73},{"user_id":229,"name":"\u003c blank \u003e","steam_id":76561198059375315,"connected_time":1451000000000,"state":"active","ping":67},{"user_id":244,"name":"iIMOFIi","steam_id":76561199000483925,"connected_time":380000000000,"state":"active","ping":171},{"user_id":239,"name":"beurgeur","steam_id":76561198872426314,"connected_time":845000000000,"state":"active","ping":45},{"user_id":195,"name":"Chromega","steam_id":76561199075307750,"connected_time":5379000000000,"state":"active","ping":57},{"user_id":173,"name":"Mr_Pulse_","steam_id":76561198095001602,"connected_time":6230000000000,"state":"active","ping":93},{"user_id":242,"name":"Eivind","steam_id":76561198159927980,"connected_time":638000000000,"state":"active","ping":69},{"user_id":159,"name":"banrab","steam_id":76561198083615367,"connected_time":7159000000000,"state":"active","ping":54},{"user_id":202,"name":"Kotra","steam_id":76561198182860169,"connected_time":4110000000000,"state":"active","ping":80},{"user_id":216,"name":"Little Satan","steam_id":76561198083614760,"connected_time":3022000000000,"state":"active","ping":76},{"user_id":232,"name":"誰かが見ている","steam_id":76561198834913692,"connected_time":1283000000000,"state":"active","ping":74},{"user_id":177,"name":"XPullaHiiri","steam_id":76561198031652375,"connected_time":6152000000000,"state":"active","ping":101}]},{"server_id":308,"name":"Uncletopia | Frankfurt | 3 | All Maps","name_short":"frk-3","host":"frk-1.de.uncletopia.com","port":27035,"enabled":true,"region":"eu","cc":"de","latitude":50.110924,"longitude":8.682127,"reserved":0,"last_update":"0001-01-01T00:00:00Z","name_a2s":"Uncletopia | Frankfurt | 3 | All Maps","protocol":17,"map":"cp_snakewater_final1","folder":"tf","game":"Team Fortress","app_id":440,"player_count":21,"max_players":24,"Bots":0,"server_type":"Dedicated","server_os":"Linux","password":true,"vac":true,"version":"7882260","steam_id":85568392924504274,"keywords":["cp","nocrits","nodmgspread","uncletopia"],"game_id":440,"stv_port":27036,"stv_name":"Uncletopia | Frankfurt | 3 | All Maps | STV","players":[{"user_id":524,"name":"mazagangee_","steam_id":76561199401621187,"connected_time":3743000000000,"state":"active","ping":177},{"user_id":556,"name":"akakez","steam_id":76561198095432821,"connected_time":1225000000000,"state":"active","ping":116},{"user_id":562,"name":"metamikko","steam_id":76561198324704234,"connected_time":5000000000,"state":"spawning","ping":109},{"user_id":546,"name":"Bartツ","steam_id":76561198164718893,"connected_time":1992000000000,"state":"active","ping":57},{"user_id":537,"name":"los jeezos","steam_id":76561198123592400,"connected_time":2600000000000,"state":"active","ping":81},{"user_id":548,"name":"sachmoe2","steam_id":76561199217925107,"connected_time":1857000000000,"state":"active","ping":171},{"user_id":564,"name":"GAMER MODE ACTIVATE","steam_id":76561198334042273,"connected_time":1000000000,"state":"spawning","ping":41},{"user_id":528,"name":"Smorkface","steam_id":76561198045066985,"connected_time":3660000000000,"state":"active","ping":46},{"user_id":559,"name":"Oxer","steam_id":76561198055942412,"connected_time":615000000000,"state":"active","ping":71},{"user_id":491,"name":"Tekky","steam_id":76561197990987315,"connected_time":5924000000000,"state":"active","ping":50},{"user_id":510,"name":"sAmasam","steam_id":76561198114953928,"connected_time":5524000000000,"state":"active","ping":59},{"user_id":523,"name":"Sex Man TF2","steam_id":76561198798657045,"connected_time":3901000000000,"state":"active","ping":71},{"user_id":549,"name":"Stuid","steam_id":76561199427506542,"connected_time":1806000000000,"state":"active","ping":73},{"user_id":563,"name":"Sh1n","steam_id":76561199012155377,"connected_time":3000000000,"state":"spawning","ping":43},{"user_id":554,"name":"Douse","steam_id":76561198023702779,"connected_time":1397000000000,"state":"active","ping":102},{"user_id":498,"name":"Ran33","steam_id":76561197991474499,"connected_time":5783000000000,"state":"active","ping":77},{"user_id":501,"name":"the joy of recycling","steam_id":76561198138509827,"connected_time":5755000000000,"state":"active","ping":76},{"user_id":561,"name":"Jonathan","steam_id":76561198087988880,"connected_time":25000000000,"state":"active","ping":82},{"user_id":514,"name":"t0ksi","steam_id":76561198107240798,"connected_time":4536000000000,"state":"active","ping":60},{"user_id":442,"name":"LasagneMan","steam_id":76561198971904377,"connected_time":7938000000000,"state":"active","ping":63},{"user_id":457,"name":"Hussain_144","steam_id":76561198346029208,"connected_time":7629000000000,"state":"active","ping":180}]},{"server_id":309,"name":"Uncletopia | Frankfurt | 4 | All Maps","name_short":"frk-4","host":"frk-1.de.uncletopia.com","port":27045,"enabled":true,"region":"eu","cc":"de","latitude":50.110924,"longitude":8.682127,"reserved":0,"last_update":"0001-01-01T00:00:00Z","name_a2s":"Uncletopia | Frankfurt | 4 | All Maps","protocol":17,"map":"cp_snakewater_final1","folder":"tf","game":"Team Fortress","app_id":440,"player_count":0,"max_players":24,"Bots":0,"server_type":"Dedicated","server_os":"Linux","password":true,"vac":true,"version":"7882260","steam_id":85568392924504275,"keywords":["cp","nocrits","nodmgspread","uncletopia"],"game_id":440,"stv_port":27046,"stv_name":"Uncletopia | Frankfurt | 4 | All Maps | STV","players":null},{"server_id":310,"name":"Uncletopia | Frankfurt | 5 | All Maps","name_short":"frk-5","host":"frk-1.de.uncletopia.com","port":27055,"enabled":true,"region":"eu","cc":"de","latitude":50.110924,"longitude":8.682127,"reserved":0,"last_update":"0001-01-01T00:00:00Z","name_a2s":"Uncletopia | Frankfurt | 5 | All Maps","protocol":17,"map":"pl_barnblitz","folder":"tf","game":"Team Fortress","app_id":440,"player_count":0,"max_players":24,"Bots":0,"server_type":"Dedicated","server_os":"Linux","password":true,"vac":true,"version":"7882260","steam_id":85568392924504277,"keywords":["nocrits","nodmgspread","payload","uncletopia"],"game_id":440,"stv_port":27056,"stv_name":"Uncletopia | Frankfurt | 5 | All Maps | STV","players":null},{"server_id":311,"name":"Uncletopia | Frankfurt | 6 | All Maps","name_short":"frk-6","host":"frk-1.de.uncletopia.com","port":27065,"enabled":true,"region":"eu","cc":"de","latitude":50.110924,"longitude":8.682127,"reserved":0,"last_update":"0001-01-01T00:00:00Z","name_a2s":"Uncletopia | Frankfurt | 6 | All Maps","protocol":17,"map":"cp_sunshine","folder":"tf","game":"Team Fortress","app_id":440,"player_count":0,"max_players":24,"Bots":0,"server_type":"Dedicated","server_os":"Linux","password":true,"vac":true,"version":"7882260","steam_id":85568392924504278,"keywords":["cp","nocrits","nodmgspread","uncletopia"],"game_id":440,"stv_port":27066,"stv_name":"Uncletopia | Frankfurt | 6 | All Maps | STV","players":null},{"server_id":23,"name":"Uncletopia | Frankfurt | 7 | Stopwatch Beta","name_short":"frk-7","host":"frk-1.de.uncletopia.com","port":27075,"enabled":true,"region":"eu","cc":"de","latitude":50.110924,"longitude":8.682127,"reserved":0,"last_update":"0001-01-01T00:00:00Z","name_a2s":"Uncletopia | Frankfurt | 7 | Stopwatch Beta","protocol":17,"map":"cp_dustbowl","folder":"tf","game":"Team Fortress","app_id":440,"player_count":0,"max_players":24,"Bots":0,"server_type":"Dedicated","server_os":"Linux","password":true,"vac":true,"version":"7882260","steam_id":85568392924742827,"keywords":["cp","nocrits","nodmgspread","uncletopia"],"game_id":440,"stv_port":27076,"stv_name":"Uncletopia | Frankfurt | 7 | Stopwatch Beta | STV","players":null},{"server_id":24,"name":"Uncletopia | Frankfurt | 8 | Community","name_short":"frk-8","host":"frk-1.de.uncletopia.com","port":27085,"enabled":true,"region":"eu","cc":"de","latitude":50.110924,"longitude":8.682127,"reserved":0,"last_update":"0001-01-01T00:00:00Z","name_a2s":"Uncletopia | Frankfurt | 8 | Community","protocol":17,"map":"koth_cascade","folder":"tf","game":"Team Fortress","app_id":440,"player_count":0,"max_players":24,"Bots":0,"server_type":"Dedicated","server_os":"Linux","password":true,"vac":true,"version":"7882260","steam_id":85568392924742828,"keywords":["cp","nocrits","nodmgspread","uncletopia"],"game_id":440,"stv_port":27086,"stv_name":"Uncletopia | Frankfurt | 8 | Community | STV","players":null},{"server_id":202,"name":"Uncletopia | Hong Kong | 1 | All Maps","name_short":"hgk-1","host":"hgk-1.hk.uncletopia.com","port":27015,"enabled":true,"region":"asia","cc":"hk","latitude":22.302711,"longitude":114.177216,"reserved":0,"last_update":"0001-01-01T00:00:00Z","name_a2s":"Uncletopia | Hong Kong | 1 | All Maps","protocol":17,"map":"cp_steel","folder":"tf","game":"Team Fortress","app_id":440,"player_count":24,"max_players":24,"Bots":0,"server_type":"Dedicated","server_os":"Linux","password":true,"vac":true,"version":"7882260","steam_id":85568392924494504,"keywords":["cp","nocrits","nodmgspread","uncletopia"],"game_id":440,"stv_port":27016,"stv_name":"Uncletopia | Hong Kong | 1 | All Maps | STV","players":[{"user_id":339,"name":"This isn't Counter Strike","steam_id":76561199198665314,"connected_time":370000000000,"state":"active","ping":84},{"user_id":272,"name":"ksvk","steam_id":76561198152588681,"connected_time":1630000000000,"state":"active","ping":93},{"user_id":338,"name":"쿠키","steam_id":76561197997220367,"connected_time":376000000000,"state":"active","ping":44},{"user_id":333,"name":"Beef Wellington","steam_id":76561197995635241,"connected_time":426000000000,"state":"active","ping":116},{"user_id":179,"name":"Bepo","steam_id":76561198136685157,"connected_time":4078000000000,"state":"active","ping":60},{"user_id":229,"name":"Vortex Medico","steam_id":76561198833527091,"connected_time":3375000000000,"state":"active","ping":90},{"user_id":343,"name":"Duck with a knife (what he gonn","steam_id":76561199092409364,"connected_time":241000000000,"state":"active","ping":110},{"user_id":334,"name":"Stupid B","steam_id":76561198131423270,"connected_time":416000000000,"state":"active","ping":119},{"user_id":228,"name":"Dr. Piss Rat","steam_id":76561199074809838,"connected_time":3395000000000,"state":"active","ping":71},{"user_id":236,"name":"Lelouch","steam_id":76561198828840546,"connected_time":2218000000000,"state":"active","ping":77},{"user_id":273,"name":"母の肉団子@hao123.com","steam_id":76561198069561896,"connected_time":1622000000000,"state":"active","ping":36},{"user_id":277,"name":"paper boat","steam_id":76561198046558051,"connected_time":1331000000000,"state":"active","ping":89},{"user_id":145,"name":"PocoLoco","steam_id":76561198834044246,"connected_time":7344000000000,"state":"active","ping":94},{"user_id":152,"name":"WhereAmai","steam_id":76561199122491157,"connected_time":6211000000000,"state":"active","ping":138},{"user_id":344,"name":"Buttman","steam_id":76561198044693388,"connected_time":218000000000,"state":"active","ping":55},{"user_id":330,"name":"yw","steam_id":76561199382726488,"connected_time":451000000000,"state":"active","ping":46},{"user_id":342,"name":"screaming sniper","steam_id":76561199085568674,"connected_time":292000000000,"state":"active","ping":79},{"user_id":331,"name":"TheChainsaw","steam_id":76561198312001455,"connected_time":450000000000,"state":"active","ping":114},{"user_id":260,"name":"TomProPlayer","steam_id":76561199223292521,"connected_time":1807000000000,"state":"active","ping":108},{"user_id":282,"name":"yeah","steam_id":76561199085055448,"connected_time":1125000000000,"state":"active","ping":107},{"user_id":332,"name":"Jackal Queenston","steam_id":76561199012678702,"connected_time":442000000000,"state":"active","ping":108},{"user_id":337,"name":"P","steam_id":76561198304514505,"connected_time":404000000000,"state":"active","ping":87},{"user_id":347,"name":"Prof Booster","steam_id":76561199148930929,"connected_time":100000000000,"state":"active","ping":32},{"user_id":227,"name":"TomCat","steam_id":76561198133744053,"connected_time":3407000000000,"state":"active","ping":115}]},{"server_id":1,"name":"Uncletopia | Los Angeles | 1 | All Maps","name_short":"lax-1","host":"lax-1.us.uncletopia.com","port":27015,"enabled":true,"region":"us-west","cc":"us","latitude":33.94279,"longitude":-118.41004,"reserved":0,"last_update":"0001-01-01T00:00:00Z","name_a2s":"Uncletopia | Los Angeles | 1 | All Maps","protocol":17,"map":"pl_pier","folder":"tf","game":"Team Fortress","app_id":440,"player_count":0,"max_players":24,"Bots":0,"server_type":"Dedicated","server_os":"Linux","password":true,"vac":true,"version":"7882260","steam_id":85568392924469991,"keywords":["nocrits","nodmgspread","payload","uncletopia"],"game_id":440,"stv_port":27016,"stv_name":"Uncletopia | Los Angeles | 1 | All Maps | STV","players":null},{"server_id":112,"name":"Uncletopia | Los Angeles | 2 | All Maps","name_short":"lax-2","host":"lax-1.us.uncletopia.com","port":27025,"enabled":true,"region":"us-west","cc":"us","latitude":33.94279,"longitude":-118.41004,"reserved":0,"last_update":"0001-01-01T00:00:00Z","name_a2s":"Uncletopia | Los Angeles | 2 | All Maps","protocol":17,"map":"cp_dustbowl","folder":"tf","game":"Team Fortress","app_id":440,"player_count":24,"max_players":24,"Bots":0,"server_type":"Dedicated","server_os":"Linux","password":true,"vac":true,"version":"7882260","steam_id":85568392924469992,"keywords":["cp","nocrits","nodmgspread","uncletopia"],"game_id":440,"stv_port":27026,"stv_name":"Uncletopia | Los Angeles | 2 | All Maps | STV","players":[{"user_id":3,"name":"lol","steam_id":76561198026491738,"connected_time":894000000000,"state":"active","ping":60},{"user_id":4,"name":"Thughunter","steam_id":76561198164983068,"connected_time":890000000000,"state":"active","ping":52},{"user_id":5,"name":"zapato","steam_id":76561198142278437,"connected_time":887000000000,"state":"active","ping":96},{"user_id":6,"name":"vλughn","steam_id":76561198144165856,"connected_time":880000000000,"state":"active","ping":87},{"user_id":15,"name":"noblewolf16","steam_id":76561198085885383,"connected_time":728000000000,"state":"active","ping":114},{"user_id":8,"name":"Megumin","steam_id":76561198807635698,"connected_time":856000000000,"state":"active","ping":46},{"user_id":9,"name":"defbigsonicsbff","steam_id":76561199388617281,"connected_time":843000000000,"state":"active","ping":55},{"user_id":11,"name":"Bacon Hoodie","steam_id":76561198843822629,"connected_time":823000000000,"state":"active","ping":84},{"user_id":12,"name":"Jeb Gonko","steam_id":76561199023172693,"connected_time":807000000000,"state":"active","ping":122},{"user_id":14,"name":"spider_murphy","steam_id":76561198079057101,"connected_time":786000000000,"state":"active","ping":87},{"user_id":16,"name":"Crunchy","steam_id":76561198240523882,"connected_time":711000000000,"state":"active","ping":51},{"user_id":19,"name":"KooKooKachue","steam_id":76561198391195262,"connected_time":596000000000,"state":"active","ping":117},{"user_id":18,"name":"Aiko","steam_id":76561198262395873,"connected_time":660000000000,"state":"active","ping":60},{"user_id":20,"name":"Vruk","steam_id":76561198116930332,"connected_time":585000000000,"state":"active","ping":88},{"user_id":22,"name":"PEPSI POWERED MAN","steam_id":76561198362668431,"connected_time":523000000000,"state":"active","ping":146},{"user_id":27,"name":"Roxy, The Sleepy Mind","steam_id":76561198149622802,"connected_time":242000000000,"state":"active","ping":126},{"user_id":24,"name":"Joe","steam_id":76561199389283507,"connected_time":402000000000,"state":"active","ping":130},{"user_id":25,"name":"FreonAddict9x19","steam_id":76561198060010824,"connected_time":396000000000,"state":"active","ping":115},{"user_id":26,"name":"ShiverBorn","steam_id":76561198384811149,"connected_time":353000000000,"state":"active","ping":126},{"user_id":28,"name":"Greg","steam_id":76561199117798282,"connected_time":237000000000,"state":"active","ping":114},{"user_id":29,"name":"DJThunderHeart","steam_id":76561198274197575,"connected_time":125000000000,"state":"active","ping":117},{"user_id":30,"name":"FI LO","steam_id":76561198976530881,"connected_time":91000000000,"state":"active","ping":41},{"user_id":31,"name":"mindelthefish","steam_id":76561199418415559,"connected_time":72000000000,"state":"active","ping":251},{"user_id":32,"name":"[SAW] Lost Darkrai","steam_id":76561198021034873,"connected_time":70000000000,"state":"active","ping":81}]},{"server_id":324,"name":"Uncletopia | Los Angeles | 3 | All Maps","name_short":"lax-3","host":"lax-1.us.uncletopia.com","port":27035,"enabled":true,"region":"us-west","cc":"us","latitude":33.94279,"longitude":-118.41004,"reserved":0,"last_update":"0001-01-01T00:00:00Z","name_a2s":"Uncletopia | Los Angeles | 3 | All Maps","protocol":17,"map":"cp_sunshine","folder":"tf","game":"Team Fortress","app_id":440,"player_count":3,"max_players":24,"Bots":0,"server_type":"Dedicated","server_os":"Linux","password":true,"vac":true,"version":"7882260","steam_id":85568392924510198,"keywords":["cp","nocrits","nodmgspread","uncletopia"],"game_id":440,"stv_port":27036,"stv_name":"Uncletopia | Los Angeles | 3 | All Maps | STV","players":[{"user_id":4,"name":"Victor Skull","steam_id":76561198352212864,"connected_time":863000000000,"state":"active","ping":92},{"user_id":5,"name":"VERY STABLE GENIUS","steam_id":76561198079401635,"connected_time":824000000000,"state":"active","ping":103},{"user_id":8,"name":"Meow Cat Meow","steam_id":76561198070226860,"connected_time":59000000000,"state":"active","ping":43}]},{"server_id":25,"name":"Uncletopia | Los Angeles | 4 | Stopwatch Beta","name_short":"lax-4","host":"lax-1.us.uncletopia.com","port":27045,"enabled":true,"region":"us-west","cc":"us","latitude":33.94279,"longitude":-118.41004,"reserved":0,"last_update":"0001-01-01T00:00:00Z","name_a2s":"Uncletopia | Los Angeles | 4 | Stopwatch Beta","protocol":17,"map":"cp_snakewater_final1","folder":"tf","game":"Team Fortress","app_id":440,"player_count":0,"max_players":24,"Bots":0,"server_type":"Dedicated","server_os":"Linux","password":true,"vac":true,"version":"7882260","steam_id":85568392924510199,"keywords":["cp","nocrits","nodmgspread","uncletopia"],"game_id":440,"stv_port":27046,"stv_name":"Uncletopia | Los Angeles | 4 | Stopwatch Beta | STV","players":null},{"server_id":11,"name":"Uncletopia | London | 1 | All Maps","name_short":"lon-1","host":"lon-1.uk.uncletopia.com","port":27015,"enabled":true,"region":"eu","cc":"gb","latitude":51.509865,"longitude":-0.118092,"reserved":0,"last_update":"0001-01-01T00:00:00Z","name_a2s":"Uncletopia | London | 1 | All Maps","protocol":17,"map":"pl_badwater","folder":"tf","game":"Team Fortress","app_id":440,"player_count":24,"max_players":24,"Bots":0,"server_type":"Dedicated","server_os":"Linux","password":true,"vac":true,"version":"7882260","steam_id":85568392924367362,"keywords":["nocrits","nodmgspread","payload","uncletopia"],"game_id":440,"stv_port":27016,"stv_name":"Uncletopia | London | 1 | All Maps | STV","players":[{"user_id":327,"name":"Son Goku","steam_id":76561199383437138,"connected_time":2371000000000,"state":"active","ping":122},{"user_id":351,"name":"your ex","steam_id":76561198210179771,"connected_time":593000000000,"state":"active","ping":81},{"user_id":364,"name":"я сосал меня ебал","steam_id":76561197971140507,"connected_time":98000000000,"state":"active","ping":68},{"user_id":365,"name":"Show me your gun","steam_id":76561198368339225,"connected_time":12000000000,"state":"spawning","ping":90},{"user_id":360,"name":"Paxxy","steam_id":76561199064460953,"connected_time":381000000000,"state":"active","ping":148},{"user_id":355,"name":"Koflip","steam_id":76561198046855092,"connected_time":451000000000,"state":"active","ping":106},{"user_id":301,"name":"jt7","steam_id":76561198073655162,"connected_time":3859000000000,"state":"active","ping":69},{"user_id":354,"name":"Alfred Schroom","steam_id":76561198117990411,"connected_time":495000000000,"state":"active","ping":91},{"user_id":278,"name":"night.s","steam_id":76561198326287823,"connected_time":4872000000000,"state":"active","ping":74},{"user_id":341,"name":"leminsc8","steam_id":76561198825084995,"connected_time":1432000000000,"state":"active","ping":49},{"user_id":356,"name":"Gordon","steam_id":76561198303652059,"connected_time":441000000000,"state":"active","ping":61},{"user_id":347,"name":"Depakine 500","steam_id":76561198214267967,"connected_time":1206000000000,"state":"active","ping":76},{"user_id":357,"name":"Aqueous","steam_id":76561198125611519,"connected_time":416000000000,"state":"active","ping":55},{"user_id":358,"name":"Bebop","steam_id":76561198050514770,"connected_time":412000000000,"state":"active","ping":124},{"user_id":297,"name":"Flare","steam_id":76561198039098320,"connected_time":4045000000000,"state":"active","ping":51},{"user_id":359,"name":"POZO sashisashisashi","steam_id":76561198400746168,"connected_time":400000000000,"state":"active","ping":85},{"user_id":314,"name":"KnugenIV","steam_id":76561198127091993,"connected_time":2945000000000,"state":"active","ping":61},{"user_id":361,"name":"Sneikijs","steam_id":76561198052549308,"connected_time":376000000000,"state":"active","ping":41},{"user_id":362,"name":"Dan","steam_id":76561198289353288,"connected_time":351000000000,"state":"active","ping":43},{"user_id":336,"name":"skilltissues","steam_id":76561198025828664,"connected_time":1876000000000,"state":"active","ping":60},{"user_id":363,"name":"Abhorrent","steam_id":76561198056338288,"connected_time":349000000000,"state":"active","ping":45},{"user_id":346,"name":"Ark-e","steam_id":76561198261870909,"connected_time":1305000000000,"state":"active","ping":31},{"user_id":313,"name":"sneaky pete","steam_id":76561198066287297,"connected_time":3109000000000,"state":"active","ping":45},{"user_id":332,"name":"✪ qua ✪","steam_id":76561198066408333,"connected_time":2025000000000,"state":"active","ping":85}]},{"server_id":114,"name":"Uncletopia | London | 2 | All Maps","name_short":"lon-2","host":"lon-1.uk.uncletopia.com","port":27025,"enabled":true,"region":"eu","cc":"gb","latitude":51.509865,"longitude":-0.118092,"reserved":0,"last_update":"0001-01-01T00:00:00Z","name_a2s":"Uncletopia | London | 2 | All Maps","protocol":17,"map":"pl_swiftwater_final1","folder":"tf","game":"Team Fortress","app_id":440,"player_count":1,"max_players":24,"Bots":0,"server_type":"Dedicated","server_os":"Linux","password":true,"vac":true,"version":"7882260","steam_id":85568392924470941,"keywords":["nocrits","nodmgspread","payload","uncletopia"],"game_id":440,"stv_port":27026,"stv_name":"Uncletopia | London | 2 | All Maps | STV","players":[{"user_id":5,"name":"Voks_","steam_id":76561198159687785,"connected_time":20000000000,"state":"spawning","ping":53}]},{"server_id":320,"name":"Uncletopia | London | 3 | All Maps","name_short":"lon-3","host":"lon-1.uk.uncletopia.com","port":27035,"enabled":true,"region":"eu","cc":"gb","latitude":51.509865,"longitude":-0.118092,"reserved":0,"last_update":"0001-01-01T00:00:00Z","name_a2s":"Uncletopia | London | 3 | All Maps","protocol":17,"map":"koth_highpass","folder":"tf","game":"Team Fortress","app_id":440,"player_count":0,"max_players":24,"Bots":0,"server_type":"Dedicated","server_os":"Linux","password":true,"vac":true,"version":"7882260","steam_id":85568392924510192,"keywords":["cp","nocrits","nodmgspread","uncletopia"],"game_id":440,"stv_port":27036,"stv_name":"Uncletopia | London | 3 | All Maps | STV","players":null},{"server_id":321,"name":"Uncletopia | London | 4 | All Maps","name_short":"lon-4","host":"lon-1.uk.uncletopia.com","port":27045,"enabled":true,"region":"eu","cc":"gb","latitude":51.509865,"longitude":-0.118092,"reserved":0,"last_update":"0001-01-01T00:00:00Z","name_a2s":"Uncletopia | London | 4 | All Maps","protocol":17,"map":"cp_mountainlab","folder":"tf","game":"Team Fortress","app_id":440,"player_count":24,"max_players":24,"Bots":0,"server_type":"Dedicated","server_os":"Linux","password":true,"vac":true,"version":"7882260","steam_id":85568392924510193,"keywords":["cp","nocrits","nodmgspread","uncletopia"],"game_id":440,"stv_port":27046,"stv_name":"Uncletopia | London | 4 | All Maps | STV","players":[{"user_id":199,"name":"Drekadóttir","steam_id":76561198119979169,"connected_time":4356000000000,"state":"active","ping":75},{"user_id":251,"name":"Kieranite","steam_id":76561198059607762,"connected_time":834000000000,"state":"active","ping":48},{"user_id":257,"name":"i am bread","steam_id":76561199180277321,"connected_time":227000000000,"state":"active","ping":66},{"user_id":239,"name":"EGirl | Klarra","steam_id":76561198077745407,"connected_time":1961000000000,"state":"active","ping":75},{"user_id":258,"name":"robotiq","steam_id":76561198084218622,"connected_time":172000000000,"state":"active","ping":152},{"user_id":249,"name":"A stripper","steam_id":76561198034865891,"connected_time":1079000000000,"state":"active","ping":59},{"user_id":217,"name":"Sylvanas","steam_id":76561198154904165,"connected_time":3309000000000,"state":"active","ping":102},{"user_id":235,"name":"red broom","steam_id":76561198211967715,"connected_time":2024000000000,"state":"active","ping":95},{"user_id":232,"name":"DragonLord","steam_id":76561198074279225,"connected_time":2051000000000,"state":"active","ping":45},{"user_id":245,"name":"OwOreo // fckputin","steam_id":76561197995314793,"connected_time":1608000000000,"state":"active","ping":48},{"user_id":218,"name":"Limbless André","steam_id":76561198077283223,"connected_time":3233000000000,"state":"active","ping":78},{"user_id":167,"name":"I have aids","steam_id":76561198860347851,"connected_time":5462000000000,"state":"active","ping":144},{"user_id":216,"name":"Obama Turtle","steam_id":76561199125473062,"connected_time":3506000000000,"state":"active","ping":108},{"user_id":212,"name":"Dolcelatte","steam_id":76561198038501770,"connected_time":3743000000000,"state":"active","ping":61},{"user_id":185,"name":"s a i","steam_id":76561197970379754,"connected_time":5150000000000,"state":"active","ping":62},{"user_id":230,"name":"Dad","steam_id":76561198048551680,"connected_time":2336000000000,"state":"active","ping":52},{"user_id":246,"name":"Hans","steam_id":76561198030061999,"connected_time":1550000000000,"state":"active","ping":77},{"user_id":192,"name":"-Boomer-","steam_id":76561197970798571,"connected_time":4630000000000,"state":"active","ping":71},{"user_id":225,"name":"Satan","steam_id":76561198067950770,"connected_time":2828000000000,"state":"active","ping":97},{"user_id":253,"name":"Margret Thatcher Gaming","steam_id":76561198156544609,"connected_time":595000000000,"state":"active","ping":74},{"user_id":208,"name":"Itai","steam_id":76561198804555329,"connected_time":4074000000000,"state":"active","ping":105},{"user_id":252,"name":"eros","steam_id":76561198799113946,"connected_time":772000000000,"state":"active","ping":56},{"user_id":247,"name":"The Observer","steam_id":76561198393596975,"connected_time":1340000000000,"state":"active","ping":52},{"user_id":260,"name":"Dude Time","steam_id":76561198092991160,"connected_time":43000000000,"state":"active","ping":163}]},{"server_id":21,"name":"Uncletopia | London | 5 | All Maps","name_short":"lon-5","host":"lon-1.uk.uncletopia.com","port":27055,"enabled":true,"region":"eu","cc":"gb","latitude":51.509865,"longitude":-0.118092,"reserved":0,"last_update":"0001-01-01T00:00:00Z","name_a2s":"Uncletopia | London | 5 | All Maps","protocol":17,"map":"pl_frontier_final","folder":"tf","game":"Team Fortress","app_id":440,"player_count":0,"max_players":24,"Bots":0,"server_type":"Dedicated","server_os":"Linux","password":true,"vac":true,"version":"7882260","steam_id":85568392924742829,"keywords":["nocrits","nodmgspread","payload","uncletopia"],"game_id":440,"stv_port":27056,"stv_name":"Uncletopia | London | 5 | All Maps | STV","players":null},{"server_id":22,"name":"Uncletopia | London | 6 | All Maps","name_short":"lon-6","host":"lon-1.uk.uncletopia.com","port":27065,"enabled":true,"region":"eu","cc":"gb","latitude":51.509865,"longitude":-0.118092,"reserved":0,"last_update":"0001-01-01T00:00:00Z","name_a2s":"Uncletopia | London | 6 | All Maps","protocol":17,"map":"cp_altitude","folder":"tf","game":"Team Fortress","app_id":440,"player_count":0,"max_players":24,"Bots":0,"server_type":"Dedicated","server_os":"Linux","password":true,"vac":true,"version":"7882260","steam_id":85568392924742830,"keywords":["cp","nocrits","nodmgspread","uncletopia"],"game_id":440,"stv_port":27066,"stv_name":"Uncletopia | London | 6 | All Maps | STV","players":null},{"server_id":40,"name":"Uncletopia | London | 7 | No Payload","name_short":"lon-7","host":"lon-1.uk.uncletopia.com","port":27075,"enabled":true,"region":"eu","cc":"gb","latitude":51.509865,"longitude":-0.118092,"reserved":0,"last_update":"0001-01-01T00:00:00Z","name_a2s":"Uncletopia | London | 7 | No Payload","protocol":17,"map":"cp_mountainlab","folder":"tf","game":"Team Fortress","app_id":440,"player_count":3,"max_players":24,"Bots":0,"server_type":"Dedicated","server_os":"Linux","password":true,"vac":true,"version":"7882260","steam_id":85568392924964314,"keywords":["cp","nocrits","nodmgspread","uncletopia"],"game_id":440,"stv_port":27076,"stv_name":"Uncletopia | London | 7 | No Payload | STV","players":[{"user_id":7,"name":"tummaluppo taivaltaja","steam_id":76561198093458326,"connected_time":180000000000,"state":"active","ping":70},{"user_id":6,"name":"togopoika","steam_id":76561198804885060,"connected_time":977000000000,"state":"active","ping":67},{"user_id":9,"name":"cherri","steam_id":76561198146570384,"connected_time":142000000000,"state":"active","ping":75}]},{"server_id":41,"name":"Uncletopia | London | 8 | Community","name_short":"lon-8","host":"lon-1.uk.uncletopia.com","port":27085,"enabled":true,"region":"eu","cc":"gb","latitude":51.509865,"longitude":-0.118092,"reserved":0,"last_update":"0001-01-01T00:00:00Z","name_a2s":"Uncletopia | London | 8 | Community","protocol":17,"map":"workshop/cp_sulfur_rc2.ugc619869471","folder":"tf","game":"Team Fortress","app_id":440,"player_count":0,"max_players":24,"Bots":0,"server_type":"Dedicated","server_os":"Linux","password":true,"vac":true,"version":"7882260","steam_id":85568392924964315,"keywords":["cp","nocrits","nodmgspread","uncletopia"],"game_id":440,"stv_port":27086,"stv_name":"Uncletopia | London | 8 | Community | STV","players":null},{"server_id":300,"name":"Uncletopia | Montréal | 1 | All Maps","name_short":"mtl-1","host":"mtl-1.ca.uncletopia.com","port":27015,"enabled":true,"region":"us-east","cc":"ca","latitude":45.50889,"longitude":-73.56167,"reserved":0,"last_update":"0001-01-01T00:00:00Z","name_a2s":"Uncletopia | Montréal | 1 | All Maps","protocol":17,"map":"pl_snowycoast","folder":"tf","game":"Team Fortress","app_id":440,"player_count":0,"max_players":24,"Bots":0,"server_type":"Dedicated","server_os":"Linux","password":true,"vac":true,"version":"7882260","steam_id":85568392924500087,"keywords":["nocrits","nodmgspread","payload","uncletopia"],"game_id":440,"stv_port":27016,"stv_name":"Uncletopia | Montréal | 1 | All Maps | STV","players":null},{"server_id":301,"name":"Uncletopia | Montréal | 2 | All Maps","name_short":"mtl-2","host":"mtl-1.ca.uncletopia.com","port":27025,"enabled":true,"region":"us-east","cc":"ca","latitude":45.50889,"longitude":-73.56167,"reserved":0,"last_update":"0001-01-01T00:00:00Z","name_a2s":"Uncletopia | Montréal | 2 | All Maps","protocol":17,"map":"cp_sunshine","folder":"tf","game":"Team Fortress","app_id":440,"player_count":0,"max_players":24,"Bots":0,"server_type":"Dedicated","server_os":"Linux","password":true,"vac":true,"version":"7882260","steam_id":85568392924500088,"keywords":["cp","nocrits","nodmgspread","uncletopia"],"game_id":440,"stv_port":27026,"stv_name":"Uncletopia | Montréal | 2 | All Maps | STV","players":null},{"server_id":302,"name":"Uncletopia | Montréal | 3 | All Maps","name_short":"mtl-3","host":"mtl-1.ca.uncletopia.com","port":27035,"enabled":true,"region":"us-east","cc":"ca","latitude":45.50889,"longitude":-73.56167,"reserved":0,"last_update":"0001-01-01T00:00:00Z","name_a2s":"Uncletopia | Montréal | 3 | All Maps","protocol":17,"map":"pl_borneo","folder":"tf","game":"Team Fortress","app_id":440,"player_count":0,"max_players":24,"Bots":0,"server_type":"Dedicated","server_os":"Linux","password":true,"vac":true,"version":"7882260","steam_id":85568392924500089,"keywords":["nocrits","nodmgspread","payload","uncletopia"],"game_id":440,"stv_port":27036,"stv_name":"Uncletopia | Montréal | 3 | All Maps | STV","players":null},{"server_id":303,"name":"Uncletopia | Montréal | 4 | No Payload","name_short":"mtl-4","host":"mtl-1.ca.uncletopia.com","port":27045,"enabled":true,"region":"us-east","cc":"ca","latitude":45.50889,"longitude":-73.56167,"reserved":0,"last_update":"0001-01-01T00:00:00Z","name_a2s":"Uncletopia | Montréal | 4 | No Payload","protocol":17,"map":"cp_altitude","folder":"tf","game":"Team Fortress","app_id":440,"player_count":0,"max_players":24,"Bots":0,"server_type":"Dedicated","server_os":"Linux","password":true,"vac":true,"version":"7882260","steam_id":85568392924500090,"keywords":["cp","nocrits","nodmgspread","uncletopia"],"game_id":440,"stv_port":27046,"stv_name":"Uncletopia | Montréal | 4 | No Payload | STV","players":null},{"server_id":13,"name":"Uncletopia | New York City | 1 | All Maps","name_short":"nyc-1","host":"nyc-1.us.uncletopia.com","port":27015,"enabled":true,"region":"us-east","cc":"us","latitude":40.73061,"longitude":-73.93524,"reserved":0,"last_update":"0001-01-01T00:00:00Z","name_a2s":"Uncletopia | New York City | 1 | All Maps","protocol":17,"map":"pl_borneo","folder":"tf","game":"Team Fortress","app_id":440,"player_count":0,"max_players":24,"Bots":0,"server_type":"Dedicated","server_os":"Linux","password":true,"vac":true,"version":"7882260","steam_id":85568392924469993,"keywords":["nocrits","nodmgspread","payload","uncletopia"],"game_id":440,"stv_port":27016,"stv_name":"Uncletopia | New York City | 1 | All Maps | STV","players":null},{"server_id":14,"name":"Uncletopia | New York City | 2 | All Maps","name_short":"nyc-2","host":"nyc-1.us.uncletopia.com","port":27025,"enabled":true,"region":"us-east","cc":"us","latitude":40.73061,"longitude":-73.93524,"reserved":0,"last_update":"0001-01-01T00:00:00Z","name_a2s":"Uncletopia | New York City | 2 | All Maps","protocol":17,"map":"pl_badwater","folder":"tf","game":"Team Fortress","app_id":440,"player_count":0,"max_players":24,"Bots":0,"server_type":"Dedicated","server_os":"Linux","password":true,"vac":true,"version":"7882260","steam_id":85568392924469994,"keywords":["nocrits","nodmgspread","payload","uncletopia"],"game_id":440,"stv_port":27026,"stv_name":"Uncletopia | New York City | 2 | All Maps | STV","players":null},{"server_id":15,"name":"Uncletopia | New York City | 3 | Stopwatch Beta","name_short":"nyc-3","host":"nyc-1.us.uncletopia.com","port":27035,"enabled":true,"region":"us-east","cc":"us","latitude":40.73061,"longitude":-73.93524,"reserved":0,"last_update":"0001-01-01T00:00:00Z","name_a2s":"Uncletopia | New York City | 3 | Stopwatch Beta","protocol":17,"map":"koth_lakeside_final","folder":"tf","game":"Team Fortress","app_id":440,"player_count":0,"max_players":24,"Bots":0,"server_type":"Dedicated","server_os":"Linux","password":true,"vac":true,"version":"7882260","steam_id":85568392924742820,"keywords":["cp","nocrits","nodmgspread","uncletopia"],"game_id":440,"stv_port":27036,"stv_name":"Uncletopia | New York City | 3 | Stopwatch Beta | STV","players":null},{"server_id":16,"name":"Uncletopia | New York City | 4 | Community","name_short":"nyc-4","host":"nyc-1.us.uncletopia.com","port":27045,"enabled":true,"region":"us-east","cc":"us","latitude":40.73061,"longitude":-73.93524,"reserved":0,"last_update":"0001-01-01T00:00:00Z","name_a2s":"Uncletopia | New York City | 4 | Community","protocol":17,"map":"pl_badwater","folder":"tf","game":"Team Fortress","app_id":440,"player_count":0,"max_players":24,"Bots":0,"server_type":"Dedicated","server_os":"Linux","password":true,"vac":true,"version":"7882260","steam_id":85568392924742821,"keywords":["nocrits","nodmgspread","payload","uncletopia"],"game_id":440,"stv_port":27046,"stv_name":"Uncletopia | New York City | 4 | Community | STV","players":null},{"server_id":142,"name":"Uncletopia | São Paulo | 1 | All Maps","name_short":"sao-1","host":"sao-1.br.uncletopia.com","port":27015,"enabled":true,"region":"sa","cc":"br","latitude":-23.533773,"longitude":-46.62529,"reserved":0,"last_update":"0001-01-01T00:00:00Z","name_a2s":"Uncletopia | São Paulo | 1 | All Maps","protocol":17,"map":"cp_process_final","folder":"tf","game":"Team Fortress","app_id":440,"player_count":0,"max_players":24,"Bots":0,"server_type":"Dedicated","server_os":"Linux","password":true,"vac":true,"version":"7882260","steam_id":85568392924469996,"keywords":["cp","nocrits","nodmgspread","uncletopia"],"game_id":440,"stv_port":27016,"stv_name":"Uncletopia | São Paulo | 1 | All Maps | STV","players":null},{"server_id":143,"name":"Uncletopia | São Paulo | 2 | All Maps","name_short":"sao-2","host":"sao-2.br.uncletopia.com","port":27015,"enabled":true,"region":"sa","cc":"br","latitude":-23.533773,"longitude":-46.62529,"reserved":0,"last_update":"0001-01-01T00:00:00Z","name_a2s":"Uncletopia | São Paulo | 2 | All Maps","protocol":17,"map":"pl_pier","folder":"tf","game":"Team Fortress","app_id":440,"player_count":0,"max_players":24,"Bots":0,"server_type":"Dedicated","server_os":"Linux","password":true,"vac":true,"version":"7882260","steam_id":85568392924485349,"keywords":["nocrits","nodmgspread","payload","uncletopia"],"game_id":440,"stv_port":27016,"stv_name":"Uncletopia | São Paulo | 2 | All Maps | STV","players":null},{"server_id":7,"name":"Uncletopia | Seattle | 1 | All Maps","name_short":"sea-1","host":"sea-1.us.uncletopia.com","port":27015,"enabled":true,"region":"us-west","cc":"us","latitude":47.608013,"longitude":-122.33517,"reserved":0,"last_update":"0001-01-01T00:00:00Z","name_a2s":"Uncletopia | Seattle | 1 | All Maps","protocol":17,"map":"koth_viaduct","folder":"tf","game":"Team Fortress","app_id":440,"player_count":0,"max_players":24,"Bots":0,"server_type":"Dedicated","server_os":"Linux","password":true,"vac":true,"version":"7882260","steam_id":85568392924469997,"keywords":["cp","nocrits","nodmgspread","uncletopia"],"game_id":440,"stv_port":27016,"stv_name":"Uncletopia | Seattle | 1 | All Maps | STV","players":null},{"server_id":119,"name":"Uncletopia | Seattle | 2 | All Maps","name_short":"sea-2","host":"sea-1.us.uncletopia.com","port":27025,"enabled":true,"region":"us-west","cc":"us","latitude":47.608013,"longitude":-122.33517,"reserved":0,"last_update":"0001-01-01T00:00:00Z","name_a2s":"Uncletopia | Seattle | 2 | All Maps","protocol":17,"map":"koth_highpass","folder":"tf","game":"Team Fortress","app_id":440,"player_count":0,"max_players":24,"Bots":0,"server_type":"Dedicated","server_os":"Linux","password":true,"vac":true,"version":"7882260","steam_id":85568392924469998,"keywords":["cp","nocrits","nodmgspread","uncletopia"],"game_id":440,"stv_port":27026,"stv_name":"Uncletopia | Seattle | 2 | All Maps | STV","players":null},{"server_id":406,"name":"Uncletopia | Seattle | 3 | Stopwatch Beta","name_short":"sea-3","host":"sea-1.us.uncletopia.com","port":27035,"enabled":true,"region":"us-west","cc":"us","latitude":47.608013,"longitude":-122.33517,"reserved":0,"last_update":"0001-01-01T00:00:00Z","name_a2s":"Uncletopia | Seattle | 3 | Stopwatch Beta","protocol":17,"map":"cp_mountainlab","folder":"tf","game":"Team Fortress","app_id":440,"player_count":0,"max_players":24,"Bots":0,"server_type":"Dedicated","server_os":"Linux","password":true,"vac":true,"version":"7882260","steam_id":85568392924515217,"keywords":["cp","nocrits","nodmgspread","uncletopia"],"game_id":440,"stv_port":27036,"stv_name":"Uncletopia | Seattle | 3 | Stopwatch Beta | STV","players":null},{"server_id":17,"name":"Uncletopia | San Francisco | 1 | All Maps","name_short":"sfo-1","host":"sfo-1.us.uncletopia.com","port":27015,"enabled":true,"region":"us-west","cc":"us","latitude":37.77397,"longitude":-122.4313,"reserved":0,"last_update":"0001-01-01T00:00:00Z","name_a2s":"Uncletopia | San Francisco | 1 | All Maps","protocol":17,"map":"cp_process_final","folder":"tf","game":"Team Fortress","app_id":440,"player_count":0,"max_players":24,"Bots":0,"server_type":"Dedicated","server_os":"Linux","password":true,"vac":true,"version":"7757534","steam_id":85568392924469999,"keywords":["cp","nocrits","nodmgspread","uncletopia"],"game_id":440,"stv_port":27016,"stv_name":"Uncletopia | San Francisco | 1 | All Maps | STV","players":null},{"server_id":18,"name":"Uncletopia | San Francisco | 2 | All Maps","name_short":"sfo-2","host":"sfo-1.us.uncletopia.com","port":27025,"enabled":true,"region":"us-west","cc":"us","latitude":37.77397,"longitude":-122.4313,"reserved":0,"last_update":"0001-01-01T00:00:00Z","name_a2s":"Uncletopia | San Francisco | 2 | All Maps","protocol":17,"map":"koth_highpass","folder":"tf","game":"Team Fortress","app_id":440,"player_count":0,"max_players":24,"Bots":0,"server_type":"Dedicated","server_os":"Linux","password":true,"vac":true,"version":"7757534","steam_id":85568392924470000,"keywords":["cp","nocrits","nodmgspread","uncletopia"],"game_id":440,"stv_port":27026,"stv_name":"Uncletopia | San Francisco | 2 | All Maps | STV","players":null},{"server_id":19,"name":"Uncletopia | San Francisco | 3 | Stopwatch Beta","name_short":"sfo-3","host":"sfo-1.us.uncletopia.com","port":27035,"enabled":true,"region":"us-west","cc":"us","latitude":37.77397,"longitude":-122.4313,"reserved":0,"last_update":"0001-01-01T00:00:00Z","name_a2s":"Uncletopia | San Francisco | 3 | Stopwatch Beta","protocol":17,"map":"koth_lakeside_final","folder":"tf","game":"Team Fortress","app_id":440,"player_count":0,"max_players":24,"Bots":0,"server_type":"Dedicated","server_os":"Linux","password":true,"vac":true,"version":"7757534","steam_id":85568392924742824,"keywords":["cp","nocrits","nodmgspread","uncletopia"],"game_id":440,"stv_port":27036,"stv_name":"Uncletopia | San Francisco | 3 | Stopwatch Beta | STV","players":null},{"server_id":20,"name":"Uncletopia | San Francisco | 4 | Community","name_short":"sfo-4","host":"sfo-1.us.uncletopia.com","port":27045,"enabled":true,"region":"us-west","cc":"us","latitude":37.77397,"longitude":-122.4313,"reserved":0,"last_update":"0001-01-01T00:00:00Z","name_a2s":"Uncletopia | San Francisco | 4 | Community","protocol":17,"map":"cp_altitude","folder":"tf","game":"Team Fortress","app_id":440,"player_count":0,"max_players":24,"Bots":0,"server_type":"Dedicated","server_os":"Linux","password":true,"vac":true,"version":"7757534","steam_id":85568392924742826,"keywords":["cp","nocrits","nodmgspread","uncletopia"],"game_id":440,"stv_port":27046,"stv_name":"Uncletopia | San Francisco | 4 | Community | STV","players":null},{"server_id":141,"name":"Uncletopia | Sydney | 1 | All Maps","name_short":"syd-1","host":"syd-1.au.uncletopia.com","port":27015,"enabled":true,"region":"au","cc":"au","latitude":-33.865143,"longitude":151.2099,"reserved":0,"last_update":"0001-01-01T00:00:00Z","name_a2s":"Uncletopia | Sydney | 1 | All Maps","protocol":17,"map":"pl_badwater","folder":"tf","game":"Team Fortress","app_id":440,"player_count":0,"max_players":24,"Bots":0,"server_type":"Dedicated","server_os":"Linux","password":true,"vac":true,"version":"7882260","steam_id":85568392924470001,"keywords":["nocrits","nodmgspread","payload","uncletopia"],"game_id":440,"stv_port":27016,"stv_name":"Uncletopia | Sydney | 1 | All Maps | STV","players":null},{"server_id":123,"name":"Uncletopia | Sydney | 2 | All Maps","name_short":"syd-2","host":"syd-1.au.uncletopia.com","port":27025,"enabled":true,"region":"au","cc":"au","latitude":-33.865143,"longitude":151.2099,"reserved":0,"last_update":"0001-01-01T00:00:00Z","name_a2s":"Uncletopia | Sydney | 2 | All Maps","protocol":17,"map":"koth_highpass","folder":"tf","game":"Team Fortress","app_id":440,"player_count":0,"max_players":24,"Bots":0,"server_type":"Dedicated","server_os":"Linux","password":true,"vac":true,"version":"7882260","steam_id":85568392924470002,"keywords":["cp","nocrits","nodmgspread","uncletopia"],"game_id":440,"stv_port":27026,"stv_name":"Uncletopia | Sydney | 2 | All Maps | STV","players":null},{"server_id":395,"name":"Uncletopia | Sydney | 3 | All Maps","name_short":"syd-3","host":"syd-1.au.uncletopia.com","port":27035,"enabled":true,"region":"au","cc":"au","latitude":-33.865143,"longitude":151.2099,"reserved":0,"last_update":"0001-01-01T00:00:00Z","name_a2s":"Uncletopia | Sydney | 3 | All Maps","protocol":17,"map":"koth_brazil","folder":"tf","game":"Team Fortress","app_id":440,"player_count":0,"max_players":24,"Bots":0,"server_type":"Dedicated","server_os":"Linux","password":true,"vac":true,"version":"7882260","steam_id":85568392925194467,"keywords":["cp","nocrits","nodmgspread","uncletopia"],"game_id":440,"stv_port":27036,"stv_name":"Uncletopia | Sydney | 3 | All Maps | STV","players":null},{"server_id":396,"name":"Uncletopia | Sydney | 4 | All Maps","name_short":"syd-4","host":"syd-1.au.uncletopia.com","port":27045,"enabled":true,"region":"au","cc":"au","latitude":-33.865143,"longitude":151.2099,"reserved":0,"last_update":"0001-01-01T00:00:00Z","name_a2s":"Uncletopia | Sydney | 4 | All Maps","protocol":17,"map":"pl_badwater","folder":"tf","game":"Team Fortress","app_id":440,"player_count":0,"max_players":24,"Bots":0,"server_type":"Dedicated","server_os":"Linux","password":true,"vac":true,"version":"7882260","steam_id":85568392925397958,"keywords":["nocrits","nodmgspread","payload","uncletopia"],"game_id":440,"stv_port":27046,"stv_name":"Uncletopia | Sydney | 4 | All Maps | STV","players":null},{"server_id":58,"name":"Uncletopia | Sydney | 5 | Stopwatch Beta","name_short":"syd-5","host":"syd-1.au.uncletopia.com","port":27055,"enabled":true,"region":"au","cc":"au","latitude":-33.865143,"longitude":151.2099,"reserved":0,"last_update":"0001-01-01T00:00:00Z","name_a2s":"Uncletopia | Sydney | 5 | Stopwatch Beta","protocol":17,"map":"workshop/pl_summercoast_rc8e.ugc1761528829","folder":"tf","game":"Team Fortress","app_id":440,"player_count":0,"max_players":24,"Bots":0,"server_type":"Dedicated","server_os":"Linux","password":true,"vac":true,"version":"7882260","steam_id":85568392925397959,"keywords":["nocrits","nodmgspread","payload","uncletopia"],"game_id":440,"stv_port":27056,"stv_name":"Uncletopia | Sydney | 5 | Stopwatch Beta | STV","players":null},{"server_id":59,"name":"Uncletopia | Sydney | 6 | Community","name_short":"syd-6","host":"syd-1.au.uncletopia.com","port":27065,"enabled":true,"region":"au","cc":"au","latitude":-33.865143,"longitude":151.2099,"reserved":0,"last_update":"0001-01-01T00:00:00Z","name_a2s":"Uncletopia | Sydney | 6 | Community","protocol":17,"map":"workshop/cp_indulge.ugc528106646","folder":"tf","game":"Team Fortress","app_id":440,"player_count":0,"max_players":24,"Bots":0,"server_type":"Dedicated","server_os":"Linux","password":true,"vac":true,"version":"7882260","steam_id":85568392925397960,"keywords":["cp","nocrits","nodmgspread","uncletopia"],"game_id":440,"stv_port":27066,"stv_name":"Uncletopia | Sydney | 6 | Community | STV","players":null},{"server_id":49,"name":"Uncletopia | Warsaw | 1 | All Maps","name_short":"waw-1","host":"waw-1.pl.uncletopia.com","port":27015,"enabled":true,"region":"eu","cc":"pl","latitude":52.2297,"longitude":21.017532,"reserved":0,"last_update":"0001-01-01T00:00:00Z","name_a2s":"","protocol":0,"map":"","folder":"","game":"","app_id":0,"player_count":0,"max_players":0,"Bots":0,"server_type":"","server_os":"","password":false,"vac":false,"version":"","steam_id":0,"keywords":null,"game_id":0,"stv_port":0,"stv_name":"","players":null},{"server_id":50,"name":"Uncletopia | Warsaw | 2 | All Maps","name_short":"waw-2","host":"waw-1.pl.uncletopia.com","port":27025,"enabled":true,"region":"eu","cc":"pl","latitude":52.2297,"longitude":21.017532,"reserved":0,"last_update":"0001-01-01T00:00:00Z","name_a2s":"Uncletopia | Warsaw | 2 | All Maps","protocol":17,"map":"koth_lakeside_final","folder":"tf","game":"Team Fortress","app_id":440,"player_count":0,"max_players":24,"Bots":0,"server_type":"Dedicated","server_os":"Linux","password":true,"vac":true,"version":"7882260","steam_id":85568392925397851,"keywords":["cp","nocrits","nodmgspread","uncletopia"],"game_id":440,"stv_port":27026,"stv_name":"Uncletopia | Warsaw | 2 | All Maps | STV","players":null},{"server_id":51,"name":"Uncletopia | Warsaw | 3 | All Maps","name_short":"waw-3","host":"waw-1.pl.uncletopia.com","port":27035,"enabled":true,"region":"eu","cc":"pl","latitude":52.2297,"longitude":21.017532,"reserved":0,"last_update":"0001-01-01T00:00:00Z","name_a2s":"Uncletopia | Warsaw | 3 | All Maps","protocol":17,"map":"koth_viaduct","folder":"tf","game":"Team Fortress","app_id":440,"player_count":0,"max_players":24,"Bots":0,"server_type":"Dedicated","server_os":"Linux","password":true,"vac":true,"version":"7882260","steam_id":85568392925397852,"keywords":["cp","nocrits","nodmgspread","uncletopia"],"game_id":440,"stv_port":27036,"stv_name":"Uncletopia | Warsaw | 3 | All Maps | STV","players":null},{"server_id":52,"name":"Uncletopia | Warsaw | 4 | All Maps","name_short":"waw-4","host":"waw-1.pl.uncletopia.com","port":27045,"enabled":true,"region":"eu","cc":"pl","latitude":52.2297,"longitude":21.017532,"reserved":0,"last_update":"0001-01-01T00:00:00Z","name_a2s":"Uncletopia | Warsaw | 4 | All Maps","protocol":17,"map":"koth_highpass","folder":"tf","game":"Team Fortress","app_id":440,"player_count":0,"max_players":24,"Bots":0,"server_type":"Dedicated","server_os":"Linux","password":true,"vac":true,"version":"7882260","steam_id":85568392925397853,"keywords":["cp","nocrits","nodmgspread","uncletopia"],"game_id":440,"stv_port":27046,"stv_name":"Uncletopia | Warsaw | 4 | All Maps | STV","players":null},{"server_id":53,"name":"Uncletopia | Warsaw | 5 | Stopwatch Beta","name_short":"waw-5","host":"waw-1.pl.uncletopia.com","port":27055,"enabled":true,"region":"eu","cc":"pl","latitude":52.2297,"longitude":21.017532,"reserved":0,"last_update":"0001-01-01T00:00:00Z","name_a2s":"Uncletopia | Warsaw | 5 | Stopwatch Beta","protocol":17,"map":"cp_mountainlab","folder":"tf","game":"Team Fortress","app_id":440,"player_count":0,"max_players":24,"Bots":0,"server_type":"Dedicated","server_os":"Linux","password":true,"vac":true,"version":"7882260","steam_id":85568392925397854,"keywords":["cp","nocrits","nodmgspread","uncletopia"],"game_id":440,"stv_port":27056,"stv_name":"Uncletopia | Warsaw | 5 | Stopwatch Beta | STV","players":null},{"server_id":54,"name":"Uncletopia | Warsaw | 6 | Community","name_short":"waw-6","host":"waw-1.pl.uncletopia.com","port":27065,"enabled":true,"region":"eu","cc":"pl","latitude":52.2297,"longitude":21.017532,"reserved":0,"last_update":"0001-01-01T00:00:00Z","name_a2s":"Uncletopia | Warsaw | 6 | Community","protocol":17,"map":"koth_viaduct","folder":"tf","game":"Team Fortress","app_id":440,"player_count":0,"max_players":24,"Bots":0,"server_type":"Dedicated","server_os":"Linux","password":true,"vac":true,"version":"7882260","steam_id":85568392925397856,"keywords":["cp","nocrits","nodmgspread","uncletopia"],"game_id":440,"stv_port":27066,"stv_name":"Uncletopia | Warsaw | 6 | Community | STV","players":null}]}