{"status":true,"message":"","result":[{"server_id":9,"name":"Uncletopia | Atlanta | 1 | All Maps","name_short":"atl-1","host":"atl-1.us.uncletopia.com","port":27015,"enabled":true,"region":"us-east","cc":"us","latitude":33.753746,"longitude":-84.38633,"reserved":0,"last_update":"0001-01-01T00:00:00Z","name_a2s":"Uncletopia | Atlanta | 1 | All Maps","protocol":17,"map":"cp_gorge","folder":"tf","game":"Team Fortress","app_id":440,"player_count":24,"max_players":24,"Bots":0,"server_type":"Dedicated","server_os":"Linux","password":true,"vac":true,"version":"7961495","steam_id":85568392924469982,"keywords":["cp","nocrits","nodmgspread","uncletopia"],"game_id":440,"stv_port":27016,"stv_name":"Uncletopia | Atlanta | 1 | All Maps | STV","players":[{"user_id":538,"name":"lynt","steam_id":76561198988333976,"connected_time":16116000000000,"state":"active","ping":39},{"user_id":684,"name":"ATL1 | cola","steam_id":76561198374390458,"connected_time":4246000000000,"state":"active","ping":60},{"user_id":635,"name":"CoffeeZombi","steam_id":76561198172708053,"connected_time":8549000000000,"state":"active","ping":64},{"user_id":692,"name":"mangokip","steam_id":76561198156471516,"connected_time":3063000000000,"state":"active","ping":52},{"user_id":698,"name":"Woke Bush","steam_id":76561198047994501,"connected_time":2748000000000,"state":"active","ping":61},{"user_id":704,"name":"lil hog","steam_id":76561199230929836,"connected_time":1894000000000,"state":"active","ping":90},{"user_id":696,"name":"SnazzyCelestial","steam_id":76561198328763813,"connected_time":2803000000000,"state":"active","ping":66},{"user_id":700,"name":"Xavibite","steam_id":76561198209380493,"connected_time":2632000000000,"state":"active","ping":61},{"user_id":675,"name":"Jin Gulilo","steam_id":76561198065151242,"connected_time":5091000000000,"state":"active","ping":72},{"user_id":703,"name":"com lag","steam_id":76561198019019392,"connected_time":1938000000000,"state":"active","ping":59},{"user_id":534,"name":"Heathcliff","steam_id":76561198044288534,"connected_time":16546000000000,"state":"active","ping":74},{"user_id":710,"name":"BIG HOG","steam_id":76561198079923652,"connected_time":861000000000,"state":"active","ping":60},{"user_id":622,"name":"Sorbet Shark Cookie","steam_id":76561198133082665,"connected_time":9820000000000,"state":"active","ping":63},{"user_id":694,"name":"Intro Bonito","steam_id":76561198119478838,"connected_time":2885000000000,"state":"active","ping":58},{"user_id":707,"name":"lu","steam_id":76561198080731872,"connected_time":1415000000000,"state":"active","ping":74},{"user_id":691,"name":"Punchy","steam_id":76561198200000641,"connected_time":3100000000000,"state":"active","ping":63},{"user_id":658,"name":"Ashes!","steam_id":76561197998475441,"connected_time":6136000000000,"state":"active","ping":71},{"user_id":673,"name":"Tay1Qr","steam_id":76561198082809935,"connected_time":5444000000000,"state":"active","ping":61},{"user_id":613,"name":"e0e0","steam_id":76561198293839750,"connected_time":10917000000000,"state":"active","ping":60},{"user_id":701,"name":"Doromaina","steam_id":76561198118428095,"connected_time":2619000000000,"state":"active","ping":67},{"user_id":708,"name":"ash","steam_id":76561198127890645,"connected_time":901000000000,"state":"active","ping":73},{"user_id":614,"name":"PinkLemonade","steam_id":76561198799286228,"connected_time":10910000000000,"state":"active","ping":79},{"user_id":712,"name":"Avo","steam_id":76561197993340494,"connected_time":247000000000,"state":"active","ping":58},{"user_id":679,"name":"(Mage) damn I must be a genius","steam_id":76561198285026879,"connected_time":4577000000000,"state":"active","ping":82}]},{"server_id":104,"name":"Uncletopia | Atlanta | 2 | All Maps","name_short":"atl-2","host":"atl-1.us.uncletopia.com","port":27025,"enabled":true,"region":"us-east","cc":"us","latitude":33.753746,"longitude":-84.38633,"reserved":0,"last_update":"0001-01-01T00:00:00Z","name_a2s":"Uncletopia | Atlanta | 2 | All Maps","protocol":17,"map":"cp_gorge","folder":"tf","game":"Team Fortress","app_id":440,"player_count":20,"max_players":24,"Bots":0,"server_type":"Dedicated","server_os":"Linux","password":true,"vac":true,"version":"7961495","steam_id":85568392924469983,"keywords":["cp","nocrits","nodmgspread","uncletopia"],"game_id":440,"stv_port":27026,"stv_name":"Uncletopia | Atlanta | 2 | All Maps | STV","players":[{"user_id":365,"name":"brick","steam_id":76561198381123094,"connected_time":6409000000000,"state":"active","ping":68},{"user_id":341,"name":"Ganon","steam_id":76561198114972080,"connected_time":8083000000000,"state":"active","ping":48},{"user_id":418,"name":"Kas-AI","steam_id":76561199131044338,"connected_time":1536000000000,"state":"active","ping":72},{"user_id":444,"name":"AwesomeLilBuddy","steam_id":76561199104972720,"connected_time":116000000000,"state":"active","ping":83},{"user_id":434,"name":"Luci‚òÖFer","steam_id":76561199030343810,"connected_time":400000000000,"state":"active","ping":41},{"user_id":433,"name":"object permanence","steam_id":76561198050393061,"connected_time":483000000000,"state":"active","ping":81},{"user_id":437,"name":"confield","steam_id":76561198004322265,"connected_time":252000000000,"state":"active","ping":48},{"user_id":438,"name":"Mr.Pwesident","steam_id":76561198058114703,"connected_time":226000000000,"state":"active","ping":58},{"user_id":445,"name":"RCGC bro","steam_id":76561198976328384,"connected_time":74000000000,"state":"active","ping":57},{"user_id":439,"name":"william brown","steam_id":76561198084466844,"connected_time":209000000000,"state":"active","ping":92},{"user_id":440,"name":"Flaxks‚ô°","steam_id":76561198410260447,"connected_time":207000000000,"state":"active","ping":89},{"user_id":302,"name":"mann","steam_id":76561198171239787,"connected_time":9176000000000,"state":"active","ping":90},{"user_id":446,"name":"UNIT 220","steam_id":76561198042243497,"connected_time":64000000000,"state":"active","ping":75},{"user_id":447,"name":"Someguu","steam_id":76561199029835350,"connected_time":58000000000,"state":"active","ping":63},{"user_id":426,"name":"Fatpoob","steam_id":76561198056730096,"connected_time":1277000000000,"state":"active","ping":74},{"user_id":448,"name":"Importality","steam_id":76561198049943127,"connected_time":49000000000,"state":"active","ping":86},{"user_id":443,"name":"Suspect3","steam_id":76561198063178963,"connected_time":153000000000,"state":"active","ping":74},{"user_id":449,"name":"talented","steam_id":76561198800259660,"connected_time":43000000000,"state":"spawning","ping":47},{"user_id":407,"name":"potatokinggod1103","steam_id":76561198966636917,"connected_time":3216000000000,"state":"active","ping":58},{"user_id":400,"name":"Spiffyputt","steam_id":76561198439345687,"connected_time":3970000000000,"state":"active","ping":69}]},{"server_id":400,"name":"Uncletopia | Atlanta | 3 | Stopwatch","name_short":"atl-3","host":"atl-1.us.uncletopia.com","port":27035,"enabled":true,"region":"us-east","cc":"us","latitude":33.753746,"longitude":-84.38633,"reserved":0,"last_update":"0001-01-01T00:00:00Z","name_a2s":"Uncletopia | Atlanta | 3 | Stopwatch","protocol":17,"map":"koth_highpass","folder":"tf","game":"Team Fortress","app_id":440,"player_count":0,"max_players":24,"Bots":0,"server_type":"Dedicated","server_os":"Linux","password":true,"vac":true,"version":"7961495","steam_id":85568392924515187,"keywords":["cp","nocrits","nodmgspread","uncletopia"],"game_id":440,"stv_port":27036,"stv_name":"Uncletopia | Atlanta | 3 | Stopwatch | STV","players":null},{"server_id":401,"name":"Uncletopia | Atlanta | 4 | Community","name_short":"atl-4","host":"atl-1.us.uncletopia.com","port":27045,"enabled":true,"region":"us-east","cc":"us","latitude":33.753746,"longitude":-84.38633,"reserved":0,"last_update":"0001-01-01T00:00:00Z","name_a2s":"Uncletopia | Atlanta | 4 | Community","protocol":17,"map":"workshop/koth_bagel_rc6.ugc2514036946","folder":"tf","game":"Team Fortress","app_id":440,"player_count":0,"max_players":24,"Bots":0,"server_type":"Dedicated","server_os":"Linux","password":true,"vac":true,"version":"7961495","steam_id":85568392924515188,"keywords":["cp","nocrits","nodmgspread","uncletopia"],"game_id":440,"stv_port":27046,"stv_name":"Uncletopia | Atlanta | 4 | Community | STV","players":null},{"server_id":2,"name":"Uncletopia | Chicago | 1 | All Maps","name_short":"chi-1","host":"chi-1.us.uncletopia.com","port":27015,"enabled":true,"region":"us-central","cc":"us","latitude":41.881832,"longitude":-87.62318,"reserved":0,"last_update":"0001-01-01T00:00:00Z","name_a2s":"Uncletopia | Chicago | 1 | All Maps","protocol":17,"map":"pl_goldrush","folder":"tf","game":"Team Fortress","app_id":440,"player_count":24,"max_players":24,"Bots":0,"server_type":"Dedicated","server_os":"Linux","password":true,"vac":true,"version":"7961495","steam_id":85568392924469984,"keywords":["nocrits","nodmgspread","payload","uncletopia"],"game_id":440,"stv_port":27016,"stv_name":"Uncletopia | Chicago | 1 | All Maps | STV","players":[{"user_id":505,"name":"lewigi","steam_id":76561198812086921,"connected_time":1603000000000,"state":"active","ping":59},{"user_id":503,"name":"CrŒªf227","steam_id":76561198196211121,"connected_time":1892000000000,"state":"active","ping":88},{"user_id":529,"name":"AttackCommander","steam_id":76561198111522679,"connected_time":22000000000,"state":"active","ping":89},{"user_id":480,"name":"MedRed‚Ñ¢ #IATAH","steam_id":76561198002962970,"connected_time":3632000000000,"state":"active","ping":97},{"user_id":526,"name":"Herdez Hot Salsa","steam_id":76561197991740906,"connected_time":43000000000,"state":"active","ping":63},{"user_id":521,"name":"Atari","steam_id":76561199101314006,"connected_time":424000000000,"state":"active","ping":109},{"user_id":492,"name":"Casanova","steam_id":76561198126990853,"connected_time":2462000000000,"state":"active","ping":84},{"user_id":519,"name":"minecraft","steam_id":76561198104345201,"connected_time":503000000000,"state":"active","ping":84},{"user_id":525,"name":"Sunny D+","steam_id":76561197999371052,"connected_time":146000000000,"state":"active","ping":55},{"user_id":479,"name":"Morgster","steam_id":76561198131697761,"connected_time":3828000000000,"state":"active","ping":73},{"user_id":515,"name":"Erm... Krill Issue?","steam_id":76561198859118263,"connected_time":780000000000,"state":"active","ping":62},{"user_id":527,"name":"Pheonix Fel Dragon","steam_id":76561198164974227,"connected_time":43000000000,"state":"active","ping":71},{"user_id":307,"name":"SammyD","steam_id":76561198057216118,"connected_time":17579000000000,"state":"active","ping":59},{"user_id":484,"name":"Lia_Rein","steam_id":76561198151569597,"connected_time":3427000000000,"state":"active","ping":140},{"user_id":511,"name":"Micc","steam_id":76561199447744486,"connected_time":1371000000000,"state":"active","ping":89},{"user_id":493,"name":"Boxpipe","steam_id":76561197964501915,"connected_time":2318000000000,"state":"active","ping":60},{"user_id":510,"name":"what the freak","steam_id":76561198080754727,"connected_time":1396000000000,"state":"active","ping":77},{"user_id":522,"name":"pilk drinker","steam_id":76561198181153199,"connected_time":353000000000,"state":"active","ping":76},{"user_id":485,"name":"Milkmur","steam_id":76561198210043821,"connected_time":3419000000000,"state":"active","ping":62},{"user_id":517,"name":"team fortress 2","steam_id":76561198093995793,"connected_time":750000000000,"state":"active","ping":76},{"user_id":506,"name":"loscemo","steam_id":76561197994884609,"connected_time":1571000000000,"state":"active","ping":57},{"user_id":486,"name":"Dragon_Spiced","steam_id":76561198097517957,"connected_time":3300000000000,"state":"active","ping":80},{"user_id":524,"name":"Curing Depression with TF2","steam_id":76561198062683514,"connected_time":337000000000,"state":"active","ping":76},{"user_id":528,"name":"Spike","steam_id":76561198141356571,"connected_time":42000000000,"state":"active","ping":63}]},{"server_id":106,"name":"Uncletopia | Chicago | 2 | All Maps","name_short":"chi-2","host":"chi-1.us.uncletopia.com","port":27025,"enabled":true,"region":"us-central","cc":"us","latitude":41.881832,"longitude":-87.62318,"reserved":0,"last_update":"0001-01-01T00:00:00Z","name_a2s":"Uncletopia | Chicago | 2 | All Maps","protocol":17,"map":"koth_viaduct","folder":"tf","game":"Team Fortress","app_id":440,"player_count":24,"max_players":24,"Bots":0,"server_type":"Dedicated","server_os":"Linux","password":true,"vac":true,"version":"7961495","steam_id":85568392924469985,"keywords":["cp","nocrits","nodmgspread","uncletopia"],"game_id":440,"stv_port":27026,"stv_name":"Uncletopia | Chicago | 2 | All Maps | STV","players":[{"user_id":586,"name":"luxl1","steam_id":76561198975034056,"connected_time":405000000000,"state":"active","ping":119},{"user_id":587,"name":"The Snake Doctor","steam_id":76561198125037828,"connected_time":355000000000,"state":"active","ping":93},{"user_id":533,"name":"ther","steam_id":76561199191376935,"connected_time":5627000000000,"state":"active","ping":81},{"user_id":427,"name":"The strongest ‚ë® ball","steam_id":76561198126760743,"connected_time":13180000000000,"state":"active","ping":75},{"user_id":588,"name":"Sirius","steam_id":76561198138017694,"connected_time":353000000000,"state":"active","ping":38},{"user_id":589,"name":"QweX_","steam_id":76561198051250642,"connected_time":170000000000,"state":"active","ping":106},{"user_id":590,"name":"Psychosis","steam_id":76561198078659070,"connected_time":163000000000,"state":"active","ping":79},{"user_id":592,"name":"frank","steam_id":76561198137777483,"connected_time":151000000000,"state":"active","ping":67},{"user_id":497,"name":"pizza rat","steam_id":76561198044874072,"connected_time":8826000000000,"state":"active","ping":57},{"user_id":593,"name":"AlexLovesYou","steam_id":76561199163263543,"connected_time":111000000000,"state":"active","ping":105},{"user_id":493,"name":"greg","steam_id":76561198046650995,"connected_time":9685000000000,"state":"active","ping":80},{"user_id":583,"name":"The No Longer Mute","steam_id":76561198078359985,"connected_time":614000000000,"state":"active","ping":51},{"user_id":594,"name":"Queen Frau the Round","steam_id":76561197999942134,"connected_time":105000000000,"state":"active","ping":45},{"user_id":577,"name":"gamerlegend47","steam_id":76561198122776598,"connected_time":1404000000000,"state":"active","ping":76},{"user_id":541,"name":"AzuriousAlex","steam_id":76561198158026405,"connected_time":5557000000000,"state":"active","ping":84},{"user_id":574,"name":"Moshi Man","steam_id":76561198038249762,"connected_time":1886000000000,"state":"active","ping":45},{"user_id":567,"name":"Soy King","steam_id":76561198263025614,"connected_time":2520000000000,"state":"active","ping":105},{"user_id":582,"name":"Hey","steam_id":76561198447517893,"connected_time":964000000000,"state":"active","ping":76},{"user_id":595,"name":"boutthatbreadfred","steam_id":76561198051881047,"connected_time":94000000000,"state":"active","ping":91},{"user_id":382,"name":"Uwu Micster","steam_id":76561198843890616,"connected_time":16061000000000,"state":"active","ping":86},{"user_id":596,"name":"Rock Kickass","steam_id":76561198450510841,"connected_time":89000000000,"state":"active","ping":106},{"user_id":597,"name":"comet sooicidy","steam_id":76561198025173479,"connected_time":46000000000,"state":"spawning","ping":69},{"user_id":598,"name":"for the king","steam_id":76561197973488858,"connected_time":34000000000,"state":"active","ping":60},{"user_id":599,"name":"Fizzle","steam_id":76561199466859396,"connected_time":15000000000,"state":"spawning","ping":79}]},{"server_id":402,"name":"Uncletopia | Chicago | 3 | All Maps","name_short":"chi-3","host":"chi-1.us.uncletopia.com","port":27035,"enabled":true,"region":"us-central","cc":"us","latitude":41.881832,"longitude":-87.62318,"reserved":0,"last_update":"0001-01-01T00:00:00Z","name_a2s":"Uncletopia | Chicago | 3 | All Maps","protocol":17,"map":"pl_pier","folder":"tf","game":"Team Fortress","app_id":440,"player_count":23,"max_players":24,"Bots":0,"server_type":"Dedicated","server_os":"Linux","password":true,"vac":true,"version":"7961495","steam_id":85568392924515191,"keywords":["nocrits","nodmgspread","payload","uncletopia"],"game_id":440,"stv_port":27036,"stv_name":"Uncletopia | Chicago | 3 | All Maps | STV","players":[{"user_id":313,"name":"aphexjh","steam_id":76561197985854658,"connected_time":2427000000000,"state":"active","ping":53},{"user_id":203,"name":"MaineGameBoy","steam_id":76561198278698726,"connected_time":9789000000000,"state":"active","ping":81},{"user_id":348,"name":"Drapph","steam_id":76561199384213314,"connected_time":109000000000,"state":"active","ping":61},{"user_id":333,"name":"dog","steam_id":76561198263873491,"connected_time":1003000000000,"state":"active","ping":45},{"user_id":338,"name":"NinjagirlOH","steam_id":76561198964107245,"connected_time":269000000000,"state":"active","ping":86},{"user_id":330,"name":"Û†Å≥ ‚Åßfortnite56K(Nick/Ger)","steam_id":76561198404564240,"connected_time":1391000000000,"state":"active","ping":65},{"user_id":340,"name":"Pepsiman","steam_id":76561198436946165,"connected_time":239000000000,"state":"active","ping":54},{"user_id":341,"name":"nik","steam_id":76561198062270123,"connected_time":238000000000,"state":"active","ping":80},{"user_id":342,"name":"ArcoXO","steam_id":76561198392034710,"connected_time":228000000000,"state":"active","ping":74},{"user_id":337,"name":"NinjaboySC","steam_id":76561198157305426,"connected_time":342000000000,"state":"active","ping":90},{"user_id":294,"name":"Elias","steam_id":76561198106431732,"connected_time":3595000000000,"state":"active","ping":55},{"user_id":298,"name":"WildMtnMonkey","steam_id":76561199106970995,"connected_time":3218000000000,"state":"active","ping":51},{"user_id":316,"name":"manbearswineflu","steam_id":76561198083945137,"connected_time":2205000000000,"state":"active","ping":63},{"user_id":347,"name":"Penrose42","steam_id":76561198288577396,"connected_time":165000000000,"state":"active","ping":85},{"user_id":329,"name":"Flume","steam_id":76561198801227132,"connected_time":1472000000000,"state":"active","ping":56},{"user_id":335,"name":"misterspud","steam_id":76561198195306218,"connected_time":1000000000000,"state":"active","ping":46},{"user_id":343,"name":"cthulwho","steam_id":76561198110046630,"connected_time":225000000000,"state":"active","ping":58},{"user_id":344,"name":"MrDragadon","steam_id":76561199058815749,"connected_time":215000000000,"state":"active","ping":108},{"user_id":336,"name":"Echo","steam_id":76561199165491231,"connected_time":887000000000,"state":"active","ping":48},{"user_id":267,"name":"Bobbn","steam_id":76561198876124683,"connected_time":5859000000000,"state":"active","ping":72},{"user_id":345,"name":"Koishi","steam_id":76561198054541054,"connected_time":212000000000,"state":"active","ping":58},{"user_id":346,"name":"JAKandBEL","steam_id":76561198213060931,"connected_time":207000000000,"state":"active","ping":59},{"user_id":261,"name":"Lucy Lou!","steam_id":76561198078209088,"connected_time":6172000000000,"state":"active","ping":44}]},{"server_id":403,"name":"Uncletopia | Chicago | 4 | All Maps","name_short":"chi-4","host":"chi-1.us.uncletopia.com","port":27045,"enabled":true,"region":"us-central","cc":"us","latitude":41.881832,"longitude":-87.62318,"reserved":0,"last_update":"0001-01-01T00:00:00Z","name_a2s":"Uncletopia | Chicago | 4 | All Maps","protocol":17,"map":"pl_barnblitz","folder":"tf","game":"Team Fortress","app_id":440,"player_count":24,"max_players":24,"Bots":0,"server_type":"Dedicated","server_os":"Linux","password":true,"vac":true,"version":"7961495","steam_id":85568392924515193,"keywords":["nocrits","nodmgspread","payload","uncletopia"],"game_id":440,"stv_port":27046,"stv_name":"Uncletopia | Chicago | 4 | All Maps | STV","players":[{"user_id":690,"name":"Protato","steam_id":76561198061182563,"connected_time":414000000000,"state":"active","ping":75},{"user_id":650,"name":"gps","steam_id":76561198067492304,"connected_time":4467000000000,"state":"active","ping":81},{"user_id":669,"name":"knip","steam_id":76561198147061182,"connected_time":2655000000000,"state":"active","ping":72},{"user_id":682,"name":"lightcatnap","steam_id":76561199385584854,"connected_time":1109000000000,"state":"active","ping":62},{"user_id":671,"name":"Shrebbie","steam_id":76561198875230824,"connected_time":1944000000000,"state":"active","ping":59},{"user_id":659,"name":"lilbigman","steam_id":76561199094216585,"connected_time":3660000000000,"state":"active","ping":81},{"user_id":675,"name":"biden cart 15 dollars","steam_id":76561198253731826,"connected_time":1884000000000,"state":"active","ping":60},{"user_id":677,"name":"ryler","steam_id":76561198087876394,"connected_time":1445000000000,"state":"active","ping":69},{"user_id":608,"name":"Shapeshiftertrue","steam_id":76561198440835095,"connected_time":7350000000000,"state":"active","ping":78},{"user_id":680,"name":"Rafl","steam_id":76561198055222756,"connected_time":1133000000000,"state":"active","ping":67},{"user_id":688,"name":"PigPig","steam_id":76561198068190834,"connected_time":577000000000,"state":"active","ping":111},{"user_id":683,"name":"Almonicus","steam_id":76561198044401351,"connected_time":1061000000000,"state":"active","ping":84},{"user_id":691,"name":"Housecoat Hero","steam_id":76561197981290558,"connected_time":397000000000,"state":"active","ping":71},{"user_id":685,"name":"Cyclops_672","steam_id":76561198080169497,"connected_time":933000000000,"state":"active","ping":47},{"user_id":692,"name":"Little Chicken Mush","steam_id":76561198083175190,"connected_time":393000000000,"state":"active","ping":62},{"user_id":657,"name":"kaputon","steam_id":76561198146299782,"connected_time":3731000000000,"state":"active","ping":60},{"user_id":689,"name":"bunnytwink","steam_id":76561198342449098,"connected_time":433000000000,"state":"active","ping":59},{"user_id":654,"name":"?pengin","steam_id":76561198254236408,"connected_time":4232000000000,"state":"active","ping":68},{"user_id":673,"name":"Joseph \"Biden\" Stalin","steam_id":76561198213863907,"connected_time":1937000000000,"state":"active","ping":141},{"user_id":639,"name":"No aim :(","steam_id":76561198298310744,"connected_time":5462000000000,"state":"active","ping":67},{"user_id":693,"name":"zeplinnn","steam_id":76561198301300987,"connected_time":97000000000,"state":"active","ping":95},{"user_id":666,"name":"wiiblob","steam_id":76561198109106242,"connected_time":2932000000000,"state":"active","ping":137},{"user_id":694,"name":"hnmk","steam_id":76561199001918194,"connected_time":89000000000,"state":"active","ping":109},{"user_id":676,"name":"Jay","steam_id":76561198084129048,"connected_time":1741000000000,"state":"active","ping":75}]},{"server_id":36,"name":"Uncletopia | Chicago | 5 | All Maps","name_short":"chi-5","host":"chi-2.us.uncletopia.com","port":27015,"enabled":true,"region":"us-central","cc":"us","latitude":41.881832,"longitude":-87.62318,"reserved":0,"last_update":"0001-01-01T00:00:00Z","name_a2s":"Uncletopia | Chicago | 5 | All Maps","protocol":17,"map":"plr_hightower","folder":"tf","game":"Team Fortress","app_id":440,"player_count":24,"max_players":24,"Bots":0,"server_type":"Dedicated","server_os":"Linux","password":true,"vac":true,"version":"7961495","steam_id":85568392924866362,"keywords":["nocrits","nodmgspread","payload","uncletopia"],"game_id":440,"stv_port":27016,"stv_name":"Uncletopia | Chicago | 5 | All Maps | STV","players":[{"user_id":390,"name":"[MRY] Sk-iLite","steam_id":76561198041797350,"connected_time":3251000000000,"state":"active","ping":74},{"user_id":424,"name":"‚ô†","steam_id":76561198043256782,"connected_time":1075000000000,"state":"active","ping":82},{"user_id":425,"name":"cotton candy pill bug","steam_id":76561198058998371,"connected_time":1018000000000,"state":"active","ping":66},{"user_id":419,"name":"Marvin","steam_id":76561198158428518,"connected_time":1429000000000,"state":"active","ping":110},{"user_id":399,"name":"Fishmonger","steam_id":76561198372237027,"connected_time":2159000000000,"state":"active","ping":89},{"user_id":428,"name":"Skyblade64","steam_id":76561198042177790,"connected_time":755000000000,"state":"active","ping":80},{"user_id":400,"name":"uhooter","steam_id":76561198007829078,"connected_time":2140000000000,"state":"active","ping":52},{"user_id":429,"name":"Possum Witch","steam_id":76561199119125112,"connected_time":710000000000,"state":"active","ping":49},{"user_id":403,"name":"tylerlamp0","steam_id":76561198896666148,"connected_time":2092000000000,"state":"active","ping":82},{"user_id":407,"name":"sagaciouszu","steam_id":76561198290540433,"connected_time":1772000000000,"state":"active","ping":60},{"user_id":426,"name":"dunk","steam_id":76561198132476501,"connected_time":1017000000000,"state":"active","ping":52},{"user_id":427,"name":"Squigly","steam_id":76561198084811625,"connected_time":1004000000000,"state":"active","ping":71},{"user_id":432,"name":"Shorts","steam_id":76561198025009692,"connected_time":376000000000,"state":"active","ping":81},{"user_id":406,"name":"30-50 Feral Hogs","steam_id":76561199144640325,"connected_time":1833000000000,"state":"active","ping":69},{"user_id":420,"name":"eBay","steam_id":76561198061214569,"connected_time":1331000000000,"state":"active","ping":88},{"user_id":430,"name":"CCTV Camera","steam_id":76561198373692962,"connected_time":629000000000,"state":"active","ping":46},{"user_id":423,"name":"Rat Cycle","steam_id":76561198113364714,"connected_time":1121000000000,"state":"active","ping":55},{"user_id":413,"name":"Romist64","steam_id":76561198137568962,"connected_time":1630000000000,"state":"active","ping":57},{"user_id":433,"name":"Firesword_654","steam_id":76561199174342673,"connected_time":195000000000,"state":"active","ping":72},{"user_id":434,"name":"LickaLackaToo","steam_id":76561198136980361,"connected_time":183000000000,"state":"active","ping":60},{"user_id":435,"name":"WeeajEw","steam_id":76561198142481010,"connected_time":161000000000,"state":"active","ping":43},{"user_id":421,"name":"LunchTrae","steam_id":76561198041578886,"connected_time":1323000000000,"state":"active","ping":89},{"user_id":422,"name":"lucim","steam_id":76561198064755514,"connected_time":1319000000000,"state":"active","ping":61},{"user_id":431,"name":"flarifier","steam_id":76561198315072848,"connected_time":619000000000,"state":"active","ping":77}]},{"server_id":37,"name":"Uncletopia | Chicago | 6 | All Maps","name_short":"chi-6","host":"chi-2.us.uncletopia.com","port":27025,"enabled":true,"region":"us-central","cc":"us","latitude":41.881832,"longitude":-87.62318,"reserved":0,"last_update":"0001-01-01T00:00:00Z","name_a2s":"Uncletopia | Chicago | 6 | All Maps","protocol":17,"map":"koth_viaduct","folder":"tf","game":"Team Fortress","app_id":440,"player_count":24,"max_players":24,"Bots":0,"server_type":"Dedicated","server_os":"Linux","password":true,"vac":true,"version":"7961495","steam_id":85568392924866363,"keywords":["cp","nocrits","nodmgspread","uncletopia"],"game_id":440,"stv_port":27026,"stv_name":"Uncletopia | Chicago | 6 | All Maps | STV","players":[{"user_id":854,"name":"All Tomorrow's Parties","steam_id":76561197995936212,"connected_time":1523000000000,"state":"active","ping":44},{"user_id":852,"name":"NotSoClever","steam_id":76561198170026307,"connected_time":1605000000000,"state":"active","ping":79},{"user_id":847,"name":"chiliast bibulous","steam_id":76561198079411741,"connected_time":2468000000000,"state":"active","ping":82},{"user_id":872,"name":"minecraft_2.0","steam_id":76561198391819120,"connected_time":365000000000,"state":"active","ping":98},{"user_id":831,"name":"beefmaster","steam_id":76561198072578009,"connected_time":3710000000000,"state":"active","ping":69},{"user_id":846,"name":"Malarkey","steam_id":76561198844473584,"connected_time":2501000000000,"state":"active","ping":56},{"user_id":873,"name":"slammin","steam_id":76561197965022076,"connected_time":349000000000,"state":"active","ping":51},{"user_id":874,"name":"GuyGoom","steam_id":76561198254522178,"connected_time":302000000000,"state":"active","ping":59},{"user_id":866,"name":"nagarjuna","steam_id":76561198013806060,"connected_time":986000000000,"state":"active","ping":61},{"user_id":875,"name":"the.land.of.avalon","steam_id":76561198245431668,"connected_time":284000000000,"state":"active","ping":56},{"user_id":821,"name":"Butter Dog","steam_id":76561198855973613,"connected_time":4206000000000,"state":"active","ping":82},{"user_id":859,"name":"PewPewBulletGuns","steam_id":76561198106289426,"connected_time":1357000000000,"state":"active","ping":57},{"user_id":849,"name":"Voids","steam_id":76561198128386726,"connected_time":1969000000000,"state":"active","ping":75},{"user_id":823,"name":"Aztea","steam_id":76561198982089893,"connected_time":4095000000000,"state":"active","ping":88},{"user_id":833,"name":"CrazyRage","steam_id":76561198008684353,"connected_time":3520000000000,"state":"active","ping":65},{"user_id":868,"name":"DupDoop","steam_id":76561198257139630,"connected_time":923000000000,"state":"active","ping":51},{"user_id":869,"name":"Dizzy","steam_id":76561198040877789,"connected_time":904000000000,"state":"active","ping":63},{"user_id":843,"name":"Henry Ota-Clay","steam_id":76561198053232470,"connected_time":2761000000000,"state":"active","ping":56},{"user_id":676,"name":"fritzy","steam_id":76561198044188019,"connected_time":12664000000000,"state":"active","ping":56},{"user_id":871,"name":"Cottoneyes","steam_id":76561197994730627,"connected_time":546000000000,"state":"active","ping":76},{"user_id":835,"name":"Xorfizz","steam_id":76561198034169519,"connected_time":2919000000000,"state":"active","ping":69},{"user_id":862,"name":"BB Lorexav","steam_id":76561198207565988,"connected_time":1248000000000,"state":"active","ping":79},{"user_id":870,"name":"aprilcotwut","steam_id":76561198079521249,"connected_time":901000000000,"state":"active","ping":72},{"user_id":877,"name":"r0biN","steam_id":76561198097861434,"connected_time":278000000000,"state":"active","ping":110}]},{"server_id":38,"name":"Uncletopia | Chicago | 7 | Stopwatch","name_short":"chi-7","host":"chi-2.us.uncletopia.com","port":27035,"enabled":true,"region":"us-central","cc":"us","latitude":41.881832,"longitude":-87.62318,"reserved":0,"last_update":"0001-01-01T00:00:00Z","name_a2s":"Uncletopia | Chicago | 7 | Stopwatch","protocol":17,"map":"workshop/koth_clearcut_b15.ugc2107050255","folder":"tf","game":"Team Fortress","app_id":440,"player_count":0,"max_players":24,"Bots":0,"server_type":"Dedicated","server_os":"Linux","password":true,"vac":true,"version":"7961495","steam_id":85568392924866364,"keywords":["cp","nocrits","nodmgspread","uncletopia"],"game_id":440,"stv_port":27036,"stv_name":"Uncletopia | Chicago | 7 | Stopwatch | STV","players":null},{"server_id":39,"name":"Uncletopia | Chicago | 8 | Community","name_short":"chi-8","host":"chi-2.us.uncletopia.com","port":27045,"enabled":true,"region":"us-central","cc":"us","latitude":41.881832,"longitude":-87.62318,"reserved":0,"last_update":"0001-01-01T00:00:00Z","name_a2s":"Uncletopia | Chicago | 8 | Community","protocol":17,"map":"workshop/cp_sultry_b8.ugc2775471508","folder":"tf","game":"Team Fortress","app_id":440,"player_count":0,"max_players":24,"Bots":0,"server_type":"Dedicated","server_os":"Linux","password":true,"vac":true,"version":"7961495","steam_id":85568392924866365,"keywords":["cp","nocrits","nodmgspread","uncletopia"],"game_id":440,"stv_port":27046,"stv_name":"Uncletopia | Chicago | 8 | Community | STV","players":null},{"server_id":8,"name":"Uncletopia | Dallas | 1 | All Maps","name_short":"dal-1","host":"dal-1.us.uncletopia.com","port":27015,"enabled":true,"region":"us-central","cc":"us","latitude":32.779167,"longitude":-96.80889,"reserved":0,"last_update":"0001-01-01T00:00:00Z","name_a2s":"Uncletopia | Dallas | 1 | All Maps","protocol":17,"map":"cp_dustbowl","folder":"tf","game":"Team Fortress","app_id":440,"player_count":25,"max_players":24,"Bots":0,"server_type":"Dedicated","server_os":"Linux","password":true,"vac":true,"version":"7961495","steam_id":85568392924469986,"keywords":["cp","nocrits","nodmgspread","uncletopia"],"game_id":440,"stv_port":27016,"stv_name":"Uncletopia | Dallas | 1 | All Maps | STV","players":[{"user_id":435,"name":"Crescent","steam_id":76561198095124633,"connected_time":2905000000000,"state":"active","ping":72},{"user_id":463,"name":"GibbusGod","steam_id":76561199232436690,"connected_time":641000000000,"state":"active","ping":78},{"user_id":454,"name":"Real","steam_id":76561198119315680,"connected_time":868000000000,"state":"active","ping":62},{"user_id":453,"name":"Mana_Kaktus","steam_id":76561198110468307,"connected_time":881000000000,"state":"active","ping":96},{"user_id":447,"name":"oncologist","steam_id":76561197997321386,"connected_time":1546000000000,"state":"active","ping":54},{"user_id":460,"name":"AlonelyBard","steam_id":76561198333764079,"connected_time":721000000000,"state":"active","ping":93},{"user_id":407,"name":"Wonder Pest","steam_id":76561198062763756,"connected_time":4575000000000,"state":"active","ping":78},{"user_id":451,"name":"DethSQRL","steam_id":76561199149628610,"connected_time":1104000000000,"state":"active","ping":80},{"user_id":440,"name":"Beauts","steam_id":76561198068713855,"connected_time":2446000000000,"state":"active","ping":90},{"user_id":436,"name":"guy","steam_id":76561198163306561,"connected_time":2667000000000,"state":"active","ping":77},{"user_id":455,"name":"Joe","steam_id":76561198975174452,"connected_time":829000000000,"state":"active","ping":82},{"user_id":415,"name":"tsz","steam_id":76561199246231090,"connected_time":3839000000000,"state":"active","ping":81},{"user_id":456,"name":"god's best gambler","steam_id":76561198051015496,"connected_time":828000000000,"state":"active","ping":77},{"user_id":462,"name":"Gnome Tank","steam_id":76561198984179092,"connected_time":700000000000,"state":"active","ping":82},{"user_id":399,"name":"Rob","steam_id":76561199187786660,"connected_time":4948000000000,"state":"active","ping":67},{"user_id":438,"name":"SPYCHECK ME","steam_id":76561198980994364,"connected_time":2565000000000,"state":"active","ping":87},{"user_id":385,"name":"StudioMania (#SAVETF2)","steam_id":76561198211315795,"connected_time":5677000000000,"state":"active","ping":77},{"user_id":457,"name":"Universe Man","steam_id":76561197997710655,"connected_time":821000000000,"state":"active","ping":87},{"user_id":437,"name":"Saucy Boy","steam_id":76561198178332031,"connected_time":2645000000000,"state":"active","ping":96},{"user_id":402,"name":"J The Jounin","steam_id":76561198034583622,"connected_time":4701000000000,"state":"active","ping":79},{"user_id":376,"name":"üê∫-Iwky-ü¶ä","steam_id":76561198185616311,"connected_time":6442000000000,"state":"active","ping":67},{"user_id":446,"name":"Glenn Quagmire","steam_id":76561199044705592,"connected_time":1564000000000,"state":"active","ping":105},{"user_id":445,"name":"Wooden E","steam_id":76561198020308956,"connected_time":1567000000000,"state":"active","ping":61},{"user_id":431,"name":"Pvt. Dimitri Petrenko","steam_id":76561198078040091,"connected_time":3320000000000,"state":"active","ping":52},{"user_id":461,"name":"Hatsune Miku IRL","steam_id":76561198023770512,"connected_time":707000000000,"state":"active","ping":77}]},{"server_id":108,"name":"Uncletopia | Dallas | 2 | All Maps","name_short":"dal-2","host":"dal-1.us.uncletopia.com","port":27025,"enabled":true,"region":"us-central","cc":"us","latitude":32.779167,"longitude":-96.80889,"reserved":0,"last_update":"0001-01-01T00:00:00Z","name_a2s":"Uncletopia | Dallas | 2 | All Maps","protocol":17,"map":"pl_barnblitz","folder":"tf","game":"Team Fortress","app_id":440,"player_count":24,"max_players":24,"Bots":0,"server_type":"Dedicated","server_os":"Linux","password":true,"vac":true,"version":"7961495","steam_id":85568392924469988,"keywords":["nocrits","nodmgspread","payload","uncletopia"],"game_id":440,"stv_port":27026,"stv_name":"Uncletopia | Dallas | 2 | All Maps | STV","players":[{"user_id":534,"name":"Code","steam_id":76561198084509974,"connected_time":1521000000000,"state":"active","ping":87},{"user_id":509,"name":"TacoMan4Life","steam_id":76561198832562728,"connected_time":3635000000000,"state":"active","ping":94},{"user_id":538,"name":"Alex","steam_id":76561198116937513,"connected_time":1292000000000,"state":"active","ping":97},{"user_id":548,"name":"‚úß.*i kiss boys‚úß.*","steam_id":76561198870687570,"connected_time":522000000000,"state":"active","ping":80},{"user_id":522,"name":"Teckn1cal","steam_id":76561198972914209,"connected_time":2007000000000,"state":"active","ping":63},{"user_id":517,"name":"Bad Medic Buddy","steam_id":76561198093222632,"connected_time":2246000000000,"state":"active","ping":85},{"user_id":535,"name":"urine trouble","steam_id":76561199013266640,"connected_time":1508000000000,"state":"active","ping":61},{"user_id":494,"name":"Cherubi","steam_id":76561199015772917,"connected_time":5041000000000,"state":"active","ping":93},{"user_id":543,"name":"GUN (‚ñ∞Àò‚ó°Àò‚ñ∞)","steam_id":76561199506973596,"connected_time":1051000000000,"state":"active","ping":95},{"user_id":525,"name":"Alteraxia","steam_id":76561198213333961,"connected_time":1738000000000,"state":"active","ping":64},{"user_id":519,"name":"Smashy","steam_id":76561198030704307,"connected_time":2225000000000,"state":"active","ping":111},{"user_id":526,"name":"jade","steam_id":76561198055611029,"connected_time":1718000000000,"state":"active","ping":60},{"user_id":551,"name":"William","steam_id":76561198099819378,"connected_time":242000000000,"state":"active","ping":90},{"user_id":539,"name":"iquitpc","steam_id":76561198169795481,"connected_time":1221000000000,"state":"active","ping":115},{"user_id":527,"name":"Caleb The Hedgehog","steam_id":76561198188496597,"connected_time":1715000000000,"state":"active","ping":73},{"user_id":546,"name":"BaconWizard4","steam_id":76561198384591745,"connected_time":893000000000,"state":"active","ping":77},{"user_id":549,"name":"Weakforanimebitches","steam_id":76561198217663016,"connected_time":476000000000,"state":"active","ping":82},{"user_id":545,"name":"‚úß.*Remzy‚úß.*","steam_id":76561199239412094,"connected_time":1004000000000,"state":"active","ping":171},{"user_id":550,"name":"ImmenseWraith","steam_id":76561198963757884,"connected_time":339000000000,"state":"active","ping":74},{"user_id":479,"name":"GUH","steam_id":76561199013202758,"connected_time":6683000000000,"state":"active","ping":83},{"user_id":500,"name":"PickleHater13","steam_id":76561198259380127,"connected_time":4494000000000,"state":"active","ping":75},{"user_id":345,"name":"The Benefactor","steam_id":76561198307247913,"connected_time":16938000000000,"state":"active","ping":83},{"user_id":533,"name":"|MT|","steam_id":76561199052865451,"connected_time":1547000000000,"state":"active","ping":78}]},{"server_id":404,"name":"Uncletopia | Dallas | 3 | All Maps","name_short":"dal-3","host":"dal-1.us.uncletopia.com","port":27035,"enabled":true,"region":"us-central","cc":"us","latitude":32.779167,"longitude":-96.80889,"reserved":0,"last_update":"0001-01-01T00:00:00Z","name_a2s":"Uncletopia | Dallas | 3 | All Maps","protocol":17,"map":"cp_gravelpit","folder":"tf","game":"Team Fortress","app_id":440,"player_count":24,"max_players":24,"Bots":0,"server_type":"Dedicated","server_os":"Linux","password":true,"vac":true,"version":"7961495","steam_id":85568392924515219,"keywords":["cp","nocrits","nodmgspread","uncletopia"],"game_id":440,"stv_port":27036,"stv_name":"Uncletopia | Dallas | 3 | All Maps | STV","players":[{"user_id":434,"name":"Rin \"Hindwing\" Redtail","steam_id":76561199074865638,"connected_time":546000000000,"state":"active","ping":50},{"user_id":417,"name":"\u003e:3 Muiramme Œµ—ó–∑","steam_id":76561197994458543,"connected_time":1599000000000,"state":"active","ping":105},{"user_id":436,"name":"Bigfoot ate my ass","steam_id":76561198071605190,"connected_time":410000000000,"state":"active","ping":76},{"user_id":440,"name":"sheeesh","steam_id":76561198038080028,"connected_time":328000000000,"state":"active","ping":84},{"user_id":378,"name":"Master Of Whales","steam_id":76561198349104889,"connected_time":5120000000000,"state":"active","ping":80},{"user_id":415,"name":"GLG.Liz","steam_id":76561198021957956,"connected_time":1895000000000,"state":"active","ping":54},{"user_id":442,"name":"cherryhexblood","steam_id":76561199480632587,"connected_time":218000000000,"state":"active","ping":75},{"user_id":228,"name":"Whyamidoingthisaaaa","steam_id":76561199168837342,"connected_time":14161000000000,"state":"active","ping":83},{"user_id":426,"name":"Armpit!","steam_id":76561197978095727,"connected_time":1359000000000,"state":"active","ping":156},{"user_id":394,"name":"Barmy","steam_id":76561198111626352,"connected_time":3981000000000,"state":"active","ping":92},{"user_id":407,"name":"TheHumanTaco119","steam_id":76561198996107520,"connected_time":2768000000000,"state":"active","ping":86},{"user_id":398,"name":"Glue Sniffer","steam_id":76561198289642788,"connected_time":3817000000000,"state":"active","ping":112},{"user_id":396,"name":"Super_Polite","steam_id":76561198081493839,"connected_time":3942000000000,"state":"active","ping":69},{"user_id":291,"name":"Willy the Wonderdog","steam_id":76561198067089970,"connected_time":11185000000000,"state":"active","ping":45},{"user_id":437,"name":"dweamy","steam_id":76561198119181880,"connected_time":408000000000,"state":"active","ping":66},{"user_id":412,"name":"Chumpy","steam_id":76561198010169419,"connected_time":2255000000000,"state":"active","ping":95},{"user_id":438,"name":"bcizzo","steam_id":76561197994399953,"connected_time":404000000000,"state":"active","ping":95},{"user_id":424,"name":"Munky","steam_id":76561197993491054,"connected_time":1431000000000,"state":"active","ping":83},{"user_id":416,"name":"GLG MUTT","steam_id":76561198147785541,"connected_time":1835000000000,"state":"active","ping":61},{"user_id":441,"name":"Sanic_Bum","steam_id":76561198094179822,"connected_time":312000000000,"state":"active","ping":75},{"user_id":439,"name":"ronny","steam_id":76561197994180230,"connected_time":400000000000,"state":"active","ping":63},{"user_id":425,"name":"Lee Surge (fishtank.live)","steam_id":76561198202272884,"connected_time":1430000000000,"state":"active","ping":83},{"user_id":430,"name":"TheInvader01","steam_id":76561198197140935,"connected_time":1031000000000,"state":"active","ping":68},{"user_id":423,"name":"navi","steam_id":76561198398831092,"connected_time":1477000000000,"state":"active","ping":90}]},{"server_id":405,"name":"Uncletopia | Dallas | 4 | Community","name_short":"dal-4","host":"dal-1.us.uncletopia.com","port":27045,"enabled":true,"region":"us-central","cc":"us","latitude":32.779167,"longitude":-96.80889,"reserved":0,"last_update":"0001-01-01T00:00:00Z","name_a2s":"Uncletopia | Dallas | 4 | Community","protocol":17,"map":"workshop/koth_kemptown_rc1.ugc767410655","folder":"tf","game":"Team Fortress","app_id":440,"player_count":0,"max_players":24,"Bots":0,"server_type":"Dedicated","server_os":"Linux","password":true,"vac":true,"version":"7961495","steam_id":85568392924515220,"keywords":["cp","nocrits","nodmgspread","uncletopia"],"game_id":440,"stv_port":27046,"stv_name":"Uncletopia | Dallas | 4 | Community | STV","players":null},{"server_id":5,"name":"Uncletopia | Frankfurt | 1 | All Maps","name_short":"frk-1","host":"frk-1.de.uncletopia.com","port":27015,"enabled":true,"region":"eu","cc":"de","latitude":50.110924,"longitude":8.682127,"reserved":0,"last_update":"0001-01-01T00:00:00Z","name_a2s":"Uncletopia | Frankfurt | 1 | All Maps","protocol":17,"map":"pl_snowycoast","folder":"tf","game":"Team Fortress","app_id":440,"player_count":0,"max_players":24,"Bots":0,"server_type":"Dedicated","server_os":"Linux","password":true,"vac":true,"version":"7961495","steam_id":85568392924469989,"keywords":["nocrits","nodmgspread","payload","uncletopia"],"game_id":440,"stv_port":27016,"stv_name":"Uncletopia | Frankfurt | 1 | All Maps | STV","players":null},{"server_id":110,"name":"Uncletopia | Frankfurt | 2 | All Maps","name_short":"frk-2","host":"frk-1.de.uncletopia.com","port":27025,"enabled":true,"region":"eu","cc":"de","latitude":50.110924,"longitude":8.682127,"reserved":0,"last_update":"0001-01-01T00:00:00Z","name_a2s":"Uncletopia | Frankfurt | 2 | All Maps","protocol":17,"map":"cp_process_final","folder":"tf","game":"Team Fortress","app_id":440,"player_count":0,"max_players":24,"Bots":0,"server_type":"Dedicated","server_os":"Linux","password":true,"vac":true,"version":"7961495","steam_id":85568392924469990,"keywords":["cp","nocrits","nodmgspread","uncletopia"],"game_id":440,"stv_port":27026,"stv_name":"Uncletopia | Frankfurt | 2 | All Maps | STV","players":null},{"server_id":308,"name":"Uncletopia | Frankfurt | 3 | All Maps","name_short":"frk-3","host":"frk-1.de.uncletopia.com","port":27035,"enabled":true,"region":"eu","cc":"de","latitude":50.110924,"longitude":8.682127,"reserved":0,"last_update":"0001-01-01T00:00:00Z","name_a2s":"Uncletopia | Frankfurt | 3 | All Maps","protocol":17,"map":"koth_cascade","folder":"tf","game":"Team Fortress","app_id":440,"player_count":0,"max_players":24,"Bots":0,"server_type":"Dedicated","server_os":"Linux","password":true,"vac":true,"version":"7961495","steam_id":85568392924504274,"keywords":["cp","nocrits","nodmgspread","uncletopia"],"game_id":440,"stv_port":27036,"stv_name":"Uncletopia | Frankfurt | 3 | All Maps | STV","players":null},{"server_id":309,"name":"Uncletopia | Frankfurt | 4 | All Maps","name_short":"frk-4","host":"frk-1.de.uncletopia.com","port":27045,"enabled":true,"region":"eu","cc":"de","latitude":50.110924,"longitude":8.682127,"reserved":0,"last_update":"0001-01-01T00:00:00Z","name_a2s":"Uncletopia | Frankfurt | 4 | All Maps","protocol":17,"map":"cp_granary","folder":"tf","game":"Team Fortress","app_id":440,"player_count":0,"max_players":24,"Bots":0,"server_type":"Dedicated","server_os":"Linux","password":true,"vac":true,"version":"7961495","steam_id":85568392924504275,"keywords":["cp","nocrits","nodmgspread","uncletopia"],"game_id":440,"stv_port":27046,"stv_name":"Uncletopia | Frankfurt | 4 | All Maps | STV","players":null},{"server_id":310,"name":"Uncletopia | Frankfurt | 5 | All Maps","name_short":"frk-5","host":"frk-1.de.uncletopia.com","port":27055,"enabled":true,"region":"eu","cc":"de","latitude":50.110924,"longitude":8.682127,"reserved":0,"last_update":"0001-01-01T00:00:00Z","name_a2s":"Uncletopia | Frankfurt | 5 | All Maps","protocol":17,"map":"pl_frontier_final","folder":"tf","game":"Team Fortress","app_id":440,"player_count":20,"max_players":24,"Bots":0,"server_type":"Dedicated","server_os":"Linux","password":true,"vac":true,"version":"7961495","steam_id":85568392924504277,"keywords":["nocrits","nodmgspread","payload","uncletopia"],"game_id":440,"stv_port":27056,"stv_name":"Uncletopia | Frankfurt | 5 | All Maps | STV","players":[{"user_id":936,"name":"aeriun","steam_id":76561198322862462,"connected_time":869000000000,"state":"active","ping":51},{"user_id":939,"name":"Stinky Whizzleteats","steam_id":76561197968945306,"connected_time":717000000000,"state":"active","ping":74},{"user_id":911,"name":"mercedes ben","steam_id":76561198000147423,"connected_time":2892000000000,"state":"active","ping":54},{"user_id":920,"name":"Philippe","steam_id":76561199063606000,"connected_time":2098000000000,"state":"active","ping":82},{"user_id":934,"name":"fefe | „Éï„Çß„Éï„Çß","steam_id":76561199402489568,"connected_time":1077000000000,"state":"active","ping":65},{"user_id":945,"name":"alverol","steam_id":76561198022920660,"connected_time":369000000000,"state":"active","ping":85},{"user_id":941,"name":"cl_skinnyboi 1","steam_id":76561198042864708,"connected_time":680000000000,"state":"active","ping":66},{"user_id":927,"name":"N95","steam_id":76561198129806658,"connected_time":1555000000000,"state":"active","ping":59},{"user_id":928,"name":"three rats in a trenchcoat","steam_id":76561197983889333,"connected_time":1549000000000,"state":"active","ping":50},{"user_id":929,"name":"Arkainiel Silver","steam_id":76561198188302519,"connected_time":1453000000000,"state":"active","ping":46},{"user_id":942,"name":"aofi the flat tgirl","steam_id":76561199172110503,"connected_time":658000000000,"state":"active","ping":161},{"user_id":930,"name":"Jeryx","steam_id":76561197995602803,"connected_time":1407000000000,"state":"active","ping":63},{"user_id":931,"name":"‚õß AlphaSatanOmega ‚õß","steam_id":76561198035125511,"connected_time":1328000000000,"state":"active","ping":135},{"user_id":900,"name":"faker","steam_id":76561199179040672,"connected_time":3698000000000,"state":"active","ping":63},{"user_id":946,"name":"MaLbILLI","steam_id":76561198096057221,"connected_time":251000000000,"state":"active","ping":118},{"user_id":944,"name":"james_bondage","steam_id":76561199476062624,"connected_time":513000000000,"state":"active","ping":165},{"user_id":935,"name":"why rum gone","steam_id":76561198158484784,"connected_time":996000000000,"state":"active","ping":59},{"user_id":947,"name":"Mad Russian","steam_id":76561198118837727,"connected_time":169000000000,"state":"active","ping":78},{"user_id":903,"name":"Tea Follet","steam_id":76561198852408734,"connected_time":3352000000000,"state":"active","ping":58},{"user_id":850,"name":"Volodya","steam_id":76561198124484658,"connected_time":7815000000000,"state":"active","ping":103}]},{"server_id":311,"name":"Uncletopia | Frankfurt | 6 | All Maps","name_short":"frk-6","host":"frk-1.de.uncletopia.com","port":27065,"enabled":true,"region":"eu","cc":"de","latitude":50.110924,"longitude":8.682127,"reserved":0,"last_update":"0001-01-01T00:00:00Z","name_a2s":"Uncletopia | Frankfurt | 6 | All Maps","protocol":17,"map":"pl_badwater","folder":"tf","game":"Team Fortress","app_id":440,"player_count":0,"max_players":24,"Bots":0,"server_type":"Dedicated","server_os":"Linux","password":true,"vac":true,"version":"7961495","steam_id":85568392924504278,"keywords":["nocrits","nodmgspread","payload","uncletopia"],"game_id":440,"stv_port":27066,"stv_name":"Uncletopia | Frankfurt | 6 | All Maps | STV","players":null},{"server_id":23,"name":"Uncletopia | Frankfurt | 7 | Stopwatch","name_short":"frk-7","host":"frk-1.de.uncletopia.com","port":27075,"enabled":true,"region":"eu","cc":"de","latitude":50.110924,"longitude":8.682127,"reserved":0,"last_update":"0001-01-01T00:00:00Z","name_a2s":"Uncletopia | Frankfurt | 7 | Stopwatch","protocol":17,"map":"koth_lakeside_final","folder":"tf","game":"Team Fortress","app_id":440,"player_count":0,"max_players":24,"Bots":0,"server_type":"Dedicated","server_os":"Linux","password":true,"vac":true,"version":"7961495","steam_id":85568392924742827,"keywords":["cp","nocrits","nodmgspread","uncletopia"],"game_id":440,"stv_port":27076,"stv_name":"Uncletopia | Frankfurt | 7 | Stopwatch | STV","players":null},{"server_id":24,"name":"Uncletopia | Frankfurt | 8 | Community","name_short":"frk-8","host":"frk-1.de.uncletopia.com","port":27085,"enabled":true,"region":"eu","cc":"de","latitude":50.110924,"longitude":8.682127,"reserved":0,"last_update":"0001-01-01T00:00:00Z","name_a2s":"Uncletopia | Frankfurt | 8 | Community","protocol":17,"map":"workshop/koth_relic_rc3.ugc2965301326","folder":"tf","game":"Team Fortress","app_id":440,"player_count":0,"max_players":24,"Bots":0,"server_type":"Dedicated","server_os":"Linux","password":true,"vac":true,"version":"7961495","steam_id":85568392924742828,"keywords":["cp","nocrits","nodmgspread","uncletopia"],"game_id":440,"stv_port":27086,"stv_name":"Uncletopia | Frankfurt | 8 | Community | STV","players":null},{"server_id":202,"name":"Uncletopia | Hong Kong | 1 | All Maps","name_short":"hgk-1","host":"hgk-1.hk.uncletopia.com","port":27015,"enabled":true,"region":"asia","cc":"hk","latitude":22.302711,"longitude":114.177216,"reserved":0,"last_update":"0001-01-01T00:00:00Z","name_a2s":"Uncletopia | Hong Kong | 1 | All Maps","protocol":17,"map":"pl_swiftwater_final1","folder":"tf","game":"Team Fortress","app_id":440,"player_count":0,"max_players":24,"Bots":0,"server_type":"Dedicated","server_os":"Linux","password":true,"vac":true,"version":"7961495","steam_id":85568392924494504,"keywords":["nocrits","nodmgspread","payload","uncletopia"],"game_id":440,"stv_port":27016,"stv_name":"Uncletopia | Hong Kong | 1 | All Maps | STV","players":null},{"server_id":1,"name":"Uncletopia | Los Angeles | 1 | All Maps","name_short":"lax-1","host":"lax-1.us.uncletopia.com","port":27015,"enabled":true,"region":"us-west","cc":"us","latitude":33.94279,"longitude":-118.41004,"reserved":0,"last_update":"0001-01-01T00:00:00Z","name_a2s":"Uncletopia | Los Angeles | 1 | All Maps","protocol":17,"map":"pl_upward","folder":"tf","game":"Team Fortress","app_id":440,"player_count":22,"max_players":24,"Bots":0,"server_type":"Dedicated","server_os":"Linux","password":true,"vac":true,"version":"7961495","steam_id":85568392924469991,"keywords":["nocrits","nodmgspread","payload","uncletopia"],"game_id":440,"stv_port":27016,"stv_name":"Uncletopia | Los Angeles | 1 | All Maps | STV","players":[{"user_id":135,"name":"Useless","steam_id":76561198116079299,"connected_time":2385000000000,"state":"active","ping":74},{"user_id":120,"name":"Fred","steam_id":76561198114281255,"connected_time":3800000000000,"state":"active","ping":106},{"user_id":157,"name":"Admiral","steam_id":76561198200288543,"connected_time":769000000000,"state":"active","ping":43},{"user_id":146,"name":"Altruisticailuridae","steam_id":76561198335295596,"connected_time":1368000000000,"state":"active","ping":67},{"user_id":160,"name":"Jest","steam_id":76561198170173062,"connected_time":624000000000,"state":"active","ping":57},{"user_id":130,"name":"SoCal Kaizer","steam_id":76561198334361081,"connected_time":3058000000000,"state":"active","ping":74},{"user_id":141,"name":"LegendarySpaghetti","steam_id":76561199081126529,"connected_time":2018000000000,"state":"active","ping":66},{"user_id":158,"name":"LG_Fridge_User","steam_id":76561198977815014,"connected_time":759000000000,"state":"active","ping":75},{"user_id":143,"name":"Mr.  So   exclousive","steam_id":76561197995200743,"connected_time":1416000000000,"state":"active","ping":30},{"user_id":145,"name":"vozz","steam_id":76561198242065410,"connected_time":1369000000000,"state":"active","ping":46},{"user_id":91,"name":"kloo_","steam_id":76561199090218013,"connected_time":5913000000000,"state":"active","ping":78},{"user_id":156,"name":"EightySix","steam_id":76561198186678831,"connected_time":1056000000000,"state":"active","ping":61},{"user_id":149,"name":"california jew","steam_id":76561198914032112,"connected_time":1316000000000,"state":"active","ping":51},{"user_id":79,"name":"Depresso","steam_id":76561198397540437,"connected_time":6380000000000,"state":"active","ping":79},{"user_id":142,"name":"HAT-WEARING‚Ñ¢ Maggot Gamer Cat","steam_id":76561197973992705,"connected_time":1445000000000,"state":"active","ping":70},{"user_id":161,"name":"Several Skeletons","steam_id":76561198043732416,"connected_time":152000000000,"state":"active","ping":104},{"user_id":131,"name":"Burnbeast","steam_id":76561198088104601,"connected_time":2943000000000,"state":"active","ping":70},{"user_id":163,"name":"Stapler","steam_id":76561198099295077,"connected_time":59000000000,"state":"active","ping":60},{"user_id":138,"name":"umbreeon","steam_id":76561199089730744,"connected_time":2329000000000,"state":"active","ping":60},{"user_id":164,"name":"ethngo","steam_id":76561199131747497,"connected_time":58000000000,"state":"active","ping":55},{"user_id":134,"name":"darren","steam_id":76561199050155136,"connected_time":2421000000000,"state":"active","ping":51},{"user_id":153,"name":"Just a Good Friend","steam_id":76561198140052403,"connected_time":1208000000000,"state":"active","ping":47}]},{"server_id":112,"name":"Uncletopia | Los Angeles | 2 | All Maps","name_short":"lax-2","host":"lax-1.us.uncletopia.com","port":27025,"enabled":true,"region":"us-west","cc":"us","latitude":33.94279,"longitude":-118.41004,"reserved":0,"last_update":"0001-01-01T00:00:00Z","name_a2s":"Uncletopia | Los Angeles | 2 | All Maps","protocol":17,"map":"pl_borneo","folder":"tf","game":"Team Fortress","app_id":440,"player_count":24,"max_players":24,"Bots":0,"server_type":"Dedicated","server_os":"Linux","password":true,"vac":true,"version":"7961495","steam_id":85568392924469992,"keywords":["nocrits","nodmgspread","payload","uncletopia"],"game_id":440,"stv_port":27026,"stv_name":"Uncletopia | Los Angeles | 2 | All Maps | STV","players":[{"user_id":307,"name":"LACTAID","steam_id":76561198276585202,"connected_time":2727000000000,"state":"active","ping":50},{"user_id":289,"name":"bowser","steam_id":76561198138261545,"connected_time":3923000000000,"state":"active","ping":100},{"user_id":320,"name":"Sandvich Teh Stwongest","steam_id":76561198045609485,"connected_time":1900000000000,"state":"active","ping":57},{"user_id":317,"name":"Fishybros","steam_id":76561198182045699,"connected_time":2085000000000,"state":"active","ping":116},{"user_id":299,"name":"CropFarmer","steam_id":76561198173712581,"connected_time":3268000000000,"state":"active","ping":40},{"user_id":308,"name":"Beef Wellington","steam_id":76561197995635241,"connected_time":2708000000000,"state":"active","ping":165},{"user_id":309,"name":"Juuichi11","steam_id":76561198141955085,"connected_time":2679000000000,"state":"active","ping":73},{"user_id":340,"name":"An00bis","steam_id":76561198044084508,"connected_time":694000000000,"state":"active","ping":60},{"user_id":336,"name":"Concede","steam_id":76561198242842394,"connected_time":1235000000000,"state":"active","ping":77},{"user_id":345,"name":"Hamlindigo Blue‚Ñ¢","steam_id":76561198116337540,"connected_time":574000000000,"state":"active","ping":89},{"user_id":339,"name":"Pet.Waterdew | Operation B.O.X ","steam_id":76561198405648949,"connected_time":716000000000,"state":"active","ping":59},{"user_id":290,"name":"aidonz","steam_id":76561198066395960,"connected_time":3868000000000,"state":"active","ping":111},{"user_id":323,"name":"Antzen","steam_id":76561198041343470,"connected_time":1784000000000,"state":"active","ping":59},{"user_id":329,"name":"Dub","steam_id":76561199048109670,"connected_time":1540000000000,"state":"active","ping":80},{"user_id":349,"name":"lol","steam_id":76561198026491738,"connected_time":252000000000,"state":"active","ping":71},{"user_id":342,"name":"JellyParrot","steam_id":76561199190990163,"connected_time":642000000000,"state":"active","ping":96},{"user_id":338,"name":"Future Tusk","steam_id":76561198199635217,"connected_time":741000000000,"state":"active","ping":60},{"user_id":343,"name":"Sexy Kitten (toxic)","steam_id":76561197979056451,"connected_time":619000000000,"state":"active","ping":81},{"user_id":335,"name":"luigigario","steam_id":76561198881262416,"connected_time":1291000000000,"state":"active","ping":63},{"user_id":227,"name":"SanitysEdge","steam_id":76561198130732813,"connected_time":8764000000000,"state":"active","ping":47},{"user_id":346,"name":"Magnet Dood","steam_id":76561198364178746,"connected_time":564000000000,"state":"active","ping":115},{"user_id":348,"name":"Raz","steam_id":76561198002426150,"connected_time":286000000000,"state":"active","ping":85},{"user_id":344,"name":"MintyGhoul666","steam_id":76561198232417796,"connected_time":614000000000,"state":"active","ping":97},{"user_id":326,"name":"Coolguy20111","steam_id":76561198097702978,"connected_time":1707000000000,"state":"active","ping":130}]},{"server_id":324,"name":"Uncletopia | Los Angeles | 3 | All Maps","name_short":"lax-3","host":"lax-1.us.uncletopia.com","port":27035,"enabled":true,"region":"us-west","cc":"us","latitude":33.94279,"longitude":-118.41004,"reserved":0,"last_update":"0001-01-01T00:00:00Z","name_a2s":"Uncletopia | Los Angeles | 3 | All Maps","protocol":17,"map":"koth_viaduct","folder":"tf","game":"Team Fortress","app_id":440,"player_count":9,"max_players":24,"Bots":0,"server_type":"Dedicated","server_os":"Linux","password":true,"vac":true,"version":"7961495","steam_id":85568392924510198,"keywords":["cp","nocrits","nodmgspread","uncletopia"],"game_id":440,"stv_port":27036,"stv_name":"Uncletopia | Los Angeles | 3 | All Maps | STV","players":[{"user_id":32,"name":"Chrimfine","steam_id":76561199504903550,"connected_time":738000000000,"state":"active","ping":64},{"user_id":24,"name":"[MF] Thicc Dark Elf Meat","steam_id":76561198047681421,"connected_time":2848000000000,"state":"active","ping":126},{"user_id":25,"name":"Monti","steam_id":76561199031515904,"connected_time":2725000000000,"state":"active","ping":211},{"user_id":28,"name":"M.I.R.A.I.Drive","steam_id":76561198098018436,"connected_time":1898000000000,"state":"active","ping":75},{"user_id":22,"name":"S. Kirb","steam_id":76561198255303847,"connected_time":3340000000000,"state":"active","ping":84},{"user_id":29,"name":"mario kart wii 150cc","steam_id":76561198100753651,"connected_time":1854000000000,"state":"active","ping":105},{"user_id":30,"name":"Charcoal","steam_id":76561198268638706,"connected_time":1692000000000,"state":"active","ping":69},{"user_id":35,"name":"Saiko","steam_id":76561198982717237,"connected_time":159000000000,"state":"active","ping":56},{"user_id":36,"name":"Sak","steam_id":76561198307655707,"connected_time":43000000000,"state":"spawning","ping":67}]},{"server_id":25,"name":"Uncletopia | Los Angeles | 4 | Stopwatch","name_short":"lax-4","host":"lax-1.us.uncletopia.com","port":27045,"enabled":true,"region":"us-west","cc":"us","latitude":33.94279,"longitude":-118.41004,"reserved":0,"last_update":"0001-01-01T00:00:00Z","name_a2s":"Uncletopia | Los Angeles | 4 | Stopwatch","protocol":17,"map":"koth_highpass","folder":"tf","game":"Team Fortress","app_id":440,"player_count":5,"max_players":24,"Bots":0,"server_type":"Dedicated","server_os":"Linux","password":true,"vac":true,"version":"7961495","steam_id":85568392924510199,"keywords":["cp","nocrits","nodmgspread","uncletopia"],"game_id":440,"stv_port":27046,"stv_name":"Uncletopia | Los Angeles | 4 | Stopwatch | STV","players":[{"user_id":28,"name":"harambe 101","steam_id":76561198366850003,"connected_time":2992000000000,"state":"active","ping":57},{"user_id":29,"name":"FlexTape","steam_id":76561198871834867,"connected_time":2974000000000,"state":"active","ping":62},{"user_id":30,"name":"tigermouse1939","steam_id":76561199078976251,"connected_time":2972000000000,"state":"active","ping":62},{"user_id":31,"name":"TheLiliPad","steam_id":76561198829012349,"connected_time":2726000000000,"state":"active","ping":106},{"user_id":37,"name":"MirrorsAreScary","steam_id":76561198860505587,"connected_time":1170000000000,"state":"active","ping":81}]},{"server_id":11,"name":"Uncletopia | London | 1 | All Maps","name_short":"lon-1","host":"lon-1.uk.uncletopia.com","port":27015,"enabled":true,"region":"eu","cc":"gb","latitude":51.509865,"longitude":-0.118092,"reserved":0,"last_update":"0001-01-01T00:00:00Z","name_a2s":"Uncletopia | London | 1 | All Maps","protocol":17,"map":"koth_lakeside_final","folder":"tf","game":"Team Fortress","app_id":440,"player_count":0,"max_players":24,"Bots":0,"server_type":"Dedicated","server_os":"Linux","password":true,"vac":true,"version":"7961495","steam_id":85568392924367362,"keywords":["cp","nocrits","nodmgspread","uncletopia"],"game_id":440,"stv_port":27016,"stv_name":"Uncletopia | London | 1 | All Maps | STV","players":null},{"server_id":114,"name":"Uncletopia | London | 2 | All Maps","name_short":"lon-2","host":"lon-1.uk.uncletopia.com","port":27025,"enabled":true,"region":"eu","cc":"gb","latitude":51.509865,"longitude":-0.118092,"reserved":0,"last_update":"0001-01-01T00:00:00Z","name_a2s":"Uncletopia | London | 2 | All Maps","protocol":17,"map":"cp_mountainlab","folder":"tf","game":"Team Fortress","app_id":440,"player_count":0,"max_players":24,"Bots":0,"server_type":"Dedicated","server_os":"Linux","password":true,"vac":true,"version":"7961495","steam_id":85568392924470941,"keywords":["cp","nocrits","nodmgspread","uncletopia"],"game_id":440,"stv_port":27026,"stv_name":"Uncletopia | London | 2 | All Maps | STV","players":null},{"server_id":320,"name":"Uncletopia | London | 3 | All Maps","name_short":"lon-3","host":"lon-1.uk.uncletopia.com","port":27035,"enabled":true,"region":"eu","cc":"gb","latitude":51.509865,"longitude":-0.118092,"reserved":0,"last_update":"0001-01-01T00:00:00Z","name_a2s":"Uncletopia | London | 3 | All Maps","protocol":17,"map":"pl_snowycoast","folder":"tf","game":"Team Fortress","app_id":440,"player_count":0,"max_players":24,"Bots":0,"server_type":"Dedicated","server_os":"Linux","password":true,"vac":true,"version":"7961495","steam_id":85568392924510192,"keywords":["nocrits","nodmgspread","payload","uncletopia"],"game_id":440,"stv_port":27036,"stv_name":"Uncletopia | London | 3 | All Maps | STV","players":null},{"server_id":321,"name":"Uncletopia | London | 4 | All Maps","name_short":"lon-4","host":"lon-1.uk.uncletopia.com","port":27045,"enabled":true,"region":"eu","cc":"gb","latitude":51.509865,"longitude":-0.118092,"reserved":0,"last_update":"0001-01-01T00:00:00Z","name_a2s":"Uncletopia | London | 4 | All Maps","protocol":17,"map":"cp_altitude","folder":"tf","game":"Team Fortress","app_id":440,"player_count":0,"max_players":24,"Bots":0,"server_type":"Dedicated","server_os":"Linux","password":true,"vac":true,"version":"7961495","steam_id":85568392924510193,"keywords":["cp","nocrits","nodmgspread","uncletopia"],"game_id":440,"stv_port":27046,"stv_name":"Uncletopia | London | 4 | All Maps | STV","players":null},{"server_id":21,"name":"Uncletopia | London | 5 | All Maps","name_short":"lon-5","host":"lon-1.uk.uncletopia.com","port":27055,"enabled":true,"region":"eu","cc":"gb","latitude":51.509865,"longitude":-0.118092,"reserved":0,"last_update":"0001-01-01T00:00:00Z","name_a2s":"Uncletopia | London | 5 | All Maps","protocol":17,"map":"koth_highpass","folder":"tf","game":"Team Fortress","app_id":440,"player_count":0,"max_players":24,"Bots":0,"server_type":"Dedicated","server_os":"Linux","password":true,"vac":true,"version":"7961495","steam_id":85568392924742829,"keywords":["cp","nocrits","nodmgspread","uncletopia"],"game_id":440,"stv_port":27056,"stv_name":"Uncletopia | London | 5 | All Maps | STV","players":null},{"server_id":22,"name":"Uncletopia | London | 6 | All Maps","name_short":"lon-6","host":"lon-1.uk.uncletopia.com","port":27065,"enabled":true,"region":"eu","cc":"gb","latitude":51.509865,"longitude":-0.118092,"reserved":0,"last_update":"0001-01-01T00:00:00Z","name_a2s":"Uncletopia | London | 6 | All Maps","protocol":17,"map":"cp_sunshine","folder":"tf","game":"Team Fortress","app_id":440,"player_count":0,"max_players":24,"Bots":0,"server_type":"Dedicated","server_os":"Linux","password":true,"vac":true,"version":"7961495","steam_id":85568392924742830,"keywords":["cp","nocrits","nodmgspread","uncletopia"],"game_id":440,"stv_port":27066,"stv_name":"Uncletopia | London | 6 | All Maps | STV","players":null},{"server_id":40,"name":"Uncletopia | London | 7 | Stopwatch","name_short":"lon-7","host":"lon-1.uk.uncletopia.com","port":27075,"enabled":true,"region":"eu","cc":"gb","latitude":51.509865,"longitude":-0.118092,"reserved":0,"last_update":"0001-01-01T00:00:00Z","name_a2s":"Uncletopia | London | 7 | Stopwatch","protocol":17,"map":"workshop/koth_clearcut_b15.ugc2107050255","folder":"tf","game":"Team Fortress","app_id":440,"player_count":0,"max_players":24,"Bots":0,"server_type":"Dedicated","server_os":"Linux","password":true,"vac":true,"version":"7961495","steam_id":85568392924964314,"keywords":["cp","nocrits","nodmgspread","uncletopia"],"game_id":440,"stv_port":27076,"stv_name":"Uncletopia | London | 7 | Stopwatch | STV","players":null},{"server_id":41,"name":"Uncletopia | London | 8 | Community","name_short":"lon-8","host":"lon-1.uk.uncletopia.com","port":27085,"enabled":true,"region":"eu","cc":"gb","latitude":51.509865,"longitude":-0.118092,"reserved":0,"last_update":"0001-01-01T00:00:00Z","name_a2s":"Uncletopia | London | 8 | Community","protocol":17,"map":"workshop/cp_overgrown_rc8.ugc503939302","folder":"tf","game":"Team Fortress","app_id":440,"player_count":0,"max_players":24,"Bots":0,"server_type":"Dedicated","server_os":"Linux","password":true,"vac":true,"version":"7961495","steam_id":85568392924964315,"keywords":["cp","nocrits","nodmgspread","uncletopia"],"game_id":440,"stv_port":27086,"stv_name":"Uncletopia | London | 8 | Community | STV","players":null},{"server_id":300,"name":"Uncletopia | Montr√©al | 1 | One Thousand Uncles","name_short":"mtl-1","host":"mtl-1.ca.uncletopia.com","port":27015,"enabled":true,"region":"us-east","cc":"ca","latitude":45.50889,"longitude":-73.56167,"reserved":0,"last_update":"0001-01-01T00:00:00Z","name_a2s":"Uncletopia | Montr√©al | 1 | One Thousand Uncles","protocol":17,"map":"pl_barnblitz","folder":"tf","game":"Team Fortress","app_id":440,"player_count":32,"max_players":32,"Bots":20,"server_type":"Dedicated","server_os":"Linux","password":true,"vac":true,"version":"7961495","steam_id":85568392924500087,"keywords":["alltalk","bots","danepve","increased_maxplayers","norespawntime","payload","uncletopia"],"game_id":440,"stv_port":0,"stv_name":"","players":[{"user_id":447,"name":"MagikarpEX","steam_id":76561198166172279,"connected_time":1740000000000,"state":"active","ping":75},{"user_id":409,"name":"Kiervce","steam_id":76561199175427371,"connected_time":5677000000000,"state":"active","ping":56},{"user_id":373,"name":"Flappus","steam_id":76561198857949632,"connected_time":7529000000000,"state":"active","ping":69},{"user_id":466,"name":"The Most Outrageous Man","steam_id":76561198282567115,"connected_time":573000000000,"state":"active","ping":88},{"user_id":414,"name":"Lots0","steam_id":76561198043143145,"connected_time":4050000000000,"state":"active","ping":109},{"user_id":461,"name":"melon soda","steam_id":76561198066748230,"connected_time":1050000000000,"state":"active","ping":79},{"user_id":376,"name":"The Skyfoogle","steam_id":76561198797090812,"connected_time":7512000000000,"state":"active","ping":91},{"user_id":437,"name":"Monkey Bat Donkey Rat","steam_id":76561198833982261,"connected_time":2976000000000,"state":"active","ping":114},{"user_id":462,"name":"catgirl w/ fat ass","steam_id":76561199040286026,"connected_time":1048000000000,"state":"active","ping":61},{"user_id":381,"name":"Luki","steam_id":76561198180609107,"connected_time":6823000000000,"state":"active","ping":132},{"user_id":464,"name":"Fat Nuts IV","steam_id":76561198873273906,"connected_time":926000000000,"state":"active","ping":97},{"user_id":465,"name":"Botany Toodlesnoot","steam_id":76561198307508226,"connected_time":917000000000,"state":"active","ping":111}]},{"server_id":301,"name":"Uncletopia | Montr√©al | 2 | One Thousand Uncles","name_short":"mtl-2","host":"mtl-1.ca.uncletopia.com","port":27025,"enabled":true,"region":"us-east","cc":"ca","latitude":45.50889,"longitude":-73.56167,"reserved":0,"last_update":"0001-01-01T00:00:00Z","name_a2s":"Uncletopia | Montr√©al | 2 | One Thousand Uncles","protocol":17,"map":"pl_swiftwater_final1","folder":"tf","game":"Team Fortress","app_id":440,"player_count":24,"max_players":32,"Bots":20,"server_type":"Dedicated","server_os":"Linux","password":true,"vac":true,"version":"7961495","steam_id":85568392924500088,"keywords":["alltalk","bots","danepve","increased_maxplayers","norespawntime","payload","uncletopia"],"game_id":440,"stv_port":0,"stv_name":"","players":[{"user_id":160,"name":"RacoonGamer","steam_id":76561198100907657,"connected_time":3125000000000,"state":"active","ping":51},{"user_id":181,"name":"Noob","steam_id":76561199211862126,"connected_time":1734000000000,"state":"active","ping":125},{"user_id":184,"name":"Boney_Bonez","steam_id":76561199000434784,"connected_time":1420000000000,"state":"active","ping":126},{"user_id":185,"name":"Herman Bavinck","steam_id":76561197993190216,"connected_time":549000000000,"state":"active","ping":55}]},{"server_id":302,"name":"Uncletopia | Montr√©al | 3 | One Thousand Uncles","name_short":"mtl-3","host":"mtl-1.ca.uncletopia.com","port":27035,"enabled":true,"region":"us-east","cc":"ca","latitude":45.50889,"longitude":-73.56167,"reserved":0,"last_update":"0001-01-01T00:00:00Z","name_a2s":"Uncletopia | Montr√©al | 3 | One Thousand Uncles","protocol":17,"map":"pl_swiftwater_final1","folder":"tf","game":"Team Fortress","app_id":440,"player_count":0,"max_players":32,"Bots":0,"server_type":"Dedicated","server_os":"Linux","password":true,"vac":true,"version":"7961495","steam_id":85568392924500089,"keywords":["alltalk","danepve","increased_maxplayers","norespawntime","payload","uncletopia"],"game_id":440,"stv_port":0,"stv_name":"","players":null},{"server_id":13,"name":"Uncletopia | New York City | 1 | All Maps","name_short":"nyc-1","host":"nyc-1.us.uncletopia.com","port":27015,"enabled":true,"region":"us-east","cc":"us","latitude":40.73061,"longitude":-73.93524,"reserved":0,"last_update":"0001-01-01T00:00:00Z","name_a2s":"Uncletopia | New York City | 1 | All Maps","protocol":17,"map":"pl_swiftwater_final1","folder":"tf","game":"Team Fortress","app_id":440,"player_count":24,"max_players":24,"Bots":0,"server_type":"Dedicated","server_os":"Linux","password":true,"vac":true,"version":"7961495","steam_id":85568392924469993,"keywords":["nocrits","nodmgspread","payload","uncletopia"],"game_id":440,"stv_port":27016,"stv_name":"Uncletopia | New York City | 1 | All Maps | STV","players":[{"user_id":702,"name":"Joey","steam_id":76561198143977957,"connected_time":1658000000000,"state":"active","ping":116},{"user_id":704,"name":"CheetoSmoke7","steam_id":76561198095217273,"connected_time":1392000000000,"state":"active","ping":49},{"user_id":722,"name":"Mr. Caesar","steam_id":76561198166329161,"connected_time":337000000000,"state":"active","ping":130},{"user_id":671,"name":"Chillin Turt","steam_id":76561198025796849,"connected_time":3403000000000,"state":"active","ping":66},{"user_id":710,"name":"awakelist","steam_id":76561199129744011,"connected_time":931000000000,"state":"active","ping":105},{"user_id":717,"name":"Butthole Cafeteria","steam_id":76561197986078333,"connected_time":522000000000,"state":"active","ping":66},{"user_id":660,"name":"beep","steam_id":76561199096448766,"connected_time":4294000000000,"state":"active","ping":84},{"user_id":698,"name":"GummybearKillr","steam_id":76561198031235750,"connected_time":1854000000000,"state":"active","ping":48},{"user_id":705,"name":"Cruxxxify","steam_id":76561199402677621,"connected_time":1334000000000,"state":"active","ping":94},{"user_id":706,"name":"Barkin MADDOX","steam_id":76561198446108776,"connected_time":1241000000000,"state":"active","ping":42},{"user_id":570,"name":"BreezeDanish","steam_id":76561198029758057,"connected_time":11237000000000,"state":"active","ping":70},{"user_id":692,"name":"humandogboy","steam_id":76561199125041162,"connected_time":2081000000000,"state":"active","ping":84},{"user_id":711,"name":"Phat Cat","steam_id":76561198123017274,"connected_time":786000000000,"state":"active","ping":26},{"user_id":712,"name":"smuffy","steam_id":76561198091459506,"connected_time":737000000000,"state":"active","ping":56},{"user_id":718,"name":"Stan","steam_id":76561199057962816,"connected_time":486000000000,"state":"active","ping":61},{"user_id":721,"name":"War on Drugs Fighter","steam_id":76561198103211035,"connected_time":389000000000,"state":"active","ping":76},{"user_id":713,"name":"SecretRendezvous","steam_id":76561198145565601,"connected_time":734000000000,"state":"active","ping":57},{"user_id":631,"name":"oppenheimer style","steam_id":76561198026664629,"connected_time":7000000000000,"state":"active","ping":45},{"user_id":716,"name":"Jeffery Jitterson","steam_id":76561199021400714,"connected_time":569000000000,"state":"active","ping":45},{"user_id":719,"name":"Auzelius","steam_id":76561198025803982,"connected_time":483000000000,"state":"active","ping":67},{"user_id":720,"name":"None of that $9.99 bullshit","steam_id":76561198116169903,"connected_time":462000000000,"state":"active","ping":60},{"user_id":723,"name":"Bee_Pirate","steam_id":76561199000599111,"connected_time":267000000000,"state":"active","ping":66},{"user_id":725,"name":"Lunchboxx","steam_id":76561198079735916,"connected_time":0,"state":"spawning","ping":15},{"user_id":695,"name":"criss11401","steam_id":76561198193805663,"connected_time":2038000000000,"state":"active","ping":89}]},{"server_id":14,"name":"Uncletopia | New York City | 2 | All Maps","name_short":"nyc-2","host":"nyc-1.us.uncletopia.com","port":27025,"enabled":true,"region":"us-east","cc":"us","latitude":40.73061,"longitude":-73.93524,"reserved":0,"last_update":"0001-01-01T00:00:00Z","name_a2s":"Uncletopia | New York City | 2 | All Maps","protocol":17,"map":"koth_viaduct","folder":"tf","game":"Team Fortress","app_id":440,"player_count":0,"max_players":24,"Bots":0,"server_type":"Dedicated","server_os":"Linux","password":true,"vac":true,"version":"7961495","steam_id":85568392924469994,"keywords":["cp","nocrits","nodmgspread","uncletopia"],"game_id":440,"stv_port":27026,"stv_name":"Uncletopia | New York City | 2 | All Maps | STV","players":null},{"server_id":15,"name":"Uncletopia | New York City | 3 | Stopwatch","name_short":"nyc-3","host":"nyc-1.us.uncletopia.com","port":27035,"enabled":true,"region":"us-east","cc":"us","latitude":40.73061,"longitude":-73.93524,"reserved":0,"last_update":"0001-01-01T00:00:00Z","name_a2s":"Uncletopia | New York City | 3 | Stopwatch","protocol":17,"map":"workshop/pl_vigil_rc10.ugc1266210012","folder":"tf","game":"Team Fortress","app_id":440,"player_count":0,"max_players":24,"Bots":0,"server_type":"Dedicated","server_os":"Linux","password":true,"vac":true,"version":"7961495","steam_id":85568392924742820,"keywords":["nocrits","nodmgspread","payload","uncletopia"],"game_id":440,"stv_port":27036,"stv_name":"Uncletopia | New York City | 3 | Stopwatch | STV","players":null},{"server_id":16,"name":"Uncletopia | New York City | 4 | Community","name_short":"nyc-4","host":"nyc-1.us.uncletopia.com","port":27045,"enabled":true,"region":"us-east","cc":"us","latitude":40.73061,"longitude":-73.93524,"reserved":0,"last_update":"0001-01-01T00:00:00Z","name_a2s":"Uncletopia | New York City | 4 | Community","protocol":17,"map":"workshop/cp_snowbase_b21.ugc2081770490","folder":"tf","game":"Team Fortress","app_id":440,"player_count":22,"max_players":24,"Bots":0,"server_type":"Dedicated","server_os":"Linux","password":true,"vac":true,"version":"7961495","steam_id":85568392924742821,"keywords":["cp","nocrits","nodmgspread","uncletopia"],"game_id":440,"stv_port":27046,"stv_name":"Uncletopia | New York City | 4 | Community | STV","players":[{"user_id":191,"name":"Scoundrel","steam_id":76561198056672372,"connected_time":4476000000000,"state":"active","ping":66},{"user_id":94,"name":"MichelangeloStark","steam_id":76561197976489900,"connected_time":12863000000000,"state":"active","ping":75},{"user_id":235,"name":"-BRH- Tangled up in Bluegrass","steam_id":76561197987181139,"connected_time":261000000000,"state":"active","ping":87},{"user_id":211,"name":"Grimprr","steam_id":76561198275816797,"connected_time":2890000000000,"state":"active","ping":52},{"user_id":212,"name":"Hawkborne","steam_id":76561198107249245,"connected_time":2879000000000,"state":"active","ping":94},{"user_id":236,"name":"dmdr1969","steam_id":76561198080469611,"connected_time":206000000000,"state":"active","ping":71},{"user_id":224,"name":"Ludcmorais","steam_id":76561198359217809,"connected_time":1772000000000,"state":"active","ping":170},{"user_id":206,"name":"Smoky Haus","steam_id":76561199040586542,"connected_time":3048000000000,"state":"active","ping":93},{"user_id":234,"name":"Captain Baxter","steam_id":76561198100587328,"connected_time":341000000000,"state":"active","ping":90},{"user_id":153,"name":"Eiss","steam_id":76561198343183806,"connected_time":7407000000000,"state":"active","ping":66},{"user_id":201,"name":"ender","steam_id":76561198109879778,"connected_time":3295000000000,"state":"active","ping":46},{"user_id":200,"name":"Hot Dog Hero","steam_id":76561198254185589,"connected_time":3581000000000,"state":"active","ping":45},{"user_id":223,"name":"EvilPi99let","steam_id":76561197987243470,"connected_time":2180000000000,"state":"active","ping":79},{"user_id":239,"name":"Tockbird","steam_id":76561199437964594,"connected_time":137000000000,"state":"active","ping":132},{"user_id":238,"name":"Windup Monkey in a Human Suit","steam_id":76561198119501444,"connected_time":147000000000,"state":"active","ping":87},{"user_id":232,"name":"The Notorious T.A.F.T.","steam_id":76561198073012352,"connected_time":581000000000,"state":"active","ping":100},{"user_id":227,"name":"aura40","steam_id":76561198077707267,"connected_time":1614000000000,"state":"active","ping":46},{"user_id":240,"name":"Nails","steam_id":76561198399261089,"connected_time":117000000000,"state":"active","ping":105},{"user_id":209,"name":"cumgoblin","steam_id":76561198113270138,"connected_time":2955000000000,"state":"active","ping":85},{"user_id":230,"name":"the goob","steam_id":76561198889699622,"connected_time":1205000000000,"state":"active","ping":142},{"user_id":163,"name":"Thilo","steam_id":76561197987278784,"connected_time":6580000000000,"state":"active","ping":81},{"user_id":138,"name":"Juan Pablo Gonzalez 2023","steam_id":76561199197961413,"connected_time":8687000000000,"state":"active","ping":42}]},{"server_id":142,"name":"Uncletopia | S√£o Paulo | 1 | All Maps","name_short":"sao-1","host":"sao-1.br.uncletopia.com","port":27015,"enabled":true,"region":"sa","cc":"br","latitude":-23.533773,"longitude":-46.62529,"reserved":0,"last_update":"0001-01-01T00:00:00Z","name_a2s":"Uncletopia | S√£o Paulo | 1 | All Maps","protocol":17,"map":"koth_lakeside_final","folder":"tf","game":"Team Fortress","app_id":440,"player_count":0,"max_players":24,"Bots":0,"server_type":"Dedicated","server_os":"Linux","password":true,"vac":true,"version":"7961495","steam_id":85568392924469996,"keywords":["cp","nocrits","nodmgspread","uncletopia"],"game_id":440,"stv_port":27016,"stv_name":"Uncletopia | S√£o Paulo | 1 | All Maps | STV","players":null},{"server_id":143,"name":"Uncletopia | S√£o Paulo | 2 | Community","name_short":"sao-2","host":"sao-2.br.uncletopia.com","port":27015,"enabled":true,"region":"sa","cc":"br","latitude":-23.533773,"longitude":-46.62529,"reserved":0,"last_update":"0001-01-01T00:00:00Z","name_a2s":"Uncletopia | S√£o Paulo | 2 | Community","protocol":17,"map":"workshop/koth_slaughter_rc1.ugc1712845210","folder":"tf","game":"Team Fortress","app_id":440,"player_count":0,"max_players":24,"Bots":0,"server_type":"Dedicated","server_os":"Linux","password":true,"vac":true,"version":"7961495","steam_id":85568392924485349,"keywords":["cp","nocrits","nodmgspread","uncletopia"],"game_id":440,"stv_port":27016,"stv_name":"Uncletopia | S√£o Paulo | 2 | Community | STV","players":null},{"server_id":7,"name":"Uncletopia | Seattle | 1 | All Maps","name_short":"sea-1","host":"sea-1.us.uncletopia.com","port":27015,"enabled":true,"region":"us-west","cc":"us","latitude":47.608013,"longitude":-122.33517,"reserved":0,"last_update":"0001-01-01T00:00:00Z","name_a2s":"Uncletopia | Seattle | 1 | All Maps","protocol":17,"map":"pl_borneo","folder":"tf","game":"Team Fortress","app_id":440,"player_count":24,"max_players":24,"Bots":0,"server_type":"Dedicated","server_os":"Linux","password":true,"vac":true,"version":"7961495","steam_id":85568392924469997,"keywords":["nocrits","nodmgspread","payload","uncletopia"],"game_id":440,"stv_port":27016,"stv_name":"Uncletopia | Seattle | 1 | All Maps | STV","players":[{"user_id":474,"name":"invenomious‚Ñ¢","steam_id":76561199032714821,"connected_time":1406000000000,"state":"active","ping":37},{"user_id":425,"name":"PorgyPork","steam_id":76561198824399078,"connected_time":5109000000000,"state":"active","ping":56},{"user_id":478,"name":"blazed fox","steam_id":76561198421913648,"connected_time":940000000000,"state":"active","ping":48},{"user_id":423,"name":"The Shaq Attack","steam_id":76561198075285534,"connected_time":5142000000000,"state":"active","ping":37},{"user_id":460,"name":"Fh","steam_id":76561198000903511,"connected_time":2668000000000,"state":"active","ping":61},{"user_id":477,"name":"Arsonist Goose","steam_id":76561198147441830,"connected_time":954000000000,"state":"active","ping":75},{"user_id":445,"name":"‚òÖCaseyGlows‚òÖ","steam_id":76561198113616168,"connected_time":3913000000000,"state":"active","ping":81},{"user_id":475,"name":"Preston","steam_id":76561198255721392,"connected_time":1283000000000,"state":"active","ping":133},{"user_id":479,"name":"crunchy obama","steam_id":76561198044485217,"connected_time":928000000000,"state":"active","ping":76},{"user_id":480,"name":"YohjiYamamotoSasukeUchihaHyoma","steam_id":76561198150382695,"connected_time":914000000000,"state":"active","ping":69},{"user_id":481,"name":"muddy","steam_id":76561198035015260,"connected_time":882000000000,"state":"active","ping":85},{"user_id":467,"name":"William P. Ennis","steam_id":76561198073464877,"connected_time":2045000000000,"state":"active","ping":102},{"user_id":437,"name":"Napa cabbage","steam_id":76561198103825541,"connected_time":4687000000000,"state":"active","ping":111},{"user_id":483,"name":"Schmalt","steam_id":76561198327938247,"connected_time":312000000000,"state":"active","ping":139},{"user_id":454,"name":"THOTDADDY","steam_id":76561198069868942,"connected_time":3344000000000,"state":"active","ping":114},{"user_id":405,"name":"Monte","steam_id":76561198097499917,"connected_time":7444000000000,"state":"active","ping":75},{"user_id":482,"name":"Drake from State Farm","steam_id":76561199069029812,"connected_time":871000000000,"state":"active","ping":86},{"user_id":466,"name":"o o o o o o o o o","steam_id":76561197993757506,"connected_time":2108000000000,"state":"active","ping":68},{"user_id":473,"name":"peantis","steam_id":76561198413919138,"connected_time":1530000000000,"state":"active","ping":112},{"user_id":189,"name":"Banana Man","steam_id":76561199012105803,"connected_time":25244000000000,"state":"active","ping":54},{"user_id":453,"name":"Engynier Gaimeang (F2P)","steam_id":76561199013888779,"connected_time":3425000000000,"state":"active","ping":78},{"user_id":464,"name":"Monky duh luppy","steam_id":76561198035410427,"connected_time":2242000000000,"state":"active","ping":62},{"user_id":385,"name":"Synergy","steam_id":76561198098630198,"connected_time":9026000000000,"state":"active","ping":45},{"user_id":476,"name":"[COS]SonneyDonkeh","steam_id":76561198091284496,"connected_time":961000000000,"state":"active","ping":108}]},{"server_id":119,"name":"Uncletopia | Seattle | 2 | All Maps","name_short":"sea-2","host":"sea-1.us.uncletopia.com","port":27025,"enabled":true,"region":"us-west","cc":"us","latitude":47.608013,"longitude":-122.33517,"reserved":0,"last_update":"0001-01-01T00:00:00Z","name_a2s":"Uncletopia | Seattle | 2 | All Maps","protocol":17,"map":"koth_viaduct","folder":"tf","game":"Team Fortress","app_id":440,"player_count":22,"max_players":24,"Bots":0,"server_type":"Dedicated","server_os":"Linux","password":true,"vac":true,"version":"7961495","steam_id":85568392924469998,"keywords":["cp","nocrits","nodmgspread","uncletopia"],"game_id":440,"stv_port":27026,"stv_name":"Uncletopia | Seattle | 2 | All Maps | STV","players":[{"user_id":253,"name":"Seriously Bruh","steam_id":76561198070408485,"connected_time":2776000000000,"state":"active","ping":45},{"user_id":291,"name":"Mocha Josie","steam_id":76561198066452726,"connected_time":607000000000,"state":"active","ping":71},{"user_id":277,"name":"uncle funkle","steam_id":76561198261716043,"connected_time":1289000000000,"state":"active","ping":42},{"user_id":251,"name":"Toxic","steam_id":76561198151977071,"connected_time":3064000000000,"state":"active","ping":102},{"user_id":270,"name":"GATE GUARDIAN","steam_id":76561198141718725,"connected_time":1929000000000,"state":"active","ping":46},{"user_id":238,"name":"Maid 'n' China","steam_id":76561198423392976,"connected_time":3694000000000,"state":"active","ping":66},{"user_id":278,"name":"Scorcho","steam_id":76561198071413833,"connected_time":1276000000000,"state":"active","ping":49},{"user_id":279,"name":"TTVPlumSmug","steam_id":76561198103960265,"connected_time":1251000000000,"state":"active","ping":104},{"user_id":289,"name":"Kdash","steam_id":76561198043829155,"connected_time":701000000000,"state":"active","ping":100},{"user_id":280,"name":"(TTV) The_Astrum_Guardian","steam_id":76561198130134103,"connected_time":1229000000000,"state":"active","ping":108},{"user_id":261,"name":"Dr. Corg","steam_id":76561198039866005,"connected_time":2551000000000,"state":"active","ping":77},{"user_id":292,"name":"DaBigA","steam_id":76561198326492538,"connected_time":119000000000,"state":"active","ping":38},{"user_id":246,"name":"Rango","steam_id":76561198222234172,"connected_time":3260000000000,"state":"active","ping":118},{"user_id":293,"name":"Rommel2007","steam_id":76561198041744631,"connected_time":31000000000,"state":"active","ping":84},{"user_id":290,"name":"jon pickle water","steam_id":76561199036212135,"connected_time":664000000000,"state":"active","ping":63},{"user_id":283,"name":"I play scout on koth","steam_id":76561198046526036,"connected_time":1059000000000,"state":"active","ping":75},{"user_id":257,"name":"SmallErection","steam_id":76561198071770147,"connected_time":2677000000000,"state":"active","ping":55},{"user_id":274,"name":"Luigah","steam_id":76561198066306424,"connected_time":1544000000000,"state":"active","ping":55},{"user_id":230,"name":"meat monkey","steam_id":76561198924502457,"connected_time":4232000000000,"state":"active","ping":44},{"user_id":287,"name":"Anti-Capitalist","steam_id":76561198131179644,"connected_time":929000000000,"state":"active","ping":94},{"user_id":250,"name":"Feet","steam_id":76561198047302528,"connected_time":3086000000000,"state":"active","ping":112},{"user_id":284,"name":"Lulee","steam_id":76561198044410549,"connected_time":1048000000000,"state":"active","ping":75}]},{"server_id":406,"name":"Uncletopia | Seattle | 3 | Stopwatch","name_short":"sea-3","host":"sea-1.us.uncletopia.com","port":27035,"enabled":true,"region":"us-west","cc":"us","latitude":47.608013,"longitude":-122.33517,"reserved":0,"last_update":"0001-01-01T00:00:00Z","name_a2s":"Uncletopia | Seattle | 3 | Stopwatch","protocol":17,"map":"workshop/koth_jamram_rc1a.ugc2964065613","folder":"tf","game":"Team Fortress","app_id":440,"player_count":0,"max_players":24,"Bots":0,"server_type":"Dedicated","server_os":"Linux","password":true,"vac":true,"version":"7961495","steam_id":85568392924515217,"keywords":["cp","nocrits","nodmgspread","uncletopia"],"game_id":440,"stv_port":27036,"stv_name":"Uncletopia | Seattle | 3 | Stopwatch | STV","players":null},{"server_id":17,"name":"Uncletopia | San Francisco | 1 | All Maps","name_short":"sfo-1","host":"sfo-1.us.uncletopia.com","port":27015,"enabled":true,"region":"us-west","cc":"us","latitude":37.77397,"longitude":-122.4313,"reserved":0,"last_update":"0001-01-01T00:00:00Z","name_a2s":"Uncletopia | San Francisco | 1 | All Maps","protocol":17,"map":"cp_altitude","folder":"tf","game":"Team Fortress","app_id":440,"player_count":24,"max_players":24,"Bots":0,"server_type":"Dedicated","server_os":"Linux","password":true,"vac":true,"version":"7961495","steam_id":85568392924469999,"keywords":["cp","nocrits","nodmgspread","uncletopia"],"game_id":440,"stv_port":27016,"stv_name":"Uncletopia | San Francisco | 1 | All Maps | STV","players":[{"user_id":212,"name":"Amateur Glaswegian","steam_id":76561198030851956,"connected_time":674000000000,"state":"active","ping":68},{"user_id":213,"name":"Scampy","steam_id":76561198001506924,"connected_time":615000000000,"state":"active","ping":78},{"user_id":192,"name":"Firedust19","steam_id":76561198153238631,"connected_time":2175000000000,"state":"active","ping":77},{"user_id":223,"name":"buffny","steam_id":76561199152039138,"connected_time":170000000000,"state":"active","ping":127},{"user_id":193,"name":"The Horny","steam_id":76561198863639459,"connected_time":2130000000000,"state":"active","ping":117},{"user_id":210,"name":"Big_Floaf","steam_id":76561198989282917,"connected_time":1125000000000,"state":"active","ping":87},{"user_id":214,"name":"Uh Oh!","steam_id":76561197981137624,"connected_time":559000000000,"state":"active","ping":122},{"user_id":215,"name":"Lesbian Saul Goodman","steam_id":76561198040812902,"connected_time":557000000000,"state":"active","ping":120},{"user_id":211,"name":"Ka√±ul","steam_id":76561198977359464,"connected_time":808000000000,"state":"active","ping":140},{"user_id":204,"name":"Thexx [she/they]","steam_id":76561198113823050,"connected_time":1735000000000,"state":"active","ping":69},{"user_id":202,"name":"Paradon","steam_id":76561198242214772,"connected_time":1870000000000,"state":"active","ping":47},{"user_id":117,"name":"SolarusD","steam_id":76561198029279861,"connected_time":6354000000000,"state":"active","ping":51},{"user_id":198,"name":"Gitt Midgetstien","steam_id":76561198006890639,"connected_time":1975000000000,"state":"active","ping":126},{"user_id":175,"name":"Yackaboi","steam_id":76561199444911765,"connected_time":4175000000000,"state":"active","ping":81},{"user_id":209,"name":"Jooshypoo1234","steam_id":76561199286470868,"connected_time":1390000000000,"state":"active","ping":109},{"user_id":177,"name":"Sorbis The Grungler","steam_id":76561198057138795,"connected_time":4130000000000,"state":"active","ping":95},{"user_id":216,"name":"wacko corky","steam_id":76561198064373057,"connected_time":551000000000,"state":"active","ping":123},{"user_id":221,"name":"ferby","steam_id":76561198028229594,"connected_time":374000000000,"state":"active","ping":55},{"user_id":222,"name":"Grilled Jizo","steam_id":76561199250875340,"connected_time":371000000000,"state":"active","ping":86},{"user_id":217,"name":"slafflow","steam_id":76561199381012350,"connected_time":546000000000,"state":"active","ping":74},{"user_id":219,"name":"gobber","steam_id":76561198985538190,"connected_time":493000000000,"state":"active","ping":60},{"user_id":179,"name":"Eden","steam_id":76561198081284664,"connected_time":4098000000000,"state":"active","ping":60},{"user_id":220,"name":"Surgeon_Ungeneral","steam_id":76561198320311540,"connected_time":451000000000,"state":"active","ping":60},{"user_id":188,"name":"ClosetBotany","steam_id":76561198088324821,"connected_time":2607000000000,"state":"active","ping":62}]},{"server_id":18,"name":"Uncletopia | San Francisco | 2 | All Maps","name_short":"sfo-2","host":"sfo-1.us.uncletopia.com","port":27025,"enabled":true,"region":"us-west","cc":"us","latitude":37.77397,"longitude":-122.4313,"reserved":0,"last_update":"0001-01-01T00:00:00Z","name_a2s":"Uncletopia | San Francisco | 2 | All Maps","protocol":17,"map":"cp_dustbowl","folder":"tf","game":"Team Fortress","app_id":440,"player_count":24,"max_players":24,"Bots":0,"server_type":"Dedicated","server_os":"Linux","password":true,"vac":true,"version":"7961495","steam_id":85568392924470000,"keywords":["cp","nocrits","nodmgspread","uncletopia"],"game_id":440,"stv_port":27026,"stv_name":"Uncletopia | San Francisco | 2 | All Maps | STV","players":[{"user_id":45,"name":"Dr. feel good","steam_id":76561198186193930,"connected_time":1535000000000,"state":"active","ping":135},{"user_id":16,"name":"Rustys_Revenge","steam_id":76561198269414024,"connected_time":5402000000000,"state":"active","ping":51},{"user_id":18,"name":"TTV/RONCHI1030","steam_id":76561198063086116,"connected_time":5092000000000,"state":"active","ping":106},{"user_id":54,"name":"Jebs","steam_id":76561198354650002,"connected_time":1340000000000,"state":"active","ping":138},{"user_id":66,"name":"ForAPessimistImPrettyOptimistic","steam_id":76561198170128009,"connected_time":525000000000,"state":"active","ping":53},{"user_id":24,"name":"Ocublox","steam_id":76561198177316798,"connected_time":4784000000000,"state":"active","ping":96},{"user_id":46,"name":"Kepa","steam_id":76561198091975728,"connected_time":1504000000000,"state":"active","ping":83},{"user_id":48,"name":"Deimso","steam_id":76561199090708949,"connected_time":1501000000000,"state":"active","ping":132},{"user_id":59,"name":"johnman gooberguy","steam_id":76561199014859764,"connected_time":993000000000,"state":"active","ping":68},{"user_id":49,"name":"JayEffem","steam_id":76561198071256796,"connected_time":1498000000000,"state":"active","ping":81},{"user_id":69,"name":"zode","steam_id":76561198050242468,"connected_time":415000000000,"state":"active","ping":57},{"user_id":51,"name":"The Businessman","steam_id":76561198352531234,"connected_time":1457000000000,"state":"active","ping":80},{"user_id":22,"name":"DarkSpace","steam_id":76561198884668517,"connected_time":4912000000000,"state":"active","ping":68},{"user_id":86,"name":"TF2C | fac","steam_id":76561198009818412,"connected_time":81000000000,"state":"active","ping":97},{"user_id":57,"name":"ZemkJval","steam_id":76561198154464008,"connected_time":1242000000000,"state":"active","ping":74},{"user_id":62,"name":"AydeeAychdee","steam_id":76561198205536035,"connected_time":880000000000,"state":"active","ping":143},{"user_id":63,"name":"Tanor","steam_id":76561198116985873,"connected_time":845000000000,"state":"active","ping":102},{"user_id":64,"name":"Travorski","steam_id":76561198072493142,"connected_time":796000000000,"state":"active","ping":90},{"user_id":79,"name":"dr perky irl","steam_id":76561199467387844,"connected_time":276000000000,"state":"active","ping":53},{"user_id":70,"name":"ronald","steam_id":76561197960691622,"connected_time":415000000000,"state":"active","ping":73},{"user_id":71,"name":"nivek","steam_id":76561198056288107,"connected_time":412000000000,"state":"active","ping":79},{"user_id":72,"name":"frisbee addict","steam_id":76561198032000118,"connected_time":401000000000,"state":"active","ping":73},{"user_id":73,"name":"ark","steam_id":76561198041066271,"connected_time":344000000000,"state":"active","ping":87},{"user_id":77,"name":"Merekitten","steam_id":76561198066307477,"connected_time":310000000000,"state":"active","ping":67}]},{"server_id":19,"name":"Uncletopia | San Francisco | 3 | Stopwatch","name_short":"sfo-3","host":"sfo-1.us.uncletopia.com","port":27035,"enabled":true,"region":"us-west","cc":"us","latitude":37.77397,"longitude":-122.4313,"reserved":0,"last_update":"0001-01-01T00:00:00Z","name_a2s":"Uncletopia | San Francisco | 3 | Stopwatch","protocol":17,"map":"workshop/koth_clearcut_b15.ugc2107050255","folder":"tf","game":"Team Fortress","app_id":440,"player_count":0,"max_players":24,"Bots":0,"server_type":"Dedicated","server_os":"Linux","password":true,"vac":true,"version":"7961495","steam_id":85568392924742824,"keywords":["cp","nocrits","nodmgspread","uncletopia"],"game_id":440,"stv_port":27036,"stv_name":"Uncletopia | San Francisco | 3 | Stopwatch | STV","players":null},{"server_id":20,"name":"Uncletopia | San Francisco | 4 | Community","name_short":"sfo-4","host":"sfo-1.us.uncletopia.com","port":27045,"enabled":true,"region":"us-west","cc":"us","latitude":37.77397,"longitude":-122.4313,"reserved":0,"last_update":"0001-01-01T00:00:00Z","name_a2s":"Uncletopia | San Francisco | 4 | Community","protocol":17,"map":"workshop/cp_reckoner_rc6.ugc674719999","folder":"tf","game":"Team Fortress","app_id":440,"player_count":0,"max_players":24,"Bots":0,"server_type":"Dedicated","server_os":"Linux","password":true,"vac":true,"version":"7961495","steam_id":85568392924742826,"keywords":["cp","nocrits","nodmgspread","uncletopia"],"game_id":440,"stv_port":27046,"stv_name":"Uncletopia | San Francisco | 4 | Community | STV","players":null},{"server_id":141,"name":"Uncletopia | Sydney | 1 | All Maps","name_short":"syd-1","host":"syd-1.au.uncletopia.com","port":27015,"enabled":true,"region":"au","cc":"au","latitude":-33.865143,"longitude":151.2099,"reserved":0,"last_update":"0001-01-01T00:00:00Z","name_a2s":"Uncletopia | Sydney | 1 | All Maps","protocol":17,"map":"pl_borneo","folder":"tf","game":"Team Fortress","app_id":440,"player_count":0,"max_players":24,"Bots":0,"server_type":"Dedicated","server_os":"Linux","password":true,"vac":true,"version":"7961495","steam_id":85568392924470001,"keywords":["nocrits","nodmgspread","payload","uncletopia"],"game_id":440,"stv_port":27016,"stv_name":"Uncletopia | Sydney | 1 | All Maps | STV","players":null},{"server_id":123,"name":"Uncletopia | Sydney | 2 | All Maps","name_short":"syd-2","host":"syd-1.au.uncletopia.com","port":27025,"enabled":true,"region":"au","cc":"au","latitude":-33.865143,"longitude":151.2099,"reserved":0,"last_update":"0001-01-01T00:00:00Z","name_a2s":"Uncletopia | Sydney | 2 | All Maps","protocol":17,"map":"cp_mercenarypark","folder":"tf","game":"Team Fortress","app_id":440,"player_count":0,"max_players":24,"Bots":0,"server_type":"Dedicated","server_os":"Linux","password":true,"vac":true,"version":"7961495","steam_id":85568392924470002,"keywords":["cp","nocrits","nodmgspread","uncletopia"],"game_id":440,"stv_port":27026,"stv_name":"Uncletopia | Sydney | 2 | All Maps | STV","players":null},{"server_id":395,"name":"Uncletopia | Sydney | 3 | All Maps","name_short":"syd-3","host":"syd-1.au.uncletopia.com","port":27035,"enabled":true,"region":"au","cc":"au","latitude":-33.865143,"longitude":151.2099,"reserved":0,"last_update":"0001-01-01T00:00:00Z","name_a2s":"Uncletopia | Sydney | 3 | All Maps","protocol":17,"map":"koth_brazil","folder":"tf","game":"Team Fortress","app_id":440,"player_count":0,"max_players":24,"Bots":0,"server_type":"Dedicated","server_os":"Linux","password":true,"vac":true,"version":"7961495","steam_id":85568392925194467,"keywords":["cp","nocrits","nodmgspread","uncletopia"],"game_id":440,"stv_port":27036,"stv_name":"Uncletopia | Sydney | 3 | All Maps | STV","players":null},{"server_id":396,"name":"Uncletopia | Sydney | 4 | All Maps","name_short":"syd-4","host":"syd-1.au.uncletopia.com","port":27045,"enabled":true,"region":"au","cc":"au","latitude":-33.865143,"longitude":151.2099,"reserved":0,"last_update":"0001-01-01T00:00:00Z","name_a2s":"Uncletopia | Sydney | 4 | All Maps","protocol":17,"map":"cp_standin_final","folder":"tf","game":"Team Fortress","app_id":440,"player_count":0,"max_players":24,"Bots":0,"server_type":"Dedicated","server_os":"Linux","password":true,"vac":true,"version":"7961495","steam_id":85568392925397958,"keywords":["cp","nocrits","nodmgspread","uncletopia"],"game_id":440,"stv_port":27046,"stv_name":"Uncletopia | Sydney | 4 | All Maps | STV","players":null},{"server_id":58,"name":"Uncletopia | Sydney | 5 | Stopwatch","name_short":"syd-5","host":"syd-1.au.uncletopia.com","port":27055,"enabled":true,"region":"au","cc":"au","latitude":-33.865143,"longitude":151.2099,"reserved":0,"last_update":"0001-01-01T00:00:00Z","name_a2s":"Uncletopia | Sydney | 5 | Stopwatch","protocol":17,"map":"koth_highpass","folder":"tf","game":"Team Fortress","app_id":440,"player_count":0,"max_players":24,"Bots":0,"server_type":"Dedicated","server_os":"Linux","password":true,"vac":true,"version":"7961495","steam_id":85568392925397959,"keywords":["cp","nocrits","nodmgspread","uncletopia"],"game_id":440,"stv_port":27056,"stv_name":"Uncletopia | Sydney | 5 | Stopwatch | STV","players":null},{"server_id":59,"name":"Uncletopia | Sydney | 6 | Community","name_short":"syd-6","host":"syd-1.au.uncletopia.com","port":27065,"enabled":true,"region":"au","cc":"au","latitude":-33.865143,"longitude":151.2099,"reserved":0,"last_update":"0001-01-01T00:00:00Z","name_a2s":"Uncletopia | Sydney | 6 | Community","protocol":17,"map":"workshop/koth_soot_final1.ugc2969540689","folder":"tf","game":"Team Fortress","app_id":440,"player_count":0,"max_players":24,"Bots":0,"server_type":"Dedicated","server_os":"Linux","password":true,"vac":true,"version":"7961495","steam_id":85568392925397960,"keywords":["cp","nocrits","nodmgspread","uncletopia"],"game_id":440,"stv_port":27066,"stv_name":"Uncletopia | Sydney | 6 | Community | STV","players":null},{"server_id":49,"name":"Uncletopia | Warsaw | 1 | One Thousand Uncles","name_short":"waw-1","host":"waw-1.pl.uncletopia.com","port":27015,"enabled":true,"region":"eu","cc":"pl","latitude":52.2297,"longitude":21.017532,"reserved":0,"last_update":"0001-01-01T00:00:00Z","name_a2s":"Uncletopia | Warsaw | 1 | One Thousand Uncles","protocol":17,"map":"pl_thundermountain","folder":"tf","game":"Team Fortress","app_id":440,"player_count":0,"max_players":32,"Bots":0,"server_type":"Dedicated","server_os":"Linux","password":true,"vac":true,"version":"7961495","steam_id":85568392925397850,"keywords":["alltalk","danepve","increased_maxplayers","norespawntime","payload","uncletopia"],"game_id":440,"stv_port":0,"stv_name":"","players":null},{"server_id":50,"name":"Uncletopia | Warsaw | 2 | One Thousand Uncles","name_short":"waw-2","host":"waw-1.pl.uncletopia.com","port":27025,"enabled":true,"region":"eu","cc":"pl","latitude":52.2297,"longitude":21.017532,"reserved":0,"last_update":"0001-01-01T00:00:00Z","name_a2s":"Uncletopia | Warsaw | 2 | One Thousand Uncles","protocol":17,"map":"cp_dustbowl","folder":"tf","game":"Team Fortress","app_id":440,"player_count":0,"max_players":32,"Bots":0,"server_type":"Dedicated","server_os":"Linux","password":true,"vac":true,"version":"7961495","steam_id":85568392925397851,"keywords":["alltalk","cp","danepve","increased_maxplayers","norespawntime","uncletopia"],"game_id":440,"stv_port":0,"stv_name":"","players":null},{"server_id":51,"name":"Uncletopia | Warsaw | 3 | All Maps","name_short":"waw-3","host":"waw-1.pl.uncletopia.com","port":27035,"enabled":true,"region":"eu","cc":"pl","latitude":52.2297,"longitude":21.017532,"reserved":0,"last_update":"0001-01-01T00:00:00Z","name_a2s":"Uncletopia | Warsaw | 3 | All Maps","protocol":17,"map":"koth_viaduct","folder":"tf","game":"Team Fortress","app_id":440,"player_count":0,"max_players":24,"Bots":0,"server_type":"Dedicated","server_os":"Linux","password":true,"vac":true,"version":"7961495","steam_id":85568392925397852,"keywords":["cp","nocrits","nodmgspread","uncletopia"],"game_id":440,"stv_port":27036,"stv_name":"Uncletopia | Warsaw | 3 | All Maps | STV","players":null},{"server_id":52,"name":"Uncletopia | Warsaw | 4 | All Maps","name_short":"waw-4","host":"waw-1.pl.uncletopia.com","port":27045,"enabled":true,"region":"eu","cc":"pl","latitude":52.2297,"longitude":21.017532,"reserved":0,"last_update":"0001-01-01T00:00:00Z","name_a2s":"Uncletopia | Warsaw | 4 | All Maps","protocol":17,"map":"koth_viaduct","folder":"tf","game":"Team Fortress","app_id":440,"player_count":0,"max_players":24,"Bots":0,"server_type":"Dedicated","server_os":"Linux","password":true,"vac":true,"version":"7961495","steam_id":85568392925397853,"keywords":["cp","nocrits","nodmgspread","uncletopia"],"game_id":440,"stv_port":27046,"stv_name":"Uncletopia | Warsaw | 4 | All Maps | STV","players":null},{"server_id":53,"name":"Uncletopia | Warsaw | 5 | Stopwatch","name_short":"waw-5","host":"waw-1.pl.uncletopia.com","port":27055,"enabled":true,"region":"eu","cc":"pl","latitude":52.2297,"longitude":21.017532,"reserved":0,"last_update":"0001-01-01T00:00:00Z","name_a2s":"Uncletopia | Warsaw | 5 | Stopwatch","protocol":17,"map":"workshop/koth_clearcut_b15.ugc2107050255","folder":"tf","game":"Team Fortress","app_id":440,"player_count":0,"max_players":24,"Bots":0,"server_type":"Dedicated","server_os":"Linux","password":true,"vac":true,"version":"7961495","steam_id":85568392925397854,"keywords":["cp","nocrits","nodmgspread","uncletopia"],"game_id":440,"stv_port":27056,"stv_name":"Uncletopia | Warsaw | 5 | Stopwatch | STV","players":null},{"server_id":54,"name":"Uncletopia | Warsaw | 6 | Community","name_short":"waw-6","host":"waw-1.pl.uncletopia.com","port":27065,"enabled":true,"region":"eu","cc":"pl","latitude":52.2297,"longitude":21.017532,"reserved":0,"last_update":"0001-01-01T00:00:00Z","name_a2s":"Uncletopia | Warsaw | 6 | Community","protocol":17,"map":"workshop/pl_boundary_final1.ugc456799153","folder":"tf","game":"Team Fortress","app_id":440,"player_count":0,"max_players":24,"Bots":0,"server_type":"Dedicated","server_os":"Linux","password":true,"vac":true,"version":"7961495","steam_id":85568392925397856,"keywords":["nocrits","nodmgspread","payload","uncletopia"],"game_id":440,"stv_port":27066,"stv_name":"Uncletopia | Warsaw | 6 | Community | STV","players":null}]}