{"status":true,"message":"","result":[{"server_id":9,"name":"Uncletopia | Atlanta | 1 | All Maps","name_short":"atl-1","host":"atl-1.us.uncletopia.com","port":27015,"enabled":true,"region":"us-east","cc":"us","latitude":33.753746,"longitude":-84.38633,"reserved":0,"last_update":"0001-01-01T00:00:00Z","name_a2s":"Uncletopia | Atlanta | 1 | All Maps","protocol":17,"map":"cp_snakewater_final1","folder":"tf","game":"Team Fortress","app_id":440,"player_count":0,"max_players":24,"Bots":0,"server_type":"Dedicated","server_os":"Linux","password":true,"vac":true,"version":"7757534","steam_id":85568392924469982,"keywords":["cp","nocrits","nodmgspread","uncletopia"],"game_id":440,"stv_port":27016,"stv_name":"Uncletopia | Atlanta | 1 | All Maps | STV","players":null},{"server_id":104,"name":"Uncletopia | Atlanta | 2 | All Maps","name_short":"atl-2","host":"atl-1.us.uncletopia.com","port":27025,"enabled":true,"region":"us-east","cc":"us","latitude":33.753746,"longitude":-84.38633,"reserved":0,"last_update":"0001-01-01T00:00:00Z","name_a2s":"Uncletopia | Atlanta | 2 | All Maps","protocol":17,"map":"cp_sunshine","folder":"tf","game":"Team Fortress","app_id":440,"player_count":0,"max_players":24,"Bots":0,"server_type":"Dedicated","server_os":"Linux","password":true,"vac":true,"version":"7757534","steam_id":85568392924469983,"keywords":["cp","nocrits","nodmgspread","uncletopia"],"game_id":440,"stv_port":27026,"stv_name":"Uncletopia | Atlanta | 2 | All Maps | STV","players":null},{"server_id":400,"name":"Uncletopia | Atlanta | 3 | Community","name_short":"atl-3","host":"atl-1.us.uncletopia.com","port":27035,"enabled":true,"region":"us-east","cc":"us","latitude":33.753746,"longitude":-84.38633,"reserved":0,"last_update":"0001-01-01T00:00:00Z","name_a2s":"Uncletopia | Atlanta | 3 | Community","protocol":17,"map":"workshop/koth_kemptown_rc1.ugc767410655","folder":"tf","game":"Team Fortress","app_id":440,"player_count":0,"max_players":24,"Bots":0,"server_type":"Dedicated","server_os":"Linux","password":true,"vac":true,"version":"7757534","steam_id":85568392924515187,"keywords":["cp","nocrits","nodmgspread","uncletopia"],"game_id":440,"stv_port":27036,"stv_name":"Uncletopia | Atlanta | 3 | Community | STV","players":null},{"server_id":401,"name":"Uncletopia | Atlanta | 4 | No Payload","name_short":"atl-4","host":"atl-1.us.uncletopia.com","port":27045,"enabled":true,"region":"us-east","cc":"us","latitude":33.753746,"longitude":-84.38633,"reserved":0,"last_update":"0001-01-01T00:00:00Z","name_a2s":"","protocol":0,"map":"","folder":"","game":"","app_id":0,"player_count":0,"max_players":0,"Bots":0,"server_type":"","server_os":"","password":false,"vac":false,"version":"","steam_id":0,"keywords":null,"game_id":0,"stv_port":0,"stv_name":"","players":null},{"server_id":2,"name":"Uncletopia | Chicago | 1 | All Maps","name_short":"chi-1","host":"chi-1.us.uncletopia.com","port":27015,"enabled":true,"region":"us-central","cc":"us","latitude":41.881832,"longitude":-87.62318,"reserved":0,"last_update":"0001-01-01T00:00:00Z","name_a2s":"Uncletopia | Chicago | 1 | All Maps","protocol":17,"map":"cp_altitude","folder":"tf","game":"Team Fortress","app_id":440,"player_count":0,"max_players":24,"Bots":0,"server_type":"Dedicated","server_os":"Linux","password":true,"vac":true,"version":"7757534","steam_id":85568392924469984,"keywords":["cp","nocrits","nodmgspread","uncletopia"],"game_id":440,"stv_port":27016,"stv_name":"Uncletopia | Chicago | 1 | All Maps | STV","players":null},{"server_id":106,"name":"Uncletopia | Chicago | 2 | All Maps","name_short":"chi-2","host":"chi-1.us.uncletopia.com","port":27025,"enabled":true,"region":"us-central","cc":"us","latitude":41.881832,"longitude":-87.62318,"reserved":0,"last_update":"0001-01-01T00:00:00Z","name_a2s":"Uncletopia | Chicago | 2 | All Maps","protocol":17,"map":"cp_snakewater_final1","folder":"tf","game":"Team Fortress","app_id":440,"player_count":0,"max_players":24,"Bots":0,"server_type":"Dedicated","server_os":"Linux","password":true,"vac":true,"version":"7757534","steam_id":85568392924469985,"keywords":["cp","nocrits","nodmgspread","uncletopia"],"game_id":440,"stv_port":27026,"stv_name":"Uncletopia | Chicago | 2 | All Maps | STV","players":null},{"server_id":402,"name":"Uncletopia | Chicago | 3 | All Maps","name_short":"chi-3","host":"chi-1.us.uncletopia.com","port":27035,"enabled":true,"region":"us-central","cc":"us","latitude":41.881832,"longitude":-87.62318,"reserved":0,"last_update":"0001-01-01T00:00:00Z","name_a2s":"Uncletopia | Chicago | 3 | All Maps","protocol":17,"map":"pl_barnblitz","folder":"tf","game":"Team Fortress","app_id":440,"player_count":0,"max_players":24,"Bots":0,"server_type":"Dedicated","server_os":"Linux","password":true,"vac":true,"version":"7757534","steam_id":85568392924515191,"keywords":["nocrits","nodmgspread","payload","uncletopia"],"game_id":440,"stv_port":27036,"stv_name":"Uncletopia | Chicago | 3 | All Maps | STV","players":null},{"server_id":403,"name":"Uncletopia | Chicago | 4 | All Maps","name_short":"chi-4","host":"chi-1.us.uncletopia.com","port":27045,"enabled":true,"region":"us-central","cc":"us","latitude":41.881832,"longitude":-87.62318,"reserved":0,"last_update":"0001-01-01T00:00:00Z","name_a2s":"Uncletopia | Chicago | 4 | All Maps","protocol":17,"map":"pl_borneo","folder":"tf","game":"Team Fortress","app_id":440,"player_count":0,"max_players":24,"Bots":0,"server_type":"Dedicated","server_os":"Linux","password":true,"vac":true,"version":"7757534","steam_id":85568392924515193,"keywords":["nocrits","nodmgspread","payload","uncletopia"],"game_id":440,"stv_port":27046,"stv_name":"Uncletopia | Chicago | 4 | All Maps | STV","players":null},{"server_id":36,"name":"Uncletopia | Chicago | 5 | All Maps","name_short":"chi-5","host":"chi-2.us.uncletopia.com","port":27015,"enabled":true,"region":"us-central","cc":"us","latitude":41.881832,"longitude":-87.62318,"reserved":0,"last_update":"0001-01-01T00:00:00Z","name_a2s":"Uncletopia | Chicago | 5 | All Maps","protocol":17,"map":"cp_process_final","folder":"tf","game":"Team Fortress","app_id":440,"player_count":0,"max_players":24,"Bots":0,"server_type":"Dedicated","server_os":"Linux","password":true,"vac":true,"version":"7757534","steam_id":85568392924866362,"keywords":["cp","nocrits","nodmgspread","uncletopia"],"game_id":440,"stv_port":27016,"stv_name":"Uncletopia | Chicago | 5 | All Maps | STV","players":null},{"server_id":37,"name":"Uncletopia | Chicago | 6 | All Maps","name_short":"chi-6","host":"chi-2.us.uncletopia.com","port":27025,"enabled":true,"region":"us-central","cc":"us","latitude":41.881832,"longitude":-87.62318,"reserved":0,"last_update":"0001-01-01T00:00:00Z","name_a2s":"Uncletopia | Chicago | 6 | All Maps","protocol":17,"map":"pl_frontier_final","folder":"tf","game":"Team Fortress","app_id":440,"player_count":5,"max_players":24,"Bots":0,"server_type":"Dedicated","server_os":"Linux","password":true,"vac":true,"version":"7757534","steam_id":85568392924866363,"keywords":["nocrits","nodmgspread","payload","uncletopia"],"game_id":440,"stv_port":27026,"stv_name":"Uncletopia | Chicago | 6 | All Maps | STV","players":[{"user_id":931,"name":"pyco.bot","steam_id":76561199060005960,"connected_time":120000000000,"state":"active","ping":72},{"user_id":867,"name":"vanman1975","steam_id":76561198078872891,"connected_time":5811000000000,"state":"active","ping":160},{"user_id":921,"name":"Tommy da bird","steam_id":76561198136340711,"connected_time":2316000000000,"state":"active","ping":104},{"user_id":922,"name":"Dirtbomb","steam_id":76561198002403301,"connected_time":2271000000000,"state":"active","ping":86},{"user_id":923,"name":"EggyCat616","steam_id":76561199073453650,"connected_time":2199000000000,"state":"active","ping":114}]},{"server_id":38,"name":"Uncletopia | Chicago | 7 | Stopwatch Beta","name_short":"chi-7","host":"chi-2.us.uncletopia.com","port":27035,"enabled":true,"region":"us-central","cc":"us","latitude":41.881832,"longitude":-87.62318,"reserved":0,"last_update":"0001-01-01T00:00:00Z","name_a2s":"Uncletopia | Chicago | 7 | Stopwatch Beta","protocol":17,"map":"cp_snakewater_final1","folder":"tf","game":"Team Fortress","app_id":440,"player_count":0,"max_players":24,"Bots":0,"server_type":"Dedicated","server_os":"Linux","password":true,"vac":true,"version":"7757534","steam_id":85568392924866364,"keywords":["cp","nocrits","nodmgspread","uncletopia"],"game_id":440,"stv_port":27036,"stv_name":"Uncletopia | Chicago | 7 | Stopwatch Beta | STV","players":null},{"server_id":39,"name":"Uncletopia | Chicago | 8 | Community","name_short":"chi-8","host":"chi-2.us.uncletopia.com","port":27045,"enabled":true,"region":"us-central","cc":"us","latitude":41.881832,"longitude":-87.62318,"reserved":0,"last_update":"0001-01-01T00:00:00Z","name_a2s":"Uncletopia | Chicago | 8 | Community","protocol":17,"map":"workshop/koth_bagel_rc6.ugc2514036946","folder":"tf","game":"Team Fortress","app_id":440,"player_count":0,"max_players":24,"Bots":0,"server_type":"Dedicated","server_os":"Linux","password":true,"vac":true,"version":"7757534","steam_id":85568392924866365,"keywords":["cp","nocrits","nodmgspread","uncletopia"],"game_id":440,"stv_port":27046,"stv_name":"Uncletopia | Chicago | 8 | Community | STV","players":null},{"server_id":8,"name":"Uncletopia | Dallas | 1 | All Maps","name_short":"dal-1","host":"dal-1.us.uncletopia.com","port":27015,"enabled":true,"region":"us-central","cc":"us","latitude":32.779167,"longitude":-96.80889,"reserved":0,"last_update":"0001-01-01T00:00:00Z","name_a2s":"Uncletopia | Dallas | 1 | All Maps","protocol":17,"map":"pl_upward","folder":"tf","game":"Team Fortress","app_id":440,"player_count":24,"max_players":24,"Bots":0,"server_type":"Dedicated","server_os":"Linux","password":true,"vac":true,"version":"7757534","steam_id":85568392924469986,"keywords":["nocrits","nodmgspread","payload","uncletopia"],"game_id":440,"stv_port":27016,"stv_name":"Uncletopia | Dallas | 1 | All Maps | STV","players":[{"user_id":694,"name":"Star_Mann_Jr.","steam_id":76561198071148924,"connected_time":1282000000000,"state":"active","ping":88},{"user_id":657,"name":"VHSTAPE","steam_id":76561198036560740,"connected_time":4751000000000,"state":"active","ping":69},{"user_id":703,"name":"alN","steam_id":76561198329171346,"connected_time":900000000000,"state":"active","ping":72},{"user_id":704,"name":"eek","steam_id":76561198332896682,"connected_time":700000000000,"state":"active","ping":90},{"user_id":705,"name":"imposter","steam_id":76561198085571748,"connected_time":658000000000,"state":"active","ping":83},{"user_id":686,"name":"breedableboy767","steam_id":76561198339792615,"connected_time":2733000000000,"state":"active","ping":60},{"user_id":598,"name":"Noodle","steam_id":76561199156137868,"connected_time":8887000000000,"state":"active","ping":136},{"user_id":599,"name":"Vespen","steam_id":76561198259984019,"connected_time":8871000000000,"state":"active","ping":84},{"user_id":696,"name":"twin","steam_id":76561198055626638,"connected_time":1267000000000,"state":"active","ping":108},{"user_id":684,"name":"Oscar Peltzer","steam_id":76561199427911242,"connected_time":2942000000000,"state":"active","ping":93},{"user_id":682,"name":"Galactamarx","steam_id":76561198028065755,"connected_time":3299000000000,"state":"active","ping":83},{"user_id":647,"name":"Mr. Metro","steam_id":76561198351521199,"connected_time":6072000000000,"state":"active","ping":100},{"user_id":661,"name":"wolsne","steam_id":76561197960315263,"connected_time":4404000000000,"state":"active","ping":76},{"user_id":706,"name":"Rafl","steam_id":76561198055222756,"connected_time":649000000000,"state":"active","ping":47},{"user_id":626,"name":"LordZahe","steam_id":76561198241749034,"connected_time":7471000000000,"state":"active","ping":91},{"user_id":697,"name":"craxyt","steam_id":76561198050192689,"connected_time":1180000000000,"state":"active","ping":81},{"user_id":663,"name":"tj3002rocks","steam_id":76561199017921546,"connected_time":4296000000000,"state":"active","ping":55},{"user_id":698,"name":"Yiff Police","steam_id":76561198103938356,"connected_time":1167000000000,"state":"active","ping":83},{"user_id":676,"name":"JakeBocaj","steam_id":76561198055934281,"connected_time":3617000000000,"state":"active","ping":89},{"user_id":689,"name":"HeisenBurger","steam_id":76561198040632080,"connected_time":2639000000000,"state":"active","ping":74},{"user_id":702,"name":"Bryguy","steam_id":76561198092096120,"connected_time":1014000000000,"state":"active","ping":66},{"user_id":648,"name":"CHUND BUNGLER THE SECOND COMING","steam_id":76561198281735951,"connected_time":6021000000000,"state":"active","ping":73},{"user_id":699,"name":"cesartele3000","steam_id":76561198142149479,"connected_time":1151000000000,"state":"active","ping":92},{"user_id":700,"name":"Bheem","steam_id":76561198170453459,"connected_time":1131000000000,"state":"active","ping":101}]},{"server_id":108,"name":"Uncletopia | Dallas | 2 | All Maps","name_short":"dal-2","host":"dal-1.us.uncletopia.com","port":27025,"enabled":true,"region":"us-central","cc":"us","latitude":32.779167,"longitude":-96.80889,"reserved":0,"last_update":"0001-01-01T00:00:00Z","name_a2s":"Uncletopia | Dallas | 2 | All Maps","protocol":17,"map":"pl_upward","folder":"tf","game":"Team Fortress","app_id":440,"player_count":23,"max_players":24,"Bots":0,"server_type":"Dedicated","server_os":"Linux","password":true,"vac":true,"version":"7757534","steam_id":85568392924469988,"keywords":["nocrits","nodmgspread","payload","uncletopia"],"game_id":440,"stv_port":27026,"stv_name":"Uncletopia | Dallas | 2 | All Maps | STV","players":[{"user_id":914,"name":"Jack from Jack in The Box","steam_id":76561199083594971,"connected_time":933000000000,"state":"active","ping":63},{"user_id":886,"name":"M√™ ‚Ä†ro","steam_id":76561198165562389,"connected_time":4535000000000,"state":"active","ping":87},{"user_id":889,"name":"FulvousFox","steam_id":76561198202210389,"connected_time":4372000000000,"state":"active","ping":90},{"user_id":908,"name":"Fargo","steam_id":76561198044703931,"connected_time":1285000000000,"state":"active","ping":60},{"user_id":920,"name":"üå∏MelWormüå∏","steam_id":76561198084145814,"connected_time":339000000000,"state":"active","ping":68},{"user_id":921,"name":"Provocator","steam_id":76561197961830410,"connected_time":337000000000,"state":"active","ping":88},{"user_id":906,"name":"PTR","steam_id":76561198237253772,"connected_time":1835000000000,"state":"active","ping":48},{"user_id":895,"name":"SkrubWrecker","steam_id":76561198044717015,"connected_time":3598000000000,"state":"active","ping":64},{"user_id":917,"name":"CreativeUsername","steam_id":76561198186045503,"connected_time":645000000000,"state":"active","ping":76},{"user_id":904,"name":"the henny man","steam_id":76561198042600523,"connected_time":2170000000000,"state":"active","ping":47},{"user_id":918,"name":"Squiliam Fancyson","steam_id":76561199029458936,"connected_time":590000000000,"state":"active","ping":74},{"user_id":877,"name":"Raizen","steam_id":76561199092445367,"connected_time":5412000000000,"state":"active","ping":70},{"user_id":907,"name":"HeavenHearst","steam_id":76561198066083947,"connected_time":1299000000000,"state":"active","ping":78},{"user_id":922,"name":"thundah!","steam_id":76561199159928133,"connected_time":277000000000,"state":"active","ping":88},{"user_id":871,"name":"Glory","steam_id":76561198030198452,"connected_time":5679000000000,"state":"active","ping":114},{"user_id":872,"name":"Starkiller","steam_id":76561198101643120,"connected_time":5678000000000,"state":"active","ping":111},{"user_id":919,"name":"Porkchopsrock12","steam_id":76561198075454235,"connected_time":583000000000,"state":"active","ping":65},{"user_id":888,"name":".jpegged","steam_id":76561198120078454,"connected_time":4514000000000,"state":"active","ping":80},{"user_id":873,"name":"Auggy","steam_id":76561198041816037,"connected_time":5675000000000,"state":"active","ping":102},{"user_id":874,"name":"Big Jon","steam_id":76561198402285099,"connected_time":5670000000000,"state":"active","ping":101},{"user_id":893,"name":"cobalt","steam_id":76561198126982318,"connected_time":3833000000000,"state":"active","ping":44},{"user_id":845,"name":"deathstar0611","steam_id":76561198120476410,"connected_time":9085000000000,"state":"active","ping":92},{"user_id":875,"name":"Ruffles","steam_id":76561198049856730,"connected_time":5658000000000,"state":"active","ping":93}]},{"server_id":5,"name":"Uncletopia | Frankfurt | 1 | All Maps","name_short":"frk-1","host":"frk-1.de.uncletopia.com","port":27015,"enabled":true,"region":"eu","cc":"de","latitude":50.110924,"longitude":8.682127,"reserved":0,"last_update":"0001-01-01T00:00:00Z","name_a2s":"Uncletopia | Frankfurt | 1 | All Maps","protocol":17,"map":"pl_upward","folder":"tf","game":"Team Fortress","app_id":440,"player_count":19,"max_players":24,"Bots":0,"server_type":"Dedicated","server_os":"Linux","password":true,"vac":true,"version":"7757534","steam_id":85568392924469989,"keywords":["nocrits","nodmgspread","payload","uncletopia"],"game_id":440,"stv_port":27016,"stv_name":"Uncletopia | Frankfurt | 1 | All Maps | STV","players":[{"user_id":26,"name":"weed fairy","steam_id":76561197998843096,"connected_time":2478000000000,"state":"active","ping":75},{"user_id":62,"name":"Pico","steam_id":76561198063552545,"connected_time":136000000000,"state":"active","ping":101},{"user_id":18,"name":"Raikku","steam_id":76561198085487107,"connected_time":2858000000000,"state":"active","ping":98},{"user_id":57,"name":"I was good before.","steam_id":76561198187045217,"connected_time":1273000000000,"state":"active","ping":71},{"user_id":61,"name":"Stoic","steam_id":76561199088506542,"connected_time":196000000000,"state":"active","ping":45},{"user_id":66,"name":"Magnificent Medic","steam_id":76561198388750592,"connected_time":31000000000,"state":"spawning","ping":102},{"user_id":63,"name":"killer of noob, winner of game","steam_id":76561198190583242,"connected_time":123000000000,"state":"active","ping":64},{"user_id":51,"name":"my wife left me","steam_id":76561198352727529,"connected_time":1478000000000,"state":"active","ping":89},{"user_id":16,"name":"grandpa's post-mortem photo","steam_id":76561198130116078,"connected_time":3016000000000,"state":"active","ping":88},{"user_id":64,"name":"Berserker","steam_id":76561198411142951,"connected_time":95000000000,"state":"active","ping":90},{"user_id":65,"name":"beefy beaver buttocks","steam_id":76561198255357694,"connected_time":84000000000,"state":"active","ping":77},{"user_id":67,"name":"Andy","steam_id":76561198046918834,"connected_time":9000000000,"state":"active","ping":90},{"user_id":49,"name":"Blahaj Blast","steam_id":76561198358801819,"connected_time":1570000000000,"state":"active","ping":63},{"user_id":52,"name":"Sole","steam_id":76561199001959014,"connected_time":1474000000000,"state":"active","ping":124},{"user_id":48,"name":"anders McFlanders","steam_id":76561198022811995,"connected_time":1668000000000,"state":"active","ping":56},{"user_id":53,"name":"sriracha..","steam_id":76561198005560221,"connected_time":1424000000000,"state":"active","ping":64},{"user_id":55,"name":"Per√§miehen√§","steam_id":76561197968945306,"connected_time":1366000000000,"state":"active","ping":70},{"user_id":45,"name":"stoppen","steam_id":76561197960281482,"connected_time":2023000000000,"state":"active","ping":74},{"user_id":46,"name":"followthenight","steam_id":76561198017619752,"connected_time":1964000000000,"state":"active","ping":60}]},{"server_id":110,"name":"Uncletopia | Frankfurt | 2 | All Maps","name_short":"frk-2","host":"frk-1.de.uncletopia.com","port":27025,"enabled":true,"region":"eu","cc":"de","latitude":50.110924,"longitude":8.682127,"reserved":0,"last_update":"0001-01-01T00:00:00Z","name_a2s":"Uncletopia | Frankfurt | 2 | All Maps","protocol":17,"map":"cp_snakewater_final1","folder":"tf","game":"Team Fortress","app_id":440,"player_count":0,"max_players":24,"Bots":0,"server_type":"Dedicated","server_os":"Linux","password":true,"vac":true,"version":"7757534","steam_id":85568392924469990,"keywords":["cp","nocrits","nodmgspread","uncletopia"],"game_id":440,"stv_port":27026,"stv_name":"Uncletopia | Frankfurt | 2 | All Maps | STV","players":null},{"server_id":308,"name":"Uncletopia | Frankfurt | 3 | All Maps","name_short":"frk-3","host":"frk-1.de.uncletopia.com","port":27035,"enabled":true,"region":"eu","cc":"de","latitude":50.110924,"longitude":8.682127,"reserved":0,"last_update":"0001-01-01T00:00:00Z","name_a2s":"Uncletopia | Frankfurt | 3 | All Maps","protocol":17,"map":"pl_swiftwater_final1","folder":"tf","game":"Team Fortress","app_id":440,"player_count":0,"max_players":24,"Bots":0,"server_type":"Dedicated","server_os":"Linux","password":true,"vac":true,"version":"7757534","steam_id":85568392924504274,"keywords":["nocrits","nodmgspread","payload","uncletopia"],"game_id":440,"stv_port":27036,"stv_name":"Uncletopia | Frankfurt | 3 | All Maps | STV","players":null},{"server_id":309,"name":"Uncletopia | Frankfurt | 4 | All Maps","name_short":"frk-4","host":"frk-1.de.uncletopia.com","port":27045,"enabled":true,"region":"eu","cc":"de","latitude":50.110924,"longitude":8.682127,"reserved":0,"last_update":"0001-01-01T00:00:00Z","name_a2s":"Uncletopia | Frankfurt | 4 | All Maps","protocol":17,"map":"koth_viaduct","folder":"tf","game":"Team Fortress","app_id":440,"player_count":0,"max_players":24,"Bots":0,"server_type":"Dedicated","server_os":"Linux","password":true,"vac":true,"version":"7757534","steam_id":85568392924504275,"keywords":["cp","nocrits","nodmgspread","uncletopia"],"game_id":440,"stv_port":27046,"stv_name":"Uncletopia | Frankfurt | 4 | All Maps | STV","players":null},{"server_id":310,"name":"Uncletopia | Frankfurt | 5 | All Maps","name_short":"frk-5","host":"frk-1.de.uncletopia.com","port":27055,"enabled":true,"region":"eu","cc":"de","latitude":50.110924,"longitude":8.682127,"reserved":0,"last_update":"0001-01-01T00:00:00Z","name_a2s":"Uncletopia | Frankfurt | 5 | All Maps","protocol":17,"map":"koth_lakeside_final","folder":"tf","game":"Team Fortress","app_id":440,"player_count":0,"max_players":24,"Bots":0,"server_type":"Dedicated","server_os":"Linux","password":true,"vac":true,"version":"7757534","steam_id":85568392924504277,"keywords":["cp","nocrits","nodmgspread","uncletopia"],"game_id":440,"stv_port":27056,"stv_name":"Uncletopia | Frankfurt | 5 | All Maps | STV","players":null},{"server_id":311,"name":"Uncletopia | Frankfurt | 6 | All Maps","name_short":"frk-6","host":"frk-1.de.uncletopia.com","port":27065,"enabled":true,"region":"eu","cc":"de","latitude":50.110924,"longitude":8.682127,"reserved":0,"last_update":"0001-01-01T00:00:00Z","name_a2s":"Uncletopia | Frankfurt | 6 | All Maps","protocol":17,"map":"pl_frontier_final","folder":"tf","game":"Team Fortress","app_id":440,"player_count":0,"max_players":24,"Bots":0,"server_type":"Dedicated","server_os":"Linux","password":true,"vac":true,"version":"7757534","steam_id":85568392924504278,"keywords":["nocrits","nodmgspread","payload","uncletopia"],"game_id":440,"stv_port":27066,"stv_name":"Uncletopia | Frankfurt | 6 | All Maps | STV","players":null},{"server_id":23,"name":"Uncletopia | Frankfurt | 7 | Stopwatch Beta","name_short":"frk-7","host":"frk-1.de.uncletopia.com","port":27075,"enabled":true,"region":"eu","cc":"de","latitude":50.110924,"longitude":8.682127,"reserved":0,"last_update":"0001-01-01T00:00:00Z","name_a2s":"Uncletopia | Frankfurt | 7 | Stopwatch Beta","protocol":17,"map":"cp_sunshine","folder":"tf","game":"Team Fortress","app_id":440,"player_count":0,"max_players":24,"Bots":0,"server_type":"Dedicated","server_os":"Linux","password":true,"vac":true,"version":"7757534","steam_id":85568392924742827,"keywords":["cp","nocrits","nodmgspread","uncletopia"],"game_id":440,"stv_port":27076,"stv_name":"Uncletopia | Frankfurt | 7 | Stopwatch Beta | STV","players":null},{"server_id":24,"name":"Uncletopia | Frankfurt | 8 | Community","name_short":"frk-8","host":"frk-1.de.uncletopia.com","port":27085,"enabled":true,"region":"eu","cc":"de","latitude":50.110924,"longitude":8.682127,"reserved":0,"last_update":"0001-01-01T00:00:00Z","name_a2s":"Uncletopia | Frankfurt | 8 | Community","protocol":17,"map":"koth_lakeside_final","folder":"tf","game":"Team Fortress","app_id":440,"player_count":0,"max_players":24,"Bots":0,"server_type":"Dedicated","server_os":"Linux","password":true,"vac":true,"version":"7757534","steam_id":85568392924742828,"keywords":["cp","nocrits","nodmgspread","uncletopia"],"game_id":440,"stv_port":27086,"stv_name":"Uncletopia | Frankfurt | 8 | Community | STV","players":null},{"server_id":202,"name":"Uncletopia | Hong Kong | 1 | All Maps","name_short":"hgk-1","host":"hgk-1.hk.uncletopia.com","port":27015,"enabled":true,"region":"asia","cc":"hk","latitude":22.302711,"longitude":114.177216,"reserved":0,"last_update":"0001-01-01T00:00:00Z","name_a2s":"Uncletopia | Hong Kong | 1 | All Maps","protocol":17,"map":"koth_lakeside_final","folder":"tf","game":"Team Fortress","app_id":440,"player_count":10,"max_players":24,"Bots":0,"server_type":"Dedicated","server_os":"Linux","password":true,"vac":true,"version":"7757534","steam_id":85568392924494504,"keywords":["cp","nocrits","nodmgspread","uncletopia"],"game_id":440,"stv_port":27016,"stv_name":"Uncletopia | Hong Kong | 1 | All Maps | STV","players":[{"user_id":63,"name":"Slim3rs","steam_id":76561199088010585,"connected_time":66000000000,"state":"active","ping":162},{"user_id":56,"name":"yam","steam_id":76561198980933984,"connected_time":849000000000,"state":"active","ping":102},{"user_id":57,"name":"pink","steam_id":76561199160972366,"connected_time":812000000000,"state":"active","ping":81},{"user_id":52,"name":"mewcat","steam_id":76561199087050938,"connected_time":2964000000000,"state":"active","ping":329},{"user_id":53,"name":"AHHHHHHHHHHHH","steam_id":76561199221091556,"connected_time":2761000000000,"state":"active","ping":77},{"user_id":58,"name":"Your not so typical toxic playe","steam_id":76561198095476162,"connected_time":667000000000,"state":"active","ping":73},{"user_id":59,"name":"water tastes good","steam_id":76561199375947670,"connected_time":608000000000,"state":"active","ping":63},{"user_id":61,"name":"Engine220","steam_id":76561199235280166,"connected_time":330000000000,"state":"active","ping":78},{"user_id":62,"name":"derek.patriarca30","steam_id":76561199427230206,"connected_time":225000000000,"state":"active","ping":62},{"user_id":65,"name":"pepsiman","steam_id":76561198167669037,"connected_time":4000000000,"state":"spawning","ping":29}]},{"server_id":1,"name":"Uncletopia | Los Angeles | 1 | All Maps","name_short":"lax-1","host":"lax-1.us.uncletopia.com","port":27015,"enabled":true,"region":"us-west","cc":"us","latitude":33.94279,"longitude":-118.41004,"reserved":0,"last_update":"0001-01-01T00:00:00Z","name_a2s":"Uncletopia | Los Angeles | 1 | All Maps","protocol":17,"map":"pl_goldrush","folder":"tf","game":"Team Fortress","app_id":440,"player_count":21,"max_players":24,"Bots":0,"server_type":"Dedicated","server_os":"Linux","password":true,"vac":true,"version":"7757534","steam_id":85568392924469991,"keywords":["nocrits","nodmgspread","payload","uncletopia"],"game_id":440,"stv_port":27016,"stv_name":"Uncletopia | Los Angeles | 1 | All Maps | STV","players":[{"user_id":432,"name":"BorstchBag","steam_id":76561198155294045,"connected_time":1082000000000,"state":"active","ping":107},{"user_id":431,"name":"The Original Freelander","steam_id":76561198026152104,"connected_time":1432000000000,"state":"active","ping":103},{"user_id":426,"name":"fire retarded","steam_id":76561198383636396,"connected_time":1527000000000,"state":"active","ping":110},{"user_id":416,"name":"Axelfreeze14","steam_id":76561198436383913,"connected_time":1691000000000,"state":"active","ping":80},{"user_id":355,"name":"‚ùÑ Alice ‚ô•","steam_id":76561198869945051,"connected_time":7897000000000,"state":"active","ping":89},{"user_id":447,"name":"ASingleCrow","steam_id":76561199050104793,"connected_time":21000000000,"state":"active","ping":150},{"user_id":391,"name":"Shochu Fiend","steam_id":76561198055193376,"connected_time":5384000000000,"state":"active","ping":109},{"user_id":410,"name":"S9","steam_id":76561198065339248,"connected_time":2712000000000,"state":"active","ping":46},{"user_id":445,"name":"Oh No! It's Twister!","steam_id":76561198016791916,"connected_time":253000000000,"state":"active","ping":108},{"user_id":435,"name":"remie_emmy","steam_id":76561199469067150,"connected_time":1018000000000,"state":"active","ping":63},{"user_id":436,"name":"Dante","steam_id":76561198936412406,"connected_time":939000000000,"state":"active","ping":124},{"user_id":367,"name":"mewtek","steam_id":76561198138599995,"connected_time":7441000000000,"state":"active","ping":51},{"user_id":428,"name":"EatSomeBEES","steam_id":76561198047334307,"connected_time":1474000000000,"state":"active","ping":72},{"user_id":440,"name":"Re-Crix","steam_id":76561198351895601,"connected_time":775000000000,"state":"active","ping":59},{"user_id":208,"name":"Cosmic Visor","steam_id":76561197990817172,"connected_time":18146000000000,"state":"active","ping":71},{"user_id":409,"name":"scungo","steam_id":76561198316654855,"connected_time":2791000000000,"state":"active","ping":86},{"user_id":429,"name":"monk","steam_id":76561198041266286,"connected_time":1471000000000,"state":"active","ping":48},{"user_id":397,"name":"Ekorn","steam_id":76561198042756755,"connected_time":5172000000000,"state":"active","ping":97},{"user_id":430,"name":"blank","steam_id":76561198105529673,"connected_time":1444000000000,"state":"active","ping":44},{"user_id":368,"name":"nescoceo","steam_id":76561198040801160,"connected_time":7407000000000,"state":"active","ping":44},{"user_id":442,"name":"playername","steam_id":76561198121955432,"connected_time":560000000000,"state":"active","ping":109}]},{"server_id":112,"name":"Uncletopia | Los Angeles | 2 | All Maps","name_short":"lax-2","host":"lax-1.us.uncletopia.com","port":27025,"enabled":true,"region":"us-west","cc":"us","latitude":33.94279,"longitude":-118.41004,"reserved":0,"last_update":"0001-01-01T00:00:00Z","name_a2s":"Uncletopia | Los Angeles | 2 | All Maps","protocol":17,"map":"cp_altitude","folder":"tf","game":"Team Fortress","app_id":440,"player_count":0,"max_players":24,"Bots":0,"server_type":"Dedicated","server_os":"Linux","password":true,"vac":true,"version":"7757534","steam_id":85568392924469992,"keywords":["cp","nocrits","nodmgspread","uncletopia"],"game_id":440,"stv_port":27026,"stv_name":"Uncletopia | Los Angeles | 2 | All Maps | STV","players":null},{"server_id":324,"name":"Uncletopia | Los Angeles | 3 | All Maps","name_short":"lax-3","host":"lax-1.us.uncletopia.com","port":27035,"enabled":true,"region":"us-west","cc":"us","latitude":33.94279,"longitude":-118.41004,"reserved":0,"last_update":"0001-01-01T00:00:00Z","name_a2s":"Uncletopia | Los Angeles | 3 | All Maps","protocol":17,"map":"pl_swiftwater_final1","folder":"tf","game":"Team Fortress","app_id":440,"player_count":0,"max_players":24,"Bots":0,"server_type":"Dedicated","server_os":"Linux","password":true,"vac":true,"version":"7757534","steam_id":85568392924510198,"keywords":["nocrits","nodmgspread","payload","uncletopia"],"game_id":440,"stv_port":27036,"stv_name":"Uncletopia | Los Angeles | 3 | All Maps | STV","players":null},{"server_id":25,"name":"Uncletopia | Los Angeles | 4 | Stopwatch Beta","name_short":"lax-4","host":"lax-1.us.uncletopia.com","port":27045,"enabled":true,"region":"us-west","cc":"us","latitude":33.94279,"longitude":-118.41004,"reserved":0,"last_update":"0001-01-01T00:00:00Z","name_a2s":"Uncletopia | Los Angeles | 4 | Stopwatch Beta","protocol":17,"map":"pl_swiftwater_final1","folder":"tf","game":"Team Fortress","app_id":440,"player_count":0,"max_players":24,"Bots":0,"server_type":"Dedicated","server_os":"Linux","password":true,"vac":true,"version":"7757534","steam_id":85568392924510199,"keywords":["nocrits","nodmgspread","payload","uncletopia"],"game_id":440,"stv_port":27046,"stv_name":"Uncletopia | Los Angeles | 4 | Stopwatch Beta | STV","players":null},{"server_id":11,"name":"Uncletopia | London | 1 | All Maps","name_short":"lon-1","host":"lon-1.uk.uncletopia.com","port":27015,"enabled":true,"region":"eu","cc":"gb","latitude":51.509865,"longitude":-0.118092,"reserved":0,"last_update":"0001-01-01T00:00:00Z","name_a2s":"Uncletopia | London | 1 | All Maps","protocol":17,"map":"pl_badwater","folder":"tf","game":"Team Fortress","app_id":440,"player_count":24,"max_players":24,"Bots":0,"server_type":"Dedicated","server_os":"Linux","password":true,"vac":true,"version":"7757534","steam_id":85568392924367362,"keywords":["nocrits","nodmgspread","payload","uncletopia"],"game_id":440,"stv_port":27016,"stv_name":"Uncletopia | London | 1 | All Maps | STV","players":[{"user_id":174,"name":"Pulse Astra","steam_id":76561198199809253,"connected_time":435000000000,"state":"active","ping":145},{"user_id":175,"name":"insanitY","steam_id":76561198055666742,"connected_time":412000000000,"state":"active","ping":115},{"user_id":145,"name":"fmdi","steam_id":76561199433879329,"connected_time":2688000000000,"state":"active","ping":78},{"user_id":133,"name":"goblinninja110","steam_id":76561198269159354,"connected_time":3442000000000,"state":"active","ping":68},{"user_id":149,"name":"chocolate flavoured femboy","steam_id":76561198819353867,"connected_time":1903000000000,"state":"active","ping":37},{"user_id":143,"name":"Ikea-Chan","steam_id":76561198123659338,"connected_time":2815000000000,"state":"active","ping":98},{"user_id":166,"name":"rich.kidd","steam_id":76561198025177982,"connected_time":894000000000,"state":"active","ping":67},{"user_id":173,"name":"revolver CHEH","steam_id":76561198851411530,"connected_time":611000000000,"state":"active","ping":46},{"user_id":159,"name":"Mega Man Legends 3","steam_id":76561198014110199,"connected_time":1373000000000,"state":"active","ping":45},{"user_id":124,"name":"Ash","steam_id":76561198148738525,"connected_time":4170000000000,"state":"active","ping":119},{"user_id":163,"name":"Saint","steam_id":76561198003296382,"connected_time":988000000000,"state":"active","ping":70},{"user_id":157,"name":"Pepe El grillao","steam_id":76561198177855119,"connected_time":1440000000000,"state":"active","ping":73},{"user_id":167,"name":"Jon Snuh","steam_id":76561198075298635,"connected_time":886000000000,"state":"active","ping":131},{"user_id":137,"name":"‚ô• Hurt Me Plenty ‚ô• | P.U.R.","steam_id":76561198965998351,"connected_time":3252000000000,"state":"active","ping":105},{"user_id":164,"name":"prophits","steam_id":76561198011854314,"connected_time":951000000000,"state":"active","ping":60},{"user_id":176,"name":"Nick Yarkovisch","steam_id":76561198044094859,"connected_time":404000000000,"state":"active","ping":145},{"user_id":125,"name":"Andy","steam_id":76561198136364381,"connected_time":4154000000000,"state":"active","ping":66},{"user_id":172,"name":"NitPig","steam_id":76561198212991935,"connected_time":726000000000,"state":"active","ping":96},{"user_id":156,"name":"Fenidokh","steam_id":76561198856093893,"connected_time":1514000000000,"state":"active","ping":80},{"user_id":165,"name":"Yuzu","steam_id":76561198121694613,"connected_time":938000000000,"state":"active","ping":51},{"user_id":142,"name":"Kahvi","steam_id":76561198723244199,"connected_time":3066000000000,"state":"active","ping":76},{"user_id":160,"name":"V","steam_id":76561199006462039,"connected_time":1309000000000,"state":"active","ping":70},{"user_id":168,"name":"RiX","steam_id":76561197969053733,"connected_time":872000000000,"state":"active","ping":68},{"user_id":161,"name":"Acucutl","steam_id":76561198133867096,"connected_time":1293000000000,"state":"active","ping":77}]},{"server_id":114,"name":"Uncletopia | London | 2 | All Maps","name_short":"lon-2","host":"lon-1.uk.uncletopia.com","port":27025,"enabled":true,"region":"eu","cc":"gb","latitude":51.509865,"longitude":-0.118092,"reserved":0,"last_update":"0001-01-01T00:00:00Z","name_a2s":"Uncletopia | London | 2 | All Maps","protocol":17,"map":"koth_viaduct","folder":"tf","game":"Team Fortress","app_id":440,"player_count":0,"max_players":24,"Bots":0,"server_type":"Dedicated","server_os":"Linux","password":true,"vac":true,"version":"7757534","steam_id":85568392924470941,"keywords":["cp","nocrits","nodmgspread","uncletopia"],"game_id":440,"stv_port":27026,"stv_name":"Uncletopia | London | 2 | All Maps | STV","players":null},{"server_id":320,"name":"Uncletopia | London | 3 | All Maps","name_short":"lon-3","host":"lon-1.uk.uncletopia.com","port":27035,"enabled":true,"region":"eu","cc":"gb","latitude":51.509865,"longitude":-0.118092,"reserved":0,"last_update":"0001-01-01T00:00:00Z","name_a2s":"Uncletopia | London | 3 | All Maps","protocol":17,"map":"cp_dustbowl","folder":"tf","game":"Team Fortress","app_id":440,"player_count":0,"max_players":24,"Bots":0,"server_type":"Dedicated","server_os":"Linux","password":true,"vac":true,"version":"7757534","steam_id":85568392924510192,"keywords":["cp","nocrits","nodmgspread","uncletopia"],"game_id":440,"stv_port":27036,"stv_name":"Uncletopia | London | 3 | All Maps | STV","players":null},{"server_id":321,"name":"Uncletopia | London | 4 | All Maps","name_short":"lon-4","host":"lon-1.uk.uncletopia.com","port":27045,"enabled":true,"region":"eu","cc":"gb","latitude":51.509865,"longitude":-0.118092,"reserved":0,"last_update":"0001-01-01T00:00:00Z","name_a2s":"Uncletopia | London | 4 | All Maps","protocol":17,"map":"cp_dustbowl","folder":"tf","game":"Team Fortress","app_id":440,"player_count":0,"max_players":24,"Bots":0,"server_type":"Dedicated","server_os":"Linux","password":true,"vac":true,"version":"7757534","steam_id":85568392924510193,"keywords":["cp","nocrits","nodmgspread","uncletopia"],"game_id":440,"stv_port":27046,"stv_name":"Uncletopia | London | 4 | All Maps | STV","players":null},{"server_id":21,"name":"Uncletopia | London | 5 | All Maps","name_short":"lon-5","host":"lon-1.uk.uncletopia.com","port":27055,"enabled":true,"region":"eu","cc":"gb","latitude":51.509865,"longitude":-0.118092,"reserved":0,"last_update":"0001-01-01T00:00:00Z","name_a2s":"Uncletopia | London | 5 | All Maps","protocol":17,"map":"cp_altitude","folder":"tf","game":"Team Fortress","app_id":440,"player_count":0,"max_players":24,"Bots":0,"server_type":"Dedicated","server_os":"Linux","password":true,"vac":true,"version":"7757534","steam_id":85568392924742829,"keywords":["cp","nocrits","nodmgspread","uncletopia"],"game_id":440,"stv_port":27056,"stv_name":"Uncletopia | London | 5 | All Maps | STV","players":null},{"server_id":22,"name":"Uncletopia | London | 6 | All Maps","name_short":"lon-6","host":"lon-1.uk.uncletopia.com","port":27065,"enabled":true,"region":"eu","cc":"gb","latitude":51.509865,"longitude":-0.118092,"reserved":0,"last_update":"0001-01-01T00:00:00Z","name_a2s":"Uncletopia | London | 6 | All Maps","protocol":17,"map":"cp_mountainlab","folder":"tf","game":"Team Fortress","app_id":440,"player_count":0,"max_players":24,"Bots":0,"server_type":"Dedicated","server_os":"Linux","password":true,"vac":true,"version":"7757534","steam_id":85568392924742830,"keywords":["cp","nocrits","nodmgspread","uncletopia"],"game_id":440,"stv_port":27066,"stv_name":"Uncletopia | London | 6 | All Maps | STV","players":null},{"server_id":40,"name":"Uncletopia | London | 7 | No Payload","name_short":"lon-7","host":"lon-1.uk.uncletopia.com","port":27075,"enabled":true,"region":"eu","cc":"gb","latitude":51.509865,"longitude":-0.118092,"reserved":0,"last_update":"0001-01-01T00:00:00Z","name_a2s":"Uncletopia | London | 7 | No Payload","protocol":17,"map":"pl_badwater","folder":"tf","game":"Team Fortress","app_id":440,"player_count":0,"max_players":24,"Bots":0,"server_type":"Dedicated","server_os":"Linux","password":true,"vac":true,"version":"7757534","steam_id":85568392924964314,"keywords":["nocrits","nodmgspread","payload","uncletopia"],"game_id":440,"stv_port":27076,"stv_name":"Uncletopia | London | 7 | No Payload | STV","players":null},{"server_id":41,"name":"Uncletopia | London | 8 | Community","name_short":"lon-8","host":"lon-1.uk.uncletopia.com","port":27085,"enabled":true,"region":"eu","cc":"gb","latitude":51.509865,"longitude":-0.118092,"reserved":0,"last_update":"0001-01-01T00:00:00Z","name_a2s":"Uncletopia | London | 8 | Community","protocol":17,"map":"pl_barnblitz","folder":"tf","game":"Team Fortress","app_id":440,"player_count":0,"max_players":24,"Bots":0,"server_type":"Dedicated","server_os":"Linux","password":true,"vac":true,"version":"7757534","steam_id":85568392924964315,"keywords":["nocrits","nodmgspread","payload","uncletopia"],"game_id":440,"stv_port":27086,"stv_name":"Uncletopia | London | 8 | Community | STV","players":null},{"server_id":300,"name":"Uncletopia | Montr√©al | 1 | All Maps","name_short":"mtl-1","host":"mtl-1.ca.uncletopia.com","port":27015,"enabled":true,"region":"us-east","cc":"ca","latitude":45.50889,"longitude":-73.56167,"reserved":0,"last_update":"0001-01-01T00:00:00Z","name_a2s":"Uncletopia | Montr√©al | 1 | All Maps","protocol":17,"map":"koth_highpass","folder":"tf","game":"Team Fortress","app_id":440,"player_count":0,"max_players":24,"Bots":0,"server_type":"Dedicated","server_os":"Linux","password":true,"vac":true,"version":"7757534","steam_id":85568392924500087,"keywords":["cp","nocrits","nodmgspread","uncletopia"],"game_id":440,"stv_port":27016,"stv_name":"Uncletopia | Montr√©al | 1 | All Maps | STV","players":null},{"server_id":301,"name":"Uncletopia | Montr√©al | 2 | All Maps","name_short":"mtl-2","host":"mtl-1.ca.uncletopia.com","port":27025,"enabled":true,"region":"us-east","cc":"ca","latitude":45.50889,"longitude":-73.56167,"reserved":0,"last_update":"0001-01-01T00:00:00Z","name_a2s":"Uncletopia | Montr√©al | 2 | All Maps","protocol":17,"map":"koth_lakeside_final","folder":"tf","game":"Team Fortress","app_id":440,"player_count":0,"max_players":24,"Bots":0,"server_type":"Dedicated","server_os":"Linux","password":true,"vac":true,"version":"7757534","steam_id":85568392924500088,"keywords":["cp","nocrits","nodmgspread","uncletopia"],"game_id":440,"stv_port":27026,"stv_name":"Uncletopia | Montr√©al | 2 | All Maps | STV","players":null},{"server_id":302,"name":"Uncletopia | Montr√©al | 3 | All Maps","name_short":"mtl-3","host":"mtl-1.ca.uncletopia.com","port":27035,"enabled":true,"region":"us-east","cc":"ca","latitude":45.50889,"longitude":-73.56167,"reserved":0,"last_update":"0001-01-01T00:00:00Z","name_a2s":"Uncletopia | Montr√©al | 3 | All Maps","protocol":17,"map":"koth_cascade","folder":"tf","game":"Team Fortress","app_id":440,"player_count":0,"max_players":24,"Bots":0,"server_type":"Dedicated","server_os":"Linux","password":true,"vac":true,"version":"7757534","steam_id":85568392924500089,"keywords":["cp","nocrits","nodmgspread","uncletopia"],"game_id":440,"stv_port":27036,"stv_name":"Uncletopia | Montr√©al | 3 | All Maps | STV","players":null},{"server_id":303,"name":"Uncletopia | Montr√©al | 4 | No Payload","name_short":"mtl-4","host":"mtl-1.ca.uncletopia.com","port":27045,"enabled":true,"region":"us-east","cc":"ca","latitude":45.50889,"longitude":-73.56167,"reserved":0,"last_update":"0001-01-01T00:00:00Z","name_a2s":"Uncletopia | Montr√©al | 4 | No Payload","protocol":17,"map":"cp_mercenarypark","folder":"tf","game":"Team Fortress","app_id":440,"player_count":0,"max_players":24,"Bots":0,"server_type":"Dedicated","server_os":"Linux","password":true,"vac":true,"version":"7757534","steam_id":85568392924500090,"keywords":["cp","nocrits","nodmgspread","uncletopia"],"game_id":440,"stv_port":27046,"stv_name":"Uncletopia | Montr√©al | 4 | No Payload | STV","players":null},{"server_id":13,"name":"Uncletopia | New York City | 1 | All Maps","name_short":"nyc-1","host":"nyc-1.us.uncletopia.com","port":27015,"enabled":true,"region":"us-east","cc":"us","latitude":40.73061,"longitude":-73.93524,"reserved":0,"last_update":"0001-01-01T00:00:00Z","name_a2s":"Uncletopia | New York City | 1 | All Maps","protocol":17,"map":"koth_highpass","folder":"tf","game":"Team Fortress","app_id":440,"player_count":4,"max_players":24,"Bots":0,"server_type":"Dedicated","server_os":"Linux","password":true,"vac":true,"version":"7757534","steam_id":85568392924469993,"keywords":["cp","nocrits","nodmgspread","uncletopia"],"game_id":440,"stv_port":27016,"stv_name":"Uncletopia | New York City | 1 | All Maps | STV","players":[{"user_id":506,"name":"Logan387","steam_id":76561198062398250,"connected_time":1483000000000,"state":"active","ping":74},{"user_id":511,"name":"deric.santiago1234","steam_id":76561199351872034,"connected_time":860000000000,"state":"active","ping":63},{"user_id":343,"name":"Ôº≥Ôº¨Ôº∂Ôº¥Ôº£Ôº®Ôº°Ôº≠Ôº∞","steam_id":76561198883157736,"connected_time":16919000000000,"state":"active","ping":117},{"user_id":493,"name":"Dravenation","steam_id":76561198012411483,"connected_time":3877000000000,"state":"active","ping":83}]},{"server_id":14,"name":"Uncletopia | New York City | 2 | All Maps","name_short":"nyc-2","host":"nyc-1.us.uncletopia.com","port":27025,"enabled":true,"region":"us-east","cc":"us","latitude":40.73061,"longitude":-73.93524,"reserved":0,"last_update":"0001-01-01T00:00:00Z","name_a2s":"Uncletopia | New York City | 2 | All Maps","protocol":17,"map":"cp_sunshine","folder":"tf","game":"Team Fortress","app_id":440,"player_count":19,"max_players":24,"Bots":0,"server_type":"Dedicated","server_os":"Linux","password":true,"vac":true,"version":"7757534","steam_id":85568392924469994,"keywords":["cp","nocrits","nodmgspread","uncletopia"],"game_id":440,"stv_port":27026,"stv_name":"Uncletopia | New York City | 2 | All Maps | STV","players":[{"user_id":467,"name":"Husk","steam_id":76561198271808519,"connected_time":808000000000,"state":"active","ping":139},{"user_id":443,"name":"p4lly","steam_id":76561198078400787,"connected_time":3699000000000,"state":"active","ping":57},{"user_id":468,"name":"Bubbles","steam_id":76561198049364740,"connected_time":603000000000,"state":"active","ping":75},{"user_id":451,"name":"YelloGoat","steam_id":76561198367174421,"connected_time":2928000000000,"state":"active","ping":33},{"user_id":469,"name":"oriasine","steam_id":76561198082160374,"connected_time":560000000000,"state":"active","ping":85},{"user_id":470,"name":"Ostrich","steam_id":76561197967876937,"connected_time":542000000000,"state":"active","ping":120},{"user_id":476,"name":"floofy","steam_id":76561198389769098,"connected_time":270000000000,"state":"active","ping":77},{"user_id":477,"name":"Sentient Sandvich","steam_id":76561197995714103,"connected_time":266000000000,"state":"active","ping":77},{"user_id":450,"name":"Bocchi the Cock","steam_id":76561198152455316,"connected_time":3048000000000,"state":"active","ping":159},{"user_id":448,"name":"Bob Margarine","steam_id":76561197974107198,"connected_time":3516000000000,"state":"active","ping":98},{"user_id":472,"name":"valenre","steam_id":76561198906798748,"connected_time":477000000000,"state":"active","ping":120},{"user_id":475,"name":"FATMAN....HOOVY","steam_id":76561198125277447,"connected_time":315000000000,"state":"active","ping":64},{"user_id":474,"name":"_Pai","steam_id":76561198108196753,"connected_time":395000000000,"state":"active","ping":105},{"user_id":436,"name":"Whopper Enjoyer","steam_id":76561199163263543,"connected_time":4538000000000,"state":"active","ping":84},{"user_id":459,"name":"aqua","steam_id":76561199407709552,"connected_time":1796000000000,"state":"active","ping":75},{"user_id":479,"name":"i kill friendlies for fun","steam_id":76561199191311388,"connected_time":137000000000,"state":"active","ping":91},{"user_id":464,"name":"PsyLucky","steam_id":76561198170458501,"connected_time":1290000000000,"state":"active","ping":75},{"user_id":453,"name":"hotpocket","steam_id":76561199070028098,"connected_time":2854000000000,"state":"active","ping":120},{"user_id":385,"name":"roxases","steam_id":76561198119759490,"connected_time":9943000000000,"state":"active","ping":72}]},{"server_id":15,"name":"Uncletopia | New York City | 3 | Stopwatch Beta","name_short":"nyc-3","host":"nyc-1.us.uncletopia.com","port":27035,"enabled":true,"region":"us-east","cc":"us","latitude":40.73061,"longitude":-73.93524,"reserved":0,"last_update":"0001-01-01T00:00:00Z","name_a2s":"Uncletopia | New York City | 3 | Stopwatch Beta","protocol":17,"map":"pl_upward","folder":"tf","game":"Team Fortress","app_id":440,"player_count":0,"max_players":24,"Bots":0,"server_type":"Dedicated","server_os":"Linux","password":true,"vac":true,"version":"7757534","steam_id":85568392924742820,"keywords":["nocrits","nodmgspread","payload","uncletopia"],"game_id":440,"stv_port":27036,"stv_name":"Uncletopia | New York City | 3 | Stopwatch Beta | STV","players":null},{"server_id":16,"name":"Uncletopia | New York City | 4 | Community","name_short":"nyc-4","host":"nyc-1.us.uncletopia.com","port":27045,"enabled":true,"region":"us-east","cc":"us","latitude":40.73061,"longitude":-73.93524,"reserved":0,"last_update":"0001-01-01T00:00:00Z","name_a2s":"Uncletopia | New York City | 4 | Community","protocol":17,"map":"workshop/cp_sulfur_rc2.ugc619869471","folder":"tf","game":"Team Fortress","app_id":440,"player_count":0,"max_players":24,"Bots":0,"server_type":"Dedicated","server_os":"Linux","password":true,"vac":true,"version":"7757534","steam_id":85568392924742821,"keywords":["cp","nocrits","nodmgspread","uncletopia"],"game_id":440,"stv_port":27046,"stv_name":"Uncletopia | New York City | 4 | Community | STV","players":null},{"server_id":142,"name":"Uncletopia | S√£o Paulo | 1 | All Maps","name_short":"sao-1","host":"sao-1.br.uncletopia.com","port":27015,"enabled":true,"region":"sa","cc":"br","latitude":-23.533773,"longitude":-46.62529,"reserved":0,"last_update":"0001-01-01T00:00:00Z","name_a2s":"Uncletopia | S√£o Paulo | 1 | All Maps","protocol":17,"map":"koth_lakeside_final","folder":"tf","game":"Team Fortress","app_id":440,"player_count":0,"max_players":24,"Bots":0,"server_type":"Dedicated","server_os":"Linux","password":true,"vac":true,"version":"7757534","steam_id":85568392924469996,"keywords":["cp","nocrits","nodmgspread","uncletopia"],"game_id":440,"stv_port":27016,"stv_name":"Uncletopia | S√£o Paulo | 1 | All Maps | STV","players":null},{"server_id":143,"name":"Uncletopia | S√£o Paulo | 2 | All Maps","name_short":"sao-2","host":"sao-2.br.uncletopia.com","port":27015,"enabled":true,"region":"sa","cc":"br","latitude":-23.533773,"longitude":-46.62529,"reserved":0,"last_update":"0001-01-01T00:00:00Z","name_a2s":"Uncletopia | S√£o Paulo | 2 | All Maps","protocol":17,"map":"pl_borneo","folder":"tf","game":"Team Fortress","app_id":440,"player_count":0,"max_players":24,"Bots":0,"server_type":"Dedicated","server_os":"Linux","password":true,"vac":true,"version":"7757534","steam_id":85568392924485349,"keywords":["nocrits","nodmgspread","payload","uncletopia"],"game_id":440,"stv_port":27016,"stv_name":"Uncletopia | S√£o Paulo | 2 | All Maps | STV","players":null},{"server_id":7,"name":"Uncletopia | Seattle | 1 | All Maps","name_short":"sea-1","host":"sea-1.us.uncletopia.com","port":27015,"enabled":true,"region":"us-west","cc":"us","latitude":47.608013,"longitude":-122.33517,"reserved":0,"last_update":"0001-01-01T00:00:00Z","name_a2s":"Uncletopia | Seattle | 1 | All Maps","protocol":17,"map":"pl_barnblitz","folder":"tf","game":"Team Fortress","app_id":440,"player_count":18,"max_players":24,"Bots":0,"server_type":"Dedicated","server_os":"Linux","password":true,"vac":true,"version":"7757534","steam_id":85568392924469997,"keywords":["nocrits","nodmgspread","payload","uncletopia"],"game_id":440,"stv_port":27016,"stv_name":"Uncletopia | Seattle | 1 | All Maps | STV","players":[{"user_id":1005,"name":"Eric4bz","steam_id":76561198054439606,"connected_time":384000000000,"state":"active","ping":65},{"user_id":966,"name":"face in the dark","steam_id":76561198132755619,"connected_time":4207000000000,"state":"active","ping":63},{"user_id":1007,"name":"Admiral Angry","steam_id":76561198058199206,"connected_time":283000000000,"state":"active","ping":104},{"user_id":999,"name":"cracky","steam_id":76561197971365444,"connected_time":1025000000000,"state":"active","ping":45},{"user_id":990,"name":"Grassman (Cc)","steam_id":76561198026488532,"connected_time":1444000000000,"state":"active","ping":62},{"user_id":996,"name":"Dr. B Busta","steam_id":76561198206387303,"connected_time":1120000000000,"state":"active","ping":62},{"user_id":1006,"name":"Warmaster00","steam_id":76561197987001858,"connected_time":376000000000,"state":"active","ping":158},{"user_id":995,"name":"00","steam_id":76561198041700636,"connected_time":1155000000000,"state":"active","ping":59},{"user_id":1008,"name":"DSM-IVCE","steam_id":76561199438515797,"connected_time":119000000000,"state":"active","ping":162},{"user_id":1009,"name":"Skreed [G*]","steam_id":76561197998086143,"connected_time":66000000000,"state":"active","ping":100},{"user_id":1004,"name":"hotdog every meal","steam_id":76561198392514273,"connected_time":610000000000,"state":"active","ping":56},{"user_id":977,"name":"HellaCopter","steam_id":76561198062313698,"connected_time":2888000000000,"state":"active","ping":50},{"user_id":998,"name":"Piogre","steam_id":76561198006182258,"connected_time":1043000000000,"state":"active","ping":101},{"user_id":1000,"name":"D0VE","steam_id":76561198151618566,"connected_time":937000000000,"state":"active","ping":58},{"user_id":952,"name":"Johaun","steam_id":76561198296328253,"connected_time":5783000000000,"state":"active","ping":114},{"user_id":983,"name":"Fig Newtonian Physics","steam_id":76561198043828477,"connected_time":1601000000000,"state":"active","ping":58},{"user_id":986,"name":"hart","steam_id":76561198046073848,"connected_time":1594000000000,"state":"active","ping":45},{"user_id":993,"name":"John Wilkes Booth","steam_id":76561197983398671,"connected_time":1303000000000,"state":"active","ping":53}]},{"server_id":119,"name":"Uncletopia | Seattle | 2 | All Maps","name_short":"sea-2","host":"sea-1.us.uncletopia.com","port":27025,"enabled":true,"region":"us-west","cc":"us","latitude":47.608013,"longitude":-122.33517,"reserved":0,"last_update":"0001-01-01T00:00:00Z","name_a2s":"Uncletopia | Seattle | 2 | All Maps","protocol":17,"map":"ctf_2fort","folder":"tf","game":"Team Fortress","app_id":440,"player_count":0,"max_players":24,"Bots":0,"server_type":"Dedicated","server_os":"Linux","password":true,"vac":true,"version":"7757534","steam_id":85568392924469998,"keywords":["ctf","nocrits","nodmgspread","uncletopia"],"game_id":440,"stv_port":27026,"stv_name":"Uncletopia | Seattle | 2 | All Maps | STV","players":null},{"server_id":406,"name":"Uncletopia | Seattle | 3 | Stopwatch Beta","name_short":"sea-3","host":"sea-1.us.uncletopia.com","port":27035,"enabled":true,"region":"us-west","cc":"us","latitude":47.608013,"longitude":-122.33517,"reserved":0,"last_update":"0001-01-01T00:00:00Z","name_a2s":"Uncletopia | Seattle | 3 | Stopwatch Beta","protocol":17,"map":"workshop/koth_clearcut_b15.ugc2107050255","folder":"tf","game":"Team Fortress","app_id":440,"player_count":0,"max_players":24,"Bots":0,"server_type":"Dedicated","server_os":"Linux","password":true,"vac":true,"version":"7757534","steam_id":85568392924515217,"keywords":["cp","nocrits","nodmgspread","uncletopia"],"game_id":440,"stv_port":27036,"stv_name":"Uncletopia | Seattle | 3 | Stopwatch Beta | STV","players":null},{"server_id":17,"name":"Uncletopia | San Francisco | 1 | All Maps","name_short":"sfo-1","host":"sfo-1.us.uncletopia.com","port":27015,"enabled":true,"region":"us-west","cc":"us","latitude":37.77397,"longitude":-122.4313,"reserved":0,"last_update":"0001-01-01T00:00:00Z","name_a2s":"Uncletopia | San Francisco | 1 | All Maps","protocol":17,"map":"cp_snakewater_final1","folder":"tf","game":"Team Fortress","app_id":440,"player_count":24,"max_players":24,"Bots":0,"server_type":"Dedicated","server_os":"Linux","password":true,"vac":true,"version":"7757534","steam_id":85568392924469999,"keywords":["cp","nocrits","nodmgspread","uncletopia"],"game_id":440,"stv_port":27016,"stv_name":"Uncletopia | San Francisco | 1 | All Maps | STV","players":[{"user_id":431,"name":"dP | I'm in a Wookie Suit","steam_id":76561198083307644,"connected_time":1846000000000,"state":"active","ping":75},{"user_id":395,"name":"Matte :)","steam_id":76561198070631073,"connected_time":4740000000000,"state":"active","ping":44},{"user_id":391,"name":"F3RRAL","steam_id":76561198172279275,"connected_time":4958000000000,"state":"active","ping":58},{"user_id":423,"name":"Drake from State Farm","steam_id":76561199069029812,"connected_time":2783000000000,"state":"active","ping":54},{"user_id":446,"name":"Trips","steam_id":76561198054581597,"connected_time":751000000000,"state":"active","ping":44},{"user_id":447,"name":"clority","steam_id":76561198087083646,"connected_time":721000000000,"state":"active","ping":71},{"user_id":432,"name":"Tharley","steam_id":76561198043546011,"connected_time":1841000000000,"state":"active","ping":59},{"user_id":433,"name":"OwO","steam_id":76561199203270546,"connected_time":1829000000000,"state":"active","ping":64},{"user_id":434,"name":"Squee","steam_id":76561198032627250,"connected_time":1801000000000,"state":"active","ping":76},{"user_id":452,"name":"Jayty07","steam_id":76561198078041126,"connected_time":434000000000,"state":"active","ping":62},{"user_id":455,"name":"hi","steam_id":76561198049258493,"connected_time":22000000000,"state":"active","ping":66},{"user_id":435,"name":"lug nut larry","steam_id":76561198170643378,"connected_time":1799000000000,"state":"active","ping":71},{"user_id":453,"name":"M4 SOPMOD II Enjoyer","steam_id":76561198155176802,"connected_time":349000000000,"state":"active","ping":122},{"user_id":448,"name":"cmndoggo","steam_id":76561198102290554,"connected_time":712000000000,"state":"active","ping":85},{"user_id":407,"name":"zaza2k","steam_id":76561198393760567,"connected_time":4010000000000,"state":"active","ping":59},{"user_id":445,"name":"not jeff bezos","steam_id":76561198018177887,"connected_time":787000000000,"state":"active","ping":45},{"user_id":444,"name":"H–§RSEPAIN","steam_id":76561198083658115,"connected_time":853000000000,"state":"active","ping":75},{"user_id":454,"name":"jack„Äúo„Äúlantern","steam_id":76561198108685037,"connected_time":330000000000,"state":"active","ping":83},{"user_id":449,"name":"Syrup","steam_id":76561198335677073,"connected_time":583000000000,"state":"active","ping":56},{"user_id":414,"name":"shawarma.lord007","steam_id":76561198115458307,"connected_time":3575000000000,"state":"active","ping":60},{"user_id":450,"name":"Goob","steam_id":76561198256918638,"connected_time":574000000000,"state":"active","ping":56},{"user_id":451,"name":"Spirosity","steam_id":76561198013485753,"connected_time":543000000000,"state":"active","ping":107},{"user_id":442,"name":"That Twink! Link!","steam_id":76561198315829482,"connected_time":1286000000000,"state":"active","ping":69}]},{"server_id":18,"name":"Uncletopia | San Francisco | 2 | All Maps","name_short":"sfo-2","host":"sfo-1.us.uncletopia.com","port":27025,"enabled":true,"region":"us-west","cc":"us","latitude":37.77397,"longitude":-122.4313,"reserved":0,"last_update":"0001-01-01T00:00:00Z","name_a2s":"Uncletopia | San Francisco | 2 | All Maps","protocol":17,"map":"koth_viaduct","folder":"tf","game":"Team Fortress","app_id":440,"player_count":0,"max_players":24,"Bots":0,"server_type":"Dedicated","server_os":"Linux","password":true,"vac":true,"version":"7757534","steam_id":85568392924470000,"keywords":["cp","nocrits","nodmgspread","uncletopia"],"game_id":440,"stv_port":27026,"stv_name":"Uncletopia | San Francisco | 2 | All Maps | STV","players":null},{"server_id":19,"name":"Uncletopia | San Francisco | 3 | Stopwatch Beta","name_short":"sfo-3","host":"sfo-1.us.uncletopia.com","port":27035,"enabled":true,"region":"us-west","cc":"us","latitude":37.77397,"longitude":-122.4313,"reserved":0,"last_update":"0001-01-01T00:00:00Z","name_a2s":"Uncletopia | San Francisco | 3 | Stopwatch Beta","protocol":17,"map":"pl_swiftwater_final1","folder":"tf","game":"Team Fortress","app_id":440,"player_count":0,"max_players":24,"Bots":0,"server_type":"Dedicated","server_os":"Linux","password":true,"vac":true,"version":"7757534","steam_id":85568392924742824,"keywords":["nocrits","nodmgspread","payload","uncletopia"],"game_id":440,"stv_port":27036,"stv_name":"Uncletopia | San Francisco | 3 | Stopwatch Beta | STV","players":null},{"server_id":20,"name":"Uncletopia | San Francisco | 4 | Community","name_short":"sfo-4","host":"sfo-1.us.uncletopia.com","port":27045,"enabled":true,"region":"us-west","cc":"us","latitude":37.77397,"longitude":-122.4313,"reserved":0,"last_update":"0001-01-01T00:00:00Z","name_a2s":"Uncletopia | San Francisco | 4 | Community","protocol":17,"map":"workshop/cp_glassworks_rc6a.ugc454118349","folder":"tf","game":"Team Fortress","app_id":440,"player_count":0,"max_players":24,"Bots":0,"server_type":"Dedicated","server_os":"Linux","password":true,"vac":true,"version":"7757534","steam_id":85568392924742826,"keywords":["cp","nocrits","nodmgspread","uncletopia"],"game_id":440,"stv_port":27046,"stv_name":"Uncletopia | San Francisco | 4 | Community | STV","players":null},{"server_id":141,"name":"Uncletopia | Sydney | 1 | All Maps","name_short":"syd-1","host":"syd-1.au.uncletopia.com","port":27015,"enabled":true,"region":"au","cc":"au","latitude":-33.865143,"longitude":151.2099,"reserved":0,"last_update":"0001-01-01T00:00:00Z","name_a2s":"Uncletopia | Sydney | 1 | All Maps","protocol":17,"map":"cp_steel","folder":"tf","game":"Team Fortress","app_id":440,"player_count":24,"max_players":24,"Bots":0,"server_type":"Dedicated","server_os":"Linux","password":true,"vac":true,"version":"7757534","steam_id":85568392924470001,"keywords":["cp","nocrits","nodmgspread","uncletopia"],"game_id":440,"stv_port":27016,"stv_name":"Uncletopia | Sydney | 1 | All Maps | STV","players":[{"user_id":163,"name":"RBY","steam_id":76561198279663555,"connected_time":442000000000,"state":"active","ping":57},{"user_id":126,"name":"frostproto","steam_id":76561198911697195,"connected_time":2199000000000,"state":"active","ping":98},{"user_id":148,"name":"Really","steam_id":76561198153397177,"connected_time":947000000000,"state":"active","ping":60},{"user_id":130,"name":"Mr Doctor","steam_id":76561198081415999,"connected_time":1870000000000,"state":"active","ping":73},{"user_id":159,"name":"dad","steam_id":76561198063032696,"connected_time":625000000000,"state":"active","ping":62},{"user_id":131,"name":"wilson","steam_id":76561198094093147,"connected_time":1761000000000,"state":"active","ping":105},{"user_id":132,"name":"Matchfighter","steam_id":76561198043200309,"connected_time":1756000000000,"state":"active","ping":58},{"user_id":133,"name":"weezer","steam_id":76561199439508788,"connected_time":1479000000000,"state":"active","ping":65},{"user_id":171,"name":"RedTeamShadow","steam_id":76561198760005681,"connected_time":176000000000,"state":"active","ping":56},{"user_id":135,"name":"Reddaye","steam_id":76561198025232124,"connected_time":1386000000000,"state":"active","ping":42},{"user_id":172,"name":"Critz Eastwood","steam_id":76561198050094688,"connected_time":137000000000,"state":"active","ping":59},{"user_id":165,"name":"Jauntyweb","steam_id":76561198814458512,"connected_time":357000000000,"state":"active","ping":82},{"user_id":153,"name":"R\u0026R","steam_id":76561198318485462,"connected_time":833000000000,"state":"active","ping":53},{"user_id":144,"name":"Deep Fried Pyro","steam_id":76561198063545062,"connected_time":1094000000000,"state":"active","ping":151},{"user_id":140,"name":"electro599","steam_id":76561198058148858,"connected_time":1210000000000,"state":"active","ping":59},{"user_id":141,"name":"Crimson Aurora","steam_id":76561198157492747,"connected_time":1175000000000,"state":"active","ping":106},{"user_id":166,"name":"Allun","steam_id":76561198069110996,"connected_time":351000000000,"state":"active","ping":59},{"user_id":151,"name":"‚ô†¬≥","steam_id":76561199140616120,"connected_time":865000000000,"state":"active","ping":98},{"user_id":167,"name":"good morning","steam_id":76561198895690844,"connected_time":331000000000,"state":"active","ping":62},{"user_id":168,"name":"old chunk of coal","steam_id":76561197990537324,"connected_time":300000000000,"state":"active","ping":105},{"user_id":173,"name":"Cris.p bacon","steam_id":76561199230423491,"connected_time":127000000000,"state":"active","ping":103},{"user_id":169,"name":"Piklz","steam_id":76561198043384139,"connected_time":288000000000,"state":"active","ping":52},{"user_id":161,"name":"Fresh Produce Gaming","steam_id":76561198358483352,"connected_time":546000000000,"state":"active","ping":62},{"user_id":162,"name":"Mr.Deathclaw","steam_id":76561198025419320,"connected_time":539000000000,"state":"active","ping":49}]},{"server_id":123,"name":"Uncletopia | Sydney | 2 | All Maps","name_short":"syd-2","host":"syd-1.au.uncletopia.com","port":27025,"enabled":true,"region":"au","cc":"au","latitude":-33.865143,"longitude":151.2099,"reserved":0,"last_update":"0001-01-01T00:00:00Z","name_a2s":"Uncletopia | Sydney | 2 | All Maps","protocol":17,"map":"cp_sunshine","folder":"tf","game":"Team Fortress","app_id":440,"player_count":24,"max_players":24,"Bots":0,"server_type":"Dedicated","server_os":"Linux","password":true,"vac":true,"version":"7757534","steam_id":85568392924470002,"keywords":["cp","nocrits","nodmgspread","uncletopia"],"game_id":440,"stv_port":27026,"stv_name":"Uncletopia | Sydney | 2 | All Maps | STV","players":[{"user_id":356,"name":"ia pologise to ohio","steam_id":76561198301282416,"connected_time":960000000000,"state":"active","ping":59},{"user_id":345,"name":"Kevin Parker","steam_id":76561198060677406,"connected_time":2263000000000,"state":"active","ping":95},{"user_id":332,"name":"Mr Mahal","steam_id":76561198123234137,"connected_time":3170000000000,"state":"active","ping":59},{"user_id":351,"name":"Schlompp","steam_id":76561198387205855,"connected_time":1161000000000,"state":"active","ping":75},{"user_id":355,"name":"Humoubgus flibbleworp","steam_id":76561198063481761,"connected_time":1060000000000,"state":"active","ping":39},{"user_id":316,"name":"voxii","steam_id":76561198099698281,"connected_time":4028000000000,"state":"active","ping":65},{"user_id":357,"name":"Flakey","steam_id":76561198021618682,"connected_time":956000000000,"state":"active","ping":64},{"user_id":358,"name":"Captain Canadia","steam_id":76561198167967735,"connected_time":949000000000,"state":"active","ping":49},{"user_id":337,"name":"jrg","steam_id":76561197997362731,"connected_time":2607000000000,"state":"active","ping":44},{"user_id":274,"name":"Marzell","steam_id":76561198151276153,"connected_time":6213000000000,"state":"active","ping":90},{"user_id":321,"name":"Crabloid","steam_id":76561199081848498,"connected_time":3548000000000,"state":"active","ping":60},{"user_id":304,"name":"CypressFluff (She/Her)","steam_id":76561198174667818,"connected_time":4922000000000,"state":"active","ping":60},{"user_id":364,"name":"Lysergic Acid Diethylamide","steam_id":76561198153006468,"connected_time":400000000000,"state":"active","ping":63},{"user_id":361,"name":"terrablade_master","steam_id":76561198997249192,"connected_time":697000000000,"state":"active","ping":70},{"user_id":360,"name":"EpicGuy4227","steam_id":76561198094132328,"connected_time":755000000000,"state":"active","ping":53},{"user_id":326,"name":"canned tuna","steam_id":76561198420727269,"connected_time":3493000000000,"state":"active","ping":45},{"user_id":350,"name":"krandlez` (Any/All)","steam_id":76561198044839726,"connected_time":1323000000000,"state":"active","ping":37},{"user_id":366,"name":"alex","steam_id":76561198053382248,"connected_time":138000000000,"state":"active","ping":41},{"user_id":328,"name":"Sinister80s","steam_id":76561198343540472,"connected_time":3479000000000,"state":"active","ping":69},{"user_id":363,"name":"dorazioluca123","steam_id":76561198991142802,"connected_time":666000000000,"state":"active","ping":68},{"user_id":365,"name":"scrotum theif","steam_id":76561198271462646,"connected_time":236000000000,"state":"active","ping":47},{"user_id":354,"name":"perturb","steam_id":76561198085124297,"connected_time":1117000000000,"state":"active","ping":58},{"user_id":343,"name":"monkeyman536","steam_id":76561197997717737,"connected_time":2445000000000,"state":"active","ping":188},{"user_id":362,"name":"saudi ambassador messi","steam_id":76561198031293430,"connected_time":685000000000,"state":"active","ping":84}]},{"server_id":395,"name":"Uncletopia | Sydney | 3 | All Maps","name_short":"syd-3","host":"syd-1.au.uncletopia.com","port":27035,"enabled":true,"region":"au","cc":"au","latitude":-33.865143,"longitude":151.2099,"reserved":0,"last_update":"0001-01-01T00:00:00Z","name_a2s":"Uncletopia | Sydney | 3 | All Maps","protocol":17,"map":"pl_upward","folder":"tf","game":"Team Fortress","app_id":440,"player_count":6,"max_players":24,"Bots":0,"server_type":"Dedicated","server_os":"Linux","password":true,"vac":true,"version":"7757534","steam_id":85568392925194467,"keywords":["nocrits","nodmgspread","payload","uncletopia"],"game_id":440,"stv_port":27036,"stv_name":"Uncletopia | Sydney | 3 | All Maps | STV","players":[{"user_id":23,"name":"Ooops","steam_id":76561198420572723,"connected_time":6000000000,"state":"spawning","ping":169},{"user_id":18,"name":"„Ç¢„É™„Çπ","steam_id":76561198041318894,"connected_time":247000000000,"state":"active","ping":44},{"user_id":17,"name":"Bob","steam_id":76561198993654166,"connected_time":292000000000,"state":"active","ping":72},{"user_id":19,"name":"RignoSturr","steam_id":76561199147245314,"connected_time":207000000000,"state":"active","ping":61},{"user_id":20,"name":"monnickev","steam_id":76561198252587162,"connected_time":95000000000,"state":"active","ping":45},{"user_id":22,"name":"sockie #AI_LUvR","steam_id":76561199132529999,"connected_time":43000000000,"state":"active","ping":71}]},{"server_id":396,"name":"Uncletopia | Sydney | 4 | All Maps","name_short":"syd-4","host":"syd-1.au.uncletopia.com","port":27045,"enabled":true,"region":"au","cc":"au","latitude":-33.865143,"longitude":151.2099,"reserved":0,"last_update":"0001-01-01T00:00:00Z","name_a2s":"Uncletopia | Sydney | 4 | All Maps","protocol":17,"map":"koth_highpass","folder":"tf","game":"Team Fortress","app_id":440,"player_count":0,"max_players":24,"Bots":0,"server_type":"Dedicated","server_os":"Linux","password":true,"vac":true,"version":"7757534","steam_id":85568392925397958,"keywords":["cp","nocrits","nodmgspread","uncletopia"],"game_id":440,"stv_port":27046,"stv_name":"Uncletopia | Sydney | 4 | All Maps | STV","players":null},{"server_id":58,"name":"Uncletopia | Sydney | 5 | Stopwatch Beta","name_short":"syd-5","host":"syd-1.au.uncletopia.com","port":27055,"enabled":true,"region":"au","cc":"au","latitude":-33.865143,"longitude":151.2099,"reserved":0,"last_update":"0001-01-01T00:00:00Z","name_a2s":"Uncletopia | Sydney | 5 | Stopwatch Beta","protocol":17,"map":"pl_upward","folder":"tf","game":"Team Fortress","app_id":440,"player_count":0,"max_players":24,"Bots":0,"server_type":"Dedicated","server_os":"Linux","password":true,"vac":true,"version":"7757534","steam_id":85568392925397959,"keywords":["nocrits","nodmgspread","payload","uncletopia"],"game_id":440,"stv_port":27056,"stv_name":"Uncletopia | Sydney | 5 | Stopwatch Beta | STV","players":null},{"server_id":59,"name":"Uncletopia | Sydney | 6 | Community","name_short":"syd-6","host":"syd-1.au.uncletopia.com","port":27065,"enabled":true,"region":"au","cc":"au","latitude":-33.865143,"longitude":151.2099,"reserved":0,"last_update":"0001-01-01T00:00:00Z","name_a2s":"Uncletopia | Sydney | 6 | Community","protocol":17,"map":"workshop/koth_ramjam_rc1.ugc459778887","folder":"tf","game":"Team Fortress","app_id":440,"player_count":0,"max_players":24,"Bots":0,"server_type":"Dedicated","server_os":"Linux","password":true,"vac":true,"version":"7757534","steam_id":85568392925397960,"keywords":["cp","nocrits","nodmgspread","uncletopia"],"game_id":440,"stv_port":27066,"stv_name":"Uncletopia | Sydney | 6 | Community | STV","players":null},{"server_id":49,"name":"Uncletopia | Warsaw | 1 | All Maps","name_short":"waw-1","host":"waw-1.pl.uncletopia.com","port":27015,"enabled":true,"region":"eu","cc":"pl","latitude":52.2297,"longitude":21.017532,"reserved":0,"last_update":"0001-01-01T00:00:00Z","name_a2s":"","protocol":0,"map":"","folder":"","game":"","app_id":0,"player_count":0,"max_players":0,"Bots":0,"server_type":"","server_os":"","password":false,"vac":false,"version":"","steam_id":0,"keywords":null,"game_id":0,"stv_port":0,"stv_name":"","players":null},{"server_id":50,"name":"Uncletopia | Warsaw | 2 | All Maps","name_short":"waw-2","host":"waw-1.pl.uncletopia.com","port":27025,"enabled":true,"region":"eu","cc":"pl","latitude":52.2297,"longitude":21.017532,"reserved":0,"last_update":"0001-01-01T00:00:00Z","name_a2s":"Uncletopia | Warsaw | 2 | All Maps","protocol":17,"map":"koth_viaduct","folder":"tf","game":"Team Fortress","app_id":440,"player_count":0,"max_players":24,"Bots":0,"server_type":"Dedicated","server_os":"Linux","password":true,"vac":true,"version":"7757534","steam_id":85568392925397851,"keywords":["cp","nocrits","nodmgspread","uncletopia"],"game_id":440,"stv_port":27026,"stv_name":"Uncletopia | Warsaw | 2 | All Maps | STV","players":null},{"server_id":51,"name":"Uncletopia | Warsaw | 3 | All Maps","name_short":"waw-3","host":"waw-1.pl.uncletopia.com","port":27035,"enabled":true,"region":"eu","cc":"pl","latitude":52.2297,"longitude":21.017532,"reserved":0,"last_update":"0001-01-01T00:00:00Z","name_a2s":"Uncletopia | Warsaw | 3 | All Maps","protocol":17,"map":"pl_badwater","folder":"tf","game":"Team Fortress","app_id":440,"player_count":0,"max_players":24,"Bots":0,"server_type":"Dedicated","server_os":"Linux","password":true,"vac":true,"version":"7757534","steam_id":85568392925397852,"keywords":["nocrits","nodmgspread","payload","uncletopia"],"game_id":440,"stv_port":27036,"stv_name":"Uncletopia | Warsaw | 3 | All Maps | STV","players":null},{"server_id":52,"name":"Uncletopia | Warsaw | 4 | All Maps","name_short":"waw-4","host":"waw-1.pl.uncletopia.com","port":27045,"enabled":true,"region":"eu","cc":"pl","latitude":52.2297,"longitude":21.017532,"reserved":0,"last_update":"0001-01-01T00:00:00Z","name_a2s":"Uncletopia | Warsaw | 4 | All Maps","protocol":17,"map":"koth_lakeside_final","folder":"tf","game":"Team Fortress","app_id":440,"player_count":0,"max_players":24,"Bots":0,"server_type":"Dedicated","server_os":"Linux","password":true,"vac":true,"version":"7757534","steam_id":85568392925397853,"keywords":["cp","nocrits","nodmgspread","uncletopia"],"game_id":440,"stv_port":27046,"stv_name":"Uncletopia | Warsaw | 4 | All Maps | STV","players":null},{"server_id":53,"name":"Uncletopia | Warsaw | 5 | Stopwatch Beta","name_short":"waw-5","host":"waw-1.pl.uncletopia.com","port":27055,"enabled":true,"region":"eu","cc":"pl","latitude":52.2297,"longitude":21.017532,"reserved":0,"last_update":"0001-01-01T00:00:00Z","name_a2s":"Uncletopia | Warsaw | 5 | Stopwatch Beta","protocol":17,"map":"pl_borneo","folder":"tf","game":"Team Fortress","app_id":440,"player_count":0,"max_players":24,"Bots":0,"server_type":"Dedicated","server_os":"Linux","password":true,"vac":true,"version":"7757534","steam_id":85568392925397854,"keywords":["nocrits","nodmgspread","payload","uncletopia"],"game_id":440,"stv_port":27056,"stv_name":"Uncletopia | Warsaw | 5 | Stopwatch Beta | STV","players":null},{"server_id":54,"name":"Uncletopia | Warsaw | 6 | Community","name_short":"waw-6","host":"waw-1.pl.uncletopia.com","port":27065,"enabled":true,"region":"eu","cc":"pl","latitude":52.2297,"longitude":21.017532,"reserved":0,"last_update":"0001-01-01T00:00:00Z","name_a2s":"Uncletopia | Warsaw | 6 | Community","protocol":17,"map":"koth_lakeside_final","folder":"tf","game":"Team Fortress","app_id":440,"player_count":0,"max_players":24,"Bots":0,"server_type":"Dedicated","server_os":"Linux","password":true,"vac":true,"version":"7757534","steam_id":85568392925397856,"keywords":["cp","nocrits","nodmgspread","uncletopia"],"game_id":440,"stv_port":27066,"stv_name":"Uncletopia | Warsaw | 6 | Community | STV","players":null}]}