{"status":true,"message":"","result":[{"server_id":9,"name":"Uncletopia | Atlanta | 1 | All Maps","name_short":"atl-1","host":"atl-1.us.uncletopia.com","port":27015,"enabled":true,"region":"us-east","cc":"us","latitude":33.753746,"longitude":-84.38633,"reserved":0,"last_update":"0001-01-01T00:00:00Z","name_a2s":"Uncletopia | Atlanta | 1 | All Maps","protocol":17,"map":"pl_swiftwater_final1","folder":"tf","game":"Team Fortress","app_id":440,"player_count":24,"max_players":24,"Bots":0,"server_type":"Dedicated","server_os":"Linux","password":true,"vac":true,"version":"7757534","steam_id":85568392924469982,"keywords":["nocrits","nodmgspread","payload","uncletopia"],"game_id":440,"stv_port":27016,"stv_name":"Uncletopia | Atlanta | 1 | All Maps | STV","players":[{"user_id":240,"name":"wire-guided","steam_id":76561198055407168,"connected_time":469000000000,"state":"active","ping":54},{"user_id":247,"name":"Xida","steam_id":76561198273471095,"connected_time":240000000000,"state":"active","ping":110},{"user_id":237,"name":"SparksKitsune","steam_id":76561198066890691,"connected_time":506000000000,"state":"active","ping":65},{"user_id":230,"name":"Rat_king","steam_id":76561199465689129,"connected_time":1252000000000,"state":"active","ping":67},{"user_id":225,"name":"Kiso ÁÅ´","steam_id":76561198141026844,"connected_time":1366000000000,"state":"active","ping":120},{"user_id":217,"name":"vordhosbn","steam_id":76561198148132163,"connected_time":2147000000000,"state":"active","ping":138},{"user_id":250,"name":"Goofball","steam_id":76561198074189084,"connected_time":91000000000,"state":"active","ping":58},{"user_id":144,"name":"im really bad sorry","steam_id":76561198277163301,"connected_time":4164000000000,"state":"active","ping":84},{"user_id":234,"name":"the-willy12","steam_id":76561199145029672,"connected_time":553000000000,"state":"active","ping":93},{"user_id":242,"name":"Vladikr1","steam_id":76561198401495362,"connected_time":405000000000,"state":"active","ping":81},{"user_id":251,"name":"we do a bit of trolling","steam_id":76561199239506330,"connected_time":62000000000,"state":"active","ping":81},{"user_id":179,"name":"Raptortastic","steam_id":76561198105613110,"connected_time":3507000000000,"state":"active","ping":75},{"user_id":215,"name":".jpeg","steam_id":76561198799978339,"connected_time":2301000000000,"state":"active","ping":102},{"user_id":246,"name":"your local forecast","steam_id":76561198042243083,"connected_time":259000000000,"state":"active","ping":60},{"user_id":232,"name":"Jin Gulilo","steam_id":76561198065151242,"connected_time":1059000000000,"state":"active","ping":77},{"user_id":249,"name":"butterbutt!","steam_id":76561198038160740,"connected_time":215000000000,"state":"active","ping":47},{"user_id":244,"name":"Red","steam_id":76561198041784302,"connected_time":341000000000,"state":"active","ping":88},{"user_id":219,"name":"Scelo","steam_id":76561197987805095,"connected_time":2021000000000,"state":"active","ping":106},{"user_id":228,"name":"Borat Voice My Wife","steam_id":76561198020474727,"connected_time":1333000000000,"state":"active","ping":57},{"user_id":235,"name":"V!CT!M","steam_id":76561198962721502,"connected_time":552000000000,"state":"active","ping":88},{"user_id":241,"name":"DFR DeezNoodlez","steam_id":76561198246700372,"connected_time":439000000000,"state":"active","ping":60},{"user_id":192,"name":"C papi","steam_id":76561198027779564,"connected_time":3262000000000,"state":"active","ping":55},{"user_id":224,"name":"PackedGorgon","steam_id":76561198042686806,"connected_time":1380000000000,"state":"active","ping":75},{"user_id":245,"name":"NekoMini ‚ô•","steam_id":76561198066455591,"connected_time":278000000000,"state":"active","ping":82}]},{"server_id":104,"name":"Uncletopia | Atlanta | 2 | All Maps","name_short":"atl-2","host":"atl-1.us.uncletopia.com","port":27025,"enabled":true,"region":"us-east","cc":"us","latitude":33.753746,"longitude":-84.38633,"reserved":0,"last_update":"0001-01-01T00:00:00Z","name_a2s":"Uncletopia | Atlanta | 2 | All Maps","protocol":17,"map":"koth_viaduct","folder":"tf","game":"Team Fortress","app_id":440,"player_count":23,"max_players":24,"Bots":0,"server_type":"Dedicated","server_os":"Linux","password":true,"vac":true,"version":"7757534","steam_id":85568392924469983,"keywords":["cp","nocrits","nodmgspread","uncletopia"],"game_id":440,"stv_port":27026,"stv_name":"Uncletopia | Atlanta | 2 | All Maps | STV","players":[{"user_id":362,"name":"omyy","steam_id":76561198334751997,"connected_time":677000000000,"state":"active","ping":79},{"user_id":320,"name":"Yuri Tarded","steam_id":76561198034339940,"connected_time":3797000000000,"state":"active","ping":59},{"user_id":330,"name":"Schweppley","steam_id":76561198125036500,"connected_time":2486000000000,"state":"active","ping":60},{"user_id":364,"name":"Zwahe","steam_id":76561198119750206,"connected_time":270000000000,"state":"active","ping":60},{"user_id":331,"name":"Peenie Genie","steam_id":76561198102234833,"connected_time":2475000000000,"state":"active","ping":153},{"user_id":332,"name":"BurnN8or101","steam_id":76561198132668224,"connected_time":2449000000000,"state":"active","ping":83},{"user_id":336,"name":"Mr. Pinkie","steam_id":76561198002258053,"connected_time":2321000000000,"state":"active","ping":145},{"user_id":334,"name":"Something Generic","steam_id":76561198989826375,"connected_time":2339000000000,"state":"active","ping":97},{"user_id":297,"name":"the real babytron","steam_id":76561197989627918,"connected_time":5875000000000,"state":"active","ping":83},{"user_id":346,"name":"ÿßŸÜÿ™ÿ≠ÿ± Ÿäÿß ÿßÿ®ŸÜ ÿßŸÑŸÖÿ™","steam_id":76561198326987939,"connected_time":1615000000000,"state":"active","ping":66},{"user_id":335,"name":"iAmBack!\u003c3","steam_id":76561198004525276,"connected_time":2334000000000,"state":"active","ping":164},{"user_id":337,"name":"The Chosen One","steam_id":76561199046984627,"connected_time":2279000000000,"state":"active","ping":67},{"user_id":326,"name":"Draco6257","steam_id":76561199147322448,"connected_time":2931000000000,"state":"active","ping":54},{"user_id":361,"name":"Dr. Mathew","steam_id":76561199015513652,"connected_time":776000000000,"state":"active","ping":99},{"user_id":356,"name":"Smeller","steam_id":76561198041767882,"connected_time":1074000000000,"state":"active","ping":44},{"user_id":349,"name":"DragonHunter994","steam_id":76561199076203907,"connected_time":1435000000000,"state":"active","ping":90},{"user_id":352,"name":"spimtmot733","steam_id":76561199029189825,"connected_time":1307000000000,"state":"active","ping":73},{"user_id":365,"name":"Admiral Casual","steam_id":76561198150840826,"connected_time":235000000000,"state":"active","ping":41},{"user_id":357,"name":"magotago","steam_id":76561198013650292,"connected_time":988000000000,"state":"active","ping":100},{"user_id":366,"name":"10 Calories","steam_id":76561198044851917,"connected_time":201000000000,"state":"active","ping":73},{"user_id":353,"name":"Shame","steam_id":76561198100490994,"connected_time":1245000000000,"state":"active","ping":58},{"user_id":317,"name":"poop tbh","steam_id":76561198056186750,"connected_time":4199000000000,"state":"active","ping":73},{"user_id":318,"name":"Zel | Count Chocula's Toes","steam_id":76561198038249452,"connected_time":4190000000000,"state":"active","ping":72}]},{"server_id":400,"name":"Uncletopia | Atlanta | 3 | Community","name_short":"atl-3","host":"atl-1.us.uncletopia.com","port":27035,"enabled":true,"region":"us-east","cc":"us","latitude":33.753746,"longitude":-84.38633,"reserved":0,"last_update":"0001-01-01T00:00:00Z","name_a2s":"Uncletopia | Atlanta | 3 | Community","protocol":17,"map":"workshop/cp_croissant_final.ugc458840209","folder":"tf","game":"Team Fortress","app_id":440,"player_count":0,"max_players":24,"Bots":0,"server_type":"Dedicated","server_os":"Linux","password":true,"vac":true,"version":"7757534","steam_id":85568392924515187,"keywords":["cp","nocrits","nodmgspread","uncletopia"],"game_id":440,"stv_port":27036,"stv_name":"Uncletopia | Atlanta | 3 | Community | STV","players":null},{"server_id":401,"name":"Uncletopia | Atlanta | 4 | No Payload","name_short":"atl-4","host":"atl-1.us.uncletopia.com","port":27045,"enabled":true,"region":"us-east","cc":"us","latitude":33.753746,"longitude":-84.38633,"reserved":0,"last_update":"0001-01-01T00:00:00Z","name_a2s":"","protocol":0,"map":"","folder":"","game":"","app_id":0,"player_count":0,"max_players":0,"Bots":0,"server_type":"","server_os":"","password":false,"vac":false,"version":"","steam_id":0,"keywords":null,"game_id":0,"stv_port":0,"stv_name":"","players":null},{"server_id":2,"name":"Uncletopia | Chicago | 1 | All Maps","name_short":"chi-1","host":"chi-1.us.uncletopia.com","port":27015,"enabled":true,"region":"us-central","cc":"us","latitude":41.881832,"longitude":-87.62318,"reserved":0,"last_update":"0001-01-01T00:00:00Z","name_a2s":"Uncletopia | Chicago | 1 | All Maps","protocol":17,"map":"pl_pier","folder":"tf","game":"Team Fortress","app_id":440,"player_count":24,"max_players":24,"Bots":0,"server_type":"Dedicated","server_os":"Linux","password":true,"vac":true,"version":"7757534","steam_id":85568392924469984,"keywords":["nocrits","nodmgspread","payload","uncletopia"],"game_id":440,"stv_port":27016,"stv_name":"Uncletopia | Chicago | 1 | All Maps | STV","players":[{"user_id":571,"name":"Big Phony","steam_id":76561199092395311,"connected_time":275000000000,"state":"active","ping":61},{"user_id":555,"name":"Dade Murphy","steam_id":76561198245103000,"connected_time":1429000000000,"state":"active","ping":69},{"user_id":577,"name":"Jnlaw","steam_id":76561198009307069,"connected_time":127000000000,"state":"active","ping":79},{"user_id":485,"name":"Kwizine","steam_id":76561198147999400,"connected_time":5053000000000,"state":"active","ping":147},{"user_id":567,"name":"-W3E- grim10465","steam_id":76561198045698581,"connected_time":383000000000,"state":"active","ping":46},{"user_id":514,"name":"[ŸäŸáŸàÿØŸä] Bill Clinton [◊ê◊ú","steam_id":76561198163291190,"connected_time":3889000000000,"state":"active","ping":85},{"user_id":560,"name":"Importality","steam_id":76561198049943127,"connected_time":811000000000,"state":"active","ping":84},{"user_id":575,"name":"Heavy thinks everyone is Medic","steam_id":76561199111430580,"connected_time":180000000000,"state":"active","ping":74},{"user_id":556,"name":"DiscoTraveler","steam_id":76561199240168088,"connected_time":1411000000000,"state":"active","ping":65},{"user_id":570,"name":"Vacc Onetrick","steam_id":76561198207987376,"connected_time":300000000000,"state":"active","ping":70},{"user_id":521,"name":"UNIT 220","steam_id":76561198042243497,"connected_time":3684000000000,"state":"active","ping":67},{"user_id":538,"name":"Goober","steam_id":76561198988863807,"connected_time":2305000000000,"state":"active","ping":78},{"user_id":572,"name":"Lia_Rein","steam_id":76561198151569597,"connected_time":231000000000,"state":"active","ping":143},{"user_id":518,"name":"Recursive Gamer","steam_id":76561198042102952,"connected_time":3824000000000,"state":"active","ping":66},{"user_id":522,"name":"Crunchy","steam_id":76561199065412274,"connected_time":3674000000000,"state":"active","ping":101},{"user_id":576,"name":"quacked!","steam_id":76561198970819395,"connected_time":178000000000,"state":"active","ping":84},{"user_id":536,"name":"Jarvis from Avengers","steam_id":76561198164035863,"connected_time":2466000000000,"state":"active","ping":58},{"user_id":533,"name":"Rornir","steam_id":76561198081829615,"connected_time":2782000000000,"state":"active","ping":40},{"user_id":553,"name":"Mr. Dry Lips","steam_id":76561198028157625,"connected_time":1465000000000,"state":"active","ping":88},{"user_id":535,"name":"[UHS] K24A4 2.4","steam_id":76561199072970627,"connected_time":2662000000000,"state":"active","ping":46},{"user_id":537,"name":"George","steam_id":76561198020046873,"connected_time":2383000000000,"state":"active","ping":59},{"user_id":543,"name":"Mandorin Moranges","steam_id":76561198277645423,"connected_time":2241000000000,"state":"active","ping":54},{"user_id":564,"name":"Hylic","steam_id":76561199051314589,"connected_time":401000000000,"state":"active","ping":74},{"user_id":565,"name":"noose","steam_id":76561199177327629,"connected_time":396000000000,"state":"active","ping":171}]},{"server_id":106,"name":"Uncletopia | Chicago | 2 | All Maps","name_short":"chi-2","host":"chi-1.us.uncletopia.com","port":27025,"enabled":true,"region":"us-central","cc":"us","latitude":41.881832,"longitude":-87.62318,"reserved":0,"last_update":"0001-01-01T00:00:00Z","name_a2s":"Uncletopia | Chicago | 2 | All Maps","protocol":17,"map":"pl_frontier_final","folder":"tf","game":"Team Fortress","app_id":440,"player_count":6,"max_players":24,"Bots":0,"server_type":"Dedicated","server_os":"Linux","password":true,"vac":true,"version":"7757534","steam_id":85568392924469985,"keywords":["nocrits","nodmgspread","payload","uncletopia"],"game_id":440,"stv_port":27026,"stv_name":"Uncletopia | Chicago | 2 | All Maps | STV","players":[{"user_id":18,"name":"Habba","steam_id":76561197986096340,"connected_time":640000000000,"state":"active","ping":66},{"user_id":19,"name":"TrenchcoatCraig","steam_id":76561198295599533,"connected_time":605000000000,"state":"active","ping":48},{"user_id":20,"name":"‚ñ≤‚ñº‚ñ≤ Paul Atreideeznuts","steam_id":76561198015714075,"connected_time":323000000000,"state":"active","ping":75},{"user_id":21,"name":"Bomby","steam_id":76561198096572920,"connected_time":281000000000,"state":"active","ping":68},{"user_id":22,"name":"Scent Tree","steam_id":76561198444371121,"connected_time":248000000000,"state":"active","ping":87},{"user_id":23,"name":"Snowberry Kush","steam_id":76561198392280580,"connected_time":170000000000,"state":"active","ping":66}]},{"server_id":402,"name":"Uncletopia | Chicago | 3 | All Maps","name_short":"chi-3","host":"chi-1.us.uncletopia.com","port":27035,"enabled":true,"region":"us-central","cc":"us","latitude":41.881832,"longitude":-87.62318,"reserved":0,"last_update":"0001-01-01T00:00:00Z","name_a2s":"Uncletopia | Chicago | 3 | All Maps","protocol":17,"map":"pl_pier","folder":"tf","game":"Team Fortress","app_id":440,"player_count":24,"max_players":24,"Bots":0,"server_type":"Dedicated","server_os":"Linux","password":true,"vac":true,"version":"7757534","steam_id":85568392924515191,"keywords":["nocrits","nodmgspread","payload","uncletopia"],"game_id":440,"stv_port":27036,"stv_name":"Uncletopia | Chicago | 3 | All Maps | STV","players":[{"user_id":366,"name":"Ginger Jesus","steam_id":76561198052386458,"connected_time":3055000000000,"state":"active","ping":61},{"user_id":405,"name":"what","steam_id":76561198082336619,"connected_time":454000000000,"state":"active","ping":75},{"user_id":400,"name":"Fobby #Savetf2","steam_id":76561198047681469,"connected_time":559000000000,"state":"active","ping":78},{"user_id":404,"name":"POGTRONAS","steam_id":76561198061214216,"connected_time":491000000000,"state":"active","ping":115},{"user_id":401,"name":"Oni","steam_id":76561198112066584,"connected_time":557000000000,"state":"active","ping":61},{"user_id":395,"name":"Dlion0","steam_id":76561198069810035,"connected_time":1177000000000,"state":"active","ping":89},{"user_id":303,"name":"LerN","steam_id":76561198083463877,"connected_time":7113000000000,"state":"active","ping":59},{"user_id":373,"name":"soyboi","steam_id":76561198025466913,"connected_time":2477000000000,"state":"active","ping":100},{"user_id":396,"name":"beta central","steam_id":76561198301876831,"connected_time":1162000000000,"state":"active","ping":56},{"user_id":319,"name":"Vial of Throbb","steam_id":76561198348095996,"connected_time":6297000000000,"state":"active","ping":50},{"user_id":368,"name":"Anomet","steam_id":76561198060246255,"connected_time":3003000000000,"state":"active","ping":60},{"user_id":385,"name":"British Zoner","steam_id":76561198977330214,"connected_time":1897000000000,"state":"active","ping":102},{"user_id":407,"name":"Critscare","steam_id":76561198087712508,"connected_time":350000000000,"state":"active","ping":52},{"user_id":386,"name":"xiii","steam_id":76561198079416036,"connected_time":1887000000000,"state":"active","ping":44},{"user_id":403,"name":"Pyromania","steam_id":76561198317028173,"connected_time":525000000000,"state":"active","ping":76},{"user_id":392,"name":"Snorty","steam_id":76561198114304454,"connected_time":1569000000000,"state":"active","ping":78},{"user_id":394,"name":"Mastercheif","steam_id":76561198935642457,"connected_time":1540000000000,"state":"active","ping":65},{"user_id":409,"name":"MjrMovnTARGET","steam_id":76561199125908849,"connected_time":194000000000,"state":"active","ping":74},{"user_id":351,"name":"BluCoffee","steam_id":76561198214995967,"connected_time":4316000000000,"state":"active","ping":55},{"user_id":371,"name":"Blitzy","steam_id":76561198149472890,"connected_time":2677000000000,"state":"active","ping":75},{"user_id":352,"name":"Cheesemelt","steam_id":76561198008221847,"connected_time":4254000000000,"state":"active","ping":51},{"user_id":372,"name":"ratie","steam_id":76561198059399661,"connected_time":2671000000000,"state":"active","ping":81},{"user_id":390,"name":"Gabinator32","steam_id":76561198872467183,"connected_time":1789000000000,"state":"active","ping":54},{"user_id":398,"name":"Wrauqe","steam_id":76561198303160647,"connected_time":749000000000,"state":"active","ping":73}]},{"server_id":403,"name":"Uncletopia | Chicago | 4 | All Maps","name_short":"chi-4","host":"chi-1.us.uncletopia.com","port":27045,"enabled":true,"region":"us-central","cc":"us","latitude":41.881832,"longitude":-87.62318,"reserved":0,"last_update":"0001-01-01T00:00:00Z","name_a2s":"Uncletopia | Chicago | 4 | All Maps","protocol":17,"map":"pl_pier","folder":"tf","game":"Team Fortress","app_id":440,"player_count":1,"max_players":24,"Bots":0,"server_type":"Dedicated","server_os":"Linux","password":true,"vac":true,"version":"7757534","steam_id":85568392924515193,"keywords":["nocrits","nodmgspread","payload","uncletopia"],"game_id":440,"stv_port":27046,"stv_name":"Uncletopia | Chicago | 4 | All Maps | STV","players":[{"user_id":204,"name":"superkahles","steam_id":76561198844096180,"connected_time":89000000000,"state":"active","ping":69}]},{"server_id":36,"name":"Uncletopia | Chicago | 5 | All Maps","name_short":"chi-5","host":"chi-2.us.uncletopia.com","port":27015,"enabled":true,"region":"us-central","cc":"us","latitude":41.881832,"longitude":-87.62318,"reserved":0,"last_update":"0001-01-01T00:00:00Z","name_a2s":"Uncletopia | Chicago | 5 | All Maps","protocol":17,"map":"cp_yukon_final","folder":"tf","game":"Team Fortress","app_id":440,"player_count":24,"max_players":24,"Bots":0,"server_type":"Dedicated","server_os":"Linux","password":true,"vac":true,"version":"7757534","steam_id":85568392924866362,"keywords":["cp","nocrits","nodmgspread","uncletopia"],"game_id":440,"stv_port":27016,"stv_name":"Uncletopia | Chicago | 5 | All Maps | STV","players":[{"user_id":188,"name":"Walter White","steam_id":76561198875469297,"connected_time":2620000000000,"state":"active","ping":61},{"user_id":224,"name":"Quansen","steam_id":76561198151594550,"connected_time":392000000000,"state":"active","ping":49},{"user_id":176,"name":"Mikael_01","steam_id":76561199080253129,"connected_time":3600000000000,"state":"active","ping":190},{"user_id":225,"name":"Fake21","steam_id":76561198282065071,"connected_time":325000000000,"state":"active","ping":61},{"user_id":201,"name":"a mass hallucination","steam_id":76561198259092181,"connected_time":1479000000000,"state":"active","ping":63},{"user_id":45,"name":"his flatulence","steam_id":76561198799404824,"connected_time":13253000000000,"state":"active","ping":70},{"user_id":198,"name":"PersonWhoJustDiedMaybeIDontKnow","steam_id":76561199109564855,"connected_time":1623000000000,"state":"active","ping":90},{"user_id":218,"name":"engie","steam_id":76561199229629045,"connected_time":905000000000,"state":"active","ping":108},{"user_id":219,"name":"squiddy odd","steam_id":76561198849240604,"connected_time":888000000000,"state":"active","ping":66},{"user_id":229,"name":"Gomba","steam_id":76561198186115035,"connected_time":139000000000,"state":"active","ping":58},{"user_id":216,"name":"prson404","steam_id":76561199094698591,"connected_time":1128000000000,"state":"active","ping":101},{"user_id":200,"name":"craxyt","steam_id":76561198050192689,"connected_time":1510000000000,"state":"active","ping":98},{"user_id":222,"name":"dreadout5","steam_id":76561198090331903,"connected_time":556000000000,"state":"active","ping":69},{"user_id":228,"name":"creepycrawler","steam_id":76561198352016831,"connected_time":151000000000,"state":"active","ping":65},{"user_id":220,"name":"majorbobfunction","steam_id":76561198042464632,"connected_time":843000000000,"state":"active","ping":56},{"user_id":208,"name":"Cousin Corn on the Cob","steam_id":76561198049837377,"connected_time":1266000000000,"state":"active","ping":49},{"user_id":221,"name":"LevelZ3R0","steam_id":76561199239710681,"connected_time":815000000000,"state":"active","ping":130},{"user_id":209,"name":"BasicPeaches","steam_id":76561198190890150,"connected_time":1253000000000,"state":"active","ping":85},{"user_id":210,"name":"pigswill","steam_id":76561197999081865,"connected_time":1246000000000,"state":"active","ping":88},{"user_id":227,"name":"Reno Gato","steam_id":76561198048417246,"connected_time":282000000000,"state":"active","ping":88},{"user_id":167,"name":"Registeel","steam_id":76561198068516556,"connected_time":3906000000000,"state":"active","ping":96},{"user_id":212,"name":"Farseer Ulwithy","steam_id":76561197965179245,"connected_time":1245000000000,"state":"active","ping":83},{"user_id":223,"name":"Antknee","steam_id":76561198263793809,"connected_time":413000000000,"state":"active","ping":75},{"user_id":195,"name":"Zaya7709","steam_id":76561199274247868,"connected_time":1997000000000,"state":"active","ping":93}]},{"server_id":37,"name":"Uncletopia | Chicago | 6 | All Maps","name_short":"chi-6","host":"chi-2.us.uncletopia.com","port":27025,"enabled":true,"region":"us-central","cc":"us","latitude":41.881832,"longitude":-87.62318,"reserved":0,"last_update":"0001-01-01T00:00:00Z","name_a2s":"Uncletopia | Chicago | 6 | All Maps","protocol":17,"map":"pl_barnblitz","folder":"tf","game":"Team Fortress","app_id":440,"player_count":24,"max_players":24,"Bots":0,"server_type":"Dedicated","server_os":"Linux","password":true,"vac":true,"version":"7757534","steam_id":85568392924866363,"keywords":["nocrits","nodmgspread","payload","uncletopia"],"game_id":440,"stv_port":27026,"stv_name":"Uncletopia | Chicago | 6 | All Maps | STV","players":[{"user_id":95,"name":"r0zemary","steam_id":76561198128494897,"connected_time":4097000000000,"state":"active","ping":79},{"user_id":104,"name":"MidSobbes08","steam_id":76561199013101925,"connected_time":3445000000000,"state":"active","ping":153},{"user_id":145,"name":"Inigo Montoya","steam_id":76561198010603881,"connected_time":181000000000,"state":"active","ping":58},{"user_id":146,"name":"TaBunnie","steam_id":76561198197894178,"connected_time":152000000000,"state":"active","ping":67},{"user_id":74,"name":"Scorpie Doodle","steam_id":76561198021845763,"connected_time":5384000000000,"state":"active","ping":53},{"user_id":128,"name":"rontu","steam_id":76561199072955534,"connected_time":1535000000000,"state":"active","ping":46},{"user_id":147,"name":"intel30004","steam_id":76561199040243308,"connected_time":147000000000,"state":"active","ping":76},{"user_id":148,"name":"dreamybullxxx","steam_id":76561198415697906,"connected_time":141000000000,"state":"active","ping":76},{"user_id":149,"name":"the grungler!","steam_id":76561198058485742,"connected_time":137000000000,"state":"active","ping":59},{"user_id":137,"name":"Bad Rollout","steam_id":76561197971948876,"connected_time":1119000000000,"state":"active","ping":71},{"user_id":150,"name":"Pickle Lady","steam_id":76561198418116040,"connected_time":111000000000,"state":"active","ping":102},{"user_id":151,"name":"They Call me Mr.FussyPants","steam_id":76561198217210987,"connected_time":109000000000,"state":"active","ping":75},{"user_id":106,"name":"DrFlapJack","steam_id":76561199075410469,"connected_time":3396000000000,"state":"active","ping":105},{"user_id":152,"name":"4thCoptic","steam_id":76561198136922231,"connected_time":78000000000,"state":"active","ping":186},{"user_id":153,"name":"Doomagedden","steam_id":76561198272589475,"connected_time":42000000000,"state":"active","ping":89},{"user_id":108,"name":"K2f","steam_id":76561198049600563,"connected_time":3292000000000,"state":"active","ping":93},{"user_id":110,"name":"th1rg","steam_id":76561198380018244,"connected_time":3247000000000,"state":"active","ping":75},{"user_id":65,"name":"thatguy_luigi","steam_id":76561198968055462,"connected_time":6259000000000,"state":"active","ping":72},{"user_id":139,"name":"ZofoJackson","steam_id":76561197998366861,"connected_time":703000000000,"state":"active","ping":50},{"user_id":136,"name":"Enron Hubbard","steam_id":76561198012951411,"connected_time":1249000000000,"state":"active","ping":60},{"user_id":154,"name":"AirborneShark","steam_id":76561199182456397,"connected_time":18000000000,"state":"active","ping":87},{"user_id":113,"name":"Q","steam_id":76561198097979648,"connected_time":3046000000000,"state":"active","ping":61},{"user_id":144,"name":"extinct111","steam_id":76561199013696367,"connected_time":345000000000,"state":"active","ping":68},{"user_id":132,"name":"Junko","steam_id":76561198146089003,"connected_time":1506000000000,"state":"active","ping":51}]},{"server_id":38,"name":"Uncletopia | Chicago | 7 | Stopwatch Beta","name_short":"chi-7","host":"chi-2.us.uncletopia.com","port":27035,"enabled":true,"region":"us-central","cc":"us","latitude":41.881832,"longitude":-87.62318,"reserved":0,"last_update":"0001-01-01T00:00:00Z","name_a2s":"Uncletopia | Chicago | 7 | Stopwatch Beta","protocol":17,"map":"pl_barnblitz","folder":"tf","game":"Team Fortress","app_id":440,"player_count":0,"max_players":24,"Bots":0,"server_type":"Dedicated","server_os":"Linux","password":true,"vac":true,"version":"7757534","steam_id":85568392924866364,"keywords":["nocrits","nodmgspread","payload","uncletopia"],"game_id":440,"stv_port":27036,"stv_name":"Uncletopia | Chicago | 7 | Stopwatch Beta | STV","players":null},{"server_id":39,"name":"Uncletopia | Chicago | 8 | Community","name_short":"chi-8","host":"chi-2.us.uncletopia.com","port":27045,"enabled":true,"region":"us-central","cc":"us","latitude":41.881832,"longitude":-87.62318,"reserved":0,"last_update":"0001-01-01T00:00:00Z","name_a2s":"Uncletopia | Chicago | 8 | Community","protocol":17,"map":"workshop/cp_propaganda_b18.ugc1603743849","folder":"tf","game":"Team Fortress","app_id":440,"player_count":0,"max_players":24,"Bots":0,"server_type":"Dedicated","server_os":"Linux","password":true,"vac":true,"version":"7757534","steam_id":85568392924866365,"keywords":["cp","nocrits","nodmgspread","uncletopia"],"game_id":440,"stv_port":27046,"stv_name":"Uncletopia | Chicago | 8 | Community | STV","players":null},{"server_id":8,"name":"Uncletopia | Dallas | 1 | All Maps","name_short":"dal-1","host":"dal-1.us.uncletopia.com","port":27015,"enabled":true,"region":"us-central","cc":"us","latitude":32.779167,"longitude":-96.80889,"reserved":0,"last_update":"0001-01-01T00:00:00Z","name_a2s":"Uncletopia | Dallas | 1 | All Maps","protocol":17,"map":"pl_upward","folder":"tf","game":"Team Fortress","app_id":440,"player_count":23,"max_players":24,"Bots":0,"server_type":"Dedicated","server_os":"Linux","password":true,"vac":true,"version":"7757534","steam_id":85568392924469986,"keywords":["nocrits","nodmgspread","payload","uncletopia"],"game_id":440,"stv_port":27016,"stv_name":"Uncletopia | Dallas | 1 | All Maps | STV","players":[{"user_id":28,"name":"Snoopy","steam_id":76561198273735974,"connected_time":5651000000000,"state":"active","ping":83},{"user_id":14,"name":"Mr.Pan","steam_id":76561198069030613,"connected_time":6339000000000,"state":"active","ping":62},{"user_id":15,"name":"the ifunny watermark","steam_id":76561198077272494,"connected_time":6314000000000,"state":"active","ping":73},{"user_id":112,"name":"titan","steam_id":76561198197388678,"connected_time":1202000000000,"state":"active","ping":72},{"user_id":103,"name":"sweppy","steam_id":76561198035457667,"connected_time":1939000000000,"state":"active","ping":65},{"user_id":114,"name":"The Worst Player in The World","steam_id":76561198850661159,"connected_time":1106000000000,"state":"active","ping":75},{"user_id":115,"name":"shadow elite","steam_id":76561198165212575,"connected_time":1097000000000,"state":"active","ping":86},{"user_id":81,"name":"Smidvargh","steam_id":76561198121298631,"connected_time":3375000000000,"state":"active","ping":108},{"user_id":108,"name":"Gian","steam_id":76561198041434512,"connected_time":1569000000000,"state":"active","ping":117},{"user_id":110,"name":"the smiling zombie","steam_id":76561199246231090,"connected_time":1247000000000,"state":"active","ping":73},{"user_id":122,"name":"God's not dead, I am.","steam_id":76561198840484105,"connected_time":603000000000,"state":"active","ping":73},{"user_id":84,"name":"Addy \u003c3","steam_id":76561198045819723,"connected_time":3301000000000,"state":"active","ping":100},{"user_id":98,"name":"CFGU || RAWRWAFL","steam_id":76561198032118386,"connected_time":2778000000000,"state":"active","ping":94},{"user_id":116,"name":"RipHunter77","steam_id":76561198272973014,"connected_time":1068000000000,"state":"active","ping":71},{"user_id":124,"name":"StatesideSnake","steam_id":76561198272957048,"connected_time":469000000000,"state":"active","ping":73},{"user_id":100,"name":"snak","steam_id":76561199131462397,"connected_time":2334000000000,"state":"active","ping":96},{"user_id":73,"name":"Sup m8","steam_id":76561198081659121,"connected_time":3806000000000,"state":"active","ping":44},{"user_id":121,"name":"the lazy gamer","steam_id":76561199070127039,"connected_time":650000000000,"state":"active","ping":124},{"user_id":86,"name":"ÔºîÔºê Ôº¶Ôº∞Ôº≥","steam_id":76561198272394965,"connected_time":3077000000000,"state":"active","ping":145},{"user_id":39,"name":"HeisenBurger","steam_id":76561198040632080,"connected_time":5235000000000,"state":"active","ping":78},{"user_id":123,"name":"The Sydney Sleeper Itself","steam_id":76561198180251763,"connected_time":576000000000,"state":"active","ping":55},{"user_id":58,"name":"luminary","steam_id":76561198126358045,"connected_time":4928000000000,"state":"active","ping":83},{"user_id":60,"name":"‰∏Ä „ÉáÔ∏ª(‚ùõ‚Äø‚ùõ‚úø)","steam_id":76561198017686306,"connected_time":4866000000000,"state":"active","ping":169}]},{"server_id":108,"name":"Uncletopia | Dallas | 2 | All Maps","name_short":"dal-2","host":"dal-1.us.uncletopia.com","port":27025,"enabled":true,"region":"us-central","cc":"us","latitude":32.779167,"longitude":-96.80889,"reserved":0,"last_update":"0001-01-01T00:00:00Z","name_a2s":"Uncletopia | Dallas | 2 | All Maps","protocol":17,"map":"cp_well","folder":"tf","game":"Team Fortress","app_id":440,"player_count":25,"max_players":24,"Bots":0,"server_type":"Dedicated","server_os":"Linux","password":true,"vac":true,"version":"7757534","steam_id":85568392924469988,"keywords":["cp","nocrits","nodmgspread","uncletopia"],"game_id":440,"stv_port":27026,"stv_name":"Uncletopia | Dallas | 2 | All Maps | STV","players":[{"user_id":463,"name":"WormOdyssey1","steam_id":76561199251249500,"connected_time":2024000000000,"state":"active","ping":75},{"user_id":482,"name":"Healer Wolxer","steam_id":76561197999816472,"connected_time":970000000000,"state":"active","ping":65},{"user_id":477,"name":"Joshua Graham","steam_id":76561198117986799,"connected_time":1109000000000,"state":"active","ping":81},{"user_id":473,"name":"Shattered Glass","steam_id":76561198116835391,"connected_time":1245000000000,"state":"active","ping":94},{"user_id":319,"name":"Glaceon","steam_id":76561198177715869,"connected_time":12057000000000,"state":"active","ping":56},{"user_id":497,"name":"jeff","steam_id":76561198409984119,"connected_time":435000000000,"state":"active","ping":146},{"user_id":491,"name":"morrigan","steam_id":76561198071759447,"connected_time":796000000000,"state":"active","ping":93},{"user_id":480,"name":"soy consumer","steam_id":76561198047168548,"connected_time":1091000000000,"state":"active","ping":76},{"user_id":492,"name":"Gwando","steam_id":76561198294629124,"connected_time":664000000000,"state":"active","ping":40},{"user_id":501,"name":"420blzItM8","steam_id":76561198137983285,"connected_time":276000000000,"state":"active","ping":144},{"user_id":502,"name":"MrChaosOK","steam_id":76561197976353083,"connected_time":273000000000,"state":"active","ping":103},{"user_id":484,"name":"HRT","steam_id":76561198013781132,"connected_time":911000000000,"state":"active","ping":75},{"user_id":500,"name":"The Big Iron","steam_id":76561198117276391,"connected_time":352000000000,"state":"active","ping":53},{"user_id":489,"name":"kmochi","steam_id":76561198023391988,"connected_time":855000000000,"state":"active","ping":82},{"user_id":498,"name":"Sea raider","steam_id":76561198123982355,"connected_time":425000000000,"state":"active","ping":69},{"user_id":485,"name":"Idiot Prince (They/Them)","steam_id":76561198048205270,"connected_time":909000000000,"state":"active","ping":116},{"user_id":508,"name":"Dell Conagher (real)","steam_id":76561198220120368,"connected_time":75000000000,"state":"active","ping":38},{"user_id":510,"name":"jubjub","steam_id":76561197996052825,"connected_time":55000000000,"state":"active","ping":89},{"user_id":504,"name":"Jules","steam_id":76561198114847962,"connected_time":235000000000,"state":"active","ping":120},{"user_id":466,"name":"clenZORZ","steam_id":76561198835570628,"connected_time":1926000000000,"state":"active","ping":61},{"user_id":474,"name":"Chicken Joe","steam_id":76561198077799885,"connected_time":1244000000000,"state":"active","ping":89},{"user_id":511,"name":"TheKnightly","steam_id":76561199476008902,"connected_time":42000000000,"state":"spawning","ping":72},{"user_id":490,"name":"Nug Nug","steam_id":76561198066161547,"connected_time":813000000000,"state":"active","ping":100},{"user_id":506,"name":"Kronk","steam_id":76561198063092125,"connected_time":220000000000,"state":"active","ping":97}]},{"server_id":5,"name":"Uncletopia | Frankfurt | 1 | All Maps","name_short":"frk-1","host":"frk-1.de.uncletopia.com","port":27015,"enabled":true,"region":"eu","cc":"de","latitude":50.110924,"longitude":8.682127,"reserved":0,"last_update":"0001-01-01T00:00:00Z","name_a2s":"Uncletopia | Frankfurt | 1 | All Maps","protocol":17,"map":"cp_process_final","folder":"tf","game":"Team Fortress","app_id":440,"player_count":0,"max_players":24,"Bots":0,"server_type":"Dedicated","server_os":"Linux","password":true,"vac":true,"version":"7757534","steam_id":85568392924469989,"keywords":["cp","nocrits","nodmgspread","uncletopia"],"game_id":440,"stv_port":27016,"stv_name":"Uncletopia | Frankfurt | 1 | All Maps | STV","players":null},{"server_id":110,"name":"Uncletopia | Frankfurt | 2 | All Maps","name_short":"frk-2","host":"frk-1.de.uncletopia.com","port":27025,"enabled":true,"region":"eu","cc":"de","latitude":50.110924,"longitude":8.682127,"reserved":0,"last_update":"0001-01-01T00:00:00Z","name_a2s":"Uncletopia | Frankfurt | 2 | All Maps","protocol":17,"map":"pl_barnblitz","folder":"tf","game":"Team Fortress","app_id":440,"player_count":0,"max_players":24,"Bots":0,"server_type":"Dedicated","server_os":"Linux","password":true,"vac":true,"version":"7757534","steam_id":85568392924469990,"keywords":["nocrits","nodmgspread","payload","uncletopia"],"game_id":440,"stv_port":27026,"stv_name":"Uncletopia | Frankfurt | 2 | All Maps | STV","players":null},{"server_id":308,"name":"Uncletopia | Frankfurt | 3 | All Maps","name_short":"frk-3","host":"frk-1.de.uncletopia.com","port":27035,"enabled":true,"region":"eu","cc":"de","latitude":50.110924,"longitude":8.682127,"reserved":0,"last_update":"0001-01-01T00:00:00Z","name_a2s":"Uncletopia | Frankfurt | 3 | All Maps","protocol":17,"map":"cp_sunshine","folder":"tf","game":"Team Fortress","app_id":440,"player_count":23,"max_players":24,"Bots":0,"server_type":"Dedicated","server_os":"Linux","password":true,"vac":true,"version":"7757534","steam_id":85568392924504274,"keywords":["cp","nocrits","nodmgspread","uncletopia"],"game_id":440,"stv_port":27036,"stv_name":"Uncletopia | Frankfurt | 3 | All Maps | STV","players":[{"user_id":736,"name":"XavierSweet","steam_id":76561198091781913,"connected_time":321000000000,"state":"active","ping":68},{"user_id":725,"name":"pakin157","steam_id":76561198035125667,"connected_time":781000000000,"state":"active","ping":80},{"user_id":703,"name":"Ducky[WADZ]üê§","steam_id":76561198060341245,"connected_time":1280000000000,"state":"active","ping":55},{"user_id":647,"name":"Bobirulez","steam_id":76561198009125458,"connected_time":6560000000000,"state":"active","ping":74},{"user_id":739,"name":"Peter","steam_id":76561198007253310,"connected_time":79000000000,"state":"active","ping":63},{"user_id":733,"name":"Purple Pajamas","steam_id":76561199174310124,"connected_time":517000000000,"state":"active","ping":156},{"user_id":729,"name":"ChPerette","steam_id":76561198060004887,"connected_time":629000000000,"state":"active","ping":45},{"user_id":740,"name":"I am going to beat you to die","steam_id":76561198960131934,"connected_time":31000000000,"state":"active","ping":201},{"user_id":709,"name":"Luuk","steam_id":76561198088266026,"connected_time":1163000000000,"state":"active","ping":50},{"user_id":735,"name":"AragamiÛ†Å≥‚Åß‚Åß Û†Å≥_delp_","steam_id":76561198017679141,"connected_time":410000000000,"state":"active","ping":46},{"user_id":690,"name":"Charles Darwin","steam_id":76561197973496139,"connected_time":3335000000000,"state":"active","ping":54},{"user_id":715,"name":"DocTwoEight","steam_id":76561198153488940,"connected_time":1036000000000,"state":"active","ping":77},{"user_id":696,"name":"Hildreth","steam_id":76561197995254867,"connected_time":2813000000000,"state":"active","ping":54},{"user_id":738,"name":"domestic violencuwu","steam_id":76561198193357946,"connected_time":164000000000,"state":"active","ping":119},{"user_id":656,"name":"Knez","steam_id":76561198043806388,"connected_time":5899000000000,"state":"active","ping":68},{"user_id":713,"name":"EagleFire","steam_id":76561198352938403,"connected_time":1060000000000,"state":"active","ping":65},{"user_id":721,"name":"on a mission","steam_id":76561198027033926,"connected_time":925000000000,"state":"active","ping":64},{"user_id":724,"name":"X45Y","steam_id":76561198112534025,"connected_time":859000000000,"state":"active","ping":44},{"user_id":723,"name":"DarthMurloc_OW","steam_id":76561198075577711,"connected_time":910000000000,"state":"active","ping":86},{"user_id":727,"name":"Charrky","steam_id":76561198054398642,"connected_time":757000000000,"state":"active","ping":51},{"user_id":726,"name":"Juiceydough","steam_id":76561197997323419,"connected_time":778000000000,"state":"active","ping":86},{"user_id":732,"name":"leeloo","steam_id":76561199256962353,"connected_time":583000000000,"state":"active","ping":61},{"user_id":702,"name":"Phalcon","steam_id":76561197987051394,"connected_time":1482000000000,"state":"active","ping":90}]},{"server_id":309,"name":"Uncletopia | Frankfurt | 4 | All Maps","name_short":"frk-4","host":"frk-1.de.uncletopia.com","port":27045,"enabled":true,"region":"eu","cc":"de","latitude":50.110924,"longitude":8.682127,"reserved":0,"last_update":"0001-01-01T00:00:00Z","name_a2s":"Uncletopia | Frankfurt | 4 | All Maps","protocol":17,"map":"koth_cascade","folder":"tf","game":"Team Fortress","app_id":440,"player_count":0,"max_players":24,"Bots":0,"server_type":"Dedicated","server_os":"Linux","password":true,"vac":true,"version":"7757534","steam_id":85568392924504275,"keywords":["cp","nocrits","nodmgspread","uncletopia"],"game_id":440,"stv_port":27046,"stv_name":"Uncletopia | Frankfurt | 4 | All Maps | STV","players":null},{"server_id":310,"name":"Uncletopia | Frankfurt | 5 | All Maps","name_short":"frk-5","host":"frk-1.de.uncletopia.com","port":27055,"enabled":true,"region":"eu","cc":"de","latitude":50.110924,"longitude":8.682127,"reserved":0,"last_update":"0001-01-01T00:00:00Z","name_a2s":"Uncletopia | Frankfurt | 5 | All Maps","protocol":17,"map":"cp_snakewater_final1","folder":"tf","game":"Team Fortress","app_id":440,"player_count":0,"max_players":24,"Bots":0,"server_type":"Dedicated","server_os":"Linux","password":true,"vac":true,"version":"7757534","steam_id":85568392924504277,"keywords":["cp","nocrits","nodmgspread","uncletopia"],"game_id":440,"stv_port":27056,"stv_name":"Uncletopia | Frankfurt | 5 | All Maps | STV","players":null},{"server_id":311,"name":"Uncletopia | Frankfurt | 6 | All Maps","name_short":"frk-6","host":"frk-1.de.uncletopia.com","port":27065,"enabled":true,"region":"eu","cc":"de","latitude":50.110924,"longitude":8.682127,"reserved":0,"last_update":"0001-01-01T00:00:00Z","name_a2s":"Uncletopia | Frankfurt | 6 | All Maps","protocol":17,"map":"pl_badwater","folder":"tf","game":"Team Fortress","app_id":440,"player_count":22,"max_players":24,"Bots":0,"server_type":"Dedicated","server_os":"Linux","password":true,"vac":true,"version":"7757534","steam_id":85568392924504278,"keywords":["nocrits","nodmgspread","payload","uncletopia"],"game_id":440,"stv_port":27066,"stv_name":"Uncletopia | Frankfurt | 6 | All Maps | STV","players":[{"user_id":401,"name":"Penis Contortionist","steam_id":76561198073663784,"connected_time":2628000000000,"state":"active","ping":51},{"user_id":441,"name":"Benzo Fury","steam_id":76561198025259336,"connected_time":1014000000000,"state":"active","ping":54},{"user_id":405,"name":"CrowbarWarrior","steam_id":76561198044077015,"connected_time":2507000000000,"state":"active","ping":83},{"user_id":437,"name":"malink√Ω","steam_id":76561198048683488,"connected_time":1274000000000,"state":"active","ping":65},{"user_id":442,"name":"Bleachy","steam_id":76561198101976229,"connected_time":621000000000,"state":"active","ping":54},{"user_id":398,"name":"–ü–µ—Å –ü–∞—Ç—Ä–æ–Ω","steam_id":76561198273199378,"connected_time":3148000000000,"state":"active","ping":75},{"user_id":436,"name":"Burpman","steam_id":76561198022897937,"connected_time":1295000000000,"state":"active","ping":67},{"user_id":446,"name":"tone","steam_id":76561197975301462,"connected_time":30000000000,"state":"active","ping":86},{"user_id":412,"name":"eeeeee","steam_id":76561198017786875,"connected_time":1924000000000,"state":"active","ping":59},{"user_id":363,"name":"rz-/Atomic Punch","steam_id":76561199195508541,"connected_time":5730000000000,"state":"active","ping":70},{"user_id":432,"name":"Butt taste tester","steam_id":76561198274105878,"connected_time":1476000000000,"state":"active","ping":81},{"user_id":423,"name":"Hookiest Owler","steam_id":76561198872013525,"connected_time":1697000000000,"state":"active","ping":93},{"user_id":421,"name":"buko","steam_id":76561198349648942,"connected_time":1718000000000,"state":"active","ping":90},{"user_id":364,"name":"Sigma Bale","steam_id":76561198365750503,"connected_time":5717000000000,"state":"active","ping":53},{"user_id":422,"name":"unnecessary","steam_id":76561197994492154,"connected_time":1714000000000,"state":"active","ping":63},{"user_id":439,"name":"General Petrov","steam_id":76561198027204104,"connected_time":1190000000000,"state":"active","ping":83},{"user_id":425,"name":"Tonne","steam_id":76561197970856766,"connected_time":1691000000000,"state":"active","ping":59},{"user_id":426,"name":"mike\"3loavesofbread\"jones","steam_id":76561198064342804,"connected_time":1686000000000,"state":"active","ping":75},{"user_id":445,"name":"bullbdoog","steam_id":76561198332951792,"connected_time":525000000000,"state":"active","ping":74},{"user_id":440,"name":"jones","steam_id":76561198044434971,"connected_time":1170000000000,"state":"active","ping":65},{"user_id":435,"name":"If I top 3 my team sucks","steam_id":76561198147668373,"connected_time":1353000000000,"state":"active","ping":57}]},{"server_id":23,"name":"Uncletopia | Frankfurt | 7 | Stopwatch Beta","name_short":"frk-7","host":"frk-1.de.uncletopia.com","port":27075,"enabled":true,"region":"eu","cc":"de","latitude":50.110924,"longitude":8.682127,"reserved":0,"last_update":"0001-01-01T00:00:00Z","name_a2s":"Uncletopia | Frankfurt | 7 | Stopwatch Beta","protocol":17,"map":"workshop/koth_ramjam_rc1.ugc459778887","folder":"tf","game":"Team Fortress","app_id":440,"player_count":0,"max_players":24,"Bots":0,"server_type":"Dedicated","server_os":"Linux","password":true,"vac":true,"version":"7757534","steam_id":85568392924742827,"keywords":["cp","nocrits","nodmgspread","uncletopia"],"game_id":440,"stv_port":27076,"stv_name":"Uncletopia | Frankfurt | 7 | Stopwatch Beta | STV","players":null},{"server_id":24,"name":"Uncletopia | Frankfurt | 8 | Community","name_short":"frk-8","host":"frk-1.de.uncletopia.com","port":27085,"enabled":true,"region":"eu","cc":"de","latitude":50.110924,"longitude":8.682127,"reserved":0,"last_update":"0001-01-01T00:00:00Z","name_a2s":"Uncletopia | Frankfurt | 8 | Community","protocol":17,"map":"workshop/koth_ashville_final.ugc2130459942","folder":"tf","game":"Team Fortress","app_id":440,"player_count":0,"max_players":24,"Bots":0,"server_type":"Dedicated","server_os":"Linux","password":true,"vac":true,"version":"7757534","steam_id":85568392924742828,"keywords":["cp","nocrits","nodmgspread","uncletopia"],"game_id":440,"stv_port":27086,"stv_name":"Uncletopia | Frankfurt | 8 | Community | STV","players":null},{"server_id":202,"name":"Uncletopia | Hong Kong | 1 | All Maps","name_short":"hgk-1","host":"hgk-1.hk.uncletopia.com","port":27015,"enabled":true,"region":"asia","cc":"hk","latitude":22.302711,"longitude":114.177216,"reserved":0,"last_update":"0001-01-01T00:00:00Z","name_a2s":"Uncletopia | Hong Kong | 1 | All Maps","protocol":17,"map":"pl_borneo","folder":"tf","game":"Team Fortress","app_id":440,"player_count":0,"max_players":24,"Bots":0,"server_type":"Dedicated","server_os":"Linux","password":true,"vac":true,"version":"7757534","steam_id":85568392924494504,"keywords":["nocrits","nodmgspread","payload","uncletopia"],"game_id":440,"stv_port":27016,"stv_name":"Uncletopia | Hong Kong | 1 | All Maps | STV","players":null},{"server_id":1,"name":"Uncletopia | Los Angeles | 1 | All Maps","name_short":"lax-1","host":"lax-1.us.uncletopia.com","port":27015,"enabled":true,"region":"us-west","cc":"us","latitude":33.94279,"longitude":-118.41004,"reserved":0,"last_update":"0001-01-01T00:00:00Z","name_a2s":"Uncletopia | Los Angeles | 1 | All Maps","protocol":17,"map":"pl_pier","folder":"tf","game":"Team Fortress","app_id":440,"player_count":0,"max_players":24,"Bots":0,"server_type":"Dedicated","server_os":"Linux","password":true,"vac":true,"version":"7757534","steam_id":85568392924469991,"keywords":["nocrits","nodmgspread","payload","uncletopia"],"game_id":440,"stv_port":27016,"stv_name":"Uncletopia | Los Angeles | 1 | All Maps | STV","players":null},{"server_id":112,"name":"Uncletopia | Los Angeles | 2 | All Maps","name_short":"lax-2","host":"lax-1.us.uncletopia.com","port":27025,"enabled":true,"region":"us-west","cc":"us","latitude":33.94279,"longitude":-118.41004,"reserved":0,"last_update":"0001-01-01T00:00:00Z","name_a2s":"Uncletopia | Los Angeles | 2 | All Maps","protocol":17,"map":"cp_mountainlab","folder":"tf","game":"Team Fortress","app_id":440,"player_count":24,"max_players":24,"Bots":0,"server_type":"Dedicated","server_os":"Linux","password":true,"vac":true,"version":"7757534","steam_id":85568392924469992,"keywords":["cp","nocrits","nodmgspread","uncletopia"],"game_id":440,"stv_port":27026,"stv_name":"Uncletopia | Los Angeles | 2 | All Maps | STV","players":[{"user_id":32,"name":"Irate Gamer Official","steam_id":76561198162688146,"connected_time":1006000000000,"state":"active","ping":56},{"user_id":42,"name":"Mall","steam_id":76561198436085386,"connected_time":506000000000,"state":"active","ping":97},{"user_id":50,"name":"Toad :)","steam_id":76561198163008022,"connected_time":166000000000,"state":"active","ping":65},{"user_id":33,"name":"gtn","steam_id":76561198033033884,"connected_time":961000000000,"state":"active","ping":118},{"user_id":13,"name":"Germasian","steam_id":76561199218573498,"connected_time":2376000000000,"state":"active","ping":100},{"user_id":12,"name":"xX_n00bSlayer_Xx","steam_id":76561198328602911,"connected_time":2476000000000,"state":"active","ping":121},{"user_id":37,"name":"riSygneD","steam_id":76561198331618687,"connected_time":837000000000,"state":"active","ping":41},{"user_id":43,"name":"Frog","steam_id":76561198093257083,"connected_time":501000000000,"state":"active","ping":63},{"user_id":16,"name":"ribbonborn","steam_id":76561198001195423,"connected_time":2176000000000,"state":"active","ping":87},{"user_id":34,"name":"Cpt. Dingle","steam_id":76561198025720199,"connected_time":954000000000,"state":"active","ping":99},{"user_id":19,"name":"Zykron","steam_id":76561199056400800,"connected_time":2042000000000,"state":"active","ping":55},{"user_id":46,"name":"Lock'd","steam_id":76561198170108230,"connected_time":321000000000,"state":"active","ping":45},{"user_id":24,"name":"Whoops!","steam_id":76561198151315898,"connected_time":1469000000000,"state":"active","ping":81},{"user_id":48,"name":"Honeybunch","steam_id":76561198014850580,"connected_time":245000000000,"state":"active","ping":71},{"user_id":56,"name":"Angstrom Boli","steam_id":76561198025670585,"connected_time":4000000000,"state":"spawning","ping":73},{"user_id":29,"name":"Misty Blu ‚ô• #TransFortress","steam_id":76561198011442255,"connected_time":1197000000000,"state":"active","ping":54},{"user_id":30,"name":"wubber","steam_id":76561198286627157,"connected_time":1180000000000,"state":"active","ping":47},{"user_id":45,"name":"Velvety","steam_id":76561198081922813,"connected_time":346000000000,"state":"active","ping":54},{"user_id":39,"name":"SmallestApple","steam_id":76561198353403983,"connected_time":761000000000,"state":"active","ping":94},{"user_id":40,"name":"Pot Head Pixie","steam_id":76561198083024504,"connected_time":677000000000,"state":"active","ping":71},{"user_id":55,"name":"brawl mccartney","steam_id":76561198354110817,"connected_time":80000000000,"state":"active","ping":75},{"user_id":47,"name":"Unwavering Flavor","steam_id":76561198053306065,"connected_time":308000000000,"state":"active","ping":78},{"user_id":53,"name":"Firedust19","steam_id":76561198153238631,"connected_time":128000000000,"state":"active","ping":72},{"user_id":54,"name":"mommy","steam_id":76561198067176829,"connected_time":116000000000,"state":"active","ping":46}]},{"server_id":324,"name":"Uncletopia | Los Angeles | 3 | All Maps","name_short":"lax-3","host":"lax-1.us.uncletopia.com","port":27035,"enabled":true,"region":"us-west","cc":"us","latitude":33.94279,"longitude":-118.41004,"reserved":0,"last_update":"0001-01-01T00:00:00Z","name_a2s":"Uncletopia | Los Angeles | 3 | All Maps","protocol":17,"map":"cp_dustbowl","folder":"tf","game":"Team Fortress","app_id":440,"player_count":0,"max_players":24,"Bots":0,"server_type":"Dedicated","server_os":"Linux","password":true,"vac":true,"version":"7757534","steam_id":85568392924510198,"keywords":["cp","nocrits","nodmgspread","uncletopia"],"game_id":440,"stv_port":27036,"stv_name":"Uncletopia | Los Angeles | 3 | All Maps | STV","players":null},{"server_id":25,"name":"Uncletopia | Los Angeles | 4 | Stopwatch Beta","name_short":"lax-4","host":"lax-1.us.uncletopia.com","port":27045,"enabled":true,"region":"us-west","cc":"us","latitude":33.94279,"longitude":-118.41004,"reserved":0,"last_update":"0001-01-01T00:00:00Z","name_a2s":"Uncletopia | Los Angeles | 4 | Stopwatch Beta","protocol":17,"map":"pl_swiftwater_final1","folder":"tf","game":"Team Fortress","app_id":440,"player_count":0,"max_players":24,"Bots":0,"server_type":"Dedicated","server_os":"Linux","password":true,"vac":true,"version":"7757534","steam_id":85568392924510199,"keywords":["nocrits","nodmgspread","payload","uncletopia"],"game_id":440,"stv_port":27046,"stv_name":"Uncletopia | Los Angeles | 4 | Stopwatch Beta | STV","players":null},{"server_id":11,"name":"Uncletopia | London | 1 | All Maps","name_short":"lon-1","host":"lon-1.uk.uncletopia.com","port":27015,"enabled":true,"region":"eu","cc":"gb","latitude":51.509865,"longitude":-0.118092,"reserved":0,"last_update":"0001-01-01T00:00:00Z","name_a2s":"Uncletopia | London | 1 | All Maps","protocol":17,"map":"cp_dustbowl","folder":"tf","game":"Team Fortress","app_id":440,"player_count":21,"max_players":24,"Bots":0,"server_type":"Dedicated","server_os":"Linux","password":true,"vac":true,"version":"7757534","steam_id":85568392924367362,"keywords":["cp","nocrits","nodmgspread","uncletopia"],"game_id":440,"stv_port":27016,"stv_name":"Uncletopia | London | 1 | All Maps | STV","players":[{"user_id":727,"name":"„Åô LightFlight „Åó","steam_id":76561198079007530,"connected_time":423000000000,"state":"active","ping":46},{"user_id":732,"name":"KILL","steam_id":76561198436817109,"connected_time":305000000000,"state":"active","ping":56},{"user_id":728,"name":"Outlaw","steam_id":76561198389862837,"connected_time":409000000000,"state":"active","ping":92},{"user_id":736,"name":"Oki (Bon)","steam_id":76561199047748534,"connected_time":99000000000,"state":"active","ping":56},{"user_id":648,"name":"Kaptin Badrukk","steam_id":76561198048011649,"connected_time":6590000000000,"state":"active","ping":54},{"user_id":737,"name":"The cost of living in the UK","steam_id":76561199000520747,"connected_time":89000000000,"state":"active","ping":45},{"user_id":660,"name":"teddy","steam_id":76561198007436837,"connected_time":5354000000000,"state":"active","ping":30},{"user_id":712,"name":"mmm delicious bullets","steam_id":76561198254664484,"connected_time":2231000000000,"state":"active","ping":55},{"user_id":716,"name":"weleenkerk","steam_id":76561198143969491,"connected_time":1856000000000,"state":"active","ping":69},{"user_id":724,"name":"MichaelTheSlav","steam_id":76561198151626040,"connected_time":1235000000000,"state":"active","ping":85},{"user_id":731,"name":"2Fort Goblin","steam_id":76561198878206817,"connected_time":385000000000,"state":"active","ping":64},{"user_id":717,"name":"a dollop of bird","steam_id":76561198089003514,"connected_time":1848000000000,"state":"active","ping":58},{"user_id":721,"name":"FluoducK","steam_id":76561198158175778,"connected_time":1540000000000,"state":"active","ping":69},{"user_id":734,"name":"Hudson Hornet","steam_id":76561198084705501,"connected_time":275000000000,"state":"active","ping":76},{"user_id":738,"name":"Skinny101","steam_id":76561197985599360,"connected_time":45000000000,"state":"active","ping":52},{"user_id":708,"name":"Gearless","steam_id":76561198362367074,"connected_time":2984000000000,"state":"active","ping":83},{"user_id":643,"name":"AYE","steam_id":76561198181368101,"connected_time":6867000000000,"state":"active","ping":59},{"user_id":723,"name":"Fronk the Rat","steam_id":76561198056595268,"connected_time":1308000000000,"state":"active","ping":54},{"user_id":703,"name":"Aaron","steam_id":76561197990046953,"connected_time":3346000000000,"state":"active","ping":60},{"user_id":713,"name":"kojitori","steam_id":76561198838072150,"connected_time":2059000000000,"state":"active","ping":45},{"user_id":726,"name":"DeadW0rm","steam_id":76561198993557314,"connected_time":1039000000000,"state":"active","ping":72}]},{"server_id":114,"name":"Uncletopia | London | 2 | All Maps","name_short":"lon-2","host":"lon-1.uk.uncletopia.com","port":27025,"enabled":true,"region":"eu","cc":"gb","latitude":51.509865,"longitude":-0.118092,"reserved":0,"last_update":"0001-01-01T00:00:00Z","name_a2s":"Uncletopia | London | 2 | All Maps","protocol":17,"map":"pl_barnblitz","folder":"tf","game":"Team Fortress","app_id":440,"player_count":24,"max_players":24,"Bots":0,"server_type":"Dedicated","server_os":"Linux","password":true,"vac":true,"version":"7757534","steam_id":85568392924470941,"keywords":["nocrits","nodmgspread","payload","uncletopia"],"game_id":440,"stv_port":27026,"stv_name":"Uncletopia | London | 2 | All Maps | STV","players":[{"user_id":474,"name":"molly","steam_id":76561198029399151,"connected_time":1185000000000,"state":"active","ping":67},{"user_id":463,"name":"MAKENTAKEN","steam_id":76561199127359587,"connected_time":1906000000000,"state":"active","ping":96},{"user_id":462,"name":"‚ú™ Danny","steam_id":76561198104483241,"connected_time":1921000000000,"state":"active","ping":48},{"user_id":468,"name":"biohazard.pt","steam_id":76561198088367808,"connected_time":1670000000000,"state":"active","ping":103},{"user_id":477,"name":"Roe Jogan","steam_id":76561198871991529,"connected_time":782000000000,"state":"active","ping":69},{"user_id":344,"name":"Yuzu","steam_id":76561198121694613,"connected_time":12099000000000,"state":"active","ping":46},{"user_id":487,"name":"arab prince of darkness","steam_id":76561198168180501,"connected_time":36000000000,"state":"active","ping":91},{"user_id":476,"name":"Meki","steam_id":76561198108279631,"connected_time":800000000000,"state":"active","ping":104},{"user_id":445,"name":"Homosapien","steam_id":76561197972035953,"connected_time":3495000000000,"state":"active","ping":59},{"user_id":469,"name":"Sabour","steam_id":76561197963965445,"connected_time":1663000000000,"state":"active","ping":71},{"user_id":425,"name":"dd","steam_id":76561198257836694,"connected_time":4325000000000,"state":"active","ping":44},{"user_id":431,"name":"Dagda","steam_id":76561198871136698,"connected_time":4144000000000,"state":"active","ping":37},{"user_id":479,"name":"Vectillion","steam_id":76561198074292454,"connected_time":728000000000,"state":"active","ping":67},{"user_id":470,"name":"kaelan!","steam_id":76561198001425310,"connected_time":1653000000000,"state":"active","ping":74},{"user_id":466,"name":"Saken","steam_id":76561198049075295,"connected_time":1771000000000,"state":"active","ping":61},{"user_id":480,"name":"Proto-arc","steam_id":76561198012776747,"connected_time":727000000000,"state":"active","ping":52},{"user_id":486,"name":"$n√òw","steam_id":76561198238781028,"connected_time":299000000000,"state":"active","ping":105},{"user_id":473,"name":"Topme","steam_id":76561198091734693,"connected_time":1573000000000,"state":"active","ping":60},{"user_id":482,"name":"joe","steam_id":76561198026484403,"connected_time":657000000000,"state":"active","ping":57},{"user_id":405,"name":"rummy","steam_id":76561197997573379,"connected_time":6408000000000,"state":"active","ping":46},{"user_id":485,"name":"Piellino","steam_id":76561198156873276,"connected_time":416000000000,"state":"active","ping":105},{"user_id":460,"name":".::[SerafeTTiN]::.","steam_id":76561198009471724,"connected_time":2093000000000,"state":"active","ping":104},{"user_id":399,"name":"Well, off to hang myself","steam_id":76561198053374944,"connected_time":6808000000000,"state":"active","ping":88},{"user_id":461,"name":"CumbustiblePunda","steam_id":76561197974274677,"connected_time":2070000000000,"state":"active","ping":54}]},{"server_id":320,"name":"Uncletopia | London | 3 | All Maps","name_short":"lon-3","host":"lon-1.uk.uncletopia.com","port":27035,"enabled":true,"region":"eu","cc":"gb","latitude":51.509865,"longitude":-0.118092,"reserved":0,"last_update":"0001-01-01T00:00:00Z","name_a2s":"Uncletopia | London | 3 | All Maps","protocol":17,"map":"plr_bananabay","folder":"tf","game":"Team Fortress","app_id":440,"player_count":23,"max_players":24,"Bots":0,"server_type":"Dedicated","server_os":"Linux","password":true,"vac":true,"version":"7757534","steam_id":85568392924510192,"keywords":["nocrits","nodmgspread","payload","uncletopia"],"game_id":440,"stv_port":27036,"stv_name":"Uncletopia | London | 3 | All Maps | STV","players":[{"user_id":659,"name":"Nulgath ETF2L Criminal","steam_id":76561198131231278,"connected_time":163000000000,"state":"active","ping":60},{"user_id":629,"name":"Kumquat","steam_id":76561198200490386,"connected_time":2008000000000,"state":"active","ping":67},{"user_id":662,"name":"STARRPADIE","steam_id":76561198058683354,"connected_time":17000000000,"state":"active","ping":51},{"user_id":630,"name":"bowchika wowa #SlavaUkraine","steam_id":76561198159564550,"connected_time":1695000000000,"state":"active","ping":65},{"user_id":634,"name":"that fat croc from donkey kong","steam_id":76561198159172495,"connected_time":1549000000000,"state":"active","ping":77},{"user_id":602,"name":"„ÄÇ„ÄÇ„ÄÇ","steam_id":76561198101624996,"connected_time":3497000000000,"state":"active","ping":91},{"user_id":658,"name":"CollDragon","steam_id":76561198067534450,"connected_time":661000000000,"state":"active","ping":131},{"user_id":563,"name":"Yelowchy","steam_id":76561198199416121,"connected_time":5863000000000,"state":"active","ping":74},{"user_id":646,"name":"fish","steam_id":76561198205475839,"connected_time":1290000000000,"state":"active","ping":96},{"user_id":633,"name":"feed and seed","steam_id":76561199088046420,"connected_time":1627000000000,"state":"active","ping":56},{"user_id":620,"name":"KorieOne ‚ù£","steam_id":76561197982998663,"connected_time":2661000000000,"state":"active","ping":57},{"user_id":539,"name":"Unfortunate","steam_id":76561198125500777,"connected_time":7138000000000,"state":"active","ping":95},{"user_id":654,"name":"lullers","steam_id":76561198119470669,"connected_time":932000000000,"state":"active","ping":56},{"user_id":556,"name":"nutlube","steam_id":76561198128831131,"connected_time":6526000000000,"state":"active","ping":59},{"user_id":598,"name":"bachusa1657","steam_id":76561198202175911,"connected_time":3663000000000,"state":"active","ping":77},{"user_id":621,"name":"alphawarrior999","steam_id":76561199001580062,"connected_time":2654000000000,"state":"active","ping":150},{"user_id":648,"name":"gibb (official)","steam_id":76561198074097655,"connected_time":1241000000000,"state":"active","ping":40},{"user_id":660,"name":"Sneikijs","steam_id":76561198052549308,"connected_time":135000000000,"state":"active","ping":42},{"user_id":564,"name":"Chaine","steam_id":76561198088660956,"connected_time":5812000000000,"state":"active","ping":74},{"user_id":604,"name":"It's a me Malario","steam_id":76561198176546013,"connected_time":3450000000000,"state":"active","ping":45},{"user_id":656,"name":"R0mulone","steam_id":76561198352513792,"connected_time":922000000000,"state":"active","ping":62},{"user_id":651,"name":"Kami Wami","steam_id":76561198158209651,"connected_time":1125000000000,"state":"active","ping":62},{"user_id":610,"name":"Russenluster","steam_id":76561198118016220,"connected_time":3252000000000,"state":"active","ping":64}]},{"server_id":321,"name":"Uncletopia | London | 4 | All Maps","name_short":"lon-4","host":"lon-1.uk.uncletopia.com","port":27045,"enabled":true,"region":"eu","cc":"gb","latitude":51.509865,"longitude":-0.118092,"reserved":0,"last_update":"0001-01-01T00:00:00Z","name_a2s":"Uncletopia | London | 4 | All Maps","protocol":17,"map":"koth_viaduct","folder":"tf","game":"Team Fortress","app_id":440,"player_count":0,"max_players":24,"Bots":0,"server_type":"Dedicated","server_os":"Linux","password":true,"vac":true,"version":"7757534","steam_id":85568392924510193,"keywords":["cp","nocrits","nodmgspread","uncletopia"],"game_id":440,"stv_port":27046,"stv_name":"Uncletopia | London | 4 | All Maps | STV","players":null},{"server_id":21,"name":"Uncletopia | London | 5 | All Maps","name_short":"lon-5","host":"lon-1.uk.uncletopia.com","port":27055,"enabled":true,"region":"eu","cc":"gb","latitude":51.509865,"longitude":-0.118092,"reserved":0,"last_update":"0001-01-01T00:00:00Z","name_a2s":"Uncletopia | London | 5 | All Maps","protocol":17,"map":"koth_lakeside_final","folder":"tf","game":"Team Fortress","app_id":440,"player_count":8,"max_players":24,"Bots":0,"server_type":"Dedicated","server_os":"Linux","password":true,"vac":true,"version":"7757534","steam_id":85568392924742829,"keywords":["cp","nocrits","nodmgspread","uncletopia"],"game_id":440,"stv_port":27056,"stv_name":"Uncletopia | London | 5 | All Maps | STV","players":[{"user_id":195,"name":"Ork","steam_id":76561197968575924,"connected_time":3199000000000,"state":"active","ping":54},{"user_id":208,"name":"doc","steam_id":76561198000050301,"connected_time":846000000000,"state":"active","ping":40},{"user_id":201,"name":"[Indescribable Horror]","steam_id":76561198012351470,"connected_time":2244000000000,"state":"active","ping":31},{"user_id":217,"name":"Masked","steam_id":76561198093697845,"connected_time":313000000000,"state":"active","ping":163},{"user_id":209,"name":"Holz is sleepy","steam_id":76561197994205997,"connected_time":773000000000,"state":"active","ping":44},{"user_id":210,"name":"chef","steam_id":76561197991368897,"connected_time":770000000000,"state":"active","ping":60},{"user_id":212,"name":"Kirvis","steam_id":76561198027831643,"connected_time":618000000000,"state":"active","ping":85},{"user_id":215,"name":"Great Value Gaming","steam_id":76561198408448003,"connected_time":358000000000,"state":"active","ping":145}]},{"server_id":22,"name":"Uncletopia | London | 6 | All Maps","name_short":"lon-6","host":"lon-1.uk.uncletopia.com","port":27065,"enabled":true,"region":"eu","cc":"gb","latitude":51.509865,"longitude":-0.118092,"reserved":0,"last_update":"0001-01-01T00:00:00Z","name_a2s":"Uncletopia | London | 6 | All Maps","protocol":17,"map":"cp_dustbowl","folder":"tf","game":"Team Fortress","app_id":440,"player_count":0,"max_players":24,"Bots":0,"server_type":"Dedicated","server_os":"Linux","password":true,"vac":true,"version":"7757534","steam_id":85568392924742830,"keywords":["cp","nocrits","nodmgspread","uncletopia"],"game_id":440,"stv_port":27066,"stv_name":"Uncletopia | London | 6 | All Maps | STV","players":null},{"server_id":40,"name":"Uncletopia | London | 7 | No Payload","name_short":"lon-7","host":"lon-1.uk.uncletopia.com","port":27075,"enabled":true,"region":"eu","cc":"gb","latitude":51.509865,"longitude":-0.118092,"reserved":0,"last_update":"0001-01-01T00:00:00Z","name_a2s":"Uncletopia | London | 7 | No Payload","protocol":17,"map":"koth_king","folder":"tf","game":"Team Fortress","app_id":440,"player_count":5,"max_players":24,"Bots":0,"server_type":"Dedicated","server_os":"Linux","password":true,"vac":true,"version":"7757534","steam_id":85568392924964314,"keywords":["cp","nocrits","nodmgspread","uncletopia"],"game_id":440,"stv_port":27076,"stv_name":"Uncletopia | London | 7 | No Payload | STV","players":[{"user_id":148,"name":"Pinkchup","steam_id":76561198106802803,"connected_time":3735000000000,"state":"active","ping":74},{"user_id":149,"name":"Minimi","steam_id":76561198873850443,"connected_time":3647000000000,"state":"active","ping":40},{"user_id":151,"name":"mesoni","steam_id":76561199141290973,"connected_time":3220000000000,"state":"active","ping":91},{"user_id":155,"name":"FireStorm","steam_id":76561198350478325,"connected_time":967000000000,"state":"active","ping":41},{"user_id":156,"name":"TehHapp","steam_id":76561198119396288,"connected_time":102000000000,"state":"active","ping":186}]},{"server_id":41,"name":"Uncletopia | London | 8 | Community","name_short":"lon-8","host":"lon-1.uk.uncletopia.com","port":27085,"enabled":true,"region":"eu","cc":"gb","latitude":51.509865,"longitude":-0.118092,"reserved":0,"last_update":"0001-01-01T00:00:00Z","name_a2s":"Uncletopia | London | 8 | Community","protocol":17,"map":"workshop/pl_highwood_b13.ugc1769496557","folder":"tf","game":"Team Fortress","app_id":440,"player_count":0,"max_players":24,"Bots":0,"server_type":"Dedicated","server_os":"Linux","password":true,"vac":true,"version":"7757534","steam_id":85568392924964315,"keywords":["nocrits","nodmgspread","payload","uncletopia"],"game_id":440,"stv_port":27086,"stv_name":"Uncletopia | London | 8 | Community | STV","players":null},{"server_id":300,"name":"Uncletopia | Montr√©al | 1 | All Maps","name_short":"mtl-1","host":"mtl-1.ca.uncletopia.com","port":27015,"enabled":true,"region":"us-east","cc":"ca","latitude":45.50889,"longitude":-73.56167,"reserved":0,"last_update":"0001-01-01T00:00:00Z","name_a2s":"Uncletopia | Montr√©al | 1 | All Maps","protocol":17,"map":"koth_viaduct","folder":"tf","game":"Team Fortress","app_id":440,"player_count":0,"max_players":24,"Bots":0,"server_type":"Dedicated","server_os":"Linux","password":true,"vac":true,"version":"7757534","steam_id":85568392924500087,"keywords":["cp","nocrits","nodmgspread","uncletopia"],"game_id":440,"stv_port":27016,"stv_name":"Uncletopia | Montr√©al | 1 | All Maps | STV","players":null},{"server_id":301,"name":"Uncletopia | Montr√©al | 2 | All Maps","name_short":"mtl-2","host":"mtl-1.ca.uncletopia.com","port":27025,"enabled":true,"region":"us-east","cc":"ca","latitude":45.50889,"longitude":-73.56167,"reserved":0,"last_update":"0001-01-01T00:00:00Z","name_a2s":"Uncletopia | Montr√©al | 2 | All Maps","protocol":17,"map":"pl_snowycoast","folder":"tf","game":"Team Fortress","app_id":440,"player_count":0,"max_players":24,"Bots":0,"server_type":"Dedicated","server_os":"Linux","password":true,"vac":true,"version":"7757534","steam_id":85568392924500088,"keywords":["nocrits","nodmgspread","payload","uncletopia"],"game_id":440,"stv_port":27026,"stv_name":"Uncletopia | Montr√©al | 2 | All Maps | STV","players":null},{"server_id":302,"name":"Uncletopia | Montr√©al | 3 | All Maps","name_short":"mtl-3","host":"mtl-1.ca.uncletopia.com","port":27035,"enabled":true,"region":"us-east","cc":"ca","latitude":45.50889,"longitude":-73.56167,"reserved":0,"last_update":"0001-01-01T00:00:00Z","name_a2s":"Uncletopia | Montr√©al | 3 | All Maps","protocol":17,"map":"pl_swiftwater_final1","folder":"tf","game":"Team Fortress","app_id":440,"player_count":0,"max_players":24,"Bots":0,"server_type":"Dedicated","server_os":"Linux","password":true,"vac":true,"version":"7757534","steam_id":85568392924500089,"keywords":["nocrits","nodmgspread","payload","uncletopia"],"game_id":440,"stv_port":27036,"stv_name":"Uncletopia | Montr√©al | 3 | All Maps | STV","players":null},{"server_id":303,"name":"Uncletopia | Montr√©al | 4 | No Payload","name_short":"mtl-4","host":"mtl-1.ca.uncletopia.com","port":27045,"enabled":true,"region":"us-east","cc":"ca","latitude":45.50889,"longitude":-73.56167,"reserved":0,"last_update":"0001-01-01T00:00:00Z","name_a2s":"Uncletopia | Montr√©al | 4 | No Payload","protocol":17,"map":"cp_gravelpit","folder":"tf","game":"Team Fortress","app_id":440,"player_count":0,"max_players":24,"Bots":0,"server_type":"Dedicated","server_os":"Linux","password":true,"vac":true,"version":"7757534","steam_id":85568392924500090,"keywords":["cp","nocrits","nodmgspread","uncletopia"],"game_id":440,"stv_port":27046,"stv_name":"Uncletopia | Montr√©al | 4 | No Payload | STV","players":null},{"server_id":13,"name":"Uncletopia | New York City | 1 | All Maps","name_short":"nyc-1","host":"nyc-1.us.uncletopia.com","port":27015,"enabled":true,"region":"us-east","cc":"us","latitude":40.73061,"longitude":-73.93524,"reserved":0,"last_update":"0001-01-01T00:00:00Z","name_a2s":"Uncletopia | New York City | 1 | All Maps","protocol":17,"map":"cp_dustbowl","folder":"tf","game":"Team Fortress","app_id":440,"player_count":24,"max_players":24,"Bots":0,"server_type":"Dedicated","server_os":"Linux","password":true,"vac":true,"version":"7757534","steam_id":85568392924469993,"keywords":["cp","nocrits","nodmgspread","uncletopia"],"game_id":440,"stv_port":27016,"stv_name":"Uncletopia | New York City | 1 | All Maps | STV","players":[{"user_id":199,"name":"NATASCHA SUPREMACY","steam_id":76561198400058665,"connected_time":670000000000,"state":"active","ping":66},{"user_id":201,"name":"IPlayGamez","steam_id":76561198041387508,"connected_time":584000000000,"state":"active","ping":50},{"user_id":176,"name":"Smart Fella","steam_id":76561198397662124,"connected_time":2941000000000,"state":"active","ping":101},{"user_id":195,"name":"Chachi","steam_id":76561199045511890,"connected_time":875000000000,"state":"active","ping":68},{"user_id":203,"name":"Rue","steam_id":76561198013135993,"connected_time":551000000000,"state":"active","ping":56},{"user_id":125,"name":"yer_nerd","steam_id":76561199435454093,"connected_time":5823000000000,"state":"active","ping":62},{"user_id":202,"name":"Geloman","steam_id":76561198005501322,"connected_time":579000000000,"state":"active","ping":64},{"user_id":172,"name":"Cursed mario","steam_id":76561198971168093,"connected_time":3274000000000,"state":"active","ping":164},{"user_id":149,"name":"Coughdrop Addict [F2P]","steam_id":76561199254281550,"connected_time":4094000000000,"state":"active","ping":73},{"user_id":197,"name":"Sentry Gun (Maple!)","steam_id":76561199315167502,"connected_time":785000000000,"state":"active","ping":64},{"user_id":179,"name":"OPOC","steam_id":76561198026539183,"connected_time":2463000000000,"state":"active","ping":61},{"user_id":178,"name":"flamingcookies","steam_id":76561198280864779,"connected_time":2671000000000,"state":"active","ping":76},{"user_id":208,"name":"Mads Mikkelsen","steam_id":76561198083482001,"connected_time":306000000000,"state":"active","ping":135},{"user_id":180,"name":"Liam Plecak","steam_id":76561198041320158,"connected_time":2415000000000,"state":"active","ping":53},{"user_id":200,"name":"Gaminglast","steam_id":76561198362927765,"connected_time":644000000000,"state":"active","ping":165},{"user_id":204,"name":"PISSF****T","steam_id":76561199062570438,"connected_time":539000000000,"state":"active","ping":68},{"user_id":181,"name":"BigOrca54","steam_id":76561198181360271,"connected_time":2405000000000,"state":"active","ping":84},{"user_id":160,"name":"Fart Smella","steam_id":76561198419066993,"connected_time":3750000000000,"state":"active","ping":128},{"user_id":171,"name":"asm_ghost","steam_id":76561199205363547,"connected_time":3507000000000,"state":"active","ping":141},{"user_id":189,"name":"dairy","steam_id":76561198117033273,"connected_time":1553000000000,"state":"active","ping":120},{"user_id":192,"name":"Minus273C","steam_id":76561197967510404,"connected_time":1204000000000,"state":"active","ping":81},{"user_id":207,"name":"Sullivate","steam_id":76561198247267324,"connected_time":346000000000,"state":"active","ping":73},{"user_id":205,"name":"dakota__","steam_id":76561198076596506,"connected_time":460000000000,"state":"active","ping":77},{"user_id":206,"name":"RaixaR","steam_id":76561198025289430,"connected_time":422000000000,"state":"active","ping":102}]},{"server_id":14,"name":"Uncletopia | New York City | 2 | All Maps","name_short":"nyc-2","host":"nyc-1.us.uncletopia.com","port":27025,"enabled":true,"region":"us-east","cc":"us","latitude":40.73061,"longitude":-73.93524,"reserved":0,"last_update":"0001-01-01T00:00:00Z","name_a2s":"Uncletopia | New York City | 2 | All Maps","protocol":17,"map":"pl_borneo","folder":"tf","game":"Team Fortress","app_id":440,"player_count":24,"max_players":24,"Bots":0,"server_type":"Dedicated","server_os":"Linux","password":true,"vac":true,"version":"7757534","steam_id":85568392924469994,"keywords":["nocrits","nodmgspread","payload","uncletopia"],"game_id":440,"stv_port":27026,"stv_name":"Uncletopia | New York City | 2 | All Maps | STV","players":[{"user_id":445,"name":"The Yodelling Pickle","steam_id":76561198095883507,"connected_time":666000000000,"state":"active","ping":72},{"user_id":454,"name":"Pyro","steam_id":76561197995003142,"connected_time":73000000000,"state":"active","ping":85},{"user_id":455,"name":"Jake The Snake","steam_id":76561198917115201,"connected_time":50000000000,"state":"active","ping":131},{"user_id":389,"name":"ThatGamingKiwi","steam_id":76561199170522237,"connected_time":4872000000000,"state":"active","ping":74},{"user_id":442,"name":"capeeKo","steam_id":76561197970346623,"connected_time":780000000000,"state":"active","ping":61},{"user_id":427,"name":"FudgeHogHedge","steam_id":76561199005091586,"connected_time":2177000000000,"state":"active","ping":79},{"user_id":391,"name":"andyiscolorless","steam_id":76561199239870921,"connected_time":4819000000000,"state":"active","ping":141},{"user_id":371,"name":"man behind the slaughter (F2P)","steam_id":76561198854070384,"connected_time":6416000000000,"state":"active","ping":120},{"user_id":392,"name":"Sableye","steam_id":76561198061247147,"connected_time":4806000000000,"state":"active","ping":73},{"user_id":437,"name":"bimbo blow up doll! \u003c3","steam_id":76561198959541006,"connected_time":1905000000000,"state":"active","ping":55},{"user_id":451,"name":"Icaras","steam_id":76561198416724843,"connected_time":438000000000,"state":"active","ping":119},{"user_id":432,"name":"Broadway Rose","steam_id":76561198046083342,"connected_time":2002000000000,"state":"active","ping":57},{"user_id":386,"name":"spherewithahat","steam_id":76561199122192660,"connected_time":4984000000000,"state":"active","ping":59},{"user_id":351,"name":"bruh2","steam_id":76561198046055673,"connected_time":7987000000000,"state":"active","ping":67},{"user_id":452,"name":"you forgot the sauce","steam_id":76561198387016713,"connected_time":140000000000,"state":"active","ping":61},{"user_id":434,"name":"Mr Frog","steam_id":76561199065277975,"connected_time":1981000000000,"state":"active","ping":79},{"user_id":450,"name":"Dr Spaceman","steam_id":76561197969755657,"connected_time":518000000000,"state":"active","ping":65},{"user_id":444,"name":"N√©oGothiqueüïØ","steam_id":76561198003467269,"connected_time":695000000000,"state":"active","ping":89},{"user_id":447,"name":"vyx","steam_id":76561198037205391,"connected_time":631000000000,"state":"active","ping":71},{"user_id":449,"name":"KentYardAssociate","steam_id":76561198290499758,"connected_time":532000000000,"state":"active","ping":87},{"user_id":456,"name":"Jeff Pesos","steam_id":76561198086379892,"connected_time":41000000000,"state":"spawning","ping":669},{"user_id":414,"name":"Rhutebeer","steam_id":76561198018302761,"connected_time":3059000000000,"state":"active","ping":98},{"user_id":438,"name":"Volumetrick","steam_id":76561199441031479,"connected_time":1825000000000,"state":"active","ping":60},{"user_id":435,"name":"JacripspyVulcano","steam_id":76561198966980576,"connected_time":1965000000000,"state":"active","ping":45}]},{"server_id":15,"name":"Uncletopia | New York City | 3 | Stopwatch Beta","name_short":"nyc-3","host":"nyc-1.us.uncletopia.com","port":27035,"enabled":true,"region":"us-east","cc":"us","latitude":40.73061,"longitude":-73.93524,"reserved":0,"last_update":"0001-01-01T00:00:00Z","name_a2s":"Uncletopia | New York City | 3 | Stopwatch Beta","protocol":17,"map":"koth_lakeside_final","folder":"tf","game":"Team Fortress","app_id":440,"player_count":0,"max_players":24,"Bots":0,"server_type":"Dedicated","server_os":"Linux","password":true,"vac":true,"version":"7757534","steam_id":85568392924742820,"keywords":["cp","nocrits","nodmgspread","uncletopia"],"game_id":440,"stv_port":27036,"stv_name":"Uncletopia | New York City | 3 | Stopwatch Beta | STV","players":null},{"server_id":16,"name":"Uncletopia | New York City | 4 | Community","name_short":"nyc-4","host":"nyc-1.us.uncletopia.com","port":27045,"enabled":true,"region":"us-east","cc":"us","latitude":40.73061,"longitude":-73.93524,"reserved":0,"last_update":"0001-01-01T00:00:00Z","name_a2s":"Uncletopia | New York City | 4 | Community","protocol":17,"map":"pl_swiftwater_final1","folder":"tf","game":"Team Fortress","app_id":440,"player_count":0,"max_players":24,"Bots":0,"server_type":"Dedicated","server_os":"Linux","password":true,"vac":true,"version":"7757534","steam_id":85568392924742821,"keywords":["nocrits","nodmgspread","payload","uncletopia"],"game_id":440,"stv_port":27046,"stv_name":"Uncletopia | New York City | 4 | Community | STV","players":null},{"server_id":142,"name":"Uncletopia | S√£o Paulo | 1 | All Maps","name_short":"sao-1","host":"sao-1.br.uncletopia.com","port":27015,"enabled":true,"region":"sa","cc":"br","latitude":-23.533773,"longitude":-46.62529,"reserved":0,"last_update":"0001-01-01T00:00:00Z","name_a2s":"Uncletopia | S√£o Paulo | 1 | All Maps","protocol":17,"map":"koth_lakeside_final","folder":"tf","game":"Team Fortress","app_id":440,"player_count":0,"max_players":24,"Bots":0,"server_type":"Dedicated","server_os":"Linux","password":true,"vac":true,"version":"7757534","steam_id":85568392924469996,"keywords":["cp","nocrits","nodmgspread","uncletopia"],"game_id":440,"stv_port":27016,"stv_name":"Uncletopia | S√£o Paulo | 1 | All Maps | STV","players":null},{"server_id":143,"name":"Uncletopia | S√£o Paulo | 2 | All Maps","name_short":"sao-2","host":"sao-2.br.uncletopia.com","port":27015,"enabled":true,"region":"sa","cc":"br","latitude":-23.533773,"longitude":-46.62529,"reserved":0,"last_update":"0001-01-01T00:00:00Z","name_a2s":"Uncletopia | S√£o Paulo | 2 | All Maps","protocol":17,"map":"koth_cascade","folder":"tf","game":"Team Fortress","app_id":440,"player_count":0,"max_players":24,"Bots":0,"server_type":"Dedicated","server_os":"Linux","password":true,"vac":true,"version":"7757534","steam_id":85568392924485349,"keywords":["cp","nocrits","nodmgspread","uncletopia"],"game_id":440,"stv_port":27016,"stv_name":"Uncletopia | S√£o Paulo | 2 | All Maps | STV","players":null},{"server_id":7,"name":"Uncletopia | Seattle | 1 | All Maps","name_short":"sea-1","host":"sea-1.us.uncletopia.com","port":27015,"enabled":true,"region":"us-west","cc":"us","latitude":47.608013,"longitude":-122.33517,"reserved":0,"last_update":"0001-01-01T00:00:00Z","name_a2s":"Uncletopia | Seattle | 1 | All Maps","protocol":17,"map":"cp_dustbowl","folder":"tf","game":"Team Fortress","app_id":440,"player_count":24,"max_players":24,"Bots":0,"server_type":"Dedicated","server_os":"Linux","password":true,"vac":true,"version":"7757534","steam_id":85568392924469997,"keywords":["cp","nocrits","nodmgspread","uncletopia"],"game_id":440,"stv_port":27016,"stv_name":"Uncletopia | Seattle | 1 | All Maps | STV","players":[{"user_id":444,"name":"Tyzombiecrusher","steam_id":76561198175855278,"connected_time":137000000000,"state":"active","ping":100},{"user_id":440,"name":"Falleax","steam_id":76561198021154908,"connected_time":903000000000,"state":"active","ping":101},{"user_id":429,"name":"Cam(era)","steam_id":76561198285054047,"connected_time":1373000000000,"state":"active","ping":77},{"user_id":442,"name":"skelly702","steam_id":76561198384117003,"connected_time":572000000000,"state":"active","ping":69},{"user_id":413,"name":"jawnymac","steam_id":76561198179529599,"connected_time":2350000000000,"state":"active","ping":73},{"user_id":420,"name":"dave strider","steam_id":76561198065112186,"connected_time":1980000000000,"state":"active","ping":61},{"user_id":432,"name":"GriDLocK; T0T4113D","steam_id":76561197999816631,"connected_time":1270000000000,"state":"active","ping":57},{"user_id":439,"name":"lil homie gay ass","steam_id":76561198044804626,"connected_time":1011000000000,"state":"active","ping":118},{"user_id":438,"name":"daBigBoss","steam_id":76561198120428029,"connected_time":1064000000000,"state":"active","ping":76},{"user_id":430,"name":"I LOVE CP_STEEL","steam_id":76561198025295263,"connected_time":1330000000000,"state":"active","ping":106},{"user_id":250,"name":"lili","steam_id":76561199391478575,"connected_time":12636000000000,"state":"active","ping":83},{"user_id":443,"name":"Saint Pablo","steam_id":76561198083300159,"connected_time":200000000000,"state":"active","ping":72},{"user_id":445,"name":"AnarchyPaladin","steam_id":76561198066635428,"connected_time":28000000000,"state":"active","ping":75},{"user_id":388,"name":"[TTV]slendermansmoom","steam_id":76561199053946374,"connected_time":3265000000000,"state":"active","ping":60},{"user_id":391,"name":"BIGWELDFROMROBOTS","steam_id":76561199275349806,"connected_time":3027000000000,"state":"active","ping":74},{"user_id":427,"name":"morgenne","steam_id":76561199224141679,"connected_time":1641000000000,"state":"active","ping":54},{"user_id":434,"name":"MayKaye","steam_id":76561199016092265,"connected_time":1223000000000,"state":"active","ping":99},{"user_id":428,"name":"MrTweady","steam_id":76561198073352802,"connected_time":1614000000000,"state":"active","ping":107},{"user_id":415,"name":"1dk","steam_id":76561198135104742,"connected_time":2320000000000,"state":"active","ping":45},{"user_id":423,"name":"acura rsx","steam_id":76561198353456379,"connected_time":1818000000000,"state":"active","ping":75},{"user_id":435,"name":"Alice in Rubberland","steam_id":76561198087328346,"connected_time":1216000000000,"state":"active","ping":95},{"user_id":425,"name":"matrixholder101","steam_id":76561198975625611,"connected_time":1745000000000,"state":"active","ping":142},{"user_id":437,"name":"Dr. Dingus PHD","steam_id":76561199209834538,"connected_time":1165000000000,"state":"active","ping":79},{"user_id":369,"name":"toes","steam_id":76561198221151676,"connected_time":5189000000000,"state":"active","ping":59}]},{"server_id":119,"name":"Uncletopia | Seattle | 2 | All Maps","name_short":"sea-2","host":"sea-1.us.uncletopia.com","port":27025,"enabled":true,"region":"us-west","cc":"us","latitude":47.608013,"longitude":-122.33517,"reserved":0,"last_update":"0001-01-01T00:00:00Z","name_a2s":"Uncletopia | Seattle | 2 | All Maps","protocol":17,"map":"cp_sunshine","folder":"tf","game":"Team Fortress","app_id":440,"player_count":20,"max_players":24,"Bots":0,"server_type":"Dedicated","server_os":"Linux","password":true,"vac":true,"version":"7757534","steam_id":85568392924469998,"keywords":["cp","nocrits","nodmgspread","uncletopia"],"game_id":440,"stv_port":27026,"stv_name":"Uncletopia | Seattle | 2 | All Maps | STV","players":[{"user_id":49,"name":"This game sucks","steam_id":76561198042007578,"connected_time":6719000000000,"state":"active","ping":89},{"user_id":124,"name":"lamadre07","steam_id":76561198067337453,"connected_time":1120000000000,"state":"active","ping":156},{"user_id":108,"name":"kodynotcody","steam_id":76561198340685758,"connected_time":2054000000000,"state":"spawning","ping":48},{"user_id":113,"name":"shy guy","steam_id":76561198151246059,"connected_time":1605000000000,"state":"active","ping":60},{"user_id":89,"name":"narca","steam_id":76561198313400099,"connected_time":3672000000000,"state":"active","ping":112},{"user_id":111,"name":"Dad 2","steam_id":76561198138546187,"connected_time":1680000000000,"state":"active","ping":119},{"user_id":127,"name":"jumpoutthehousejumpouttheho","steam_id":76561198143132686,"connected_time":815000000000,"state":"active","ping":62},{"user_id":130,"name":"Shamrock Shake Oct.10.2020 @8pm","steam_id":76561198833313201,"connected_time":502000000000,"state":"active","ping":84},{"user_id":131,"name":"Ziggie Smalls","steam_id":76561198804592809,"connected_time":457000000000,"state":"active","ping":47},{"user_id":95,"name":"Fajita Master","steam_id":76561198329150962,"connected_time":3513000000000,"state":"active","ping":62},{"user_id":128,"name":"Villchip","steam_id":76561198198599982,"connected_time":742000000000,"state":"active","ping":53},{"user_id":132,"name":"Edd","steam_id":76561198203088002,"connected_time":175000000000,"state":"active","ping":61},{"user_id":110,"name":"Mom 2","steam_id":76561198200961750,"connected_time":1693000000000,"state":"active","ping":65},{"user_id":129,"name":"Lesbian Futa Mommy","steam_id":76561198130479030,"connected_time":632000000000,"state":"active","ping":50},{"user_id":117,"name":"Gocel","steam_id":76561198071467515,"connected_time":1535000000000,"state":"active","ping":118},{"user_id":43,"name":"ARGON Soulidity","steam_id":76561198429603550,"connected_time":6833000000000,"state":"active","ping":109},{"user_id":119,"name":"Orca?","steam_id":76561198164341099,"connected_time":1474000000000,"state":"active","ping":85},{"user_id":46,"name":"THEDINKY","steam_id":76561198190077399,"connected_time":6793000000000,"state":"active","ping":114},{"user_id":101,"name":"June","steam_id":76561198141803658,"connected_time":3294000000000,"state":"active","ping":66},{"user_id":104,"name":"‚ô• Milo Stefferson ‚ô•","steam_id":76561198056269538,"connected_time":2855000000000,"state":"active","ping":60}]},{"server_id":406,"name":"Uncletopia | Seattle | 3 | Stopwatch Beta","name_short":"sea-3","host":"sea-1.us.uncletopia.com","port":27035,"enabled":true,"region":"us-west","cc":"us","latitude":47.608013,"longitude":-122.33517,"reserved":0,"last_update":"0001-01-01T00:00:00Z","name_a2s":"Uncletopia | Seattle | 3 | Stopwatch Beta","protocol":17,"map":"cp_dustbowl","folder":"tf","game":"Team Fortress","app_id":440,"player_count":0,"max_players":24,"Bots":0,"server_type":"Dedicated","server_os":"Linux","password":true,"vac":true,"version":"7757534","steam_id":85568392924515217,"keywords":["cp","nocrits","nodmgspread","uncletopia"],"game_id":440,"stv_port":27036,"stv_name":"Uncletopia | Seattle | 3 | Stopwatch Beta | STV","players":null},{"server_id":17,"name":"Uncletopia | San Francisco | 1 | All Maps","name_short":"sfo-1","host":"sfo-1.us.uncletopia.com","port":27015,"enabled":true,"region":"us-west","cc":"us","latitude":37.77397,"longitude":-122.4313,"reserved":0,"last_update":"0001-01-01T00:00:00Z","name_a2s":"Uncletopia | San Francisco | 1 | All Maps","protocol":17,"map":"pl_barnblitz","folder":"tf","game":"Team Fortress","app_id":440,"player_count":2,"max_players":24,"Bots":0,"server_type":"Dedicated","server_os":"Linux","password":true,"vac":true,"version":"7757534","steam_id":85568392924469999,"keywords":["nocrits","nodmgspread","payload","uncletopia"],"game_id":440,"stv_port":27016,"stv_name":"Uncletopia | San Francisco | 1 | All Maps | STV","players":[{"user_id":6,"name":"Shampoo Connoisseur","steam_id":76561199362454584,"connected_time":1535000000000,"state":"active","ping":79},{"user_id":10,"name":"pablo","steam_id":76561199190247198,"connected_time":995000000000,"state":"active","ping":152}]},{"server_id":18,"name":"Uncletopia | San Francisco | 2 | All Maps","name_short":"sfo-2","host":"sfo-1.us.uncletopia.com","port":27025,"enabled":true,"region":"us-west","cc":"us","latitude":37.77397,"longitude":-122.4313,"reserved":0,"last_update":"0001-01-01T00:00:00Z","name_a2s":"Uncletopia | San Francisco | 2 | All Maps","protocol":17,"map":"cp_sunshine","folder":"tf","game":"Team Fortress","app_id":440,"player_count":0,"max_players":24,"Bots":0,"server_type":"Dedicated","server_os":"Linux","password":true,"vac":true,"version":"7757534","steam_id":85568392924470000,"keywords":["cp","nocrits","nodmgspread","uncletopia"],"game_id":440,"stv_port":27026,"stv_name":"Uncletopia | San Francisco | 2 | All Maps | STV","players":null},{"server_id":19,"name":"Uncletopia | San Francisco | 3 | Stopwatch Beta","name_short":"sfo-3","host":"sfo-1.us.uncletopia.com","port":27035,"enabled":true,"region":"us-west","cc":"us","latitude":37.77397,"longitude":-122.4313,"reserved":0,"last_update":"0001-01-01T00:00:00Z","name_a2s":"Uncletopia | San Francisco | 3 | Stopwatch Beta","protocol":17,"map":"koth_lakeside_final","folder":"tf","game":"Team Fortress","app_id":440,"player_count":0,"max_players":24,"Bots":0,"server_type":"Dedicated","server_os":"Linux","password":true,"vac":true,"version":"7757534","steam_id":85568392924742824,"keywords":["cp","nocrits","nodmgspread","uncletopia"],"game_id":440,"stv_port":27036,"stv_name":"Uncletopia | San Francisco | 3 | Stopwatch Beta | STV","players":null},{"server_id":20,"name":"Uncletopia | San Francisco | 4 | Community","name_short":"sfo-4","host":"sfo-1.us.uncletopia.com","port":27045,"enabled":true,"region":"us-west","cc":"us","latitude":37.77397,"longitude":-122.4313,"reserved":0,"last_update":"0001-01-01T00:00:00Z","name_a2s":"Uncletopia | San Francisco | 4 | Community","protocol":17,"map":"cp_altitude","folder":"tf","game":"Team Fortress","app_id":440,"player_count":0,"max_players":24,"Bots":0,"server_type":"Dedicated","server_os":"Linux","password":true,"vac":true,"version":"7757534","steam_id":85568392924742826,"keywords":["cp","nocrits","nodmgspread","uncletopia"],"game_id":440,"stv_port":27046,"stv_name":"Uncletopia | San Francisco | 4 | Community | STV","players":null},{"server_id":141,"name":"Uncletopia | Sydney | 1 | All Maps","name_short":"syd-1","host":"syd-1.au.uncletopia.com","port":27015,"enabled":true,"region":"au","cc":"au","latitude":-33.865143,"longitude":151.2099,"reserved":0,"last_update":"0001-01-01T00:00:00Z","name_a2s":"Uncletopia | Sydney | 1 | All Maps","protocol":17,"map":"koth_highpass","folder":"tf","game":"Team Fortress","app_id":440,"player_count":0,"max_players":24,"Bots":0,"server_type":"Dedicated","server_os":"Linux","password":true,"vac":true,"version":"7757534","steam_id":85568392924470001,"keywords":["cp","nocrits","nodmgspread","uncletopia"],"game_id":440,"stv_port":27016,"stv_name":"Uncletopia | Sydney | 1 | All Maps | STV","players":null},{"server_id":123,"name":"Uncletopia | Sydney | 2 | All Maps","name_short":"syd-2","host":"syd-1.au.uncletopia.com","port":27025,"enabled":true,"region":"au","cc":"au","latitude":-33.865143,"longitude":151.2099,"reserved":0,"last_update":"0001-01-01T00:00:00Z","name_a2s":"Uncletopia | Sydney | 2 | All Maps","protocol":17,"map":"cp_dustbowl","folder":"tf","game":"Team Fortress","app_id":440,"player_count":0,"max_players":24,"Bots":0,"server_type":"Dedicated","server_os":"Linux","password":true,"vac":true,"version":"7757534","steam_id":85568392924470002,"keywords":["cp","nocrits","nodmgspread","uncletopia"],"game_id":440,"stv_port":27026,"stv_name":"Uncletopia | Sydney | 2 | All Maps | STV","players":null},{"server_id":395,"name":"Uncletopia | Sydney | 3 | All Maps","name_short":"syd-3","host":"syd-1.au.uncletopia.com","port":27035,"enabled":true,"region":"au","cc":"au","latitude":-33.865143,"longitude":151.2099,"reserved":0,"last_update":"0001-01-01T00:00:00Z","name_a2s":"Uncletopia | Sydney | 3 | All Maps","protocol":17,"map":"pl_swiftwater_final1","folder":"tf","game":"Team Fortress","app_id":440,"player_count":2,"max_players":24,"Bots":0,"server_type":"Dedicated","server_os":"Linux","password":true,"vac":true,"version":"7757534","steam_id":85568392925194467,"keywords":["nocrits","nodmgspread","payload","uncletopia"],"game_id":440,"stv_port":27036,"stv_name":"Uncletopia | Sydney | 3 | All Maps | STV","players":[{"user_id":3,"name":"Smart fella","steam_id":76561198315732431,"connected_time":1514000000000,"state":"active","ping":217},{"user_id":4,"name":"Cosmic Yoshi","steam_id":76561199195528497,"connected_time":1502000000000,"state":"active","ping":220}]},{"server_id":396,"name":"Uncletopia | Sydney | 4 | All Maps","name_short":"syd-4","host":"syd-1.au.uncletopia.com","port":27045,"enabled":true,"region":"au","cc":"au","latitude":-33.865143,"longitude":151.2099,"reserved":0,"last_update":"0001-01-01T00:00:00Z","name_a2s":"Uncletopia | Sydney | 4 | All Maps","protocol":17,"map":"koth_highpass","folder":"tf","game":"Team Fortress","app_id":440,"player_count":0,"max_players":24,"Bots":0,"server_type":"Dedicated","server_os":"Linux","password":true,"vac":true,"version":"7757534","steam_id":85568392925397958,"keywords":["cp","nocrits","nodmgspread","uncletopia"],"game_id":440,"stv_port":27046,"stv_name":"Uncletopia | Sydney | 4 | All Maps | STV","players":null},{"server_id":58,"name":"Uncletopia | Sydney | 5 | Stopwatch Beta","name_short":"syd-5","host":"syd-1.au.uncletopia.com","port":27055,"enabled":true,"region":"au","cc":"au","latitude":-33.865143,"longitude":151.2099,"reserved":0,"last_update":"0001-01-01T00:00:00Z","name_a2s":"Uncletopia | Sydney | 5 | Stopwatch Beta","protocol":17,"map":"koth_cascade","folder":"tf","game":"Team Fortress","app_id":440,"player_count":0,"max_players":24,"Bots":0,"server_type":"Dedicated","server_os":"Linux","password":true,"vac":true,"version":"7757534","steam_id":85568392925397959,"keywords":["cp","nocrits","nodmgspread","uncletopia"],"game_id":440,"stv_port":27056,"stv_name":"Uncletopia | Sydney | 5 | Stopwatch Beta | STV","players":null},{"server_id":59,"name":"Uncletopia | Sydney | 6 | Community","name_short":"syd-6","host":"syd-1.au.uncletopia.com","port":27065,"enabled":true,"region":"au","cc":"au","latitude":-33.865143,"longitude":151.2099,"reserved":0,"last_update":"0001-01-01T00:00:00Z","name_a2s":"Uncletopia | Sydney | 6 | Community","protocol":17,"map":"workshop/pl_badwater_pro_v12.ugc2142942074","folder":"tf","game":"Team Fortress","app_id":440,"player_count":0,"max_players":24,"Bots":0,"server_type":"Dedicated","server_os":"Linux","password":true,"vac":true,"version":"7757534","steam_id":85568392925397960,"keywords":["nocrits","nodmgspread","payload","uncletopia"],"game_id":440,"stv_port":27066,"stv_name":"Uncletopia | Sydney | 6 | Community | STV","players":null},{"server_id":49,"name":"Uncletopia | Warsaw | 1 | All Maps","name_short":"waw-1","host":"waw-1.pl.uncletopia.com","port":27015,"enabled":true,"region":"eu","cc":"pl","latitude":52.2297,"longitude":21.017532,"reserved":0,"last_update":"0001-01-01T00:00:00Z","name_a2s":"","protocol":0,"map":"","folder":"","game":"","app_id":0,"player_count":0,"max_players":0,"Bots":0,"server_type":"","server_os":"","password":false,"vac":false,"version":"","steam_id":0,"keywords":null,"game_id":0,"stv_port":0,"stv_name":"","players":null},{"server_id":50,"name":"Uncletopia | Warsaw | 2 | All Maps","name_short":"waw-2","host":"waw-1.pl.uncletopia.com","port":27025,"enabled":true,"region":"eu","cc":"pl","latitude":52.2297,"longitude":21.017532,"reserved":0,"last_update":"0001-01-01T00:00:00Z","name_a2s":"Uncletopia | Warsaw | 2 | All Maps","protocol":17,"map":"koth_viaduct","folder":"tf","game":"Team Fortress","app_id":440,"player_count":0,"max_players":24,"Bots":0,"server_type":"Dedicated","server_os":"Linux","password":true,"vac":true,"version":"7757534","steam_id":85568392925397851,"keywords":["cp","nocrits","nodmgspread","uncletopia"],"game_id":440,"stv_port":27026,"stv_name":"Uncletopia | Warsaw | 2 | All Maps | STV","players":null},{"server_id":51,"name":"Uncletopia | Warsaw | 3 | All Maps","name_short":"waw-3","host":"waw-1.pl.uncletopia.com","port":27035,"enabled":true,"region":"eu","cc":"pl","latitude":52.2297,"longitude":21.017532,"reserved":0,"last_update":"0001-01-01T00:00:00Z","name_a2s":"Uncletopia | Warsaw | 3 | All Maps","protocol":17,"map":"pl_badwater","folder":"tf","game":"Team Fortress","app_id":440,"player_count":0,"max_players":24,"Bots":0,"server_type":"Dedicated","server_os":"Linux","password":true,"vac":true,"version":"7757534","steam_id":85568392925397852,"keywords":["nocrits","nodmgspread","payload","uncletopia"],"game_id":440,"stv_port":27036,"stv_name":"Uncletopia | Warsaw | 3 | All Maps | STV","players":null},{"server_id":52,"name":"Uncletopia | Warsaw | 4 | All Maps","name_short":"waw-4","host":"waw-1.pl.uncletopia.com","port":27045,"enabled":true,"region":"eu","cc":"pl","latitude":52.2297,"longitude":21.017532,"reserved":0,"last_update":"0001-01-01T00:00:00Z","name_a2s":"Uncletopia | Warsaw | 4 | All Maps","protocol":17,"map":"koth_lakeside_final","folder":"tf","game":"Team Fortress","app_id":440,"player_count":0,"max_players":24,"Bots":0,"server_type":"Dedicated","server_os":"Linux","password":true,"vac":true,"version":"7757534","steam_id":85568392925397853,"keywords":["cp","nocrits","nodmgspread","uncletopia"],"game_id":440,"stv_port":27046,"stv_name":"Uncletopia | Warsaw | 4 | All Maps | STV","players":null},{"server_id":53,"name":"Uncletopia | Warsaw | 5 | Stopwatch Beta","name_short":"waw-5","host":"waw-1.pl.uncletopia.com","port":27055,"enabled":true,"region":"eu","cc":"pl","latitude":52.2297,"longitude":21.017532,"reserved":0,"last_update":"0001-01-01T00:00:00Z","name_a2s":"Uncletopia | Warsaw | 5 | Stopwatch Beta","protocol":17,"map":"pl_borneo","folder":"tf","game":"Team Fortress","app_id":440,"player_count":0,"max_players":24,"Bots":0,"server_type":"Dedicated","server_os":"Linux","password":true,"vac":true,"version":"7757534","steam_id":85568392925397854,"keywords":["nocrits","nodmgspread","payload","uncletopia"],"game_id":440,"stv_port":27056,"stv_name":"Uncletopia | Warsaw | 5 | Stopwatch Beta | STV","players":null},{"server_id":54,"name":"Uncletopia | Warsaw | 6 | Community","name_short":"waw-6","host":"waw-1.pl.uncletopia.com","port":27065,"enabled":true,"region":"eu","cc":"pl","latitude":52.2297,"longitude":21.017532,"reserved":0,"last_update":"0001-01-01T00:00:00Z","name_a2s":"Uncletopia | Warsaw | 6 | Community","protocol":17,"map":"koth_lakeside_final","folder":"tf","game":"Team Fortress","app_id":440,"player_count":0,"max_players":24,"Bots":0,"server_type":"Dedicated","server_os":"Linux","password":true,"vac":true,"version":"7757534","steam_id":85568392925397856,"keywords":["cp","nocrits","nodmgspread","uncletopia"],"game_id":440,"stv_port":27066,"stv_name":"Uncletopia | Warsaw | 6 | Community | STV","players":null}]}