{"status":true,"message":"","result":[{"server_id":9,"name":"Uncletopia | Atlanta | 1 | All Maps","name_short":"atl-1","host":"atl-1.us.uncletopia.com","port":27015,"enabled":true,"region":"us-east","cc":"us","latitude":33.753746,"longitude":-84.38633,"reserved":0,"last_update":"0001-01-01T00:00:00Z","name_a2s":"Uncletopia | Atlanta | 1 | All Maps","protocol":17,"map":"koth_viaduct","folder":"tf","game":"Team Fortress","app_id":440,"player_count":1,"max_players":24,"Bots":0,"server_type":"Dedicated","server_os":"Linux","password":true,"vac":true,"version":"7961495","steam_id":85568392924469982,"keywords":["cp","nocrits","nodmgspread","uncletopia"],"game_id":440,"stv_port":27016,"stv_name":"Uncletopia | Atlanta | 1 | All Maps | STV","players":null},{"server_id":104,"name":"Uncletopia | Atlanta | 2 | All Maps","name_short":"atl-2","host":"atl-1.us.uncletopia.com","port":27025,"enabled":true,"region":"us-east","cc":"us","latitude":33.753746,"longitude":-84.38633,"reserved":0,"last_update":"0001-01-01T00:00:00Z","name_a2s":"Uncletopia | Atlanta | 2 | All Maps","protocol":17,"map":"koth_cascade","folder":"tf","game":"Team Fortress","app_id":440,"player_count":0,"max_players":24,"Bots":0,"server_type":"Dedicated","server_os":"Linux","password":true,"vac":true,"version":"7961495","steam_id":85568392924469983,"keywords":["cp","nocrits","nodmgspread","uncletopia"],"game_id":440,"stv_port":27026,"stv_name":"Uncletopia | Atlanta | 2 | All Maps | STV","players":null},{"server_id":400,"name":"Uncletopia | Atlanta | 3 | Stopwatch","name_short":"atl-3","host":"atl-1.us.uncletopia.com","port":27035,"enabled":true,"region":"us-east","cc":"us","latitude":33.753746,"longitude":-84.38633,"reserved":0,"last_update":"0001-01-01T00:00:00Z","name_a2s":"Uncletopia | Atlanta | 3 | Stopwatch","protocol":17,"map":"pl_badwater","folder":"tf","game":"Team Fortress","app_id":440,"player_count":0,"max_players":24,"Bots":0,"server_type":"Dedicated","server_os":"Linux","password":true,"vac":true,"version":"7961495","steam_id":85568392924515187,"keywords":["nocrits","nodmgspread","payload","uncletopia"],"game_id":440,"stv_port":27036,"stv_name":"Uncletopia | Atlanta | 3 | Stopwatch | STV","players":null},{"server_id":401,"name":"Uncletopia | Atlanta | 4 | Community","name_short":"atl-4","host":"atl-1.us.uncletopia.com","port":27045,"enabled":true,"region":"us-east","cc":"us","latitude":33.753746,"longitude":-84.38633,"reserved":0,"last_update":"0001-01-01T00:00:00Z","name_a2s":"Uncletopia | Atlanta | 4 | Community","protocol":17,"map":"cp_sunshine","folder":"tf","game":"Team Fortress","app_id":440,"player_count":0,"max_players":24,"Bots":0,"server_type":"Dedicated","server_os":"Linux","password":true,"vac":true,"version":"7961495","steam_id":85568392924515188,"keywords":["cp","nocrits","nodmgspread","uncletopia"],"game_id":440,"stv_port":27046,"stv_name":"Uncletopia | Atlanta | 4 | Community | STV","players":null},{"server_id":2,"name":"Uncletopia | Chicago | 1 | All Maps","name_short":"chi-1","host":"chi-1.us.uncletopia.com","port":27015,"enabled":true,"region":"us-central","cc":"us","latitude":41.881832,"longitude":-87.62318,"reserved":0,"last_update":"0001-01-01T00:00:00Z","name_a2s":"Uncletopia | Chicago | 1 | All Maps","protocol":17,"map":"pl_thundermountain","folder":"tf","game":"Team Fortress","app_id":440,"player_count":24,"max_players":24,"Bots":0,"server_type":"Dedicated","server_os":"Linux","password":true,"vac":true,"version":"7961495","steam_id":85568392924469984,"keywords":["nocrits","nodmgspread","payload","uncletopia"],"game_id":440,"stv_port":27016,"stv_name":"Uncletopia | Chicago | 1 | All Maps | STV","players":[{"user_id":290,"name":"TheLurganguy47","steam_id":76561198815535521,"connected_time":1389000000000,"state":"active","ping":91},{"user_id":306,"name":"B R O W N","steam_id":76561198084016173,"connected_time":16000000000,"state":"spawning","ping":117},{"user_id":291,"name":"relay","steam_id":76561198314662811,"connected_time":1368000000000,"state":"active","ping":104},{"user_id":305,"name":"Maverick","steam_id":76561198322829814,"connected_time":368000000000,"state":"active","ping":76},{"user_id":303,"name":"Whorse","steam_id":76561198114141445,"connected_time":647000000000,"state":"active","ping":64},{"user_id":283,"name":"Maokai","steam_id":76561198067176829,"connected_time":1556000000000,"state":"active","ping":115},{"user_id":293,"name":"Xx_UrineEnjoyer_xX","steam_id":76561198397991402,"connected_time":1363000000000,"state":"active","ping":136},{"user_id":206,"name":"cofi","steam_id":76561198077504898,"connected_time":7400000000000,"state":"active","ping":63},{"user_id":294,"name":"munch","steam_id":76561198820480684,"connected_time":1354000000000,"state":"active","ping":59},{"user_id":296,"name":"Grimm - (RIP Rick May/Kitty0706","steam_id":76561199050642411,"connected_time":1338000000000,"state":"active","ping":88},{"user_id":230,"name":"popfulmail","steam_id":76561198865971290,"connected_time":5191000000000,"state":"active","ping":84},{"user_id":242,"name":"Voix","steam_id":76561198981338952,"connected_time":4174000000000,"state":"active","ping":84},{"user_id":269,"name":"Shark Sandwich","steam_id":76561198025007938,"connected_time":2661000000000,"state":"active","ping":95},{"user_id":304,"name":"The Helpful Mute","steam_id":76561198078359985,"connected_time":471000000000,"state":"active","ping":56},{"user_id":289,"name":"FIREPOW","steam_id":76561198111259720,"connected_time":1414000000000,"state":"active","ping":61},{"user_id":286,"name":"cynical_person","steam_id":76561198992742722,"connected_time":1442000000000,"state":"active","ping":98},{"user_id":300,"name":"Primal","steam_id":76561197983118203,"connected_time":1230000000000,"state":"active","ping":74},{"user_id":299,"name":"[SK] Punish ‚ô• ÁâßÊøëÁ∫¢ËéâÊ†ñ","steam_id":76561198207987376,"connected_time":1281000000000,"state":"active","ping":46},{"user_id":301,"name":"Taco","steam_id":76561198185185694,"connected_time":1221000000000,"state":"active","ping":105},{"user_id":278,"name":"M√£…æ û√≥≈¶ƒß","steam_id":76561198819418878,"connected_time":2178000000000,"state":"active","ping":74},{"user_id":287,"name":"josh","steam_id":76561198077902438,"connected_time":1435000000000,"state":"active","ping":77},{"user_id":264,"name":"Spy Among Us","steam_id":76561198027487285,"connected_time":2978000000000,"state":"active","ping":94},{"user_id":302,"name":"Mikael_01","steam_id":76561199080253129,"connected_time":1214000000000,"state":"active","ping":194},{"user_id":265,"name":"songcreator","steam_id":76561198076822464,"connected_time":2948000000000,"state":"active","ping":48}]},{"server_id":106,"name":"Uncletopia | Chicago | 2 | All Maps","name_short":"chi-2","host":"chi-1.us.uncletopia.com","port":27025,"enabled":true,"region":"us-central","cc":"us","latitude":41.881832,"longitude":-87.62318,"reserved":0,"last_update":"0001-01-01T00:00:00Z","name_a2s":"Uncletopia | Chicago | 2 | All Maps","protocol":17,"map":"pl_upward","folder":"tf","game":"Team Fortress","app_id":440,"player_count":24,"max_players":24,"Bots":0,"server_type":"Dedicated","server_os":"Linux","password":true,"vac":true,"version":"7961495","steam_id":85568392924469985,"keywords":["nocrits","nodmgspread","payload","uncletopia"],"game_id":440,"stv_port":27026,"stv_name":"Uncletopia | Chicago | 2 | All Maps | STV","players":[{"user_id":8,"name":"Bobato Chaps","steam_id":76561198065103552,"connected_time":6564000000000,"state":"active","ping":50},{"user_id":97,"name":"qt pa 2t","steam_id":76561198066867150,"connected_time":720000000000,"state":"active","ping":65},{"user_id":42,"name":"‚úßÔΩ•Ôæühooligan!!","steam_id":76561198874149130,"connected_time":5113000000000,"state":"active","ping":69},{"user_id":76,"name":"socializedCryptid","steam_id":76561198991665007,"connected_time":2697000000000,"state":"active","ping":50},{"user_id":94,"name":"crackwhorexplosion","steam_id":76561199043015477,"connected_time":758000000000,"state":"active","ping":63},{"user_id":91,"name":"granola","steam_id":76561198349359281,"connected_time":1223000000000,"state":"active","ping":66},{"user_id":60,"name":"Plasmie{ylo}","steam_id":76561198083513154,"connected_time":3806000000000,"state":"active","ping":72},{"user_id":95,"name":"fi_ji","steam_id":76561198126087725,"connected_time":744000000000,"state":"active","ping":73},{"user_id":81,"name":"Safe Safe Safeee Houseee","steam_id":76561198049812861,"connected_time":1964000000000,"state":"active","ping":73},{"user_id":96,"name":"Gibs Degrossi","steam_id":76561198066152609,"connected_time":742000000000,"state":"active","ping":55},{"user_id":100,"name":"Bear","steam_id":76561198062949510,"connected_time":554000000000,"state":"active","ping":51},{"user_id":98,"name":"dunk","steam_id":76561198132476501,"connected_time":718000000000,"state":"active","ping":52},{"user_id":78,"name":"i suffer from ligma","steam_id":76561199158496518,"connected_time":2397000000000,"state":"active","ping":107},{"user_id":90,"name":"Nyle","steam_id":76561198045652639,"connected_time":1499000000000,"state":"active","ping":115},{"user_id":88,"name":"Super Ghostbusters (Full Album)","steam_id":76561198057415490,"connected_time":1877000000000,"state":"active","ping":44},{"user_id":26,"name":"De MonkE","steam_id":76561198140626221,"connected_time":5585000000000,"state":"active","ping":59},{"user_id":70,"name":"Fredfredfood","steam_id":76561198072824802,"connected_time":3359000000000,"state":"active","ping":60},{"user_id":74,"name":"Fr–∞nk","steam_id":76561198150754556,"connected_time":2868000000000,"state":"active","ping":36},{"user_id":99,"name":"sansa musa","steam_id":76561198163723555,"connected_time":640000000000,"state":"active","ping":64},{"user_id":71,"name":"xXshrek_jrXx","steam_id":76561199241882759,"connected_time":3121000000000,"state":"active","ping":107},{"user_id":77,"name":"Old Man","steam_id":76561198149378517,"connected_time":2411000000000,"state":"active","ping":64},{"user_id":79,"name":"La Tabda","steam_id":76561198120364620,"connected_time":1995000000000,"state":"active","ping":97},{"user_id":39,"name":"Maxwell Gaming","steam_id":76561199100160919,"connected_time":5319000000000,"state":"active","ping":92},{"user_id":93,"name":"walrus","steam_id":76561198057853319,"connected_time":1188000000000,"state":"active","ping":73}]},{"server_id":402,"name":"Uncletopia | Chicago | 3 | All Maps","name_short":"chi-3","host":"chi-1.us.uncletopia.com","port":27035,"enabled":true,"region":"us-central","cc":"us","latitude":41.881832,"longitude":-87.62318,"reserved":0,"last_update":"0001-01-01T00:00:00Z","name_a2s":"Uncletopia | Chicago | 3 | All Maps","protocol":17,"map":"pl_swiftwater_final1","folder":"tf","game":"Team Fortress","app_id":440,"player_count":0,"max_players":24,"Bots":0,"server_type":"Dedicated","server_os":"Linux","password":true,"vac":true,"version":"7961495","steam_id":85568392924515191,"keywords":["nocrits","nodmgspread","payload","uncletopia"],"game_id":440,"stv_port":27036,"stv_name":"Uncletopia | Chicago | 3 | All Maps | STV","players":null},{"server_id":403,"name":"Uncletopia | Chicago | 4 | All Maps","name_short":"chi-4","host":"chi-1.us.uncletopia.com","port":27045,"enabled":true,"region":"us-central","cc":"us","latitude":41.881832,"longitude":-87.62318,"reserved":0,"last_update":"0001-01-01T00:00:00Z","name_a2s":"Uncletopia | Chicago | 4 | All Maps","protocol":17,"map":"koth_cascade","folder":"tf","game":"Team Fortress","app_id":440,"player_count":0,"max_players":24,"Bots":0,"server_type":"Dedicated","server_os":"Linux","password":true,"vac":true,"version":"7961495","steam_id":85568392924515193,"keywords":["cp","nocrits","nodmgspread","uncletopia"],"game_id":440,"stv_port":27046,"stv_name":"Uncletopia | Chicago | 4 | All Maps | STV","players":null},{"server_id":36,"name":"Uncletopia | Chicago | 5 | All Maps","name_short":"chi-5","host":"chi-2.us.uncletopia.com","port":27015,"enabled":true,"region":"us-central","cc":"us","latitude":41.881832,"longitude":-87.62318,"reserved":0,"last_update":"0001-01-01T00:00:00Z","name_a2s":"Uncletopia | Chicago | 5 | All Maps","protocol":17,"map":"koth_viaduct","folder":"tf","game":"Team Fortress","app_id":440,"player_count":0,"max_players":24,"Bots":0,"server_type":"Dedicated","server_os":"Linux","password":true,"vac":true,"version":"7961495","steam_id":85568392924866362,"keywords":["cp","nocrits","nodmgspread","uncletopia"],"game_id":440,"stv_port":27016,"stv_name":"Uncletopia | Chicago | 5 | All Maps | STV","players":null},{"server_id":37,"name":"Uncletopia | Chicago | 6 | All Maps","name_short":"chi-6","host":"chi-2.us.uncletopia.com","port":27025,"enabled":true,"region":"us-central","cc":"us","latitude":41.881832,"longitude":-87.62318,"reserved":0,"last_update":"0001-01-01T00:00:00Z","name_a2s":"Uncletopia | Chicago | 6 | All Maps","protocol":17,"map":"pl_frontier_final","folder":"tf","game":"Team Fortress","app_id":440,"player_count":0,"max_players":24,"Bots":0,"server_type":"Dedicated","server_os":"Linux","password":true,"vac":true,"version":"7961495","steam_id":85568392924866363,"keywords":["nocrits","nodmgspread","payload","uncletopia"],"game_id":440,"stv_port":27026,"stv_name":"Uncletopia | Chicago | 6 | All Maps | STV","players":null},{"server_id":38,"name":"Uncletopia | Chicago | 7 | Stopwatch","name_short":"chi-7","host":"chi-2.us.uncletopia.com","port":27035,"enabled":true,"region":"us-central","cc":"us","latitude":41.881832,"longitude":-87.62318,"reserved":0,"last_update":"0001-01-01T00:00:00Z","name_a2s":"Uncletopia | Chicago | 7 | Stopwatch","protocol":17,"map":"cp_snakewater_final1","folder":"tf","game":"Team Fortress","app_id":440,"player_count":0,"max_players":24,"Bots":0,"server_type":"Dedicated","server_os":"Linux","password":true,"vac":true,"version":"7961495","steam_id":85568392924866364,"keywords":["cp","nocrits","nodmgspread","uncletopia"],"game_id":440,"stv_port":27036,"stv_name":"Uncletopia | Chicago | 7 | Stopwatch | STV","players":null},{"server_id":39,"name":"Uncletopia | Chicago | 8 | Community","name_short":"chi-8","host":"chi-2.us.uncletopia.com","port":27045,"enabled":true,"region":"us-central","cc":"us","latitude":41.881832,"longitude":-87.62318,"reserved":0,"last_update":"0001-01-01T00:00:00Z","name_a2s":"Uncletopia | Chicago | 8 | Community","protocol":17,"map":"workshop/koth_trenchfoot_b1a.ugc731436616","folder":"tf","game":"Team Fortress","app_id":440,"player_count":1,"max_players":24,"Bots":0,"server_type":"Dedicated","server_os":"Linux","password":true,"vac":true,"version":"7961495","steam_id":85568392924866365,"keywords":["cp","nocrits","nodmgspread","uncletopia"],"game_id":440,"stv_port":27046,"stv_name":"Uncletopia | Chicago | 8 | Community | STV","players":[{"user_id":9,"name":"Dr_chilly","steam_id":76561198445383213,"connected_time":361000000000,"state":"active","ping":99}]},{"server_id":8,"name":"Uncletopia | Dallas | 1 | All Maps","name_short":"dal-1","host":"dal-1.us.uncletopia.com","port":27015,"enabled":true,"region":"us-central","cc":"us","latitude":32.779167,"longitude":-96.80889,"reserved":0,"last_update":"0001-01-01T00:00:00Z","name_a2s":"Uncletopia | Dallas | 1 | All Maps","protocol":17,"map":"pl_pier","folder":"tf","game":"Team Fortress","app_id":440,"player_count":0,"max_players":24,"Bots":0,"server_type":"Dedicated","server_os":"Linux","password":true,"vac":true,"version":"7961495","steam_id":85568392924469986,"keywords":["nocrits","nodmgspread","payload","uncletopia"],"game_id":440,"stv_port":27016,"stv_name":"Uncletopia | Dallas | 1 | All Maps | STV","players":null},{"server_id":108,"name":"Uncletopia | Dallas | 2 | All Maps","name_short":"dal-2","host":"dal-1.us.uncletopia.com","port":27025,"enabled":true,"region":"us-central","cc":"us","latitude":32.779167,"longitude":-96.80889,"reserved":0,"last_update":"0001-01-01T00:00:00Z","name_a2s":"Uncletopia | Dallas | 2 | All Maps","protocol":17,"map":"pl_upward","folder":"tf","game":"Team Fortress","app_id":440,"player_count":24,"max_players":24,"Bots":0,"server_type":"Dedicated","server_os":"Linux","password":true,"vac":true,"version":"7961495","steam_id":85568392924469988,"keywords":["nocrits","nodmgspread","payload","uncletopia"],"game_id":440,"stv_port":27026,"stv_name":"Uncletopia | Dallas | 2 | All Maps | STV","players":[{"user_id":216,"name":"Beantama","steam_id":76561198986811476,"connected_time":4134000000000,"state":"active","ping":62},{"user_id":254,"name":"Kos, or some say Kosm","steam_id":76561197998833309,"connected_time":638000000000,"state":"active","ping":74},{"user_id":206,"name":"CreateADebate","steam_id":76561198115760035,"connected_time":6143000000000,"state":"active","ping":60},{"user_id":242,"name":"Gooter","steam_id":76561198185268445,"connected_time":1835000000000,"state":"active","ping":60},{"user_id":255,"name":"Pango","steam_id":76561198069811545,"connected_time":633000000000,"state":"active","ping":69},{"user_id":184,"name":"Daehypeels","steam_id":76561198268981599,"connected_time":8519000000000,"state":"active","ping":79},{"user_id":256,"name":"sagejay","steam_id":76561198118149530,"connected_time":396000000000,"state":"active","ping":75},{"user_id":232,"name":"Phos","steam_id":76561198122339506,"connected_time":3056000000000,"state":"active","ping":62},{"user_id":233,"name":"Snivy64","steam_id":76561198423445376,"connected_time":3044000000000,"state":"active","ping":68},{"user_id":245,"name":"Limerumpus","steam_id":76561198138113676,"connected_time":1799000000000,"state":"active","ping":63},{"user_id":231,"name":"yes daddy","steam_id":76561198166100997,"connected_time":3147000000000,"state":"active","ping":71},{"user_id":257,"name":"Another TF2 Trans Furry","steam_id":76561199035402139,"connected_time":378000000000,"state":"active","ping":113},{"user_id":261,"name":"88","steam_id":76561198165212575,"connected_time":261000000000,"state":"active","ping":83},{"user_id":230,"name":"johnny","steam_id":76561198855841242,"connected_time":3466000000000,"state":"active","ping":82},{"user_id":250,"name":"Prime72","steam_id":76561198345733164,"connected_time":1310000000000,"state":"active","ping":63},{"user_id":258,"name":"Bartholomew Binglebottom","steam_id":76561198347286009,"connected_time":377000000000,"state":"active","ping":92},{"user_id":219,"name":"the keebler","steam_id":76561199486326945,"connected_time":4108000000000,"state":"active","ping":78},{"user_id":196,"name":"Gobl1n","steam_id":76561198808610991,"connected_time":7254000000000,"state":"active","ping":79},{"user_id":262,"name":"NooseNeck","steam_id":76561198202416199,"connected_time":238000000000,"state":"active","ping":51},{"user_id":244,"name":"lynt","steam_id":76561198988333976,"connected_time":1825000000000,"state":"active","ping":58},{"user_id":248,"name":"Fat Kid In a Dragonball T-Shirt","steam_id":76561198182589975,"connected_time":1763000000000,"state":"active","ping":104},{"user_id":264,"name":"Rat Bastard","steam_id":76561198153443658,"connected_time":166000000000,"state":"active","ping":78},{"user_id":221,"name":"Maxley","steam_id":76561198148602225,"connected_time":4080000000000,"state":"active","ping":87},{"user_id":234,"name":"Chin","steam_id":76561198141225199,"connected_time":3043000000000,"state":"active","ping":116}]},{"server_id":404,"name":"Uncletopia | Dallas | 3 | All Maps","name_short":"dal-3","host":"dal-1.us.uncletopia.com","port":27035,"enabled":true,"region":"us-central","cc":"us","latitude":32.779167,"longitude":-96.80889,"reserved":0,"last_update":"0001-01-01T00:00:00Z","name_a2s":"Uncletopia | Dallas | 3 | All Maps","protocol":17,"map":"pl_swiftwater_final1","folder":"tf","game":"Team Fortress","app_id":440,"player_count":0,"max_players":24,"Bots":0,"server_type":"Dedicated","server_os":"Linux","password":true,"vac":true,"version":"7961495","steam_id":85568392924515219,"keywords":["nocrits","nodmgspread","payload","uncletopia"],"game_id":440,"stv_port":27036,"stv_name":"Uncletopia | Dallas | 3 | All Maps | STV","players":null},{"server_id":405,"name":"Uncletopia | Dallas | 4 | Community","name_short":"dal-4","host":"dal-1.us.uncletopia.com","port":27045,"enabled":true,"region":"us-central","cc":"us","latitude":32.779167,"longitude":-96.80889,"reserved":0,"last_update":"0001-01-01T00:00:00Z","name_a2s":"Uncletopia | Dallas | 4 | Community","protocol":17,"map":"pl_pier","folder":"tf","game":"Team Fortress","app_id":440,"player_count":0,"max_players":24,"Bots":0,"server_type":"Dedicated","server_os":"Linux","password":true,"vac":true,"version":"7961495","steam_id":85568392924515220,"keywords":["nocrits","nodmgspread","payload","uncletopia"],"game_id":440,"stv_port":27046,"stv_name":"Uncletopia | Dallas | 4 | Community | STV","players":null},{"server_id":5,"name":"Uncletopia | Frankfurt | 1 | All Maps","name_short":"frk-1","host":"frk-1.de.uncletopia.com","port":27015,"enabled":true,"region":"eu","cc":"de","latitude":50.110924,"longitude":8.682127,"reserved":0,"last_update":"0001-01-01T00:00:00Z","name_a2s":"Uncletopia | Frankfurt | 1 | All Maps","protocol":17,"map":"koth_viaduct","folder":"tf","game":"Team Fortress","app_id":440,"player_count":24,"max_players":24,"Bots":0,"server_type":"Dedicated","server_os":"Linux","password":true,"vac":true,"version":"7961495","steam_id":85568392924469989,"keywords":["cp","nocrits","nodmgspread","uncletopia"],"game_id":440,"stv_port":27016,"stv_name":"Uncletopia | Frankfurt | 1 | All Maps | STV","players":[{"user_id":310,"name":"J ƒéuranka","steam_id":76561199229190820,"connected_time":682000000000,"state":"active","ping":74},{"user_id":327,"name":"Ruby","steam_id":76561198120994559,"connected_time":347000000000,"state":"active","ping":67},{"user_id":315,"name":"D√•vid","steam_id":76561198184135755,"connected_time":517000000000,"state":"active","ping":57},{"user_id":322,"name":"Bunnygirl Stalin","steam_id":76561199044101274,"connected_time":390000000000,"state":"active","ping":65},{"user_id":268,"name":"Chappi","steam_id":76561198075512843,"connected_time":2392000000000,"state":"active","ping":78},{"user_id":325,"name":"ivanhus_","steam_id":76561199048134719,"connected_time":357000000000,"state":"active","ping":96},{"user_id":326,"name":"tealoverr.190","steam_id":76561199028497703,"connected_time":352000000000,"state":"active","ping":106},{"user_id":328,"name":"Tammrock","steam_id":76561198029322294,"connected_time":329000000000,"state":"active","ping":75},{"user_id":309,"name":"Lukas","steam_id":76561198454286820,"connected_time":684000000000,"state":"active","ping":79},{"user_id":290,"name":"buddy","steam_id":76561197988733568,"connected_time":1257000000000,"state":"active","ping":61},{"user_id":329,"name":"Not A Fake Uncletopia Server","steam_id":76561198152871288,"connected_time":267000000000,"state":"active","ping":67},{"user_id":318,"name":"pakin157","steam_id":76561198035125667,"connected_time":448000000000,"state":"active","ping":73},{"user_id":330,"name":"WomenBeardLike","steam_id":76561198390184314,"connected_time":255000000000,"state":"active","ping":64},{"user_id":313,"name":"Haraldxd77","steam_id":76561198802041616,"connected_time":649000000000,"state":"active","ping":85},{"user_id":281,"name":"hot catguy","steam_id":76561198201418334,"connected_time":1615000000000,"state":"active","ping":70},{"user_id":331,"name":"Û†Å≥‚Åß‚Åß Kruthal","steam_id":76561198245726582,"connected_time":246000000000,"state":"active","ping":72},{"user_id":319,"name":"Amolee Hughman","steam_id":76561198349648942,"connected_time":446000000000,"state":"active","ping":79},{"user_id":288,"name":"jjkun786","steam_id":76561199438517484,"connected_time":1289000000000,"state":"active","ping":119},{"user_id":321,"name":"pretty dick peso","steam_id":76561198798177799,"connected_time":401000000000,"state":"active","ping":83},{"user_id":332,"name":"Sheen (Khang)","steam_id":76561198371062974,"connected_time":244000000000,"state":"active","ping":85},{"user_id":181,"name":"üòà COCKDESTROYER üòà","steam_id":76561198042846999,"connected_time":9550000000000,"state":"active","ping":75},{"user_id":333,"name":"flr","steam_id":76561198249327786,"connected_time":242000000000,"state":"active","ping":75},{"user_id":334,"name":"Old Hat","steam_id":76561197994673297,"connected_time":225000000000,"state":"active","ping":57},{"user_id":271,"name":"adie","steam_id":76561198255874943,"connected_time":2067000000000,"state":"active","ping":70}]},{"server_id":110,"name":"Uncletopia | Frankfurt | 2 | All Maps","name_short":"frk-2","host":"frk-1.de.uncletopia.com","port":27025,"enabled":true,"region":"eu","cc":"de","latitude":50.110924,"longitude":8.682127,"reserved":0,"last_update":"0001-01-01T00:00:00Z","name_a2s":"Uncletopia | Frankfurt | 2 | All Maps","protocol":17,"map":"pl_badwater","folder":"tf","game":"Team Fortress","app_id":440,"player_count":24,"max_players":24,"Bots":0,"server_type":"Dedicated","server_os":"Linux","password":true,"vac":true,"version":"7961495","steam_id":85568392924469990,"keywords":["nocrits","nodmgspread","payload","uncletopia"],"game_id":440,"stv_port":27026,"stv_name":"Uncletopia | Frankfurt | 2 | All Maps | STV","players":[{"user_id":423,"name":"Jannisxxl","steam_id":76561198048377916,"connected_time":516000000000,"state":"active","ping":69},{"user_id":409,"name":"Sakata Gintoki","steam_id":76561198339980449,"connected_time":1170000000000,"state":"active","ping":68},{"user_id":401,"name":"C√∂ffee","steam_id":76561198115131952,"connected_time":1373000000000,"state":"active","ping":107},{"user_id":418,"name":"hawkblob","steam_id":76561198803720565,"connected_time":898000000000,"state":"active","ping":74},{"user_id":407,"name":"Mr. Enjoy da money","steam_id":76561198152681460,"connected_time":1178000000000,"state":"active","ping":74},{"user_id":340,"name":"Fu Manchu","steam_id":76561197995224539,"connected_time":3008000000000,"state":"active","ping":74},{"user_id":420,"name":"Hercules","steam_id":76561198041164170,"connected_time":620000000000,"state":"active","ping":59},{"user_id":313,"name":"Coja","steam_id":76561198083974982,"connected_time":3930000000000,"state":"active","ping":79},{"user_id":425,"name":"WhyDoIFeed?","steam_id":76561198003117441,"connected_time":238000000000,"state":"active","ping":58},{"user_id":411,"name":"Bostrash641","steam_id":76561199447225685,"connected_time":1160000000000,"state":"active","ping":67},{"user_id":400,"name":"Eujekas","steam_id":76561198010527145,"connected_time":1404000000000,"state":"active","ping":97},{"user_id":338,"name":"Medical Approval","steam_id":76561198028354201,"connected_time":3054000000000,"state":"active","ping":63},{"user_id":408,"name":"RainbowBG","steam_id":76561198981136533,"connected_time":1173000000000,"state":"active","ping":83},{"user_id":326,"name":"SeaWeed","steam_id":76561198204600847,"connected_time":3615000000000,"state":"active","ping":70},{"user_id":359,"name":"HHH","steam_id":76561199492732323,"connected_time":2437000000000,"state":"active","ping":47},{"user_id":426,"name":"kadanov","steam_id":76561198055365234,"connected_time":11000000000,"state":"active","ping":104},{"user_id":419,"name":"ƒ∞slam'ƒ±n Zinciri - Sylas","steam_id":76561198419812739,"connected_time":888000000000,"state":"active","ping":99},{"user_id":298,"name":"Erection Man","steam_id":76561198021714542,"connected_time":4500000000000,"state":"active","ping":60},{"user_id":351,"name":"TaiFaitter","steam_id":76561198844647170,"connected_time":2689000000000,"state":"active","ping":84},{"user_id":412,"name":"ducks","steam_id":76561198166148685,"connected_time":1155000000000,"state":"active","ping":46},{"user_id":337,"name":"dark","steam_id":76561198144587731,"connected_time":3155000000000,"state":"active","ping":61},{"user_id":424,"name":"Fingortar","steam_id":76561198277143302,"connected_time":401000000000,"state":"active","ping":82},{"user_id":421,"name":"Exe_Red","steam_id":76561198154952759,"connected_time":584000000000,"state":"active","ping":86},{"user_id":417,"name":"Milosz52","steam_id":76561199060940204,"connected_time":962000000000,"state":"active","ping":81}]},{"server_id":308,"name":"Uncletopia | Frankfurt | 3 | All Maps","name_short":"frk-3","host":"frk-1.de.uncletopia.com","port":27035,"enabled":true,"region":"eu","cc":"de","latitude":50.110924,"longitude":8.682127,"reserved":0,"last_update":"0001-01-01T00:00:00Z","name_a2s":"Uncletopia | Frankfurt | 3 | All Maps","protocol":17,"map":"cp_dustbowl","folder":"tf","game":"Team Fortress","app_id":440,"player_count":24,"max_players":24,"Bots":0,"server_type":"Dedicated","server_os":"Linux","password":true,"vac":true,"version":"7961495","steam_id":85568392924504274,"keywords":["cp","nocrits","nodmgspread","uncletopia"],"game_id":440,"stv_port":27036,"stv_name":"Uncletopia | Frankfurt | 3 | All Maps | STV","players":[{"user_id":237,"name":"rhm","steam_id":76561199438126261,"connected_time":1692000000000,"state":"active","ping":235},{"user_id":246,"name":"Explode¬≥","steam_id":76561198060606780,"connected_time":1346000000000,"state":"active","ping":70},{"user_id":261,"name":"ion luca caragiale","steam_id":76561198132025408,"connected_time":1009000000000,"state":"active","ping":61},{"user_id":263,"name":"Chromatic","steam_id":76561198355976286,"connected_time":961000000000,"state":"active","ping":71},{"user_id":240,"name":"meatsoupcube","steam_id":76561198276802249,"connected_time":1507000000000,"state":"active","ping":101},{"user_id":258,"name":"PPlantum","steam_id":76561199128528323,"connected_time":1119000000000,"state":"active","ping":56},{"user_id":277,"name":"Ozzie","steam_id":76561197992915315,"connected_time":375000000000,"state":"active","ping":68},{"user_id":224,"name":"RainbowLlama","steam_id":76561198132079405,"connected_time":2170000000000,"state":"active","ping":56},{"user_id":275,"name":"Roland Deschain","steam_id":76561198023296355,"connected_time":465000000000,"state":"active","ping":99},{"user_id":232,"name":"Baklava Enjoyer","steam_id":76561198990679631,"connected_time":1814000000000,"state":"active","ping":74},{"user_id":276,"name":"invertO","steam_id":76561198142244174,"connected_time":408000000000,"state":"active","ping":60},{"user_id":269,"name":"Mr.TEA","steam_id":76561198014381591,"connected_time":690000000000,"state":"active","ping":65},{"user_id":172,"name":"gucio","steam_id":76561198133682151,"connected_time":5327000000000,"state":"active","ping":58},{"user_id":243,"name":"kastanomata","steam_id":76561198271832763,"connected_time":1429000000000,"state":"active","ping":80},{"user_id":255,"name":".headwipe*","steam_id":76561198061135497,"connected_time":1142000000000,"state":"active","ping":69},{"user_id":233,"name":"DaviX","steam_id":76561198345406679,"connected_time":1783000000000,"state":"active","ping":92},{"user_id":216,"name":"Oceanic | tuesday maybe","steam_id":76561197979741827,"connected_time":3100000000000,"state":"active","ping":70},{"user_id":256,"name":"B I G B O O T Y G U Y","steam_id":76561198233501088,"connected_time":1141000000000,"state":"active","ping":56},{"user_id":208,"name":"cargo_conductor_754","steam_id":76561198165604007,"connected_time":3735000000000,"state":"active","ping":59},{"user_id":252,"name":"Lucan","steam_id":76561198219195135,"connected_time":1210000000000,"state":"active","ping":59},{"user_id":257,"name":"2D","steam_id":76561199113659141,"connected_time":1137000000000,"state":"active","ping":125},{"user_id":273,"name":"hama","steam_id":76561198051497921,"connected_time":646000000000,"state":"active","ping":60},{"user_id":223,"name":"Dry bones from newsupermariobro","steam_id":76561199220801849,"connected_time":2456000000000,"state":"active","ping":71},{"user_id":266,"name":"pickel petah","steam_id":76561198049312442,"connected_time":841000000000,"state":"active","ping":64}]},{"server_id":309,"name":"Uncletopia | Frankfurt | 4 | All Maps","name_short":"frk-4","host":"frk-1.de.uncletopia.com","port":27045,"enabled":true,"region":"eu","cc":"de","latitude":50.110924,"longitude":8.682127,"reserved":0,"last_update":"0001-01-01T00:00:00Z","name_a2s":"Uncletopia | Frankfurt | 4 | All Maps","protocol":17,"map":"pl_pier","folder":"tf","game":"Team Fortress","app_id":440,"player_count":24,"max_players":24,"Bots":0,"server_type":"Dedicated","server_os":"Linux","password":true,"vac":true,"version":"7961495","steam_id":85568392924504275,"keywords":["nocrits","nodmgspread","payload","uncletopia"],"game_id":440,"stv_port":27046,"stv_name":"Uncletopia | Frankfurt | 4 | All Maps | STV","players":[{"user_id":338,"name":"Dyld","steam_id":76561197979603871,"connected_time":1026000000000,"state":"active","ping":58},{"user_id":339,"name":"Micha≈Ç","steam_id":76561198320346362,"connected_time":1024000000000,"state":"active","ping":52},{"user_id":271,"name":"≈†umnik","steam_id":76561198014888042,"connected_time":6327000000000,"state":"active","ping":53},{"user_id":333,"name":"Kn√∂sta","steam_id":76561198143422139,"connected_time":1118000000000,"state":"active","ping":102},{"user_id":325,"name":"Aven","steam_id":76561198974343597,"connected_time":1849000000000,"state":"active","ping":79},{"user_id":346,"name":"modavak","steam_id":76561198946290908,"connected_time":384000000000,"state":"active","ping":90},{"user_id":312,"name":"Pudlich","steam_id":76561198300089671,"connected_time":3038000000000,"state":"active","ping":70},{"user_id":335,"name":"jaime8D","steam_id":76561197980590671,"connected_time":1101000000000,"state":"active","ping":90},{"user_id":336,"name":"wasto-/-‚Ñ¢","steam_id":76561198102888038,"connected_time":1080000000000,"state":"active","ping":45},{"user_id":331,"name":"GamerPanda","steam_id":76561198061454277,"connected_time":1127000000000,"state":"active","ping":55},{"user_id":306,"name":"tequila sunset","steam_id":76561198315969106,"connected_time":3390000000000,"state":"active","ping":91},{"user_id":314,"name":"washed up","steam_id":76561198275742101,"connected_time":3023000000000,"state":"active","ping":55},{"user_id":344,"name":"Koli","steam_id":76561197992428783,"connected_time":506000000000,"state":"active","ping":47},{"user_id":285,"name":"night.s","steam_id":76561198326287823,"connected_time":5666000000000,"state":"active","ping":90},{"user_id":269,"name":"Solid","steam_id":76561198357049292,"connected_time":6535000000000,"state":"active","ping":81},{"user_id":326,"name":"Carry Krypl","steam_id":76561198136938121,"connected_time":1837000000000,"state":"active","ping":61},{"user_id":316,"name":"Proud Jojo Fan #TF2SP","steam_id":76561198847327216,"connected_time":2995000000000,"state":"active","ping":59},{"user_id":350,"name":"grr","steam_id":76561199429407130,"connected_time":112000000000,"state":"active","ping":93},{"user_id":348,"name":"gx71","steam_id":76561198035112358,"connected_time":223000000000,"state":"active","ping":59},{"user_id":343,"name":"Ghujer","steam_id":76561198887930967,"connected_time":736000000000,"state":"active","ping":82},{"user_id":330,"name":"GreenishToast","steam_id":76561198138706056,"connected_time":1329000000000,"state":"active","ping":43},{"user_id":318,"name":"The Wolf Leader","steam_id":76561198038007462,"connected_time":2900000000000,"state":"active","ping":84},{"user_id":351,"name":"Nox Equites","steam_id":76561198115438449,"connected_time":85000000000,"state":"active","ping":471},{"user_id":337,"name":"nemo","steam_id":76561199488507139,"connected_time":1063000000000,"state":"active","ping":107}]},{"server_id":310,"name":"Uncletopia | Frankfurt | 5 | All Maps","name_short":"frk-5","host":"frk-1.de.uncletopia.com","port":27055,"enabled":true,"region":"eu","cc":"de","latitude":50.110924,"longitude":8.682127,"reserved":0,"last_update":"0001-01-01T00:00:00Z","name_a2s":"Uncletopia | Frankfurt | 5 | All Maps","protocol":17,"map":"pl_barnblitz","folder":"tf","game":"Team Fortress","app_id":440,"player_count":24,"max_players":24,"Bots":0,"server_type":"Dedicated","server_os":"Linux","password":true,"vac":true,"version":"7961495","steam_id":85568392924504277,"keywords":["nocrits","nodmgspread","payload","uncletopia"],"game_id":440,"stv_port":27056,"stv_name":"Uncletopia | Frankfurt | 5 | All Maps | STV","players":[{"user_id":433,"name":"shmax","steam_id":76561198889012709,"connected_time":1845000000000,"state":"active","ping":90},{"user_id":419,"name":"norespectforthedevil","steam_id":76561197998922218,"connected_time":2382000000000,"state":"active","ping":95},{"user_id":395,"name":"ScoutPilgrim","steam_id":76561198013007215,"connected_time":3414000000000,"state":"active","ping":55},{"user_id":416,"name":"So True!!!","steam_id":76561198253503043,"connected_time":2450000000000,"state":"active","ping":69},{"user_id":443,"name":"the one who grips","steam_id":76561198381106289,"connected_time":395000000000,"state":"active","ping":75},{"user_id":435,"name":"Hexagon","steam_id":76561198151205758,"connected_time":1538000000000,"state":"active","ping":45},{"user_id":444,"name":"the_Qcumber","steam_id":76561199152515819,"connected_time":374000000000,"state":"active","ping":74},{"user_id":432,"name":"Ned Ludd","steam_id":76561198104610203,"connected_time":1926000000000,"state":"active","ping":79},{"user_id":445,"name":"glyph","steam_id":76561197980736364,"connected_time":374000000000,"state":"active","ping":76},{"user_id":438,"name":"c4ctus","steam_id":76561198925655488,"connected_time":1385000000000,"state":"active","ping":93},{"user_id":271,"name":"Geoff the Oracle","steam_id":76561198053759965,"connected_time":6975000000000,"state":"active","ping":71},{"user_id":446,"name":"Qwerty","steam_id":76561198023525894,"connected_time":353000000000,"state":"active","ping":87},{"user_id":450,"name":"Soulman25 (FIN)","steam_id":76561198103611974,"connected_time":304000000000,"state":"active","ping":95},{"user_id":428,"name":"zaganas","steam_id":76561198194376095,"connected_time":2068000000000,"state":"active","ping":104},{"user_id":431,"name":"piktas.pienas1","steam_id":76561198054641497,"connected_time":1953000000000,"state":"active","ping":103},{"user_id":440,"name":"Qdarks","steam_id":76561198013391340,"connected_time":1363000000000,"state":"active","ping":143},{"user_id":447,"name":"Bargain Brand Cereal","steam_id":76561198440470058,"connected_time":346000000000,"state":"active","ping":171},{"user_id":441,"name":"xavier","steam_id":76561198076494034,"connected_time":450000000000,"state":"active","ping":58},{"user_id":415,"name":"Mr. Mundy","steam_id":76561198132008918,"connected_time":2639000000000,"state":"active","ping":76},{"user_id":315,"name":"Marabosha","steam_id":76561198137599173,"connected_time":5741000000000,"state":"active","ping":105},{"user_id":451,"name":"manKe","steam_id":76561198008564860,"connected_time":227000000000,"state":"active","ping":60},{"user_id":411,"name":"ÔΩÑÔΩÖÔΩìÔΩãÔΩíÔΩÅÔΩô","steam_id":76561198805536170,"connected_time":3063000000000,"state":"active","ping":75},{"user_id":449,"name":"DarthPaul8181","steam_id":76561198373050455,"connected_time":322000000000,"state":"active","ping":66},{"user_id":434,"name":"a succulent chinese mayo?","steam_id":76561198810194062,"connected_time":1704000000000,"state":"active","ping":75}]},{"server_id":311,"name":"Uncletopia | Frankfurt | 6 | All Maps","name_short":"frk-6","host":"frk-1.de.uncletopia.com","port":27065,"enabled":true,"region":"eu","cc":"de","latitude":50.110924,"longitude":8.682127,"reserved":0,"last_update":"0001-01-01T00:00:00Z","name_a2s":"Uncletopia | Frankfurt | 6 | All Maps","protocol":17,"map":"pl_upward","folder":"tf","game":"Team Fortress","app_id":440,"player_count":24,"max_players":24,"Bots":0,"server_type":"Dedicated","server_os":"Linux","password":true,"vac":true,"version":"7961495","steam_id":85568392924504278,"keywords":["nocrits","nodmgspread","payload","uncletopia"],"game_id":440,"stv_port":27066,"stv_name":"Uncletopia | Frankfurt | 6 | All Maps | STV","players":[{"user_id":291,"name":"Doriian","steam_id":76561198071438810,"connected_time":685000000000,"state":"active","ping":75},{"user_id":296,"name":"Daemon","steam_id":76561198007015109,"connected_time":192000000000,"state":"active","ping":62},{"user_id":286,"name":"flave","steam_id":76561198056372101,"connected_time":922000000000,"state":"active","ping":64},{"user_id":293,"name":"_Alonso","steam_id":76561198041893314,"connected_time":376000000000,"state":"active","ping":50},{"user_id":194,"name":"Kylul_","steam_id":76561198042981061,"connected_time":5924000000000,"state":"active","ping":45},{"user_id":297,"name":"N√∫√∫b","steam_id":76561198111933414,"connected_time":189000000000,"state":"active","ping":75},{"user_id":300,"name":"mt","steam_id":76561197961319303,"connected_time":54000000000,"state":"active","ping":51},{"user_id":237,"name":"Chronicles of Nornia","steam_id":76561198040509712,"connected_time":2869000000000,"state":"active","ping":61},{"user_id":289,"name":"Caliban","steam_id":76561197999696839,"connected_time":799000000000,"state":"active","ping":109},{"user_id":284,"name":"SVIFT danny","steam_id":76561198056930504,"connected_time":1050000000000,"state":"active","ping":45},{"user_id":231,"name":"I am on the TF2 Scoreboard...","steam_id":76561198043850884,"connected_time":3314000000000,"state":"active","ping":68},{"user_id":154,"name":"veki177","steam_id":76561199059047474,"connected_time":9685000000000,"state":"active","ping":69},{"user_id":285,"name":"ympoop","steam_id":76561198202441870,"connected_time":944000000000,"state":"active","ping":59},{"user_id":229,"name":"gaming time","steam_id":76561197971182017,"connected_time":3506000000000,"state":"active","ping":75},{"user_id":180,"name":"Petros","steam_id":76561198088906975,"connected_time":7336000000000,"state":"active","ping":73},{"user_id":301,"name":"cIw","steam_id":76561198078798799,"connected_time":22000000000,"state":"active","ping":96},{"user_id":220,"name":"Mike","steam_id":76561198228455736,"connected_time":3973000000000,"state":"active","ping":64},{"user_id":287,"name":"evil fella","steam_id":76561199222429083,"connected_time":915000000000,"state":"active","ping":77},{"user_id":290,"name":"S.Scary","steam_id":76561198248602386,"connected_time":691000000000,"state":"active","ping":64},{"user_id":292,"name":"Donki Wonki","steam_id":76561198327761273,"connected_time":616000000000,"state":"active","ping":72},{"user_id":250,"name":"Bigweld","steam_id":76561199123743313,"connected_time":2612000000000,"state":"active","ping":69},{"user_id":288,"name":"ghoul type player","steam_id":76561198061233344,"connected_time":914000000000,"state":"active","ping":57},{"user_id":202,"name":"El Gato Volador","steam_id":76561198021296882,"connected_time":5189000000000,"state":"active","ping":80},{"user_id":230,"name":"BRICK TOP","steam_id":76561198014366715,"connected_time":3467000000000,"state":"active","ping":54}]},{"server_id":23,"name":"Uncletopia | Frankfurt | 7 | Stopwatch","name_short":"frk-7","host":"frk-1.de.uncletopia.com","port":27075,"enabled":true,"region":"eu","cc":"de","latitude":50.110924,"longitude":8.682127,"reserved":0,"last_update":"0001-01-01T00:00:00Z","name_a2s":"Uncletopia | Frankfurt | 7 | Stopwatch","protocol":17,"map":"pl_upward","folder":"tf","game":"Team Fortress","app_id":440,"player_count":0,"max_players":24,"Bots":0,"server_type":"Dedicated","server_os":"Linux","password":true,"vac":true,"version":"7961495","steam_id":85568392924742827,"keywords":["nocrits","nodmgspread","payload","uncletopia"],"game_id":440,"stv_port":27076,"stv_name":"Uncletopia | Frankfurt | 7 | Stopwatch | STV","players":null},{"server_id":24,"name":"Uncletopia | Frankfurt | 8 | Community","name_short":"frk-8","host":"frk-1.de.uncletopia.com","port":27085,"enabled":true,"region":"eu","cc":"de","latitude":50.110924,"longitude":8.682127,"reserved":0,"last_update":"0001-01-01T00:00:00Z","name_a2s":"Uncletopia | Frankfurt | 8 | Community","protocol":17,"map":"workshop/koth_slaughter_rc1.ugc1712845210","folder":"tf","game":"Team Fortress","app_id":440,"player_count":16,"max_players":24,"Bots":0,"server_type":"Dedicated","server_os":"Linux","password":true,"vac":true,"version":"7961495","steam_id":85568392924742828,"keywords":["cp","nocrits","nodmgspread","uncletopia"],"game_id":440,"stv_port":27086,"stv_name":"Uncletopia | Frankfurt | 8 | Community | STV","players":[{"user_id":60,"name":"Maoma112","steam_id":76561199012536447,"connected_time":234000000000,"state":"active","ping":81},{"user_id":61,"name":"skille","steam_id":76561198005794325,"connected_time":194000000000,"state":"active","ping":59},{"user_id":70,"name":"R8N - Obismal","steam_id":76561198007482714,"connected_time":30000000000,"state":"spawning","ping":2041},{"user_id":50,"name":"TheFox.tf","steam_id":76561197996851702,"connected_time":702000000000,"state":"active","ping":71},{"user_id":62,"name":"tanyathsus","steam_id":76561198089522447,"connected_time":191000000000,"state":"active","ping":70},{"user_id":42,"name":"joachym","steam_id":76561198428579761,"connected_time":1471000000000,"state":"active","ping":57},{"user_id":44,"name":"Flohr","steam_id":76561198191948841,"connected_time":1255000000000,"state":"active","ping":46},{"user_id":45,"name":"Lale","steam_id":76561198117918349,"connected_time":1237000000000,"state":"active","ping":69},{"user_id":58,"name":"...","steam_id":76561199024512720,"connected_time":407000000000,"state":"active","ping":64},{"user_id":68,"name":"Terminally Offline","steam_id":76561198146194820,"connected_time":72000000000,"state":"active","ping":45},{"user_id":55,"name":"akakez","steam_id":76561198095432821,"connected_time":517000000000,"state":"active","ping":114},{"user_id":59,"name":"Alyx","steam_id":76561198064654326,"connected_time":407000000000,"state":"active","ping":49},{"user_id":63,"name":"Barbatruc","steam_id":76561198119019916,"connected_time":179000000000,"state":"active","ping":68},{"user_id":65,"name":"monsieur sex","steam_id":76561198057215355,"connected_time":136000000000,"state":"active","ping":70},{"user_id":66,"name":"benifis163","steam_id":76561198420973492,"connected_time":101000000000,"state":"active","ping":89},{"user_id":69,"name":"Turek","steam_id":76561198280066503,"connected_time":48000000000,"state":"active","ping":123}]},{"server_id":202,"name":"Uncletopia | Hong Kong | 1 | All Maps","name_short":"hgk-1","host":"hgk-1.hk.uncletopia.com","port":27015,"enabled":true,"region":"asia","cc":"hk","latitude":22.302711,"longitude":114.177216,"reserved":0,"last_update":"0001-01-01T00:00:00Z","name_a2s":"Uncletopia | Hong Kong | 1 | All Maps","protocol":17,"map":"pl_pier","folder":"tf","game":"Team Fortress","app_id":440,"player_count":0,"max_players":24,"Bots":0,"server_type":"Dedicated","server_os":"Linux","password":true,"vac":true,"version":"7961495","steam_id":85568392924494504,"keywords":["nocrits","nodmgspread","payload","uncletopia"],"game_id":440,"stv_port":27016,"stv_name":"Uncletopia | Hong Kong | 1 | All Maps | STV","players":null},{"server_id":1,"name":"Uncletopia | Los Angeles | 1 | All Maps","name_short":"lax-1","host":"lax-1.us.uncletopia.com","port":27015,"enabled":true,"region":"us-west","cc":"us","latitude":33.94279,"longitude":-118.41004,"reserved":0,"last_update":"0001-01-01T00:00:00Z","name_a2s":"Uncletopia | Los Angeles | 1 | All Maps","protocol":17,"map":"koth_highpass","folder":"tf","game":"Team Fortress","app_id":440,"player_count":0,"max_players":24,"Bots":0,"server_type":"Dedicated","server_os":"Linux","password":true,"vac":true,"version":"7961495","steam_id":85568392924469991,"keywords":["cp","nocrits","nodmgspread","uncletopia"],"game_id":440,"stv_port":27016,"stv_name":"Uncletopia | Los Angeles | 1 | All Maps | STV","players":null},{"server_id":112,"name":"Uncletopia | Los Angeles | 2 | All Maps","name_short":"lax-2","host":"lax-1.us.uncletopia.com","port":27025,"enabled":true,"region":"us-west","cc":"us","latitude":33.94279,"longitude":-118.41004,"reserved":0,"last_update":"0001-01-01T00:00:00Z","name_a2s":"Uncletopia | Los Angeles | 2 | All Maps","protocol":17,"map":"pl_swiftwater_final1","folder":"tf","game":"Team Fortress","app_id":440,"player_count":24,"max_players":24,"Bots":0,"server_type":"Dedicated","server_os":"Linux","password":true,"vac":true,"version":"7961495","steam_id":85568392924469992,"keywords":["nocrits","nodmgspread","payload","uncletopia"],"game_id":440,"stv_port":27026,"stv_name":"Uncletopia | Los Angeles | 2 | All Maps | STV","players":[{"user_id":3,"name":"Warriorbuilds3","steam_id":76561199214713674,"connected_time":3382000000000,"state":"active","ping":69},{"user_id":39,"name":"Slippin' Jimmy","steam_id":76561198324749126,"connected_time":825000000000,"state":"active","ping":130},{"user_id":7,"name":"dudescore","steam_id":76561199091453555,"connected_time":2256000000000,"state":"active","ping":70},{"user_id":42,"name":"DiscoTraveler","steam_id":76561199240168088,"connected_time":740000000000,"state":"active","ping":106},{"user_id":30,"name":"Spy (I Love spy)","steam_id":76561199138738952,"connected_time":1117000000000,"state":"active","ping":99},{"user_id":43,"name":"bL1nk","steam_id":76561198232213192,"connected_time":558000000000,"state":"active","ping":86},{"user_id":11,"name":"Coffeemelon","steam_id":76561198285891257,"connected_time":1872000000000,"state":"active","ping":63},{"user_id":31,"name":"Elite_Friendly","steam_id":76561198819972127,"connected_time":1094000000000,"state":"active","ping":78},{"user_id":46,"name":"Apollo","steam_id":76561198162364702,"connected_time":293000000000,"state":"active","ping":63},{"user_id":37,"name":"El Guxi√≥n","steam_id":76561199141127663,"connected_time":911000000000,"state":"active","ping":147},{"user_id":27,"name":"Chirp","steam_id":76561198240780230,"connected_time":1269000000000,"state":"active","ping":47},{"user_id":17,"name":"coffee bagel","steam_id":76561198141198352,"connected_time":1663000000000,"state":"active","ping":102},{"user_id":18,"name":"fdsarewqqqqq","steam_id":76561199216983585,"connected_time":1653000000000,"state":"active","ping":114},{"user_id":19,"name":"2002 Toyota Corolla VE","steam_id":76561198149172070,"connected_time":1635000000000,"state":"active","ping":74},{"user_id":20,"name":"THE CUMEST LORD","steam_id":76561198061412592,"connected_time":1616000000000,"state":"active","ping":133},{"user_id":28,"name":"Grand Piano Tuna","steam_id":76561198135137213,"connected_time":1257000000000,"state":"active","ping":78},{"user_id":44,"name":"Bibleboy","steam_id":76561198049289869,"connected_time":533000000000,"state":"active","ping":123},{"user_id":33,"name":"dog","steam_id":76561198295237946,"connected_time":1013000000000,"state":"active","ping":105},{"user_id":47,"name":"Sergeant Snowflake","steam_id":76561198041474489,"connected_time":79000000000,"state":"active","ping":115},{"user_id":35,"name":"The Great Eagle Scourge of 1822","steam_id":76561198325086209,"connected_time":988000000000,"state":"active","ping":63},{"user_id":36,"name":"PullPosition","steam_id":76561198833384713,"connected_time":969000000000,"state":"active","ping":101},{"user_id":38,"name":"Always Here for You","steam_id":76561198219252313,"connected_time":883000000000,"state":"active","ping":110},{"user_id":45,"name":"‚ô•Daddy OwO‚ô•","steam_id":76561198000197942,"connected_time":502000000000,"state":"active","ping":71},{"user_id":41,"name":"DordTrain","steam_id":76561198391765331,"connected_time":782000000000,"state":"active","ping":51}]},{"server_id":324,"name":"Uncletopia | Los Angeles | 3 | All Maps","name_short":"lax-3","host":"lax-1.us.uncletopia.com","port":27035,"enabled":true,"region":"us-west","cc":"us","latitude":33.94279,"longitude":-118.41004,"reserved":0,"last_update":"0001-01-01T00:00:00Z","name_a2s":"Uncletopia | Los Angeles | 3 | All Maps","protocol":17,"map":"pl_frontier_final","folder":"tf","game":"Team Fortress","app_id":440,"player_count":0,"max_players":24,"Bots":0,"server_type":"Dedicated","server_os":"Linux","password":true,"vac":true,"version":"7961495","steam_id":85568392924510198,"keywords":["nocrits","nodmgspread","payload","uncletopia"],"game_id":440,"stv_port":27036,"stv_name":"Uncletopia | Los Angeles | 3 | All Maps | STV","players":null},{"server_id":25,"name":"Uncletopia | Los Angeles | 4 | Stopwatch","name_short":"lax-4","host":"lax-1.us.uncletopia.com","port":27045,"enabled":true,"region":"us-west","cc":"us","latitude":33.94279,"longitude":-118.41004,"reserved":0,"last_update":"0001-01-01T00:00:00Z","name_a2s":"Uncletopia | Los Angeles | 4 | Stopwatch","protocol":17,"map":"workshop/pl_vigil_rc10.ugc1266210012","folder":"tf","game":"Team Fortress","app_id":440,"player_count":0,"max_players":24,"Bots":0,"server_type":"Dedicated","server_os":"Linux","password":true,"vac":true,"version":"7961495","steam_id":85568392924510199,"keywords":["nocrits","nodmgspread","payload","uncletopia"],"game_id":440,"stv_port":27046,"stv_name":"Uncletopia | Los Angeles | 4 | Stopwatch | STV","players":null},{"server_id":11,"name":"Uncletopia | London | 1 | All Maps","name_short":"lon-1","host":"lon-1.uk.uncletopia.com","port":27015,"enabled":true,"region":"eu","cc":"gb","latitude":51.509865,"longitude":-0.118092,"reserved":0,"last_update":"0001-01-01T00:00:00Z","name_a2s":"Uncletopia | London | 1 | All Maps","protocol":17,"map":"pl_frontier_final","folder":"tf","game":"Team Fortress","app_id":440,"player_count":24,"max_players":24,"Bots":0,"server_type":"Dedicated","server_os":"Linux","password":true,"vac":true,"version":"7961495","steam_id":85568392924367362,"keywords":["nocrits","nodmgspread","payload","uncletopia"],"game_id":440,"stv_port":27016,"stv_name":"Uncletopia | London | 1 | All Maps | STV","players":[{"user_id":345,"name":"Les pringles de p√¢ques","steam_id":76561198798803845,"connected_time":3676000000000,"state":"active","ping":49},{"user_id":383,"name":"face beautiful lies","steam_id":76561198079277466,"connected_time":746000000000,"state":"active","ping":71},{"user_id":388,"name":"Sinnmeister","steam_id":76561198201091797,"connected_time":396000000000,"state":"active","ping":74},{"user_id":331,"name":"jonesy","steam_id":76561198073975078,"connected_time":4577000000000,"state":"active","ping":54},{"user_id":389,"name":"Javier dorsaless","steam_id":76561198179324075,"connected_time":396000000000,"state":"active","ping":60},{"user_id":340,"name":"Lilypadio","steam_id":76561198090146457,"connected_time":4187000000000,"state":"active","ping":38},{"user_id":367,"name":"Alter","steam_id":76561199135934698,"connected_time":2400000000000,"state":"active","ping":92},{"user_id":382,"name":"yup that extream78711","steam_id":76561198106049954,"connected_time":828000000000,"state":"active","ping":144},{"user_id":384,"name":"Without warning","steam_id":76561199383437138,"connected_time":671000000000,"state":"active","ping":124},{"user_id":373,"name":"halow","steam_id":76561198061505163,"connected_time":2139000000000,"state":"active","ping":109},{"user_id":385,"name":"t.tv/soarfps","steam_id":76561198010662796,"connected_time":498000000000,"state":"active","ping":55},{"user_id":396,"name":"Girlboy Theenie","steam_id":76561198029025500,"connected_time":38000000000,"state":"spawning","ping":86},{"user_id":369,"name":"NOBODY","steam_id":76561198094578887,"connected_time":2381000000000,"state":"active","ping":117},{"user_id":395,"name":"shr","steam_id":76561198449852071,"connected_time":153000000000,"state":"active","ping":36},{"user_id":394,"name":"‚òÖGluse Maruse","steam_id":76561198153753031,"connected_time":252000000000,"state":"active","ping":72},{"user_id":362,"name":"toomas2018 gaming","steam_id":76561199105796083,"connected_time":2689000000000,"state":"active","ping":79},{"user_id":387,"name":"enine","steam_id":76561198890193313,"connected_time":410000000000,"state":"active","ping":58},{"user_id":378,"name":"Lucky B.üèÜ","steam_id":76561198077571162,"connected_time":1286000000000,"state":"active","ping":53},{"user_id":380,"name":"Pantroglodytestherapy","steam_id":76561198236015392,"connected_time":1232000000000,"state":"active","ping":120},{"user_id":377,"name":"Tummy","steam_id":76561198045654910,"connected_time":1440000000000,"state":"active","ping":49},{"user_id":386,"name":"cosmetical","steam_id":76561198444036574,"connected_time":412000000000,"state":"active","ping":61},{"user_id":391,"name":"EMESIS BLUE ENJOYER","steam_id":76561199121717685,"connected_time":329000000000,"state":"active","ping":62},{"user_id":393,"name":"Dogdigger","steam_id":76561198032893130,"connected_time":310000000000,"state":"active","ping":102},{"user_id":381,"name":"wyro","steam_id":76561199176835169,"connected_time":1231000000000,"state":"active","ping":52}]},{"server_id":114,"name":"Uncletopia | London | 2 | All Maps","name_short":"lon-2","host":"lon-1.uk.uncletopia.com","port":27025,"enabled":true,"region":"eu","cc":"gb","latitude":51.509865,"longitude":-0.118092,"reserved":0,"last_update":"0001-01-01T00:00:00Z","name_a2s":"Uncletopia | London | 2 | All Maps","protocol":17,"map":"cp_altitude","folder":"tf","game":"Team Fortress","app_id":440,"player_count":0,"max_players":24,"Bots":0,"server_type":"Dedicated","server_os":"Linux","password":true,"vac":true,"version":"7961495","steam_id":85568392924470941,"keywords":["cp","nocrits","nodmgspread","uncletopia"],"game_id":440,"stv_port":27026,"stv_name":"Uncletopia | London | 2 | All Maps | STV","players":null},{"server_id":320,"name":"Uncletopia | London | 3 | All Maps","name_short":"lon-3","host":"lon-1.uk.uncletopia.com","port":27035,"enabled":true,"region":"eu","cc":"gb","latitude":51.509865,"longitude":-0.118092,"reserved":0,"last_update":"0001-01-01T00:00:00Z","name_a2s":"Uncletopia | London | 3 | All Maps","protocol":17,"map":"pl_frontier_final","folder":"tf","game":"Team Fortress","app_id":440,"player_count":24,"max_players":24,"Bots":0,"server_type":"Dedicated","server_os":"Linux","password":true,"vac":true,"version":"7961495","steam_id":85568392924510192,"keywords":["nocrits","nodmgspread","payload","uncletopia"],"game_id":440,"stv_port":27036,"stv_name":"Uncletopia | London | 3 | All Maps | STV","players":[{"user_id":217,"name":"Omyskull","steam_id":76561198131711758,"connected_time":836000000000,"state":"active","ping":69},{"user_id":235,"name":"Tempest FIN","steam_id":76561198311021830,"connected_time":526000000000,"state":"active","ping":99},{"user_id":137,"name":"Jinxie","steam_id":76561198008762303,"connected_time":6147000000000,"state":"active","ping":66},{"user_id":224,"name":"Amon Gus","steam_id":76561199094540960,"connected_time":689000000000,"state":"active","ping":70},{"user_id":182,"name":"Sovyo","steam_id":76561198320623299,"connected_time":2692000000000,"state":"active","ping":49},{"user_id":239,"name":"Benzo Fury","steam_id":76561198025259336,"connected_time":303000000000,"state":"active","ping":44},{"user_id":225,"name":"Man behind the slaughter","steam_id":76561199121979061,"connected_time":681000000000,"state":"active","ping":61},{"user_id":241,"name":"Lord Odment","steam_id":76561198044354976,"connected_time":285000000000,"state":"active","ping":95},{"user_id":206,"name":"Solrack","steam_id":76561199125165263,"connected_time":1663000000000,"state":"active","ping":102},{"user_id":226,"name":"$t@lker_Tim","steam_id":76561198963658042,"connected_time":666000000000,"state":"active","ping":121},{"user_id":218,"name":"BlaVis","steam_id":76561198045847329,"connected_time":791000000000,"state":"active","ping":61},{"user_id":227,"name":"I Don't Know","steam_id":76561198841011430,"connected_time":664000000000,"state":"active","ping":79},{"user_id":228,"name":"Pegamenis","steam_id":76561198097054422,"connected_time":661000000000,"state":"active","ping":71},{"user_id":230,"name":"Nobody asks how the dog is doin","steam_id":76561198174784715,"connected_time":625000000000,"state":"active","ping":43},{"user_id":215,"name":"Blar","steam_id":76561198042438229,"connected_time":1001000000000,"state":"active","ping":64},{"user_id":231,"name":"SoupeurConscient","steam_id":76561199404717904,"connected_time":619000000000,"state":"active","ping":105},{"user_id":232,"name":"Ransu","steam_id":76561198211750823,"connected_time":607000000000,"state":"active","ping":70},{"user_id":157,"name":"[HOL] Solringen","steam_id":76561198003584681,"connected_time":4792000000000,"state":"active","ping":78},{"user_id":233,"name":"Puss in Boots","steam_id":76561198211599767,"connected_time":580000000000,"state":"active","ping":52},{"user_id":234,"name":"LOKKI","steam_id":76561198259022887,"connected_time":562000000000,"state":"active","ping":75},{"user_id":220,"name":"cryptidTD","steam_id":76561199094314945,"connected_time":756000000000,"state":"active","ping":54},{"user_id":237,"name":"Swift","steam_id":76561197998799889,"connected_time":480000000000,"state":"active","ping":48},{"user_id":242,"name":"herr_p","steam_id":76561198033072222,"connected_time":268000000000,"state":"active","ping":62},{"user_id":238,"name":"Doctor Marijuana","steam_id":76561198288289879,"connected_time":474000000000,"state":"active","ping":47}]},{"server_id":321,"name":"Uncletopia | London | 4 | All Maps","name_short":"lon-4","host":"lon-1.uk.uncletopia.com","port":27045,"enabled":true,"region":"eu","cc":"gb","latitude":51.509865,"longitude":-0.118092,"reserved":0,"last_update":"0001-01-01T00:00:00Z","name_a2s":"Uncletopia | London | 4 | All Maps","protocol":17,"map":"pl_upward","folder":"tf","game":"Team Fortress","app_id":440,"player_count":24,"max_players":24,"Bots":0,"server_type":"Dedicated","server_os":"Linux","password":true,"vac":true,"version":"7961495","steam_id":85568392924510193,"keywords":["nocrits","nodmgspread","payload","uncletopia"],"game_id":440,"stv_port":27046,"stv_name":"Uncletopia | London | 4 | All Maps | STV","players":[{"user_id":383,"name":"kreeekz","steam_id":76561198014431602,"connected_time":1039000000000,"state":"active","ping":75},{"user_id":359,"name":"Dat Fat Cat","steam_id":76561198058652558,"connected_time":2317000000000,"state":"active","ping":41},{"user_id":279,"name":"Voxel","steam_id":76561199225333422,"connected_time":6773000000000,"state":"active","ping":48},{"user_id":400,"name":"rrm#4395","steam_id":76561199225339381,"connected_time":209000000000,"state":"active","ping":55},{"user_id":347,"name":"TheEmeraldStar","steam_id":76561198072942529,"connected_time":2765000000000,"state":"active","ping":72},{"user_id":388,"name":"hasky","steam_id":76561197986052798,"connected_time":882000000000,"state":"active","ping":74},{"user_id":364,"name":"mohemmedmokhter2005","steam_id":76561199197650506,"connected_time":2062000000000,"state":"active","ping":108},{"user_id":396,"name":"Taez","steam_id":76561198261820803,"connected_time":465000000000,"state":"active","ping":69},{"user_id":392,"name":"Carter","steam_id":76561198005243938,"connected_time":700000000000,"state":"active","ping":60},{"user_id":385,"name":"plazma","steam_id":76561198886594048,"connected_time":1013000000000,"state":"active","ping":105},{"user_id":395,"name":"t0ast","steam_id":76561198141722573,"connected_time":525000000000,"state":"active","ping":32},{"user_id":369,"name":"yush","steam_id":76561198121688934,"connected_time":1968000000000,"state":"active","ping":72},{"user_id":358,"name":"Andreus","steam_id":76561199403926001,"connected_time":2396000000000,"state":"active","ping":76},{"user_id":321,"name":"Sunshine","steam_id":76561198885528098,"connected_time":3986000000000,"state":"active","ping":119},{"user_id":393,"name":"Dr.stupid","steam_id":76561198308493925,"connected_time":696000000000,"state":"active","ping":75},{"user_id":382,"name":"silicon based life form","steam_id":76561199127121346,"connected_time":1093000000000,"state":"active","ping":56},{"user_id":390,"name":"Kenny Savage","steam_id":76561199049383900,"connected_time":806000000000,"state":"active","ping":144},{"user_id":334,"name":"yer_nerd","steam_id":76561199435454093,"connected_time":3416000000000,"state":"active","ping":134},{"user_id":394,"name":"Silver","steam_id":76561198175238807,"connected_time":677000000000,"state":"active","ping":53},{"user_id":399,"name":"hhhhhh","steam_id":76561198031982574,"connected_time":380000000000,"state":"active","ping":69},{"user_id":380,"name":"turkish barber wallahi","steam_id":76561198111807532,"connected_time":1225000000000,"state":"active","ping":60},{"user_id":367,"name":"A Red Brick","steam_id":76561198317522580,"connected_time":2002000000000,"state":"active","ping":105},{"user_id":289,"name":"‚ôÇ Animan ‚ôÇ Studios ‚ôÇ","steam_id":76561198308302932,"connected_time":6411000000000,"state":"active","ping":107},{"user_id":398,"name":"Yuval","steam_id":76561198241802390,"connected_time":400000000000,"state":"active","ping":118}]},{"server_id":21,"name":"Uncletopia | London | 5 | All Maps","name_short":"lon-5","host":"lon-1.uk.uncletopia.com","port":27055,"enabled":true,"region":"eu","cc":"gb","latitude":51.509865,"longitude":-0.118092,"reserved":0,"last_update":"0001-01-01T00:00:00Z","name_a2s":"Uncletopia | London | 5 | All Maps","protocol":17,"map":"pl_upward","folder":"tf","game":"Team Fortress","app_id":440,"player_count":24,"max_players":24,"Bots":0,"server_type":"Dedicated","server_os":"Linux","password":true,"vac":true,"version":"7961495","steam_id":85568392924742829,"keywords":["nocrits","nodmgspread","payload","uncletopia"],"game_id":440,"stv_port":27056,"stv_name":"Uncletopia | London | 5 | All Maps | STV","players":[{"user_id":295,"name":"Sonnakai","steam_id":76561198051688749,"connected_time":1855000000000,"state":"active","ping":38},{"user_id":313,"name":"Archer","steam_id":76561198132860299,"connected_time":983000000000,"state":"active","ping":54},{"user_id":315,"name":"Marty Pants","steam_id":76561198004449634,"connected_time":883000000000,"state":"active","ping":67},{"user_id":307,"name":"rets_","steam_id":76561198061551392,"connected_time":1202000000000,"state":"active","ping":61},{"user_id":294,"name":"RedWater","steam_id":76561198016406576,"connected_time":1928000000000,"state":"active","ping":98},{"user_id":310,"name":"LOBZIK","steam_id":76561198114830120,"connected_time":1145000000000,"state":"active","ping":77},{"user_id":156,"name":"QuorglepleegJR","steam_id":76561198984658438,"connected_time":11076000000000,"state":"active","ping":54},{"user_id":278,"name":"StumpKnuckle","steam_id":76561197995325320,"connected_time":3018000000000,"state":"active","ping":59},{"user_id":316,"name":"my mom","steam_id":76561199225201569,"connected_time":736000000000,"state":"active","ping":126},{"user_id":305,"name":"stinko","steam_id":76561198358856044,"connected_time":1239000000000,"state":"active","ping":46},{"user_id":259,"name":"nemelex","steam_id":76561198958005865,"connected_time":4764000000000,"state":"active","ping":56},{"user_id":319,"name":"ScampSixteen","steam_id":76561198021771000,"connected_time":456000000000,"state":"active","ping":53},{"user_id":306,"name":"Emerald","steam_id":76561199141384216,"connected_time":1218000000000,"state":"active","ping":48},{"user_id":269,"name":"john fortress","steam_id":76561198013237629,"connected_time":3870000000000,"state":"active","ping":94},{"user_id":311,"name":"Chocolate Orange","steam_id":76561198134952872,"connected_time":1144000000000,"state":"active","ping":62},{"user_id":274,"name":"‚ô¶‚ô¶dabmich5‚ô¶‚ô¶","steam_id":76561198246557998,"connected_time":3588000000000,"state":"active","ping":73},{"user_id":288,"name":"Hetmanych","steam_id":76561198870926865,"connected_time":2173000000000,"state":"active","ping":44},{"user_id":279,"name":"quibinary","steam_id":76561198075916851,"connected_time":2974000000000,"state":"active","ping":64},{"user_id":318,"name":"Fasj.","steam_id":76561198049975379,"connected_time":474000000000,"state":"active","ping":50},{"user_id":309,"name":"Mankor","steam_id":76561198020439322,"connected_time":1172000000000,"state":"active","ping":69},{"user_id":291,"name":"fable","steam_id":76561198026557313,"connected_time":2136000000000,"state":"active","ping":74},{"user_id":302,"name":"Mish","steam_id":76561198302973642,"connected_time":1523000000000,"state":"active","ping":86},{"user_id":312,"name":"Max Power","steam_id":76561198019269089,"connected_time":1134000000000,"state":"active","ping":62},{"user_id":304,"name":"GEP Gun","steam_id":76561197981821003,"connected_time":1411000000000,"state":"active","ping":57}]},{"server_id":22,"name":"Uncletopia | London | 6 | All Maps","name_short":"lon-6","host":"lon-1.uk.uncletopia.com","port":27065,"enabled":true,"region":"eu","cc":"gb","latitude":51.509865,"longitude":-0.118092,"reserved":0,"last_update":"0001-01-01T00:00:00Z","name_a2s":"Uncletopia | London | 6 | All Maps","protocol":17,"map":"koth_highpass","folder":"tf","game":"Team Fortress","app_id":440,"player_count":0,"max_players":24,"Bots":0,"server_type":"Dedicated","server_os":"Linux","password":true,"vac":true,"version":"7961495","steam_id":85568392924742830,"keywords":["cp","nocrits","nodmgspread","uncletopia"],"game_id":440,"stv_port":27066,"stv_name":"Uncletopia | London | 6 | All Maps | STV","players":null},{"server_id":40,"name":"Uncletopia | London | 7 | Stopwatch","name_short":"lon-7","host":"lon-1.uk.uncletopia.com","port":27075,"enabled":true,"region":"eu","cc":"gb","latitude":51.509865,"longitude":-0.118092,"reserved":0,"last_update":"0001-01-01T00:00:00Z","name_a2s":"Uncletopia | London | 7 | Stopwatch","protocol":17,"map":"workshop/koth_ramjam_rc1.ugc459778887","folder":"tf","game":"Team Fortress","app_id":440,"player_count":0,"max_players":24,"Bots":0,"server_type":"Dedicated","server_os":"Linux","password":true,"vac":true,"version":"7961495","steam_id":85568392924964314,"keywords":["cp","nocrits","nodmgspread","uncletopia"],"game_id":440,"stv_port":27076,"stv_name":"Uncletopia | London | 7 | Stopwatch | STV","players":null},{"server_id":41,"name":"Uncletopia | London | 8 | Community","name_short":"lon-8","host":"lon-1.uk.uncletopia.com","port":27085,"enabled":true,"region":"eu","cc":"gb","latitude":51.509865,"longitude":-0.118092,"reserved":0,"last_update":"0001-01-01T00:00:00Z","name_a2s":"Uncletopia | London | 8 | Community","protocol":17,"map":"workshop/cp_reckoner_rc6.ugc674719999","folder":"tf","game":"Team Fortress","app_id":440,"player_count":1,"max_players":24,"Bots":0,"server_type":"Dedicated","server_os":"Linux","password":true,"vac":true,"version":"7961495","steam_id":85568392924964315,"keywords":["cp","nocrits","nodmgspread","uncletopia"],"game_id":440,"stv_port":27086,"stv_name":"Uncletopia | London | 8 | Community | STV","players":[{"user_id":16,"name":"DJ_Not_Guilty","steam_id":76561198074369317,"connected_time":244000000000,"state":"active","ping":52}]},{"server_id":300,"name":"Uncletopia | Montr√©al | 1 | All Maps","name_short":"mtl-1","host":"mtl-1.ca.uncletopia.com","port":27015,"enabled":true,"region":"us-east","cc":"ca","latitude":45.50889,"longitude":-73.56167,"reserved":0,"last_update":"0001-01-01T00:00:00Z","name_a2s":"","protocol":0,"map":"","folder":"","game":"","app_id":0,"player_count":0,"max_players":0,"Bots":0,"server_type":"","server_os":"","password":false,"vac":false,"version":"","steam_id":0,"keywords":null,"game_id":0,"stv_port":0,"stv_name":"","players":null},{"server_id":301,"name":"Uncletopia | Montr√©al | 2 | All Maps","name_short":"mtl-2","host":"mtl-1.ca.uncletopia.com","port":27025,"enabled":true,"region":"us-east","cc":"ca","latitude":45.50889,"longitude":-73.56167,"reserved":0,"last_update":"0001-01-01T00:00:00Z","name_a2s":"","protocol":0,"map":"","folder":"","game":"","app_id":0,"player_count":0,"max_players":0,"Bots":0,"server_type":"","server_os":"","password":false,"vac":false,"version":"","steam_id":0,"keywords":null,"game_id":0,"stv_port":0,"stv_name":"","players":null},{"server_id":302,"name":"Uncletopia | Montr√©al | 3 | All Maps","name_short":"mtl-3","host":"mtl-1.ca.uncletopia.com","port":27035,"enabled":true,"region":"us-east","cc":"ca","latitude":45.50889,"longitude":-73.56167,"reserved":0,"last_update":"0001-01-01T00:00:00Z","name_a2s":"","protocol":0,"map":"","folder":"","game":"","app_id":0,"player_count":0,"max_players":0,"Bots":0,"server_type":"","server_os":"","password":false,"vac":false,"version":"","steam_id":0,"keywords":null,"game_id":0,"stv_port":0,"stv_name":"","players":null},{"server_id":303,"name":"Uncletopia | Montr√©al | 4 | No Payload","name_short":"mtl-4","host":"mtl-1.ca.uncletopia.com","port":27045,"enabled":true,"region":"us-east","cc":"ca","latitude":45.50889,"longitude":-73.56167,"reserved":0,"last_update":"0001-01-01T00:00:00Z","name_a2s":"","protocol":0,"map":"","folder":"","game":"","app_id":0,"player_count":0,"max_players":0,"Bots":0,"server_type":"","server_os":"","password":false,"vac":false,"version":"","steam_id":0,"keywords":null,"game_id":0,"stv_port":0,"stv_name":"","players":null},{"server_id":13,"name":"Uncletopia | New York City | 1 | All Maps","name_short":"nyc-1","host":"nyc-1.us.uncletopia.com","port":27015,"enabled":true,"region":"us-east","cc":"us","latitude":40.73061,"longitude":-73.93524,"reserved":0,"last_update":"0001-01-01T00:00:00Z","name_a2s":"Uncletopia | New York City | 1 | All Maps","protocol":17,"map":"pl_pier","folder":"tf","game":"Team Fortress","app_id":440,"player_count":2,"max_players":24,"Bots":0,"server_type":"Dedicated","server_os":"Linux","password":true,"vac":true,"version":"7961495","steam_id":85568392924469993,"keywords":["nocrits","nodmgspread","payload","uncletopia"],"game_id":440,"stv_port":27016,"stv_name":"Uncletopia | New York City | 1 | All Maps | STV","players":[{"user_id":18,"name":"Gitgudgame","steam_id":76561198354761942,"connected_time":310000000000,"state":"active","ping":59},{"user_id":17,"name":"Bee_Pirate","steam_id":76561199000599111,"connected_time":331000000000,"state":"active","ping":61}]},{"server_id":14,"name":"Uncletopia | New York City | 2 | All Maps","name_short":"nyc-2","host":"nyc-1.us.uncletopia.com","port":27025,"enabled":true,"region":"us-east","cc":"us","latitude":40.73061,"longitude":-73.93524,"reserved":0,"last_update":"0001-01-01T00:00:00Z","name_a2s":"Uncletopia | New York City | 2 | All Maps","protocol":17,"map":"koth_suijin","folder":"tf","game":"Team Fortress","app_id":440,"player_count":24,"max_players":24,"Bots":0,"server_type":"Dedicated","server_os":"Linux","password":true,"vac":true,"version":"7961495","steam_id":85568392924469994,"keywords":["cp","nocrits","nodmgspread","uncletopia"],"game_id":440,"stv_port":27026,"stv_name":"Uncletopia | New York City | 2 | All Maps | STV","players":[{"user_id":102,"name":"¬°c√°lmate!","steam_id":76561198071421094,"connected_time":5784000000000,"state":"active","ping":99},{"user_id":134,"name":"Cellus","steam_id":76561198067204847,"connected_time":3485000000000,"state":"active","ping":59},{"user_id":177,"name":"Melaza Madera","steam_id":76561199031977210,"connected_time":42000000000,"state":"spawning","ping":75},{"user_id":161,"name":"Sinno","steam_id":76561198144974589,"connected_time":1862000000000,"state":"active","ping":45},{"user_id":12,"name":"uhooter","steam_id":76561198007829078,"connected_time":12561000000000,"state":"active","ping":60},{"user_id":166,"name":"Connection","steam_id":76561199230740231,"connected_time":606000000000,"state":"active","ping":56},{"user_id":140,"name":"Robert","steam_id":76561198133200895,"connected_time":3219000000000,"state":"active","ping":74},{"user_id":169,"name":"[NAME-REDACTED]","steam_id":76561198035682975,"connected_time":536000000000,"state":"active","ping":55},{"user_id":57,"name":"shaderoses","steam_id":76561198070800500,"connected_time":9146000000000,"state":"active","ping":57},{"user_id":174,"name":"Bippums","steam_id":76561198366406729,"connected_time":240000000000,"state":"active","ping":87},{"user_id":59,"name":"De","steam_id":76561198206728044,"connected_time":8867000000000,"state":"active","ping":74},{"user_id":171,"name":"Arrythmia","steam_id":76561198093748123,"connected_time":479000000000,"state":"active","ping":119},{"user_id":167,"name":"BananaArm","steam_id":76561199087528350,"connected_time":597000000000,"state":"active","ping":74},{"user_id":173,"name":"known lizard","steam_id":76561198092135570,"connected_time":330000000000,"state":"active","ping":89},{"user_id":153,"name":"bagel cream cheese","steam_id":76561198017954785,"connected_time":2650000000000,"state":"active","ping":86},{"user_id":122,"name":"Punkin","steam_id":76561198334301755,"connected_time":4289000000000,"state":"active","ping":55},{"user_id":128,"name":"SpaceSanctum","steam_id":76561198805242305,"connected_time":4140000000000,"state":"active","ping":44},{"user_id":170,"name":"awesomeajb08","steam_id":76561199056316311,"connected_time":518000000000,"state":"active","ping":60},{"user_id":104,"name":"Maet","steam_id":76561198030208485,"connected_time":5773000000000,"state":"active","ping":83},{"user_id":154,"name":"googa","steam_id":76561198133130452,"connected_time":2558000000000,"state":"active","ping":45},{"user_id":130,"name":"bla7f","steam_id":76561199049654169,"connected_time":4098000000000,"state":"active","ping":60},{"user_id":172,"name":"crexorz","steam_id":76561198890949432,"connected_time":466000000000,"state":"active","ping":84},{"user_id":176,"name":"Walmart Employee","steam_id":76561198840373909,"connected_time":77000000000,"state":"active","ping":96},{"user_id":160,"name":"Comfy!","steam_id":76561198008818346,"connected_time":1920000000000,"state":"active","ping":45}]},{"server_id":15,"name":"Uncletopia | New York City | 3 | Stopwatch","name_short":"nyc-3","host":"nyc-1.us.uncletopia.com","port":27035,"enabled":true,"region":"us-east","cc":"us","latitude":40.73061,"longitude":-73.93524,"reserved":0,"last_update":"0001-01-01T00:00:00Z","name_a2s":"Uncletopia | New York City | 3 | Stopwatch","protocol":17,"map":"pl_snowycoast","folder":"tf","game":"Team Fortress","app_id":440,"player_count":0,"max_players":24,"Bots":0,"server_type":"Dedicated","server_os":"Linux","password":true,"vac":true,"version":"7961495","steam_id":85568392924742820,"keywords":["nocrits","nodmgspread","payload","uncletopia"],"game_id":440,"stv_port":27036,"stv_name":"Uncletopia | New York City | 3 | Stopwatch | STV","players":null},{"server_id":16,"name":"Uncletopia | New York City | 4 | Community","name_short":"nyc-4","host":"nyc-1.us.uncletopia.com","port":27045,"enabled":true,"region":"us-east","cc":"us","latitude":40.73061,"longitude":-73.93524,"reserved":0,"last_update":"0001-01-01T00:00:00Z","name_a2s":"Uncletopia | New York City | 4 | Community","protocol":17,"map":"cp_altitude","folder":"tf","game":"Team Fortress","app_id":440,"player_count":0,"max_players":24,"Bots":0,"server_type":"Dedicated","server_os":"Linux","password":true,"vac":true,"version":"7961495","steam_id":85568392924742821,"keywords":["cp","nocrits","nodmgspread","uncletopia"],"game_id":440,"stv_port":27046,"stv_name":"Uncletopia | New York City | 4 | Community | STV","players":null},{"server_id":142,"name":"Uncletopia | S√£o Paulo | 1 | All Maps","name_short":"sao-1","host":"sao-1.br.uncletopia.com","port":27015,"enabled":true,"region":"sa","cc":"br","latitude":-23.533773,"longitude":-46.62529,"reserved":0,"last_update":"0001-01-01T00:00:00Z","name_a2s":"Uncletopia | S√£o Paulo | 1 | All Maps","protocol":17,"map":"cp_dustbowl","folder":"tf","game":"Team Fortress","app_id":440,"player_count":0,"max_players":24,"Bots":0,"server_type":"Dedicated","server_os":"Linux","password":true,"vac":true,"version":"7961495","steam_id":85568392924469996,"keywords":["cp","nocrits","nodmgspread","uncletopia"],"game_id":440,"stv_port":27016,"stv_name":"Uncletopia | S√£o Paulo | 1 | All Maps | STV","players":null},{"server_id":143,"name":"Uncletopia | S√£o Paulo | 2 | Community","name_short":"sao-2","host":"sao-2.br.uncletopia.com","port":27015,"enabled":true,"region":"sa","cc":"br","latitude":-23.533773,"longitude":-46.62529,"reserved":0,"last_update":"0001-01-01T00:00:00Z","name_a2s":"Uncletopia | S√£o Paulo | 2 | Community","protocol":17,"map":"workshop/cp_croissant_final.ugc458840209","folder":"tf","game":"Team Fortress","app_id":440,"player_count":0,"max_players":24,"Bots":0,"server_type":"Dedicated","server_os":"Linux","password":true,"vac":true,"version":"7961495","steam_id":85568392924485349,"keywords":["cp","nocrits","nodmgspread","uncletopia"],"game_id":440,"stv_port":27016,"stv_name":"Uncletopia | S√£o Paulo | 2 | Community | STV","players":null},{"server_id":7,"name":"Uncletopia | Seattle | 1 | All Maps","name_short":"sea-1","host":"sea-1.us.uncletopia.com","port":27015,"enabled":true,"region":"us-west","cc":"us","latitude":47.608013,"longitude":-122.33517,"reserved":0,"last_update":"0001-01-01T00:00:00Z","name_a2s":"Uncletopia | Seattle | 1 | All Maps","protocol":17,"map":"koth_highpass","folder":"tf","game":"Team Fortress","app_id":440,"player_count":0,"max_players":24,"Bots":0,"server_type":"Dedicated","server_os":"Linux","password":true,"vac":true,"version":"7961495","steam_id":85568392924469997,"keywords":["cp","nocrits","nodmgspread","uncletopia"],"game_id":440,"stv_port":27016,"stv_name":"Uncletopia | Seattle | 1 | All Maps | STV","players":null},{"server_id":119,"name":"Uncletopia | Seattle | 2 | All Maps","name_short":"sea-2","host":"sea-1.us.uncletopia.com","port":27025,"enabled":true,"region":"us-west","cc":"us","latitude":47.608013,"longitude":-122.33517,"reserved":0,"last_update":"0001-01-01T00:00:00Z","name_a2s":"Uncletopia | Seattle | 2 | All Maps","protocol":17,"map":"pl_snowycoast","folder":"tf","game":"Team Fortress","app_id":440,"player_count":0,"max_players":24,"Bots":0,"server_type":"Dedicated","server_os":"Linux","password":true,"vac":true,"version":"7961495","steam_id":85568392924469998,"keywords":["nocrits","nodmgspread","payload","uncletopia"],"game_id":440,"stv_port":27026,"stv_name":"Uncletopia | Seattle | 2 | All Maps | STV","players":null},{"server_id":406,"name":"Uncletopia | Seattle | 3 | Stopwatch","name_short":"sea-3","host":"sea-1.us.uncletopia.com","port":27035,"enabled":true,"region":"us-west","cc":"us","latitude":47.608013,"longitude":-122.33517,"reserved":0,"last_update":"0001-01-01T00:00:00Z","name_a2s":"Uncletopia | Seattle | 3 | Stopwatch","protocol":17,"map":"koth_lakeside_final","folder":"tf","game":"Team Fortress","app_id":440,"player_count":0,"max_players":24,"Bots":0,"server_type":"Dedicated","server_os":"Linux","password":true,"vac":true,"version":"7961495","steam_id":85568392924515217,"keywords":["cp","nocrits","nodmgspread","uncletopia"],"game_id":440,"stv_port":27036,"stv_name":"Uncletopia | Seattle | 3 | Stopwatch | STV","players":null},{"server_id":17,"name":"Uncletopia | San Francisco | 1 | All Maps","name_short":"sfo-1","host":"sfo-1.us.uncletopia.com","port":27015,"enabled":true,"region":"us-west","cc":"us","latitude":37.77397,"longitude":-122.4313,"reserved":0,"last_update":"0001-01-01T00:00:00Z","name_a2s":"Uncletopia | San Francisco | 1 | All Maps","protocol":17,"map":"koth_cascade","folder":"tf","game":"Team Fortress","app_id":440,"player_count":0,"max_players":24,"Bots":0,"server_type":"Dedicated","server_os":"Linux","password":true,"vac":true,"version":"7961495","steam_id":85568392924469999,"keywords":["cp","nocrits","nodmgspread","uncletopia"],"game_id":440,"stv_port":27016,"stv_name":"Uncletopia | San Francisco | 1 | All Maps | STV","players":null},{"server_id":18,"name":"Uncletopia | San Francisco | 2 | All Maps","name_short":"sfo-2","host":"sfo-1.us.uncletopia.com","port":27025,"enabled":true,"region":"us-west","cc":"us","latitude":37.77397,"longitude":-122.4313,"reserved":0,"last_update":"0001-01-01T00:00:00Z","name_a2s":"Uncletopia | San Francisco | 2 | All Maps","protocol":17,"map":"pl_borneo","folder":"tf","game":"Team Fortress","app_id":440,"player_count":17,"max_players":24,"Bots":0,"server_type":"Dedicated","server_os":"Linux","password":true,"vac":true,"version":"7961495","steam_id":85568392924470000,"keywords":["nocrits","nodmgspread","payload","uncletopia"],"game_id":440,"stv_port":27026,"stv_name":"Uncletopia | San Francisco | 2 | All Maps | STV","players":[{"user_id":97,"name":"Caspian","steam_id":76561199041466962,"connected_time":364000000000,"state":"active","ping":45},{"user_id":107,"name":"Eltonius","steam_id":76561198157560715,"connected_time":37000000000,"state":"active","ping":224},{"user_id":98,"name":"jooce","steam_id":76561198129069834,"connected_time":295000000000,"state":"active","ping":105},{"user_id":79,"name":"snowcap","steam_id":76561198344164944,"connected_time":1490000000000,"state":"active","ping":104},{"user_id":102,"name":"jordanddean2016","steam_id":76561198323772677,"connected_time":132000000000,"state":"spawning","ping":69},{"user_id":80,"name":"jello_hey","steam_id":76561199176327650,"connected_time":1363000000000,"state":"active","ping":111},{"user_id":103,"name":"flange","steam_id":76561198040182692,"connected_time":128000000000,"state":"active","ping":173},{"user_id":62,"name":"Patio","steam_id":76561197986082608,"connected_time":2746000000000,"state":"active","ping":69},{"user_id":104,"name":"Somemakaveil","steam_id":76561199487164313,"connected_time":111000000000,"state":"active","ping":335},{"user_id":58,"name":"A Stolen Catalytic Converter","steam_id":76561198131567365,"connected_time":3915000000000,"state":"active","ping":71},{"user_id":64,"name":"Meekz","steam_id":76561198012562373,"connected_time":2508000000000,"state":"active","ping":65},{"user_id":85,"name":"UÃÅntermensch","steam_id":76561198149634242,"connected_time":1185000000000,"state":"active","ping":86},{"user_id":94,"name":"Epifiny","steam_id":76561198027958086,"connected_time":705000000000,"state":"active","ping":108},{"user_id":83,"name":"A Chair Gaming","steam_id":76561198304314991,"connected_time":1344000000000,"state":"active","ping":112},{"user_id":101,"name":"Captain Olimar Balancer of team","steam_id":76561198141737300,"connected_time":206000000000,"state":"active","ping":62},{"user_id":93,"name":"chanoc","steam_id":76561198026734746,"connected_time":833000000000,"state":"active","ping":40},{"user_id":99,"name":"RollerIsNotDumb","steam_id":76561198995686399,"connected_time":249000000000,"state":"active","ping":130}]},{"server_id":19,"name":"Uncletopia | San Francisco | 3 | Stopwatch","name_short":"sfo-3","host":"sfo-1.us.uncletopia.com","port":27035,"enabled":true,"region":"us-west","cc":"us","latitude":37.77397,"longitude":-122.4313,"reserved":0,"last_update":"0001-01-01T00:00:00Z","name_a2s":"Uncletopia | San Francisco | 3 | Stopwatch","protocol":17,"map":"workshop/cp_reckoner_rc6.ugc674719999","folder":"tf","game":"Team Fortress","app_id":440,"player_count":0,"max_players":24,"Bots":0,"server_type":"Dedicated","server_os":"Linux","password":true,"vac":true,"version":"7961495","steam_id":85568392924742824,"keywords":["cp","nocrits","nodmgspread","uncletopia"],"game_id":440,"stv_port":27036,"stv_name":"Uncletopia | San Francisco | 3 | Stopwatch | STV","players":null},{"server_id":20,"name":"Uncletopia | San Francisco | 4 | Community","name_short":"sfo-4","host":"sfo-1.us.uncletopia.com","port":27045,"enabled":true,"region":"us-west","cc":"us","latitude":37.77397,"longitude":-122.4313,"reserved":0,"last_update":"0001-01-01T00:00:00Z","name_a2s":"Uncletopia | San Francisco | 4 | Community","protocol":17,"map":"pl_pier","folder":"tf","game":"Team Fortress","app_id":440,"player_count":0,"max_players":24,"Bots":0,"server_type":"Dedicated","server_os":"Linux","password":true,"vac":true,"version":"7961495","steam_id":85568392924742826,"keywords":["nocrits","nodmgspread","payload","uncletopia"],"game_id":440,"stv_port":27046,"stv_name":"Uncletopia | San Francisco | 4 | Community | STV","players":null},{"server_id":141,"name":"Uncletopia | Sydney | 1 | All Maps","name_short":"syd-1","host":"syd-1.au.uncletopia.com","port":27015,"enabled":true,"region":"au","cc":"au","latitude":-33.865143,"longitude":151.2099,"reserved":0,"last_update":"0001-01-01T00:00:00Z","name_a2s":"Uncletopia | Sydney | 1 | All Maps","protocol":17,"map":"koth_cascade","folder":"tf","game":"Team Fortress","app_id":440,"player_count":0,"max_players":24,"Bots":0,"server_type":"Dedicated","server_os":"Linux","password":true,"vac":true,"version":"7961495","steam_id":85568392924470001,"keywords":["cp","nocrits","nodmgspread","uncletopia"],"game_id":440,"stv_port":27016,"stv_name":"Uncletopia | Sydney | 1 | All Maps | STV","players":null},{"server_id":123,"name":"Uncletopia | Sydney | 2 | All Maps","name_short":"syd-2","host":"syd-1.au.uncletopia.com","port":27025,"enabled":true,"region":"au","cc":"au","latitude":-33.865143,"longitude":151.2099,"reserved":0,"last_update":"0001-01-01T00:00:00Z","name_a2s":"Uncletopia | Sydney | 2 | All Maps","protocol":17,"map":"pl_frontier_final","folder":"tf","game":"Team Fortress","app_id":440,"player_count":0,"max_players":24,"Bots":0,"server_type":"Dedicated","server_os":"Linux","password":true,"vac":true,"version":"7961495","steam_id":85568392924470002,"keywords":["nocrits","nodmgspread","payload","uncletopia"],"game_id":440,"stv_port":27026,"stv_name":"Uncletopia | Sydney | 2 | All Maps | STV","players":null},{"server_id":395,"name":"Uncletopia | Sydney | 3 | All Maps","name_short":"syd-3","host":"syd-1.au.uncletopia.com","port":27035,"enabled":true,"region":"au","cc":"au","latitude":-33.865143,"longitude":151.2099,"reserved":0,"last_update":"0001-01-01T00:00:00Z","name_a2s":"Uncletopia | Sydney | 3 | All Maps","protocol":17,"map":"cp_sunshine","folder":"tf","game":"Team Fortress","app_id":440,"player_count":0,"max_players":24,"Bots":0,"server_type":"Dedicated","server_os":"Linux","password":true,"vac":true,"version":"7961495","steam_id":85568392925194467,"keywords":["cp","nocrits","nodmgspread","uncletopia"],"game_id":440,"stv_port":27036,"stv_name":"Uncletopia | Sydney | 3 | All Maps | STV","players":null},{"server_id":396,"name":"Uncletopia | Sydney | 4 | All Maps","name_short":"syd-4","host":"syd-1.au.uncletopia.com","port":27045,"enabled":true,"region":"au","cc":"au","latitude":-33.865143,"longitude":151.2099,"reserved":0,"last_update":"0001-01-01T00:00:00Z","name_a2s":"Uncletopia | Sydney | 4 | All Maps","protocol":17,"map":"cp_process_final","folder":"tf","game":"Team Fortress","app_id":440,"player_count":0,"max_players":24,"Bots":0,"server_type":"Dedicated","server_os":"Linux","password":true,"vac":true,"version":"7961495","steam_id":85568392925397958,"keywords":["cp","nocrits","nodmgspread","uncletopia"],"game_id":440,"stv_port":27046,"stv_name":"Uncletopia | Sydney | 4 | All Maps | STV","players":null},{"server_id":58,"name":"Uncletopia | Sydney | 5 | Stopwatch","name_short":"syd-5","host":"syd-1.au.uncletopia.com","port":27055,"enabled":true,"region":"au","cc":"au","latitude":-33.865143,"longitude":151.2099,"reserved":0,"last_update":"0001-01-01T00:00:00Z","name_a2s":"Uncletopia | Sydney | 5 | Stopwatch","protocol":17,"map":"pl_frontier_final","folder":"tf","game":"Team Fortress","app_id":440,"player_count":0,"max_players":24,"Bots":0,"server_type":"Dedicated","server_os":"Linux","password":true,"vac":true,"version":"7961495","steam_id":85568392925397959,"keywords":["nocrits","nodmgspread","payload","uncletopia"],"game_id":440,"stv_port":27056,"stv_name":"Uncletopia | Sydney | 5 | Stopwatch | STV","players":null},{"server_id":59,"name":"Uncletopia | Sydney | 6 | Community","name_short":"syd-6","host":"syd-1.au.uncletopia.com","port":27065,"enabled":true,"region":"au","cc":"au","latitude":-33.865143,"longitude":151.2099,"reserved":0,"last_update":"0001-01-01T00:00:00Z","name_a2s":"Uncletopia | Sydney | 6 | Community","protocol":17,"map":"cp_sunshine","folder":"tf","game":"Team Fortress","app_id":440,"player_count":0,"max_players":24,"Bots":0,"server_type":"Dedicated","server_os":"Linux","password":true,"vac":true,"version":"7961495","steam_id":85568392925397960,"keywords":["cp","nocrits","nodmgspread","uncletopia"],"game_id":440,"stv_port":27066,"stv_name":"Uncletopia | Sydney | 6 | Community | STV","players":null},{"server_id":49,"name":"Uncletopia | Warsaw | 1 | All Maps","name_short":"waw-1","host":"waw-1.pl.uncletopia.com","port":27015,"enabled":true,"region":"eu","cc":"pl","latitude":52.2297,"longitude":21.017532,"reserved":0,"last_update":"0001-01-01T00:00:00Z","name_a2s":"Uncletopia | Warsaw | 1 | All Maps","protocol":17,"map":"koth_viaduct","folder":"tf","game":"Team Fortress","app_id":440,"player_count":11,"max_players":24,"Bots":0,"server_type":"Dedicated","server_os":"Linux","password":true,"vac":true,"version":"7961495","steam_id":85568392925397850,"keywords":["cp","nocrits","nodmgspread","uncletopia"],"game_id":440,"stv_port":27016,"stv_name":"Uncletopia | Warsaw | 1 | All Maps | STV","players":[{"user_id":7,"name":"guzol","steam_id":76561198323704633,"connected_time":3697000000000,"state":"active","ping":40},{"user_id":21,"name":"Hoflett","steam_id":76561198873156806,"connected_time":1192000000000,"state":"active","ping":89},{"user_id":17,"name":"cowb√∂y","steam_id":76561198048990716,"connected_time":1524000000000,"state":"active","ping":103},{"user_id":25,"name":"ƒÜpunTaBaLuga","steam_id":76561198843629649,"connected_time":399000000000,"state":"active","ping":54},{"user_id":13,"name":"spy main 69420","steam_id":76561199437330739,"connected_time":1933000000000,"state":"active","ping":95},{"user_id":14,"name":"Zeitung-GER","steam_id":76561198049095266,"connected_time":1807000000000,"state":"active","ping":71},{"user_id":28,"name":"hello Love","steam_id":76561198348567663,"connected_time":138000000000,"state":"active","ping":48},{"user_id":29,"name":"BaCyka","steam_id":76561198029333533,"connected_time":56000000000,"state":"active","ping":68},{"user_id":27,"name":"Rez","steam_id":76561198410598772,"connected_time":219000000000,"state":"active","ping":50},{"user_id":30,"name":"Dmskooje","steam_id":76561198127600559,"connected_time":51000000000,"state":"active","ping":62},{"user_id":31,"name":"Dumbzilla","steam_id":76561198031304349,"connected_time":20000000000,"state":"spawning","ping":69}]},{"server_id":50,"name":"Uncletopia | Warsaw | 2 | All Maps","name_short":"waw-2","host":"waw-1.pl.uncletopia.com","port":27025,"enabled":true,"region":"eu","cc":"pl","latitude":52.2297,"longitude":21.017532,"reserved":0,"last_update":"0001-01-01T00:00:00Z","name_a2s":"Uncletopia | Warsaw | 2 | All Maps","protocol":17,"map":"koth_cascade","folder":"tf","game":"Team Fortress","app_id":440,"player_count":0,"max_players":24,"Bots":0,"server_type":"Dedicated","server_os":"Linux","password":true,"vac":true,"version":"7961495","steam_id":85568392925397851,"keywords":["cp","nocrits","nodmgspread","uncletopia"],"game_id":440,"stv_port":27026,"stv_name":"Uncletopia | Warsaw | 2 | All Maps | STV","players":null},{"server_id":51,"name":"Uncletopia | Warsaw | 3 | All Maps","name_short":"waw-3","host":"waw-1.pl.uncletopia.com","port":27035,"enabled":true,"region":"eu","cc":"pl","latitude":52.2297,"longitude":21.017532,"reserved":0,"last_update":"0001-01-01T00:00:00Z","name_a2s":"Uncletopia | Warsaw | 3 | All Maps","protocol":17,"map":"koth_cascade","folder":"tf","game":"Team Fortress","app_id":440,"player_count":0,"max_players":24,"Bots":0,"server_type":"Dedicated","server_os":"Linux","password":true,"vac":true,"version":"7961495","steam_id":85568392925397852,"keywords":["cp","nocrits","nodmgspread","uncletopia"],"game_id":440,"stv_port":27036,"stv_name":"Uncletopia | Warsaw | 3 | All Maps | STV","players":null},{"server_id":52,"name":"Uncletopia | Warsaw | 4 | All Maps","name_short":"waw-4","host":"waw-1.pl.uncletopia.com","port":27045,"enabled":true,"region":"eu","cc":"pl","latitude":52.2297,"longitude":21.017532,"reserved":0,"last_update":"0001-01-01T00:00:00Z","name_a2s":"Uncletopia | Warsaw | 4 | All Maps","protocol":17,"map":"pl_borneo","folder":"tf","game":"Team Fortress","app_id":440,"player_count":0,"max_players":24,"Bots":0,"server_type":"Dedicated","server_os":"Linux","password":true,"vac":true,"version":"7961495","steam_id":85568392925397853,"keywords":["nocrits","nodmgspread","payload","uncletopia"],"game_id":440,"stv_port":27046,"stv_name":"Uncletopia | Warsaw | 4 | All Maps | STV","players":null},{"server_id":53,"name":"Uncletopia | Warsaw | 5 | Stopwatch","name_short":"waw-5","host":"waw-1.pl.uncletopia.com","port":27055,"enabled":true,"region":"eu","cc":"pl","latitude":52.2297,"longitude":21.017532,"reserved":0,"last_update":"0001-01-01T00:00:00Z","name_a2s":"Uncletopia | Warsaw | 5 | Stopwatch","protocol":17,"map":"cp_granary","folder":"tf","game":"Team Fortress","app_id":440,"player_count":0,"max_players":24,"Bots":0,"server_type":"Dedicated","server_os":"Linux","password":true,"vac":true,"version":"7961495","steam_id":85568392925397854,"keywords":["cp","nocrits","nodmgspread","uncletopia"],"game_id":440,"stv_port":27056,"stv_name":"Uncletopia | Warsaw | 5 | Stopwatch | STV","players":null},{"server_id":54,"name":"Uncletopia | Warsaw | 6 | Community","name_short":"waw-6","host":"waw-1.pl.uncletopia.com","port":27065,"enabled":true,"region":"eu","cc":"pl","latitude":52.2297,"longitude":21.017532,"reserved":0,"last_update":"0001-01-01T00:00:00Z","name_a2s":"Uncletopia | Warsaw | 6 | Community","protocol":17,"map":"workshop/pl_cashworks_final1.ugc2904065412","folder":"tf","game":"Team Fortress","app_id":440,"player_count":0,"max_players":24,"Bots":0,"server_type":"Dedicated","server_os":"Linux","password":true,"vac":true,"version":"7961495","steam_id":85568392925397856,"keywords":["nocrits","nodmgspread","payload","uncletopia"],"game_id":440,"stv_port":27066,"stv_name":"Uncletopia | Warsaw | 6 | Community | STV","players":null}]}