{"status":true,"message":"","result":[{"server_id":9,"name":"Uncletopia | Atlanta | 1 | All Maps","name_short":"atl-1","host":"atl-1.us.uncletopia.com","port":27015,"enabled":true,"region":"us-east","cc":"us","latitude":33.753746,"longitude":-84.38633,"reserved":0,"last_update":"0001-01-01T00:00:00Z","name_a2s":"Uncletopia | Atlanta | 1 | All Maps","protocol":17,"map":"pl_badwater","folder":"tf","game":"Team Fortress","app_id":440,"player_count":24,"max_players":24,"Bots":0,"server_type":"Dedicated","server_os":"Linux","password":true,"vac":true,"version":"7757534","steam_id":85568392924469982,"keywords":["nocrits","nodmgspread","payload","uncletopia"],"game_id":440,"stv_port":27016,"stv_name":"Uncletopia | Atlanta | 1 | All Maps | STV","players":[{"user_id":365,"name":"p0rps","steam_id":76561198000014631,"connected_time":2620000000000,"state":"active","ping":63},{"user_id":348,"name":"3fu23141wv6fn46y","steam_id":76561199383789041,"connected_time":4961000000000,"state":"active","ping":167},{"user_id":385,"name":"latte","steam_id":76561198258062078,"connected_time":782000000000,"state":"active","ping":57},{"user_id":364,"name":"Veilos","steam_id":76561198071897172,"connected_time":2628000000000,"state":"active","ping":83},{"user_id":392,"name":"Bad Day to be Some Cheeks","steam_id":76561198083251763,"connected_time":118000000000,"state":"active","ping":61},{"user_id":312,"name":"vitamin","steam_id":76561198277799227,"connected_time":7607000000000,"state":"active","ping":69},{"user_id":360,"name":"Ollie","steam_id":76561198069372661,"connected_time":3519000000000,"state":"active","ping":115},{"user_id":354,"name":"luxin","steam_id":76561198399383047,"connected_time":4373000000000,"state":"active","ping":53},{"user_id":375,"name":"Crescent","steam_id":76561198095124633,"connected_time":1228000000000,"state":"active","ping":67},{"user_id":371,"name":"IZISOO","steam_id":76561198970380577,"connected_time":1826000000000,"state":"active","ping":74},{"user_id":387,"name":"wife","steam_id":76561198141795632,"connected_time":437000000000,"state":"active","ping":60},{"user_id":381,"name":"ash","steam_id":76561198127890645,"connected_time":1079000000000,"state":"active","ping":70},{"user_id":361,"name":"com lag","steam_id":76561198019019392,"connected_time":3383000000000,"state":"active","ping":66},{"user_id":386,"name":"Mage","steam_id":76561198285026879,"connected_time":588000000000,"state":"active","ping":81},{"user_id":394,"name":"Oddball","steam_id":76561198040440984,"connected_time":101000000000,"state":"active","ping":88},{"user_id":376,"name":"ATL1 | Kramer","steam_id":76561198083595936,"connected_time":1196000000000,"state":"active","ping":82},{"user_id":368,"name":"tooth","steam_id":76561197986437643,"connected_time":2589000000000,"state":"active","ping":60},{"user_id":390,"name":"wonkytookthethrone","steam_id":76561199190356691,"connected_time":165000000000,"state":"active","ping":86},{"user_id":343,"name":"Dres","steam_id":76561198838757422,"connected_time":5328000000000,"state":"active","ping":90},{"user_id":389,"name":"♥Bunny♥Slut♥","steam_id":76561198206376851,"connected_time":270000000000,"state":"active","ping":128},{"user_id":391,"name":"THE CAPN","steam_id":76561198170210979,"connected_time":161000000000,"state":"active","ping":117},{"user_id":358,"name":"lil hog","steam_id":76561199230929836,"connected_time":3549000000000,"state":"active","ping":95},{"user_id":363,"name":"knotsofunny","steam_id":76561198071336304,"connected_time":2987000000000,"state":"active","ping":74},{"user_id":370,"name":"el vengador de la tienda","steam_id":76561199081928341,"connected_time":2574000000000,"state":"active","ping":88}]},{"server_id":400,"name":"Uncletopia | Atlanta | 3 | Community","name_short":"atl-3","host":"atl-1.us.uncletopia.com","port":27035,"enabled":true,"region":"us-east","cc":"us","latitude":33.753746,"longitude":-84.38633,"reserved":0,"last_update":"0001-01-01T00:00:00Z","name_a2s":"Uncletopia | Atlanta | 3 | Community","protocol":17,"map":"workshop/pl_cactuscanyon_redux_rc4b.ugc2579644293","folder":"tf","game":"Team Fortress","app_id":440,"player_count":11,"max_players":24,"Bots":0,"server_type":"Dedicated","server_os":"Linux","password":true,"vac":true,"version":"7757534","steam_id":85568392924515187,"keywords":["nocrits","nodmgspread","payload","uncletopia"],"game_id":440,"stv_port":27036,"stv_name":"Uncletopia | Atlanta | 3 | Community | STV","players":[{"user_id":14,"name":"Dastr1ch","steam_id":76561199158106763,"connected_time":4600000000000,"state":"active","ping":84},{"user_id":15,"name":"Hertz Donut","steam_id":76561197983040945,"connected_time":4424000000000,"state":"active","ping":39},{"user_id":19,"name":"Mr.Silver","steam_id":76561198156382508,"connected_time":2527000000000,"state":"active","ping":71},{"user_id":20,"name":"grammerca2","steam_id":76561198993241319,"connected_time":2143000000000,"state":"active","ping":90},{"user_id":23,"name":"Zanki","steam_id":76561198090036492,"connected_time":810000000000,"state":"active","ping":55},{"user_id":24,"name":"i need a fucking nap","steam_id":76561198834085483,"connected_time":661000000000,"state":"active","ping":71},{"user_id":25,"name":"kevin","steam_id":76561198018606855,"connected_time":652000000000,"state":"active","ping":74},{"user_id":28,"name":"Wagoogus jr.","steam_id":76561198217201905,"connected_time":403000000000,"state":"active","ping":74},{"user_id":29,"name":"chill frog","steam_id":76561199471943472,"connected_time":166000000000,"state":"active","ping":95},{"user_id":30,"name":"waaaaaa","steam_id":76561199223514262,"connected_time":18000000000,"state":"active","ping":65},{"user_id":31,"name":"Chickemns","steam_id":76561199019739030,"connected_time":3000000000,"state":"spawning","ping":210}]},{"server_id":401,"name":"Uncletopia | Atlanta | 4 | No Payload","name_short":"atl-4","host":"atl-1.us.uncletopia.com","port":27045,"enabled":true,"region":"us-east","cc":"us","latitude":33.753746,"longitude":-84.38633,"reserved":0,"last_update":"0001-01-01T00:00:00Z","name_a2s":"","protocol":0,"map":"","folder":"","game":"","app_id":0,"player_count":0,"max_players":0,"Bots":0,"server_type":"","server_os":"","password":false,"vac":false,"version":"","steam_id":0,"keywords":null,"game_id":0,"stv_port":0,"stv_name":"","players":null},{"server_id":2,"name":"Uncletopia | Chicago | 1 | All Maps","name_short":"chi-1","host":"chi-1.us.uncletopia.com","port":27015,"enabled":true,"region":"us-central","cc":"us","latitude":41.881832,"longitude":-87.62318,"reserved":0,"last_update":"0001-01-01T00:00:00Z","name_a2s":"Uncletopia | Chicago | 1 | All Maps","protocol":17,"map":"cp_altitude","folder":"tf","game":"Team Fortress","app_id":440,"player_count":24,"max_players":24,"Bots":0,"server_type":"Dedicated","server_os":"Linux","password":true,"vac":true,"version":"7757534","steam_id":85568392924469984,"keywords":["cp","nocrits","nodmgspread","uncletopia"],"game_id":440,"stv_port":27016,"stv_name":"Uncletopia | Chicago | 1 | All Maps | STV","players":[{"user_id":708,"name":"swinters48","steam_id":76561198091228899,"connected_time":405000000000,"state":"active","ping":54},{"user_id":692,"name":"gangster tom","steam_id":76561198031675881,"connected_time":1053000000000,"state":"active","ping":65},{"user_id":684,"name":"Katy | Synr.gg","steam_id":76561198079395814,"connected_time":1122000000000,"state":"active","ping":58},{"user_id":564,"name":"loscemo","steam_id":76561197994884609,"connected_time":11752000000000,"state":"active","ping":66},{"user_id":704,"name":"You're*","steam_id":76561198357316376,"connected_time":896000000000,"state":"active","ping":74},{"user_id":689,"name":"The destroyer of foreskin","steam_id":76561198135275966,"connected_time":1082000000000,"state":"active","ping":81},{"user_id":669,"name":"poob","steam_id":76561198066559835,"connected_time":3101000000000,"state":"active","ping":69},{"user_id":709,"name":"Generic_name1234","steam_id":76561199063798622,"connected_time":346000000000,"state":"active","ping":54},{"user_id":693,"name":"K A I K I","steam_id":76561198129292451,"connected_time":1049000000000,"state":"active","ping":65},{"user_id":707,"name":"bootlore","steam_id":76561198129538164,"connected_time":572000000000,"state":"active","ping":71},{"user_id":702,"name":"Gredc100","steam_id":76561198398494357,"connected_time":907000000000,"state":"active","ping":69},{"user_id":679,"name":"KennytheHedgehog","steam_id":76561198094607721,"connected_time":2158000000000,"state":"active","ping":73},{"user_id":697,"name":"Cahootles","steam_id":76561198056407485,"connected_time":1006000000000,"state":"active","ping":84},{"user_id":705,"name":"K) Mazin","steam_id":76561198003419146,"connected_time":773000000000,"state":"active","ping":77},{"user_id":682,"name":"spooky kabuki","steam_id":76561198030361635,"connected_time":1567000000000,"state":"active","ping":46},{"user_id":710,"name":"cheated on the pregnancy test","steam_id":76561199107068627,"connected_time":344000000000,"state":"active","ping":52},{"user_id":698,"name":"Dakka","steam_id":76561198273763277,"connected_time":1002000000000,"state":"active","ping":69},{"user_id":657,"name":"Allah Loves Furries","steam_id":76561198166414755,"connected_time":4388000000000,"state":"active","ping":81},{"user_id":699,"name":"Coupon","steam_id":76561198111947598,"connected_time":998000000000,"state":"active","ping":84},{"user_id":680,"name":"Doctor Glocktorpus [NGC]","steam_id":76561198049194645,"connected_time":2131000000000,"state":"active","ping":73},{"user_id":700,"name":"Walter.J.Kovacs","steam_id":76561199034498380,"connected_time":995000000000,"state":"active","ping":130},{"user_id":706,"name":"Bozanimal","steam_id":76561198044096897,"connected_time":732000000000,"state":"active","ping":60},{"user_id":660,"name":"frog","steam_id":76561198158852165,"connected_time":4373000000000,"state":"active","ping":64},{"user_id":703,"name":"Puuung","steam_id":76561199186072324,"connected_time":905000000000,"state":"active","ping":59}]},{"server_id":106,"name":"Uncletopia | Chicago | 2 | All Maps","name_short":"chi-2","host":"chi-1.us.uncletopia.com","port":27025,"enabled":true,"region":"us-central","cc":"us","latitude":41.881832,"longitude":-87.62318,"reserved":0,"last_update":"0001-01-01T00:00:00Z","name_a2s":"Uncletopia | Chicago | 2 | All Maps","protocol":17,"map":"pl_snowycoast","folder":"tf","game":"Team Fortress","app_id":440,"player_count":24,"max_players":24,"Bots":0,"server_type":"Dedicated","server_os":"Linux","password":true,"vac":true,"version":"7757534","steam_id":85568392924469985,"keywords":["nocrits","nodmgspread","payload","uncletopia"],"game_id":440,"stv_port":27026,"stv_name":"Uncletopia | Chicago | 2 | All Maps | STV","players":[{"user_id":395,"name":"Pie™","steam_id":76561198158312625,"connected_time":1017000000000,"state":"active","ping":117},{"user_id":362,"name":"Marty Byrde IRL","steam_id":76561199427269098,"connected_time":2312000000000,"state":"active","ping":60},{"user_id":404,"name":"girlboss","steam_id":76561197989019617,"connected_time":175000000000,"state":"active","ping":46},{"user_id":381,"name":"Corn58","steam_id":76561198061680279,"connected_time":1466000000000,"state":"active","ping":102},{"user_id":397,"name":"gAMER God 98","steam_id":76561197978929248,"connected_time":863000000000,"state":"active","ping":78},{"user_id":401,"name":"Faith (Star_Dust)","steam_id":76561199122856280,"connected_time":577000000000,"state":"active","ping":50},{"user_id":378,"name":"butch cowboy monkey","steam_id":76561198097175164,"connected_time":1645000000000,"state":"active","ping":80},{"user_id":405,"name":"Beanboi","steam_id":76561198977881677,"connected_time":103000000000,"state":"active","ping":73},{"user_id":315,"name":"Killerkarate","steam_id":76561198067533929,"connected_time":6842000000000,"state":"active","ping":55},{"user_id":334,"name":"Balerion the Black Dread","steam_id":76561198003728369,"connected_time":5115000000000,"state":"active","ping":66},{"user_id":393,"name":"Jiggles","steam_id":76561198062014279,"connected_time":1077000000000,"state":"active","ping":65},{"user_id":399,"name":"Big Cock Brock","steam_id":76561198093244204,"connected_time":818000000000,"state":"active","ping":74},{"user_id":358,"name":"sunrisebanana","steam_id":76561198038764622,"connected_time":3431000000000,"state":"active","ping":56},{"user_id":377,"name":"El Gato Paranoico","steam_id":76561198116567116,"connected_time":1692000000000,"state":"active","ping":100},{"user_id":370,"name":"Tarofel","steam_id":76561198051888035,"connected_time":2250000000000,"state":"active","ping":56},{"user_id":347,"name":"derz","steam_id":76561198010742216,"connected_time":3871000000000,"state":"active","ping":56},{"user_id":311,"name":"Weasel Smack","steam_id":76561198023116430,"connected_time":7353000000000,"state":"active","ping":91},{"user_id":363,"name":"10 hours on pyro","steam_id":76561199388826335,"connected_time":2310000000000,"state":"active","ping":81},{"user_id":355,"name":"urban legend","steam_id":76561198069188276,"connected_time":3615000000000,"state":"active","ping":89},{"user_id":394,"name":"The 2000 IQ Killjoy Detective!","steam_id":76561199229230896,"connected_time":1070000000000,"state":"active","ping":86},{"user_id":387,"name":"Ranger Plague","steam_id":76561198174647666,"connected_time":1288000000000,"state":"active","ping":84},{"user_id":403,"name":"big gut","steam_id":76561198165299077,"connected_time":386000000000,"state":"active","ping":66},{"user_id":402,"name":"Deliverance2me","steam_id":76561198093825175,"connected_time":516000000000,"state":"active","ping":84},{"user_id":390,"name":"One Shot and A Miss","steam_id":76561198124269698,"connected_time":1263000000000,"state":"active","ping":61}]},{"server_id":402,"name":"Uncletopia | Chicago | 3 | All Maps","name_short":"chi-3","host":"chi-1.us.uncletopia.com","port":27035,"enabled":true,"region":"us-central","cc":"us","latitude":41.881832,"longitude":-87.62318,"reserved":0,"last_update":"0001-01-01T00:00:00Z","name_a2s":"Uncletopia | Chicago | 3 | All Maps","protocol":17,"map":"pl_badwater","folder":"tf","game":"Team Fortress","app_id":440,"player_count":25,"max_players":24,"Bots":0,"server_type":"Dedicated","server_os":"Linux","password":true,"vac":true,"version":"7757534","steam_id":85568392924515191,"keywords":["nocrits","nodmgspread","payload","uncletopia"],"game_id":440,"stv_port":27036,"stv_name":"Uncletopia | Chicago | 3 | All Maps | STV","players":[{"user_id":338,"name":"III","steam_id":76561198976434426,"connected_time":1331000000000,"state":"active","ping":49},{"user_id":369,"name":"☼ gamble","steam_id":76561198074180953,"connected_time":604000000000,"state":"active","ping":71},{"user_id":320,"name":"a1ex","steam_id":76561198341411993,"connected_time":1669000000000,"state":"active","ping":74},{"user_id":344,"name":"Marc Antony","steam_id":76561198011366517,"connected_time":1247000000000,"state":"active","ping":57},{"user_id":339,"name":"AER0.exe","steam_id":76561198062940197,"connected_time":1313000000000,"state":"active","ping":60},{"user_id":268,"name":"softest_Poly","steam_id":76561198192264662,"connected_time":6893000000000,"state":"active","ping":81},{"user_id":180,"name":"grillboss gamign (*ᴗ͈ˬᴗ͈","steam_id":76561198060886742,"connected_time":14470000000000,"state":"active","ping":78},{"user_id":234,"name":"just call me joe","steam_id":76561198043911582,"connected_time":9854000000000,"state":"active","ping":62},{"user_id":301,"name":"Fatcat.win(false) ;","steam_id":76561198069007806,"connected_time":3022000000000,"state":"active","ping":57},{"user_id":381,"name":"Goldbug","steam_id":76561198025221202,"connected_time":376000000000,"state":"active","ping":102},{"user_id":349,"name":"fuckterry","steam_id":76561198271957738,"connected_time":1183000000000,"state":"active","ping":62},{"user_id":371,"name":"Ka Xin Yu","steam_id":76561198057116531,"connected_time":491000000000,"state":"active","ping":59},{"user_id":372,"name":"bobby peanstalk","steam_id":76561198040495463,"connected_time":475000000000,"state":"active","ping":71},{"user_id":276,"name":"chaz","steam_id":76561198377430626,"connected_time":6086000000000,"state":"active","ping":82},{"user_id":282,"name":"Moz","steam_id":76561198027171160,"connected_time":5479000000000,"state":"active","ping":43},{"user_id":316,"name":"the fart","steam_id":76561198073176682,"connected_time":1712000000000,"state":"active","ping":64},{"user_id":331,"name":"Gian","steam_id":76561198041434512,"connected_time":1557000000000,"state":"active","ping":110},{"user_id":312,"name":"Bonk","steam_id":76561198116945752,"connected_time":1855000000000,"state":"active","ping":73},{"user_id":404,"name":"threethree","steam_id":76561198177354155,"connected_time":0,"state":"spawning","ping":0},{"user_id":380,"name":"HAT-WEARING™ Maggot Gamer Cat","steam_id":76561197973992705,"connected_time":396000000000,"state":"active","ping":105},{"user_id":346,"name":"BoddhosDaughter","steam_id":76561198140202317,"connected_time":1207000000000,"state":"active","ping":50},{"user_id":264,"name":"hungry home invader","steam_id":76561198190962742,"connected_time":7007000000000,"state":"active","ping":74},{"user_id":300,"name":"Vivzen","steam_id":76561198972619900,"connected_time":3268000000000,"state":"active","ping":70},{"user_id":327,"name":"I_made_cummy","steam_id":76561198086107548,"connected_time":1635000000000,"state":"active","ping":74},{"user_id":377,"name":"J8Glitch","steam_id":76561198860162406,"connected_time":437000000000,"state":"active","ping":81}]},{"server_id":403,"name":"Uncletopia | Chicago | 4 | All Maps","name_short":"chi-4","host":"chi-1.us.uncletopia.com","port":27045,"enabled":true,"region":"us-central","cc":"us","latitude":41.881832,"longitude":-87.62318,"reserved":0,"last_update":"0001-01-01T00:00:00Z","name_a2s":"Uncletopia | Chicago | 4 | All Maps","protocol":17,"map":"pl_thundermountain","folder":"tf","game":"Team Fortress","app_id":440,"player_count":22,"max_players":24,"Bots":0,"server_type":"Dedicated","server_os":"Linux","password":true,"vac":true,"version":"7757534","steam_id":85568392924515193,"keywords":["nocrits","nodmgspread","payload","uncletopia"],"game_id":440,"stv_port":27046,"stv_name":"Uncletopia | Chicago | 4 | All Maps | STV","players":[{"user_id":725,"name":"NUt","steam_id":76561198031007966,"connected_time":787000000000,"state":"active","ping":67},{"user_id":497,"name":"Shagbark","steam_id":76561198173447342,"connected_time":11362000000000,"state":"active","ping":95},{"user_id":697,"name":"Decimus","steam_id":76561198341781527,"connected_time":2491000000000,"state":"active","ping":70},{"user_id":735,"name":"BiggBearBurger","steam_id":76561199263151226,"connected_time":307000000000,"state":"active","ping":82},{"user_id":621,"name":"Pusieeeeeee!!!!!!!!!!!!!!!!!","steam_id":76561198083175190,"connected_time":4638000000000,"state":"active","ping":59},{"user_id":720,"name":"Censing Auto, The Challenger","steam_id":76561198060926681,"connected_time":845000000000,"state":"active","ping":64},{"user_id":592,"name":"Furious George","steam_id":76561198405111646,"connected_time":6959000000000,"state":"active","ping":98},{"user_id":731,"name":"StaigerDuck","steam_id":76561199190706582,"connected_time":430000000000,"state":"active","ping":81},{"user_id":732,"name":"Roberto Del Fuego","steam_id":76561198043458554,"connected_time":399000000000,"state":"active","ping":48},{"user_id":733,"name":"mrb64","steam_id":76561198013166348,"connected_time":392000000000,"state":"active","ping":117},{"user_id":721,"name":"blue drink","steam_id":76561199260739414,"connected_time":833000000000,"state":"active","ping":75},{"user_id":702,"name":"Bobbn","steam_id":76561198876124683,"connected_time":2396000000000,"state":"active","ping":68},{"user_id":619,"name":"wolf_71","steam_id":76561198963570945,"connected_time":5029000000000,"state":"active","ping":67},{"user_id":742,"name":"ex-trickstab juice addict","steam_id":76561199059257565,"connected_time":206000000000,"state":"active","ping":100},{"user_id":730,"name":"pertygerd","steam_id":76561198074102768,"connected_time":577000000000,"state":"active","ping":59},{"user_id":728,"name":"Iroquois Pliskin","steam_id":76561198056704533,"connected_time":622000000000,"state":"active","ping":106},{"user_id":604,"name":"doubleshare","steam_id":76561198024472046,"connected_time":6259000000000,"state":"active","ping":72},{"user_id":738,"name":"Brendan","steam_id":76561198041079914,"connected_time":272000000000,"state":"active","ping":124},{"user_id":739,"name":"Dispenser (Twan)","steam_id":76561197991064908,"connected_time":266000000000,"state":"active","ping":60},{"user_id":715,"name":"[El Fail] MR.BadassMCLee","steam_id":76561198043787818,"connected_time":1462000000000,"state":"active","ping":115},{"user_id":743,"name":"thecal","steam_id":76561198307893384,"connected_time":51000000000,"state":"active","ping":59},{"user_id":741,"name":"Black Hole Sus (Amongus)","steam_id":76561198006261751,"connected_time":264000000000,"state":"active","ping":45}]},{"server_id":36,"name":"Uncletopia | Chicago | 5 | All Maps","name_short":"chi-5","host":"chi-2.us.uncletopia.com","port":27015,"enabled":true,"region":"us-central","cc":"us","latitude":41.881832,"longitude":-87.62318,"reserved":0,"last_update":"0001-01-01T00:00:00Z","name_a2s":"Uncletopia | Chicago | 5 | All Maps","protocol":17,"map":"cp_steel","folder":"tf","game":"Team Fortress","app_id":440,"player_count":26,"max_players":24,"Bots":0,"server_type":"Dedicated","server_os":"Linux","password":true,"vac":true,"version":"7757534","steam_id":85568392924866362,"keywords":["cp","nocrits","nodmgspread","uncletopia"],"game_id":440,"stv_port":27016,"stv_name":"Uncletopia | Chicago | 5 | All Maps | STV","players":[{"user_id":36,"name":"Shaper Loks","steam_id":76561198207958144,"connected_time":8901000000000,"state":"active","ping":69},{"user_id":137,"name":"48","steam_id":76561198156422760,"connected_time":985000000000,"state":"active","ping":65},{"user_id":139,"name":"Slashes","steam_id":76561197968573499,"connected_time":870000000000,"state":"active","ping":58},{"user_id":111,"name":"Scottish meatballs.","steam_id":76561199405759754,"connected_time":2023000000000,"state":"active","ping":92},{"user_id":112,"name":"Turtlin'","steam_id":76561198885096042,"connected_time":2022000000000,"state":"active","ping":62},{"user_id":140,"name":"Candy Sparkles","steam_id":76561198126871264,"connected_time":855000000000,"state":"active","ping":83},{"user_id":161,"name":"[DEEP] Roz257","steam_id":76561198842844532,"connected_time":16000000000,"state":"spawning","ping":59},{"user_id":106,"name":"TheCheeseWizard","steam_id":76561198058931315,"connected_time":2323000000000,"state":"active","ping":56},{"user_id":145,"name":"Smet19","steam_id":76561198118455606,"connected_time":699000000000,"state":"active","ping":69},{"user_id":94,"name":"Theodore Roosevelt","steam_id":76561197993295656,"connected_time":4510000000000,"state":"active","ping":44},{"user_id":103,"name":"Jamendithas","steam_id":76561198119537716,"connected_time":3396000000000,"state":"active","ping":72},{"user_id":142,"name":"00Lemon","steam_id":76561198068014451,"connected_time":811000000000,"state":"active","ping":68},{"user_id":49,"name":"Olblue2u","steam_id":76561199130563247,"connected_time":7409000000000,"state":"active","ping":85},{"user_id":162,"name":"DerpFestival","steam_id":76561198046489801,"connected_time":14000000000,"state":"spawning","ping":88},{"user_id":160,"name":"batheman63","steam_id":76561198881818552,"connected_time":63000000000,"state":"active","ping":80},{"user_id":143,"name":"The Prophet of Bog","steam_id":76561198020564357,"connected_time":800000000000,"state":"active","ping":155},{"user_id":144,"name":"BLU1 | Flint","steam_id":76561198066547582,"connected_time":791000000000,"state":"active","ping":84},{"user_id":115,"name":"Dop_Pop_Bop","steam_id":76561198803110941,"connected_time":2007000000000,"state":"active","ping":134},{"user_id":116,"name":"Sticky","steam_id":76561198031581547,"connected_time":1995000000000,"state":"active","ping":98},{"user_id":69,"name":"katryna","steam_id":76561198023440304,"connected_time":6479000000000,"state":"active","ping":47},{"user_id":127,"name":"Sweet","steam_id":76561198140456369,"connected_time":1130000000000,"state":"active","ping":57},{"user_id":60,"name":"Octis","steam_id":76561198118322999,"connected_time":7040000000000,"state":"active","ping":104},{"user_id":151,"name":"Giacomo","steam_id":76561198058560798,"connected_time":401000000000,"state":"active","ping":56},{"user_id":150,"name":"Only One Jhakobi","steam_id":76561197993641141,"connected_time":409000000000,"state":"active","ping":67},{"user_id":123,"name":"jibby","steam_id":76561198046872382,"connected_time":1780000000000,"state":"active","ping":45},{"user_id":163,"name":"thundermuffin","steam_id":76561198067770965,"connected_time":14000000000,"state":"spawning","ping":63}]},{"server_id":37,"name":"Uncletopia | Chicago | 6 | All Maps","name_short":"chi-6","host":"chi-2.us.uncletopia.com","port":27025,"enabled":true,"region":"us-central","cc":"us","latitude":41.881832,"longitude":-87.62318,"reserved":0,"last_update":"0001-01-01T00:00:00Z","name_a2s":"Uncletopia | Chicago | 6 | All Maps","protocol":17,"map":"pl_frontier_final","folder":"tf","game":"Team Fortress","app_id":440,"player_count":25,"max_players":24,"Bots":0,"server_type":"Dedicated","server_os":"Linux","password":true,"vac":true,"version":"7757534","steam_id":85568392924866363,"keywords":["nocrits","nodmgspread","payload","uncletopia"],"game_id":440,"stv_port":27026,"stv_name":"Uncletopia | Chicago | 6 | All Maps | STV","players":[{"user_id":659,"name":"slep.py","steam_id":76561197988287144,"connected_time":397000000000,"state":"active","ping":55},{"user_id":652,"name":"xXxtehreelwako97xXx","steam_id":76561199446546737,"connected_time":459000000000,"state":"active","ping":75},{"user_id":657,"name":"tyler","steam_id":76561198054260599,"connected_time":423000000000,"state":"active","ping":80},{"user_id":631,"name":"really hot pocket","steam_id":76561198239297686,"connected_time":1504000000000,"state":"active","ping":67},{"user_id":654,"name":"Quansen","steam_id":76561198151594550,"connected_time":443000000000,"state":"active","ping":55},{"user_id":628,"name":"exe-blue-cat","steam_id":76561199385932189,"connected_time":1532000000000,"state":"active","ping":160},{"user_id":629,"name":"pim","steam_id":76561198095163441,"connected_time":1531000000000,"state":"active","ping":75},{"user_id":617,"name":"geoff","steam_id":76561198038448355,"connected_time":2314000000000,"state":"active","ping":44},{"user_id":655,"name":"Grandpa Baozhai","steam_id":76561198086667725,"connected_time":434000000000,"state":"active","ping":113},{"user_id":656,"name":"white ray","steam_id":76561198026664629,"connected_time":434000000000,"state":"active","ping":54},{"user_id":660,"name":"Big Man Doin' Big Man Thangs","steam_id":76561198071434716,"connected_time":22000000000,"state":"spawning","ping":69},{"user_id":647,"name":"thomasdee725","steam_id":76561199189526173,"connected_time":746000000000,"state":"active","ping":107},{"user_id":486,"name":"Pennis the Menace","steam_id":76561198254878037,"connected_time":11603000000000,"state":"active","ping":118},{"user_id":648,"name":"Riske","steam_id":76561198115840568,"connected_time":708000000000,"state":"active","ping":71},{"user_id":641,"name":"Billybob7712","steam_id":76561199000291076,"connected_time":1274000000000,"state":"active","ping":116},{"user_id":614,"name":"gonk","steam_id":76561198061206732,"connected_time":2756000000000,"state":"active","ping":74},{"user_id":645,"name":"what","steam_id":76561198082336619,"connected_time":796000000000,"state":"active","ping":82},{"user_id":544,"name":"IggyYT","steam_id":76561198317980567,"connected_time":7256000000000,"state":"active","ping":63},{"user_id":658,"name":"I eat sandpaper","steam_id":76561199216756079,"connected_time":422000000000,"state":"active","ping":111},{"user_id":661,"name":"deech","steam_id":76561198066429444,"connected_time":3000000000,"state":"spawning","ping":77},{"user_id":636,"name":"Ickfish","steam_id":76561198009359583,"connected_time":1435000000000,"state":"active","ping":47},{"user_id":637,"name":"tree","steam_id":76561198116885731,"connected_time":1431000000000,"state":"active","ping":52},{"user_id":644,"name":"Gremlins Mode","steam_id":76561198043431101,"connected_time":1028000000000,"state":"active","ping":45},{"user_id":662,"name":"garfield","steam_id":76561198114119308,"connected_time":3000000000,"state":"spawning","ping":64},{"user_id":623,"name":"faxxy","steam_id":76561198079621240,"connected_time":1785000000000,"state":"active","ping":80}]},{"server_id":38,"name":"Uncletopia | Chicago | 7 | Stopwatch Beta","name_short":"chi-7","host":"chi-2.us.uncletopia.com","port":27035,"enabled":true,"region":"us-central","cc":"us","latitude":41.881832,"longitude":-87.62318,"reserved":0,"last_update":"0001-01-01T00:00:00Z","name_a2s":"Uncletopia | Chicago | 7 | Stopwatch Beta","protocol":17,"map":"cp_snakewater_final1","folder":"tf","game":"Team Fortress","app_id":440,"player_count":16,"max_players":24,"Bots":0,"server_type":"Dedicated","server_os":"Linux","password":true,"vac":true,"version":"7757534","steam_id":85568392924866364,"keywords":["cp","nocrits","nodmgspread","uncletopia"],"game_id":440,"stv_port":27036,"stv_name":"Uncletopia | Chicago | 7 | Stopwatch Beta | STV","players":[{"user_id":84,"name":"Tiafe","steam_id":76561198040398768,"connected_time":302000000000,"state":"active","ping":43},{"user_id":25,"name":"MidMilk","steam_id":76561198285631030,"connected_time":3533000000000,"state":"spawning","ping":77},{"user_id":68,"name":"neet","steam_id":76561197968115168,"connected_time":1443000000000,"state":"active","ping":46},{"user_id":16,"name":"Hamster","steam_id":76561198079599992,"connected_time":3869000000000,"state":"active","ping":31},{"user_id":17,"name":"Wingz","steam_id":76561198135885865,"connected_time":3865000000000,"state":"active","ping":44},{"user_id":62,"name":"doozy","steam_id":76561198033106776,"connected_time":1766000000000,"state":"active","ping":136},{"user_id":86,"name":"SkettiFixer","steam_id":76561198004119641,"connected_time":252000000000,"state":"active","ping":69},{"user_id":27,"name":"Hoenut","steam_id":76561198079676597,"connected_time":3495000000000,"state":"active","ping":77},{"user_id":69,"name":"TheGamingJasper","steam_id":76561199054003635,"connected_time":1441000000000,"state":"active","ping":113},{"user_id":48,"name":"Benjamin G. Seagull","steam_id":76561198118320365,"connected_time":2600000000000,"state":"active","ping":77},{"user_id":30,"name":"Splinto","steam_id":76561198111260488,"connected_time":3261000000000,"state":"active","ping":60},{"user_id":70,"name":"JimmySquid","steam_id":76561198254242530,"connected_time":1434000000000,"state":"active","ping":62},{"user_id":40,"name":"magickxanadu","steam_id":76561199117360103,"connected_time":2705000000000,"state":"active","ping":73},{"user_id":78,"name":"Robbie Rotten","steam_id":76561198125993888,"connected_time":986000000000,"state":"active","ping":85},{"user_id":72,"name":"Tick","steam_id":76561198184161214,"connected_time":1288000000000,"state":"active","ping":36},{"user_id":80,"name":"BOT Meta","steam_id":76561198090651769,"connected_time":869000000000,"state":"active","ping":77}]},{"server_id":39,"name":"Uncletopia | Chicago | 8 | Community","name_short":"chi-8","host":"chi-2.us.uncletopia.com","port":27045,"enabled":true,"region":"us-central","cc":"us","latitude":41.881832,"longitude":-87.62318,"reserved":0,"last_update":"0001-01-01T00:00:00Z","name_a2s":"Uncletopia | Chicago | 8 | Community","protocol":17,"map":"workshop/pl_barnblitz_pro7.ugc582280235","folder":"tf","game":"Team Fortress","app_id":440,"player_count":3,"max_players":24,"Bots":0,"server_type":"Dedicated","server_os":"Linux","password":true,"vac":true,"version":"7757534","steam_id":85568392924866365,"keywords":["nocrits","nodmgspread","payload","uncletopia"],"game_id":440,"stv_port":27046,"stv_name":"Uncletopia | Chicago | 8 | Community | STV","players":[{"user_id":9,"name":"Casluksopson","steam_id":76561198799615204,"connected_time":110000000000,"state":"active","ping":112},{"user_id":10,"name":"[REDACTED]","steam_id":76561198293333921,"connected_time":60000000000,"state":"active","ping":59},{"user_id":11,"name":"Trollege.","steam_id":76561199019557971,"connected_time":53000000000,"state":"active","ping":85}]},{"server_id":8,"name":"Uncletopia | Dallas | 1 | All Maps","name_short":"dal-1","host":"dal-1.us.uncletopia.com","port":27015,"enabled":true,"region":"us-central","cc":"us","latitude":32.779167,"longitude":-96.80889,"reserved":0,"last_update":"0001-01-01T00:00:00Z","name_a2s":"Uncletopia | Dallas | 1 | All Maps","protocol":17,"map":"pl_pier","folder":"tf","game":"Team Fortress","app_id":440,"player_count":24,"max_players":24,"Bots":0,"server_type":"Dedicated","server_os":"Linux","password":true,"vac":true,"version":"7757534","steam_id":85568392924469986,"keywords":["nocrits","nodmgspread","payload","uncletopia"],"game_id":440,"stv_port":27016,"stv_name":"Uncletopia | Dallas | 1 | All Maps | STV","players":[{"user_id":452,"name":"The Drunk Clown","steam_id":76561197986850426,"connected_time":1834000000000,"state":"active","ping":90},{"user_id":473,"name":"Emperor Dankatine","steam_id":76561198044741086,"connected_time":505000000000,"state":"active","ping":80},{"user_id":474,"name":"evan_is_sauce","steam_id":76561199086802383,"connected_time":504000000000,"state":"active","ping":66},{"user_id":453,"name":"Yukon Cornelius","steam_id":76561198261512781,"connected_time":1707000000000,"state":"active","ping":61},{"user_id":428,"name":"T.w² | Sliced Bread","steam_id":76561198128489595,"connected_time":3172000000000,"state":"active","ping":129},{"user_id":441,"name":"Wengatang","steam_id":76561198021747059,"connected_time":2147000000000,"state":"active","ping":66},{"user_id":431,"name":"Turnups","steam_id":76561199078299198,"connected_time":3117000000000,"state":"active","ping":101},{"user_id":482,"name":"Styx","steam_id":76561198158334494,"connected_time":238000000000,"state":"active","ping":79},{"user_id":421,"name":"vastrobotmax","steam_id":76561198417110724,"connected_time":4115000000000,"state":"active","ping":101},{"user_id":444,"name":"merge without looking","steam_id":76561198056702628,"connected_time":2075000000000,"state":"active","ping":37},{"user_id":459,"name":"Murrdogg","steam_id":76561198210491188,"connected_time":810000000000,"state":"active","ping":84},{"user_id":434,"name":"man","steam_id":76561198861436861,"connected_time":3090000000000,"state":"active","ping":58},{"user_id":475,"name":"pingus","steam_id":76561198268995867,"connected_time":451000000000,"state":"active","ping":75},{"user_id":476,"name":"Johnny Lawrence #JohnnyMaxxing","steam_id":76561199367141671,"connected_time":449000000000,"state":"active","ping":89},{"user_id":447,"name":"Starfruit66","steam_id":76561198069917277,"connected_time":1991000000000,"state":"active","ping":77},{"user_id":462,"name":"Yahtza","steam_id":76561198152171495,"connected_time":720000000000,"state":"active","ping":70},{"user_id":464,"name":"Ozone-flavored Starburst","steam_id":76561199163688421,"connected_time":674000000000,"state":"active","ping":80},{"user_id":465,"name":"Pikachu","steam_id":76561199150746424,"connected_time":673000000000,"state":"active","ping":52},{"user_id":481,"name":"aidenmc3","steam_id":76561198062209166,"connected_time":340000000000,"state":"active","ping":42},{"user_id":477,"name":"Mitty","steam_id":76561198014177684,"connected_time":418000000000,"state":"active","ping":86},{"user_id":478,"name":"The Robot Menace","steam_id":76561198043390413,"connected_time":405000000000,"state":"active","ping":54},{"user_id":437,"name":"TheOshawott64","steam_id":76561198126361408,"connected_time":3047000000000,"state":"active","ping":76},{"user_id":480,"name":"matthi","steam_id":76561198168449861,"connected_time":349000000000,"state":"active","ping":84},{"user_id":479,"name":"「Jimbo Reference」","steam_id":76561198016078541,"connected_time":383000000000,"state":"active","ping":87}]},{"server_id":108,"name":"Uncletopia | Dallas | 2 | All Maps","name_short":"dal-2","host":"dal-1.us.uncletopia.com","port":27025,"enabled":true,"region":"us-central","cc":"us","latitude":32.779167,"longitude":-96.80889,"reserved":0,"last_update":"0001-01-01T00:00:00Z","name_a2s":"Uncletopia | Dallas | 2 | All Maps","protocol":17,"map":"pl_snowycoast","folder":"tf","game":"Team Fortress","app_id":440,"player_count":24,"max_players":24,"Bots":0,"server_type":"Dedicated","server_os":"Linux","password":true,"vac":true,"version":"7757534","steam_id":85568392924469988,"keywords":["nocrits","nodmgspread","payload","uncletopia"],"game_id":440,"stv_port":27026,"stv_name":"Uncletopia | Dallas | 2 | All Maps | STV","players":[{"user_id":305,"name":"Pizza Time","steam_id":76561198094090225,"connected_time":1776000000000,"state":"active","ping":90},{"user_id":325,"name":"Takeover","steam_id":76561197996081461,"connected_time":798000000000,"state":"active","ping":74},{"user_id":298,"name":"Kink Daddy Tex","steam_id":76561198040700875,"connected_time":2206000000000,"state":"active","ping":53},{"user_id":306,"name":"gbdude","steam_id":76561198165366771,"connected_time":1768000000000,"state":"active","ping":84},{"user_id":289,"name":"Sergeant Joker #savetf2","steam_id":76561198854616604,"connected_time":2623000000000,"state":"active","ping":88},{"user_id":338,"name":"Not a Can","steam_id":76561198064264767,"connected_time":107000000000,"state":"active","ping":71},{"user_id":321,"name":"Marble","steam_id":76561198001672973,"connected_time":971000000000,"state":"active","ping":69},{"user_id":326,"name":"Cofi","steam_id":76561199026721822,"connected_time":793000000000,"state":"active","ping":88},{"user_id":308,"name":"LuciD","steam_id":76561198242842394,"connected_time":1756000000000,"state":"active","ping":93},{"user_id":322,"name":"Scruffy","steam_id":76561198025030539,"connected_time":969000000000,"state":"active","ping":75},{"user_id":335,"name":"FG7","steam_id":76561198381197197,"connected_time":253000000000,"state":"active","ping":113},{"user_id":315,"name":"SadenJamuel2007","steam_id":76561199454209188,"connected_time":1242000000000,"state":"active","ping":85},{"user_id":314,"name":"AlaNo","steam_id":76561198133099582,"connected_time":1284000000000,"state":"active","ping":75},{"user_id":294,"name":"Matt.jpg","steam_id":76561198132469465,"connected_time":2589000000000,"state":"active","ping":45},{"user_id":194,"name":"barker bill","steam_id":76561198018451994,"connected_time":10131000000000,"state":"active","ping":56},{"user_id":336,"name":"ApplesMate","steam_id":76561198832763278,"connected_time":226000000000,"state":"active","ping":60},{"user_id":331,"name":"SKINGRAPH","steam_id":76561198082933650,"connected_time":633000000000,"state":"active","ping":87},{"user_id":328,"name":"Chimpanzee","steam_id":76561198850387282,"connected_time":773000000000,"state":"active","ping":69},{"user_id":339,"name":"Sam","steam_id":76561198166269739,"connected_time":84000000000,"state":"active","ping":100},{"user_id":318,"name":"H Blake H","steam_id":76561197980280078,"connected_time":1193000000000,"state":"active","ping":50},{"user_id":300,"name":"radiohead enjoyer","steam_id":76561198397662124,"connected_time":1929000000000,"state":"active","ping":63},{"user_id":332,"name":"Popeyes Employee","steam_id":76561198157341489,"connected_time":575000000000,"state":"active","ping":150},{"user_id":337,"name":"survivalist bubbie","steam_id":76561198860460013,"connected_time":202000000000,"state":"active","ping":85},{"user_id":330,"name":"alexannyBA","steam_id":76561199065714676,"connected_time":731000000000,"state":"active","ping":84}]},{"server_id":5,"name":"Uncletopia | Frankfurt | 1 | All Maps","name_short":"frk-1","host":"frk-1.de.uncletopia.com","port":27015,"enabled":true,"region":"eu","cc":"de","latitude":50.110924,"longitude":8.682127,"reserved":0,"last_update":"0001-01-01T00:00:00Z","name_a2s":"Uncletopia | Frankfurt | 1 | All Maps","protocol":17,"map":"cp_sunshine","folder":"tf","game":"Team Fortress","app_id":440,"player_count":0,"max_players":24,"Bots":0,"server_type":"Dedicated","server_os":"Linux","password":true,"vac":true,"version":"7757534","steam_id":85568392924469989,"keywords":["cp","nocrits","nodmgspread","uncletopia"],"game_id":440,"stv_port":27016,"stv_name":"Uncletopia | Frankfurt | 1 | All Maps | STV","players":null},{"server_id":110,"name":"Uncletopia | Frankfurt | 2 | All Maps","name_short":"frk-2","host":"frk-1.de.uncletopia.com","port":27025,"enabled":true,"region":"eu","cc":"de","latitude":50.110924,"longitude":8.682127,"reserved":0,"last_update":"0001-01-01T00:00:00Z","name_a2s":"Uncletopia | Frankfurt | 2 | All Maps","protocol":17,"map":"koth_lakeside_final","folder":"tf","game":"Team Fortress","app_id":440,"player_count":0,"max_players":24,"Bots":0,"server_type":"Dedicated","server_os":"Linux","password":true,"vac":true,"version":"7757534","steam_id":85568392924469990,"keywords":["cp","nocrits","nodmgspread","uncletopia"],"game_id":440,"stv_port":27026,"stv_name":"Uncletopia | Frankfurt | 2 | All Maps | STV","players":null},{"server_id":308,"name":"Uncletopia | Frankfurt | 3 | All Maps","name_short":"frk-3","host":"frk-1.de.uncletopia.com","port":27035,"enabled":true,"region":"eu","cc":"de","latitude":50.110924,"longitude":8.682127,"reserved":0,"last_update":"0001-01-01T00:00:00Z","name_a2s":"Uncletopia | Frankfurt | 3 | All Maps","protocol":17,"map":"pl_badwater","folder":"tf","game":"Team Fortress","app_id":440,"player_count":0,"max_players":24,"Bots":0,"server_type":"Dedicated","server_os":"Linux","password":true,"vac":true,"version":"7757534","steam_id":85568392924504274,"keywords":["nocrits","nodmgspread","payload","uncletopia"],"game_id":440,"stv_port":27036,"stv_name":"Uncletopia | Frankfurt | 3 | All Maps | STV","players":null},{"server_id":309,"name":"Uncletopia | Frankfurt | 4 | All Maps","name_short":"frk-4","host":"frk-1.de.uncletopia.com","port":27045,"enabled":true,"region":"eu","cc":"de","latitude":50.110924,"longitude":8.682127,"reserved":0,"last_update":"0001-01-01T00:00:00Z","name_a2s":"Uncletopia | Frankfurt | 4 | All Maps","protocol":17,"map":"plr_hightower","folder":"tf","game":"Team Fortress","app_id":440,"player_count":0,"max_players":24,"Bots":0,"server_type":"Dedicated","server_os":"Linux","password":true,"vac":true,"version":"7757534","steam_id":85568392924504275,"keywords":["nocrits","nodmgspread","payload","uncletopia"],"game_id":440,"stv_port":27046,"stv_name":"Uncletopia | Frankfurt | 4 | All Maps | STV","players":null},{"server_id":310,"name":"Uncletopia | Frankfurt | 5 | All Maps","name_short":"frk-5","host":"frk-1.de.uncletopia.com","port":27055,"enabled":true,"region":"eu","cc":"de","latitude":50.110924,"longitude":8.682127,"reserved":0,"last_update":"0001-01-01T00:00:00Z","name_a2s":"Uncletopia | Frankfurt | 5 | All Maps","protocol":17,"map":"koth_highpass","folder":"tf","game":"Team Fortress","app_id":440,"player_count":0,"max_players":24,"Bots":0,"server_type":"Dedicated","server_os":"Linux","password":true,"vac":true,"version":"7757534","steam_id":85568392924504277,"keywords":["cp","nocrits","nodmgspread","uncletopia"],"game_id":440,"stv_port":27056,"stv_name":"Uncletopia | Frankfurt | 5 | All Maps | STV","players":null},{"server_id":311,"name":"Uncletopia | Frankfurt | 6 | All Maps","name_short":"frk-6","host":"frk-1.de.uncletopia.com","port":27065,"enabled":true,"region":"eu","cc":"de","latitude":50.110924,"longitude":8.682127,"reserved":0,"last_update":"0001-01-01T00:00:00Z","name_a2s":"Uncletopia | Frankfurt | 6 | All Maps","protocol":17,"map":"cp_process_final","folder":"tf","game":"Team Fortress","app_id":440,"player_count":0,"max_players":24,"Bots":0,"server_type":"Dedicated","server_os":"Linux","password":true,"vac":true,"version":"7757534","steam_id":85568392924504278,"keywords":["cp","nocrits","nodmgspread","uncletopia"],"game_id":440,"stv_port":27066,"stv_name":"Uncletopia | Frankfurt | 6 | All Maps | STV","players":null},{"server_id":23,"name":"Uncletopia | Frankfurt | 7 | Stopwatch Beta","name_short":"frk-7","host":"frk-1.de.uncletopia.com","port":27075,"enabled":true,"region":"eu","cc":"de","latitude":50.110924,"longitude":8.682127,"reserved":0,"last_update":"0001-01-01T00:00:00Z","name_a2s":"Uncletopia | Frankfurt | 7 | Stopwatch Beta","protocol":17,"map":"koth_highpass","folder":"tf","game":"Team Fortress","app_id":440,"player_count":0,"max_players":24,"Bots":0,"server_type":"Dedicated","server_os":"Linux","password":true,"vac":true,"version":"7757534","steam_id":85568392924742827,"keywords":["cp","nocrits","nodmgspread","uncletopia"],"game_id":440,"stv_port":27076,"stv_name":"Uncletopia | Frankfurt | 7 | Stopwatch Beta | STV","players":null},{"server_id":24,"name":"Uncletopia | Frankfurt | 8 | Community","name_short":"frk-8","host":"frk-1.de.uncletopia.com","port":27085,"enabled":true,"region":"eu","cc":"de","latitude":50.110924,"longitude":8.682127,"reserved":0,"last_update":"0001-01-01T00:00:00Z","name_a2s":"Uncletopia | Frankfurt | 8 | Community","protocol":17,"map":"workshop/pl_cactuscanyon_redux_rc4b.ugc2579644293","folder":"tf","game":"Team Fortress","app_id":440,"player_count":0,"max_players":24,"Bots":0,"server_type":"Dedicated","server_os":"Linux","password":true,"vac":true,"version":"7757534","steam_id":85568392924742828,"keywords":["nocrits","nodmgspread","payload","uncletopia"],"game_id":440,"stv_port":27086,"stv_name":"Uncletopia | Frankfurt | 8 | Community | STV","players":null},{"server_id":202,"name":"Uncletopia | Hong Kong | 1 | All Maps","name_short":"hgk-1","host":"hgk-1.hk.uncletopia.com","port":27015,"enabled":true,"region":"asia","cc":"hk","latitude":22.302711,"longitude":114.177216,"reserved":0,"last_update":"0001-01-01T00:00:00Z","name_a2s":"Uncletopia | Hong Kong | 1 | All Maps","protocol":17,"map":"pl_badwater","folder":"tf","game":"Team Fortress","app_id":440,"player_count":15,"max_players":24,"Bots":0,"server_type":"Dedicated","server_os":"Linux","password":true,"vac":true,"version":"7757534","steam_id":85568392924494504,"keywords":["nocrits","nodmgspread","payload","uncletopia"],"game_id":440,"stv_port":27016,"stv_name":"Uncletopia | Hong Kong | 1 | All Maps | STV","players":[{"user_id":15,"name":"Engineer Gaming","steam_id":76561199015521820,"connected_time":1706000000000,"state":"active","ping":89},{"user_id":16,"name":"iLikeMudrock ᗜ‸ᗜ","steam_id":76561199352285088,"connected_time":1677000000000,"state":"active","ping":141},{"user_id":17,"name":"stunnurn_m","steam_id":76561199092505140,"connected_time":1492000000000,"state":"active","ping":62},{"user_id":21,"name":"irylfaith","steam_id":76561199071455481,"connected_time":1057000000000,"state":"active","ping":97},{"user_id":19,"name":":)","steam_id":76561198437941450,"connected_time":1236000000000,"state":"active","ping":85},{"user_id":22,"name":"MrNoddles\u003e:/","steam_id":76561198075161995,"connected_time":1028000000000,"state":"active","ping":75},{"user_id":23,"name":"Windmill","steam_id":76561199230997986,"connected_time":677000000000,"state":"active","ping":79},{"user_id":24,"name":"P","steam_id":76561198304514505,"connected_time":648000000000,"state":"active","ping":114},{"user_id":28,"name":"I suck","steam_id":76561199100350637,"connected_time":422000000000,"state":"active","ping":264},{"user_id":27,"name":"Mist","steam_id":76561199093158616,"connected_time":473000000000,"state":"active","ping":104},{"user_id":29,"name":"rtgod","steam_id":76561198125363469,"connected_time":368000000000,"state":"active","ping":77},{"user_id":30,"name":"kid named gibus (f2p)","steam_id":76561199044282228,"connected_time":324000000000,"state":"active","ping":116},{"user_id":31,"name":"furuka","steam_id":76561199036021874,"connected_time":250000000000,"state":"active","ping":78},{"user_id":32,"name":"javahopper","steam_id":76561199472243128,"connected_time":249000000000,"state":"active","ping":62},{"user_id":33,"name":"Tommic","steam_id":76561198315518828,"connected_time":160000000000,"state":"active","ping":65}]},{"server_id":1,"name":"Uncletopia | Los Angeles | 1 | All Maps","name_short":"lax-1","host":"lax-1.us.uncletopia.com","port":27015,"enabled":true,"region":"us-west","cc":"us","latitude":33.94279,"longitude":-118.41004,"reserved":0,"last_update":"0001-01-01T00:00:00Z","name_a2s":"Uncletopia | Los Angeles | 1 | All Maps","protocol":17,"map":"pl_upward","folder":"tf","game":"Team Fortress","app_id":440,"player_count":24,"max_players":24,"Bots":0,"server_type":"Dedicated","server_os":"Linux","password":true,"vac":true,"version":"7757534","steam_id":85568392924469991,"keywords":["nocrits","nodmgspread","payload","uncletopia"],"game_id":440,"stv_port":27016,"stv_name":"Uncletopia | Los Angeles | 1 | All Maps | STV","players":[{"user_id":202,"name":"❤ Ashley ❤","steam_id":76561198056428303,"connected_time":1775000000000,"state":"active","ping":49},{"user_id":250,"name":"Zen Skye","steam_id":76561198114452552,"connected_time":961000000000,"state":"active","ping":116},{"user_id":38,"name":"Bond","steam_id":76561198089262776,"connected_time":6468000000000,"state":"active","ping":84},{"user_id":34,"name":"chunkysquare","steam_id":76561199076468383,"connected_time":6536000000000,"state":"active","ping":40},{"user_id":114,"name":"parm spagert with bassil","steam_id":76561198047476380,"connected_time":3672000000000,"state":"active","ping":108},{"user_id":208,"name":"Dangerous_Dave76","steam_id":76561199230056550,"connected_time":1726000000000,"state":"active","ping":67},{"user_id":149,"name":"Seal and Co.","steam_id":76561198271910055,"connected_time":2520000000000,"state":"active","ping":90},{"user_id":238,"name":"self sufficient kitten","steam_id":76561197960592612,"connected_time":1177000000000,"state":"active","ping":75},{"user_id":35,"name":"SHADOW (he/him)","steam_id":76561198207768148,"connected_time":6514000000000,"state":"active","ping":70},{"user_id":258,"name":"Pangolin","steam_id":76561198318126190,"connected_time":870000000000,"state":"active","ping":146},{"user_id":203,"name":"Wso1123","steam_id":76561198048040111,"connected_time":1759000000000,"state":"active","ping":60},{"user_id":252,"name":"Micah","steam_id":76561198006837982,"connected_time":950000000000,"state":"active","ping":132},{"user_id":232,"name":"Xavibite","steam_id":76561198209380493,"connected_time":1403000000000,"state":"active","ping":105},{"user_id":231,"name":"Bart Starter","steam_id":76561198976521735,"connected_time":1404000000000,"state":"active","ping":55},{"user_id":66,"name":"kaede","steam_id":76561198345528370,"connected_time":5422000000000,"state":"active","ping":49},{"user_id":62,"name":"DeckofDragons","steam_id":76561198057398213,"connected_time":5606000000000,"state":"active","ping":85},{"user_id":115,"name":"gretchling","steam_id":76561198046111695,"connected_time":3668000000000,"state":"active","ping":81},{"user_id":249,"name":"Hafez al-Assad","steam_id":76561198340989889,"connected_time":967000000000,"state":"active","ping":43},{"user_id":234,"name":"lamadre07","steam_id":76561198067337453,"connected_time":1316000000000,"state":"active","ping":104},{"user_id":214,"name":"The Big Yeet","steam_id":76561198153635284,"connected_time":1660000000000,"state":"active","ping":69},{"user_id":119,"name":"moe","steam_id":76561198929586245,"connected_time":3583000000000,"state":"active","ping":39},{"user_id":129,"name":"Hsepirn","steam_id":76561198152395431,"connected_time":3226000000000,"state":"active","ping":61},{"user_id":256,"name":"ohio","steam_id":76561198097637080,"connected_time":908000000000,"state":"active","ping":95},{"user_id":181,"name":"walrooos","steam_id":76561198024521839,"connected_time":2097000000000,"state":"active","ping":39}]},{"server_id":112,"name":"Uncletopia | Los Angeles | 2 | All Maps","name_short":"lax-2","host":"lax-1.us.uncletopia.com","port":27025,"enabled":true,"region":"us-west","cc":"us","latitude":33.94279,"longitude":-118.41004,"reserved":0,"last_update":"0001-01-01T00:00:00Z","name_a2s":"Uncletopia | Los Angeles | 2 | All Maps","protocol":17,"map":"koth_viaduct","folder":"tf","game":"Team Fortress","app_id":440,"player_count":0,"max_players":24,"Bots":0,"server_type":"Dedicated","server_os":"Linux","password":true,"vac":true,"version":"7757534","steam_id":85568392924469992,"keywords":["cp","nocrits","nodmgspread","uncletopia"],"game_id":440,"stv_port":27026,"stv_name":"Uncletopia | Los Angeles | 2 | All Maps | STV","players":null},{"server_id":324,"name":"Uncletopia | Los Angeles | 3 | All Maps","name_short":"lax-3","host":"lax-1.us.uncletopia.com","port":27035,"enabled":true,"region":"us-west","cc":"us","latitude":33.94279,"longitude":-118.41004,"reserved":0,"last_update":"0001-01-01T00:00:00Z","name_a2s":"Uncletopia | Los Angeles | 3 | All Maps","protocol":17,"map":"koth_highpass","folder":"tf","game":"Team Fortress","app_id":440,"player_count":10,"max_players":24,"Bots":0,"server_type":"Dedicated","server_os":"Linux","password":true,"vac":true,"version":"7757534","steam_id":85568392924510198,"keywords":["cp","nocrits","nodmgspread","uncletopia"],"game_id":440,"stv_port":27036,"stv_name":"Uncletopia | Los Angeles | 3 | All Maps | STV","players":[{"user_id":19,"name":"BeckBeck","steam_id":76561198316018749,"connected_time":1448000000000,"state":"active","ping":68},{"user_id":20,"name":"the_snoo_muffin","steam_id":76561198806184462,"connected_time":1433000000000,"state":"active","ping":85},{"user_id":21,"name":"DogSpoon","steam_id":76561198012485990,"connected_time":1060000000000,"state":"active","ping":102},{"user_id":22,"name":"ro","steam_id":76561198935253634,"connected_time":1048000000000,"state":"active","ping":56},{"user_id":23,"name":"XNAERINN","steam_id":76561198821785172,"connected_time":1037000000000,"state":"active","ping":110},{"user_id":24,"name":"Mom","steam_id":76561198207936000,"connected_time":801000000000,"state":"active","ping":65},{"user_id":26,"name":"The Admiralty","steam_id":76561198839398708,"connected_time":262000000000,"state":"active","ping":73},{"user_id":27,"name":"hakken","steam_id":76561199102391736,"connected_time":251000000000,"state":"active","ping":45},{"user_id":28,"name":"Asolator0","steam_id":76561198095809798,"connected_time":59000000000,"state":"active","ping":66},{"user_id":29,"name":"Pink Tooth Bob","steam_id":76561198142122915,"connected_time":17000000000,"state":"active","ping":106}]},{"server_id":25,"name":"Uncletopia | Los Angeles | 4 | Stopwatch Beta","name_short":"lax-4","host":"lax-1.us.uncletopia.com","port":27045,"enabled":true,"region":"us-west","cc":"us","latitude":33.94279,"longitude":-118.41004,"reserved":0,"last_update":"0001-01-01T00:00:00Z","name_a2s":"Uncletopia | Los Angeles | 4 | Stopwatch Beta","protocol":17,"map":"pl_frontier_final","folder":"tf","game":"Team Fortress","app_id":440,"player_count":0,"max_players":24,"Bots":0,"server_type":"Dedicated","server_os":"Linux","password":true,"vac":true,"version":"7757534","steam_id":85568392924510199,"keywords":["nocrits","nodmgspread","payload","uncletopia"],"game_id":440,"stv_port":27046,"stv_name":"Uncletopia | Los Angeles | 4 | Stopwatch Beta | STV","players":null},{"server_id":11,"name":"Uncletopia | London | 1 | All Maps","name_short":"lon-1","host":"lon-1.uk.uncletopia.com","port":27015,"enabled":true,"region":"eu","cc":"gb","latitude":51.509865,"longitude":-0.118092,"reserved":0,"last_update":"0001-01-01T00:00:00Z","name_a2s":"Uncletopia | London | 1 | All Maps","protocol":17,"map":"cp_powerhouse","folder":"tf","game":"Team Fortress","app_id":440,"player_count":23,"max_players":24,"Bots":0,"server_type":"Dedicated","server_os":"Linux","password":true,"vac":true,"version":"7757534","steam_id":85568392924367362,"keywords":["cp","nocrits","nodmgspread","uncletopia"],"game_id":440,"stv_port":27016,"stv_name":"Uncletopia | London | 1 | All Maps | STV","players":[{"user_id":603,"name":"SuperBob103","steam_id":76561199175360012,"connected_time":16264000000000,"state":"active","ping":48},{"user_id":739,"name":"Steen","steam_id":76561198122992510,"connected_time":2529000000000,"state":"active","ping":45},{"user_id":758,"name":"gibb (official)","steam_id":76561198074097655,"connected_time":1578000000000,"state":"active","ping":45},{"user_id":724,"name":"etc","steam_id":76561197998394797,"connected_time":3870000000000,"state":"active","ping":57},{"user_id":508,"name":"dec","steam_id":76561198009660168,"connected_time":23968000000000,"state":"active","ping":57},{"user_id":743,"name":"frosty","steam_id":76561198094560834,"connected_time":2307000000000,"state":"active","ping":47},{"user_id":767,"name":"Superiumentarius","steam_id":76561198081642249,"connected_time":458000000000,"state":"active","ping":74},{"user_id":744,"name":"Croy","steam_id":76561197972552579,"connected_time":2304000000000,"state":"active","ping":45},{"user_id":766,"name":"Wubbles","steam_id":76561197970314906,"connected_time":512000000000,"state":"active","ping":65},{"user_id":749,"name":"General Petrov","steam_id":76561198027204104,"connected_time":2069000000000,"state":"active","ping":79},{"user_id":765,"name":"klinisch wahnsinnig","steam_id":76561198177185310,"connected_time":955000000000,"state":"active","ping":60},{"user_id":690,"name":"SOAPIIEE","steam_id":76561198443798981,"connected_time":6749000000000,"state":"active","ping":50},{"user_id":763,"name":"Pixie","steam_id":76561198044038797,"connected_time":1289000000000,"state":"active","ping":86},{"user_id":755,"name":"Pingutaro","steam_id":76561198112803718,"connected_time":1616000000000,"state":"active","ping":49},{"user_id":748,"name":"Taste","steam_id":76561197994506978,"connected_time":2222000000000,"state":"active","ping":58},{"user_id":761,"name":"Cu713","steam_id":76561198175463442,"connected_time":1454000000000,"state":"active","ping":94},{"user_id":730,"name":"Tsuruko","steam_id":76561198063618114,"connected_time":3473000000000,"state":"active","ping":80},{"user_id":632,"name":"Gnaisse","steam_id":76561198010560642,"connected_time":13850000000000,"state":"active","ping":88},{"user_id":762,"name":"Psyche","steam_id":76561198091662001,"connected_time":1453000000000,"state":"active","ping":65},{"user_id":756,"name":"Explosive_kink","steam_id":76561198998702838,"connected_time":1592000000000,"state":"active","ping":53},{"user_id":737,"name":"Bilbo Ballbaggins","steam_id":76561198070593514,"connected_time":2749000000000,"state":"active","ping":45},{"user_id":764,"name":"uhmazn","steam_id":76561198014204225,"connected_time":1162000000000,"state":"active","ping":53},{"user_id":760,"name":"heff","steam_id":76561198121744206,"connected_time":1537000000000,"state":"active","ping":44}]},{"server_id":114,"name":"Uncletopia | London | 2 | All Maps","name_short":"lon-2","host":"lon-1.uk.uncletopia.com","port":27025,"enabled":true,"region":"eu","cc":"gb","latitude":51.509865,"longitude":-0.118092,"reserved":0,"last_update":"0001-01-01T00:00:00Z","name_a2s":"Uncletopia | London | 2 | All Maps","protocol":17,"map":"pl_snowycoast","folder":"tf","game":"Team Fortress","app_id":440,"player_count":22,"max_players":24,"Bots":0,"server_type":"Dedicated","server_os":"Linux","password":true,"vac":true,"version":"7757534","steam_id":85568392924470941,"keywords":["nocrits","nodmgspread","payload","uncletopia"],"game_id":440,"stv_port":27026,"stv_name":"Uncletopia | London | 2 | All Maps | STV","players":[{"user_id":862,"name":"yllen","steam_id":76561198054870921,"connected_time":179000000000,"state":"active","ping":44},{"user_id":840,"name":"f0x","steam_id":76561198072921704,"connected_time":1888000000000,"state":"active","ping":69},{"user_id":854,"name":"Hoxton","steam_id":76561198129209505,"connected_time":1246000000000,"state":"active","ping":89},{"user_id":839,"name":"MAKENTAKEN","steam_id":76561199127359587,"connected_time":2125000000000,"state":"active","ping":103},{"user_id":782,"name":"Slooshie","steam_id":76561198008749909,"connected_time":6477000000000,"state":"active","ping":69},{"user_id":842,"name":"Jesse Thinkman","steam_id":76561198061675475,"connected_time":1808000000000,"state":"active","ping":131},{"user_id":863,"name":"ladder goat","steam_id":76561198069723264,"connected_time":80000000000,"state":"active","ping":45},{"user_id":864,"name":"SapphireSundew [Lotus]","steam_id":76561198040904890,"connected_time":58000000000,"state":"active","ping":138},{"user_id":867,"name":"Dylanardo","steam_id":76561198294726950,"connected_time":1000000000,"state":"spawning","ping":90},{"user_id":849,"name":"Tank","steam_id":76561199059174576,"connected_time":1668000000000,"state":"active","ping":192},{"user_id":847,"name":"Damaged Toaster","steam_id":76561198024950166,"connected_time":1722000000000,"state":"active","ping":49},{"user_id":848,"name":"Fern","steam_id":76561198043781842,"connected_time":1709000000000,"state":"active","ping":134},{"user_id":830,"name":"OTP °Roticher","steam_id":76561198194559879,"connected_time":3175000000000,"state":"active","ping":60},{"user_id":861,"name":"getting another lethal injectio","steam_id":76561199414716848,"connected_time":517000000000,"state":"active","ping":77},{"user_id":866,"name":"scrumpy'ly","steam_id":76561199122325145,"connected_time":11000000000,"state":"spawning","ping":149},{"user_id":859,"name":"Nazo","steam_id":76561197972314320,"connected_time":665000000000,"state":"active","ping":132},{"user_id":851,"name":"foureyesfries","steam_id":76561198271831555,"connected_time":1623000000000,"state":"active","ping":75},{"user_id":836,"name":"Arky 🦑","steam_id":76561198027448234,"connected_time":2446000000000,"state":"active","ping":75},{"user_id":826,"name":"kbbq","steam_id":76561198346638308,"connected_time":3273000000000,"state":"active","ping":60},{"user_id":816,"name":"JET SET GRAMOPHONE","steam_id":76561198111590210,"connected_time":4010000000000,"state":"active","ping":53},{"user_id":828,"name":"[\u003e\u003c] OTP Uncle Sam","steam_id":76561198186666399,"connected_time":3249000000000,"state":"active","ping":60},{"user_id":860,"name":"Behind you","steam_id":76561198102420849,"connected_time":654000000000,"state":"active","ping":72}]},{"server_id":320,"name":"Uncletopia | London | 3 | All Maps","name_short":"lon-3","host":"lon-1.uk.uncletopia.com","port":27035,"enabled":true,"region":"eu","cc":"gb","latitude":51.509865,"longitude":-0.118092,"reserved":0,"last_update":"0001-01-01T00:00:00Z","name_a2s":"Uncletopia | London | 3 | All Maps","protocol":17,"map":"cp_dustbowl","folder":"tf","game":"Team Fortress","app_id":440,"player_count":0,"max_players":24,"Bots":0,"server_type":"Dedicated","server_os":"Linux","password":true,"vac":true,"version":"7757534","steam_id":85568392924510192,"keywords":["cp","nocrits","nodmgspread","uncletopia"],"game_id":440,"stv_port":27036,"stv_name":"Uncletopia | London | 3 | All Maps | STV","players":null},{"server_id":321,"name":"Uncletopia | London | 4 | All Maps","name_short":"lon-4","host":"lon-1.uk.uncletopia.com","port":27045,"enabled":true,"region":"eu","cc":"gb","latitude":51.509865,"longitude":-0.118092,"reserved":0,"last_update":"0001-01-01T00:00:00Z","name_a2s":"Uncletopia | London | 4 | All Maps","protocol":17,"map":"cp_sunshine","folder":"tf","game":"Team Fortress","app_id":440,"player_count":3,"max_players":24,"Bots":0,"server_type":"Dedicated","server_os":"Linux","password":true,"vac":true,"version":"7757534","steam_id":85568392924510193,"keywords":["cp","nocrits","nodmgspread","uncletopia"],"game_id":440,"stv_port":27046,"stv_name":"Uncletopia | London | 4 | All Maps | STV","players":[{"user_id":280,"name":"rox400","steam_id":76561198038812742,"connected_time":2647000000000,"state":"active","ping":70},{"user_id":246,"name":"Davidx691","steam_id":76561198016865958,"connected_time":6394000000000,"state":"active","ping":68},{"user_id":247,"name":"Davide","steam_id":76561198210485235,"connected_time":6382000000000,"state":"active","ping":75}]},{"server_id":21,"name":"Uncletopia | London | 5 | All Maps","name_short":"lon-5","host":"lon-1.uk.uncletopia.com","port":27055,"enabled":true,"region":"eu","cc":"gb","latitude":51.509865,"longitude":-0.118092,"reserved":0,"last_update":"0001-01-01T00:00:00Z","name_a2s":"Uncletopia | London | 5 | All Maps","protocol":17,"map":"cp_process_final","folder":"tf","game":"Team Fortress","app_id":440,"player_count":0,"max_players":24,"Bots":0,"server_type":"Dedicated","server_os":"Linux","password":true,"vac":true,"version":"7757534","steam_id":85568392924742829,"keywords":["cp","nocrits","nodmgspread","uncletopia"],"game_id":440,"stv_port":27056,"stv_name":"Uncletopia | London | 5 | All Maps | STV","players":null},{"server_id":22,"name":"Uncletopia | London | 6 | All Maps","name_short":"lon-6","host":"lon-1.uk.uncletopia.com","port":27065,"enabled":true,"region":"eu","cc":"gb","latitude":51.509865,"longitude":-0.118092,"reserved":0,"last_update":"0001-01-01T00:00:00Z","name_a2s":"Uncletopia | London | 6 | All Maps","protocol":17,"map":"pl_snowycoast","folder":"tf","game":"Team Fortress","app_id":440,"player_count":0,"max_players":24,"Bots":0,"server_type":"Dedicated","server_os":"Linux","password":true,"vac":true,"version":"7757534","steam_id":85568392924742830,"keywords":["nocrits","nodmgspread","payload","uncletopia"],"game_id":440,"stv_port":27066,"stv_name":"Uncletopia | London | 6 | All Maps | STV","players":null},{"server_id":40,"name":"Uncletopia | London | 7 | No Payload","name_short":"lon-7","host":"lon-1.uk.uncletopia.com","port":27075,"enabled":true,"region":"eu","cc":"gb","latitude":51.509865,"longitude":-0.118092,"reserved":0,"last_update":"0001-01-01T00:00:00Z","name_a2s":"Uncletopia | London | 7 | No Payload","protocol":17,"map":"cp_metalworks","folder":"tf","game":"Team Fortress","app_id":440,"player_count":0,"max_players":24,"Bots":0,"server_type":"Dedicated","server_os":"Linux","password":true,"vac":true,"version":"7757534","steam_id":85568392924964314,"keywords":["cp","nocrits","nodmgspread","uncletopia"],"game_id":440,"stv_port":27076,"stv_name":"Uncletopia | London | 7 | No Payload | STV","players":null},{"server_id":41,"name":"Uncletopia | London | 8 | Community","name_short":"lon-8","host":"lon-1.uk.uncletopia.com","port":27085,"enabled":true,"region":"eu","cc":"gb","latitude":51.509865,"longitude":-0.118092,"reserved":0,"last_update":"0001-01-01T00:00:00Z","name_a2s":"Uncletopia | London | 8 | Community","protocol":17,"map":"workshop/rd_asteroid_redux_b1.ugc2154902912","folder":"tf","game":"Team Fortress","app_id":440,"player_count":0,"max_players":24,"Bots":0,"server_type":"Dedicated","server_os":"Linux","password":true,"vac":true,"version":"7757534","steam_id":85568392924964315,"keywords":["beta","nocrits","nodmgspread","rd","uncletopia"],"game_id":440,"stv_port":27086,"stv_name":"Uncletopia | London | 8 | Community | STV","players":null},{"server_id":300,"name":"Uncletopia | Montréal | 1 | All Maps","name_short":"mtl-1","host":"mtl-1.ca.uncletopia.com","port":27015,"enabled":true,"region":"us-east","cc":"ca","latitude":45.50889,"longitude":-73.56167,"reserved":0,"last_update":"0001-01-01T00:00:00Z","name_a2s":"Uncletopia | Montréal | 1 | All Maps","protocol":17,"map":"koth_cascade","folder":"tf","game":"Team Fortress","app_id":440,"player_count":0,"max_players":24,"Bots":0,"server_type":"Dedicated","server_os":"Linux","password":true,"vac":true,"version":"7757534","steam_id":85568392924500087,"keywords":["cp","nocrits","nodmgspread","uncletopia"],"game_id":440,"stv_port":27016,"stv_name":"Uncletopia | Montréal | 1 | All Maps | STV","players":null},{"server_id":301,"name":"Uncletopia | Montréal | 2 | All Maps","name_short":"mtl-2","host":"mtl-1.ca.uncletopia.com","port":27025,"enabled":true,"region":"us-east","cc":"ca","latitude":45.50889,"longitude":-73.56167,"reserved":0,"last_update":"0001-01-01T00:00:00Z","name_a2s":"Uncletopia | Montréal | 2 | All Maps","protocol":17,"map":"cp_dustbowl","folder":"tf","game":"Team Fortress","app_id":440,"player_count":0,"max_players":24,"Bots":0,"server_type":"Dedicated","server_os":"Linux","password":true,"vac":true,"version":"7757534","steam_id":85568392924500088,"keywords":["cp","nocrits","nodmgspread","uncletopia"],"game_id":440,"stv_port":27026,"stv_name":"Uncletopia | Montréal | 2 | All Maps | STV","players":null},{"server_id":302,"name":"Uncletopia | Montréal | 3 | All Maps","name_short":"mtl-3","host":"mtl-1.ca.uncletopia.com","port":27035,"enabled":true,"region":"us-east","cc":"ca","latitude":45.50889,"longitude":-73.56167,"reserved":0,"last_update":"0001-01-01T00:00:00Z","name_a2s":"Uncletopia | Montréal | 3 | All Maps","protocol":17,"map":"koth_highpass","folder":"tf","game":"Team Fortress","app_id":440,"player_count":0,"max_players":24,"Bots":0,"server_type":"Dedicated","server_os":"Linux","password":true,"vac":true,"version":"7757534","steam_id":85568392924500089,"keywords":["cp","nocrits","nodmgspread","uncletopia"],"game_id":440,"stv_port":27036,"stv_name":"Uncletopia | Montréal | 3 | All Maps | STV","players":null},{"server_id":303,"name":"Uncletopia | Montréal | 4 | No Payload","name_short":"mtl-4","host":"mtl-1.ca.uncletopia.com","port":27045,"enabled":true,"region":"us-east","cc":"ca","latitude":45.50889,"longitude":-73.56167,"reserved":0,"last_update":"0001-01-01T00:00:00Z","name_a2s":"Uncletopia | Montréal | 4 | No Payload","protocol":17,"map":"pl_borneo","folder":"tf","game":"Team Fortress","app_id":440,"player_count":0,"max_players":24,"Bots":0,"server_type":"Dedicated","server_os":"Linux","password":true,"vac":true,"version":"7757534","steam_id":85568392924500090,"keywords":["nocrits","nodmgspread","payload","uncletopia"],"game_id":440,"stv_port":27046,"stv_name":"Uncletopia | Montréal | 4 | No Payload | STV","players":null},{"server_id":13,"name":"Uncletopia | New York City | 1 | All Maps","name_short":"nyc-1","host":"nyc-1.us.uncletopia.com","port":27015,"enabled":true,"region":"us-east","cc":"us","latitude":40.73061,"longitude":-73.93524,"reserved":0,"last_update":"0001-01-01T00:00:00Z","name_a2s":"Uncletopia | New York City | 1 | All Maps","protocol":17,"map":"pl_badwater","folder":"tf","game":"Team Fortress","app_id":440,"player_count":24,"max_players":24,"Bots":0,"server_type":"Dedicated","server_os":"Linux","password":true,"vac":true,"version":"7757534","steam_id":85568392924469993,"keywords":["nocrits","nodmgspread","payload","uncletopia"],"game_id":440,"stv_port":27016,"stv_name":"Uncletopia | New York City | 1 | All Maps | STV","players":[{"user_id":289,"name":"RedBatman","steam_id":76561198064252016,"connected_time":2028000000000,"state":"active","ping":69},{"user_id":277,"name":"Bigtimefan5","steam_id":76561199047490167,"connected_time":2665000000000,"state":"active","ping":75},{"user_id":297,"name":"Dilbert","steam_id":76561198195613682,"connected_time":1059000000000,"state":"active","ping":76},{"user_id":306,"name":"peppermint","steam_id":76561198043761385,"connected_time":333000000000,"state":"active","ping":62},{"user_id":259,"name":"Back with the milk","steam_id":76561199020105501,"connected_time":4213000000000,"state":"active","ping":47},{"user_id":280,"name":"CHIEF","steam_id":76561198011209422,"connected_time":2413000000000,"state":"active","ping":64},{"user_id":302,"name":"Copter_Boy","steam_id":76561198322921312,"connected_time":888000000000,"state":"active","ping":46},{"user_id":298,"name":"Lord GabeN","steam_id":76561198140862723,"connected_time":1053000000000,"state":"active","ping":76},{"user_id":272,"name":"James","steam_id":76561198055687973,"connected_time":3569000000000,"state":"active","ping":72},{"user_id":254,"name":"transgender big burger","steam_id":76561199023017383,"connected_time":4516000000000,"state":"active","ping":61},{"user_id":300,"name":"twitch.tv/woosh67","steam_id":76561198328312758,"connected_time":1003000000000,"state":"active","ping":65},{"user_id":307,"name":"Walmart Employee","steam_id":76561198840373909,"connected_time":262000000000,"state":"active","ping":99},{"user_id":251,"name":"GummybearKillr","steam_id":76561198031235750,"connected_time":4802000000000,"state":"active","ping":56},{"user_id":303,"name":"Gandalf Gaming","steam_id":76561198368151490,"connected_time":884000000000,"state":"active","ping":54},{"user_id":296,"name":"KingNeptune","steam_id":76561198965549228,"connected_time":1166000000000,"state":"active","ping":57},{"user_id":278,"name":"healthy boundaries","steam_id":76561198025760608,"connected_time":2455000000000,"state":"active","ping":50},{"user_id":275,"name":"Smiles","steam_id":76561198107197973,"connected_time":2843000000000,"state":"active","ping":79},{"user_id":295,"name":"MrVegasAguitar","steam_id":76561198084466946,"connected_time":1380000000000,"state":"active","ping":84},{"user_id":287,"name":"Sideshow Penguin","steam_id":76561198128024135,"connected_time":2079000000000,"state":"active","ping":51},{"user_id":308,"name":"judesro","steam_id":76561198352244888,"connected_time":77000000000,"state":"active","ping":75},{"user_id":292,"name":"Dusty Bucket","steam_id":76561198037064732,"connected_time":1642000000000,"state":"active","ping":56},{"user_id":305,"name":"Gorf","steam_id":76561199060557282,"connected_time":832000000000,"state":"active","ping":50},{"user_id":210,"name":"A Puppy","steam_id":76561198828184456,"connected_time":7049000000000,"state":"active","ping":49},{"user_id":293,"name":"Bastee1021","steam_id":76561199456141163,"connected_time":1512000000000,"state":"active","ping":150}]},{"server_id":14,"name":"Uncletopia | New York City | 2 | All Maps","name_short":"nyc-2","host":"nyc-1.us.uncletopia.com","port":27025,"enabled":true,"region":"us-east","cc":"us","latitude":40.73061,"longitude":-73.93524,"reserved":0,"last_update":"0001-01-01T00:00:00Z","name_a2s":"Uncletopia | New York City | 2 | All Maps","protocol":17,"map":"pl_badwater","folder":"tf","game":"Team Fortress","app_id":440,"player_count":24,"max_players":24,"Bots":0,"server_type":"Dedicated","server_os":"Linux","password":true,"vac":true,"version":"7757534","steam_id":85568392924469994,"keywords":["nocrits","nodmgspread","payload","uncletopia"],"game_id":440,"stv_port":27026,"stv_name":"Uncletopia | New York City | 2 | All Maps | STV","players":[{"user_id":394,"name":"SpinetinglingToast","steam_id":76561198099470670,"connected_time":1126000000000,"state":"active","ping":55},{"user_id":368,"name":"medic bag enjoyer","steam_id":76561198958115026,"connected_time":2124000000000,"state":"active","ping":81},{"user_id":282,"name":"Bootes","steam_id":76561197968255551,"connected_time":7091000000000,"state":"active","ping":52},{"user_id":362,"name":"ethanfive","steam_id":76561198035294132,"connected_time":2230000000000,"state":"active","ping":87},{"user_id":399,"name":"Chombo Cheeto","steam_id":76561198051638630,"connected_time":503000000000,"state":"active","ping":66},{"user_id":390,"name":"Hunto","steam_id":76561198328052562,"connected_time":1490000000000,"state":"active","ping":93},{"user_id":388,"name":"Deeg","steam_id":76561198175970806,"connected_time":1612000000000,"state":"active","ping":56},{"user_id":365,"name":"AmazingSloth23","steam_id":76561198370397476,"connected_time":2219000000000,"state":"active","ping":92},{"user_id":396,"name":"JPMockMan","steam_id":76561198071370876,"connected_time":1095000000000,"state":"active","ping":92},{"user_id":389,"name":"6t26j","steam_id":76561198278282836,"connected_time":1606000000000,"state":"active","ping":59},{"user_id":366,"name":"Panzer Gaming","steam_id":76561198926896335,"connected_time":2200000000000,"state":"active","ping":100},{"user_id":402,"name":"jimbo","steam_id":76561198046059770,"connected_time":402000000000,"state":"active","ping":50},{"user_id":372,"name":"Shia Surprise","steam_id":76561198081945804,"connected_time":1972000000000,"state":"active","ping":104},{"user_id":373,"name":"ChaoticAngel","steam_id":76561198293528217,"connected_time":1968000000000,"state":"active","ping":57},{"user_id":398,"name":"Fudge_Cake","steam_id":76561198059218167,"connected_time":763000000000,"state":"active","ping":74},{"user_id":359,"name":"Ϫ.averted","steam_id":76561198067784310,"connected_time":2408000000000,"state":"active","ping":37},{"user_id":395,"name":"josh","steam_id":76561198111565081,"connected_time":1112000000000,"state":"active","ping":129},{"user_id":403,"name":"cooltool21","steam_id":76561197996817585,"connected_time":230000000000,"state":"active","ping":60},{"user_id":376,"name":"Cuck_it","steam_id":76561198287432299,"connected_time":1947000000000,"state":"active","ping":104},{"user_id":386,"name":"Warkeidan","steam_id":76561198118805546,"connected_time":1786000000000,"state":"active","ping":54},{"user_id":378,"name":"Cookieboyslim","steam_id":76561198034342910,"connected_time":1920000000000,"state":"active","ping":101},{"user_id":379,"name":"wheresgeorge","steam_id":76561198986281248,"connected_time":1911000000000,"state":"active","ping":69},{"user_id":397,"name":"egg boy","steam_id":76561198831948079,"connected_time":773000000000,"state":"active","ping":140},{"user_id":383,"name":"Legal Name Change","steam_id":76561198045309016,"connected_time":1866000000000,"state":"active","ping":87}]},{"server_id":15,"name":"Uncletopia | New York City | 3 | Stopwatch Beta","name_short":"nyc-3","host":"nyc-1.us.uncletopia.com","port":27035,"enabled":true,"region":"us-east","cc":"us","latitude":40.73061,"longitude":-73.93524,"reserved":0,"last_update":"0001-01-01T00:00:00Z","name_a2s":"Uncletopia | New York City | 3 | Stopwatch Beta","protocol":17,"map":"workshop/pl_vigil_rc9.ugc1266210012","folder":"tf","game":"Team Fortress","app_id":440,"player_count":0,"max_players":24,"Bots":0,"server_type":"Dedicated","server_os":"Linux","password":true,"vac":true,"version":"7757534","steam_id":85568392924742820,"keywords":["nocrits","nodmgspread","payload","uncletopia"],"game_id":440,"stv_port":27036,"stv_name":"Uncletopia | New York City | 3 | Stopwatch Beta | STV","players":null},{"server_id":16,"name":"Uncletopia | New York City | 4 | Community","name_short":"nyc-4","host":"nyc-1.us.uncletopia.com","port":27045,"enabled":true,"region":"us-east","cc":"us","latitude":40.73061,"longitude":-73.93524,"reserved":0,"last_update":"0001-01-01T00:00:00Z","name_a2s":"Uncletopia | New York City | 4 | Community","protocol":17,"map":"workshop/cp_logjam_rc12.ugc454812035","folder":"tf","game":"Team Fortress","app_id":440,"player_count":24,"max_players":24,"Bots":0,"server_type":"Dedicated","server_os":"Linux","password":true,"vac":true,"version":"7757534","steam_id":85568392924742821,"keywords":["cp","nocrits","nodmgspread","uncletopia"],"game_id":440,"stv_port":27046,"stv_name":"Uncletopia | New York City | 4 | Community | STV","players":[{"user_id":196,"name":"Barrelz","steam_id":76561198373626516,"connected_time":598000000000,"state":"active","ping":58},{"user_id":206,"name":"LazyKoala99","steam_id":76561199183623672,"connected_time":331000000000,"state":"active","ping":57},{"user_id":212,"name":"yeyoi","steam_id":76561198069821885,"connected_time":158000000000,"state":"active","ping":68},{"user_id":182,"name":"flappyflap2","steam_id":76561198285048973,"connected_time":1713000000000,"state":"active","ping":38},{"user_id":185,"name":"MrrPickle","steam_id":76561198122046514,"connected_time":1594000000000,"state":"active","ping":59},{"user_id":53,"name":"Number One Basil Fan","steam_id":76561198066227208,"connected_time":10185000000000,"state":"active","ping":46},{"user_id":198,"name":"boat","steam_id":76561198157124609,"connected_time":561000000000,"state":"active","ping":55},{"user_id":207,"name":"DiScoots","steam_id":76561198337216979,"connected_time":286000000000,"state":"active","ping":67},{"user_id":209,"name":"The_Bot1123","steam_id":76561199013545007,"connected_time":243000000000,"state":"active","ping":70},{"user_id":201,"name":"xX_M1LFHUNT3R_Xx","steam_id":76561198151121274,"connected_time":515000000000,"state":"active","ping":69},{"user_id":220,"name":"dookie poopy fart gun","steam_id":76561199029189825,"connected_time":17000000000,"state":"spawning","ping":71},{"user_id":195,"name":"Gram Tokers Count Doinkula","steam_id":76561198112811565,"connected_time":705000000000,"state":"active","ping":62},{"user_id":160,"name":"hooley","steam_id":76561198041923067,"connected_time":3667000000000,"state":"active","ping":57},{"user_id":214,"name":"Final_MarioXD","steam_id":76561199184862419,"connected_time":69000000000,"state":"active","ping":115},{"user_id":152,"name":"Havok","steam_id":76561198063455003,"connected_time":3898000000000,"state":"active","ping":54},{"user_id":203,"name":"Muejiza","steam_id":76561199467836831,"connected_time":461000000000,"state":"active","ping":48},{"user_id":189,"name":"Feldspar","steam_id":76561198027437590,"connected_time":1390000000000,"state":"active","ping":62},{"user_id":170,"name":"Zamboni","steam_id":76561199084964927,"connected_time":2796000000000,"state":"active","ping":74},{"user_id":178,"name":"[TF2Apples] Intense Green Apple","steam_id":76561198803561622,"connected_time":2216000000000,"state":"active","ping":81},{"user_id":183,"name":"Jaramr","steam_id":76561197984387067,"connected_time":1671000000000,"state":"active","ping":83},{"user_id":193,"name":"guyinatophat51","steam_id":76561198180230694,"connected_time":1062000000000,"state":"active","ping":55},{"user_id":218,"name":"Wilhelmktx","steam_id":76561198158102295,"connected_time":43000000000,"state":"active","ping":69},{"user_id":216,"name":"AverageGloop","steam_id":76561198243395378,"connected_time":62000000000,"state":"active","ping":43},{"user_id":217,"name":"MontellWilliams","steam_id":76561198172143015,"connected_time":58000000000,"state":"active","ping":54}]},{"server_id":142,"name":"Uncletopia | São Paulo | 1 | All Maps","name_short":"sao-1","host":"sao-1.br.uncletopia.com","port":27015,"enabled":true,"region":"sa","cc":"br","latitude":-23.533773,"longitude":-46.62529,"reserved":0,"last_update":"0001-01-01T00:00:00Z","name_a2s":"Uncletopia | São Paulo | 1 | All Maps","protocol":17,"map":"koth_cascade","folder":"tf","game":"Team Fortress","app_id":440,"player_count":0,"max_players":24,"Bots":0,"server_type":"Dedicated","server_os":"Linux","password":true,"vac":true,"version":"7757534","steam_id":85568392924469996,"keywords":["cp","nocrits","nodmgspread","uncletopia"],"game_id":440,"stv_port":27016,"stv_name":"Uncletopia | São Paulo | 1 | All Maps | STV","players":null},{"server_id":143,"name":"Uncletopia | São Paulo | 2 | All Maps","name_short":"sao-2","host":"sao-2.br.uncletopia.com","port":27015,"enabled":true,"region":"sa","cc":"br","latitude":-23.533773,"longitude":-46.62529,"reserved":0,"last_update":"0001-01-01T00:00:00Z","name_a2s":"Uncletopia | São Paulo | 2 | All Maps","protocol":17,"map":"koth_cascade","folder":"tf","game":"Team Fortress","app_id":440,"player_count":0,"max_players":24,"Bots":0,"server_type":"Dedicated","server_os":"Linux","password":true,"vac":true,"version":"7757534","steam_id":85568392924485349,"keywords":["cp","nocrits","nodmgspread","uncletopia"],"game_id":440,"stv_port":27016,"stv_name":"Uncletopia | São Paulo | 2 | All Maps | STV","players":null},{"server_id":7,"name":"Uncletopia | Seattle | 1 | All Maps","name_short":"sea-1","host":"sea-1.us.uncletopia.com","port":27015,"enabled":true,"region":"us-west","cc":"us","latitude":47.608013,"longitude":-122.33517,"reserved":0,"last_update":"0001-01-01T00:00:00Z","name_a2s":"Uncletopia | Seattle | 1 | All Maps","protocol":17,"map":"cp_powerhouse","folder":"tf","game":"Team Fortress","app_id":440,"player_count":24,"max_players":24,"Bots":0,"server_type":"Dedicated","server_os":"Linux","password":true,"vac":true,"version":"7757534","steam_id":85568392924469997,"keywords":["cp","nocrits","nodmgspread","uncletopia"],"game_id":440,"stv_port":27016,"stv_name":"Uncletopia | Seattle | 1 | All Maps | STV","players":[{"user_id":383,"name":"Dorte Voloxi","steam_id":76561198118620969,"connected_time":1041000000000,"state":"active","ping":72},{"user_id":363,"name":"AmiableNebula","steam_id":76561198094306627,"connected_time":2740000000000,"state":"active","ping":72},{"user_id":385,"name":"Mignyanne :3","steam_id":76561198048754056,"connected_time":954000000000,"state":"active","ping":60},{"user_id":387,"name":"jungus","steam_id":76561198129862008,"connected_time":790000000000,"state":"active","ping":63},{"user_id":375,"name":"Murgatroyd","steam_id":76561198077350331,"connected_time":1271000000000,"state":"active","ping":83},{"user_id":358,"name":"Terribad","steam_id":76561198120844785,"connected_time":3136000000000,"state":"active","ping":98},{"user_id":389,"name":"Caker1234","steam_id":76561198871989710,"connected_time":58000000000,"state":"active","ping":87},{"user_id":354,"name":"Strikerbolt","steam_id":76561199095622897,"connected_time":3764000000000,"state":"active","ping":85},{"user_id":362,"name":"KingTinkerer","steam_id":76561198226856548,"connected_time":2752000000000,"state":"active","ping":75},{"user_id":374,"name":"Cam(era)","steam_id":76561198285054047,"connected_time":1278000000000,"state":"active","ping":78},{"user_id":376,"name":"Zee❤","steam_id":76561198274550638,"connected_time":1267000000000,"state":"active","ping":118},{"user_id":350,"name":"Qas","steam_id":76561198067564482,"connected_time":4038000000000,"state":"active","ping":80},{"user_id":347,"name":"Haydob13","steam_id":76561198110378191,"connected_time":4053000000000,"state":"active","ping":58},{"user_id":377,"name":"rat gets the cheese","steam_id":76561198031234032,"connected_time":1266000000000,"state":"active","ping":101},{"user_id":388,"name":"Bendidy","steam_id":76561198041964300,"connected_time":584000000000,"state":"active","ping":78},{"user_id":364,"name":"Kal3b","steam_id":76561198236708484,"connected_time":2136000000000,"state":"active","ping":60},{"user_id":390,"name":"A Gmod Virgin","steam_id":76561198420637458,"connected_time":22000000000,"state":"active","ping":94},{"user_id":324,"name":"Viritidom","steam_id":76561198169197221,"connected_time":5904000000000,"state":"active","ping":76},{"user_id":380,"name":"♥ bug eater ♥","steam_id":76561198291044316,"connected_time":1180000000000,"state":"active","ping":98},{"user_id":386,"name":"AmyPercent","steam_id":76561198071896932,"connected_time":954000000000,"state":"active","ping":79},{"user_id":361,"name":"〣dust〣 -she/her-","steam_id":76561198045218909,"connected_time":2862000000000,"state":"active","ping":44},{"user_id":382,"name":"OG Sticky","steam_id":76561199124000122,"connected_time":1140000000000,"state":"active","ping":141},{"user_id":329,"name":"Euphoria","steam_id":76561198187168787,"connected_time":5807000000000,"state":"connecting","ping":69},{"user_id":349,"name":"discord kitten","steam_id":76561198210322871,"connected_time":4049000000000,"state":"active","ping":66}]},{"server_id":119,"name":"Uncletopia | Seattle | 2 | All Maps","name_short":"sea-2","host":"sea-1.us.uncletopia.com","port":27025,"enabled":true,"region":"us-west","cc":"us","latitude":47.608013,"longitude":-122.33517,"reserved":0,"last_update":"0001-01-01T00:00:00Z","name_a2s":"Uncletopia | Seattle | 2 | All Maps","protocol":17,"map":"pl_pier","folder":"tf","game":"Team Fortress","app_id":440,"player_count":24,"max_players":24,"Bots":0,"server_type":"Dedicated","server_os":"Linux","password":true,"vac":true,"version":"7757534","steam_id":85568392924469998,"keywords":["nocrits","nodmgspread","payload","uncletopia"],"game_id":440,"stv_port":27026,"stv_name":"Uncletopia | Seattle | 2 | All Maps | STV","players":[{"user_id":355,"name":"YuuriDaThrilla","steam_id":76561198184814466,"connected_time":873000000000,"state":"active","ping":39},{"user_id":351,"name":"Allyyycatt","steam_id":76561198384425691,"connected_time":957000000000,"state":"active","ping":97},{"user_id":319,"name":"The King of Piss World","steam_id":76561198082806956,"connected_time":4161000000000,"state":"active","ping":128},{"user_id":360,"name":"Prophet, of the Deep","steam_id":76561198185986917,"connected_time":425000000000,"state":"active","ping":112},{"user_id":364,"name":"Hurtgeta","steam_id":76561198208381812,"connected_time":165000000000,"state":"active","ping":49},{"user_id":297,"name":"Mengle","steam_id":76561198001953684,"connected_time":6059000000000,"state":"active","ping":115},{"user_id":358,"name":"Wallace","steam_id":76561198369517354,"connected_time":780000000000,"state":"active","ping":68},{"user_id":359,"name":"GotYourGoat","steam_id":76561197995171850,"connected_time":722000000000,"state":"active","ping":52},{"user_id":349,"name":"arrayzk","steam_id":76561198280409646,"connected_time":998000000000,"state":"active","ping":74},{"user_id":290,"name":"Edboi","steam_id":76561198117849098,"connected_time":6783000000000,"state":"active","ping":99},{"user_id":363,"name":"Batso","steam_id":76561198106589452,"connected_time":213000000000,"state":"active","ping":83},{"user_id":361,"name":"T     H     E    PinheadLary","steam_id":76561199091466927,"connected_time":314000000000,"state":"active","ping":100},{"user_id":313,"name":"Donkitus","steam_id":76561198101336551,"connected_time":5102000000000,"state":"active","ping":44},{"user_id":353,"name":"Thicc Boi","steam_id":76561199163799116,"connected_time":929000000000,"state":"active","ping":105},{"user_id":179,"name":"The Population of Sweden","steam_id":76561198202201644,"connected_time":14275000000000,"state":"active","ping":44},{"user_id":354,"name":"t.tv/FamilyGuyFunnyMoments277","steam_id":76561198416047580,"connected_time":908000000000,"state":"active","ping":144},{"user_id":365,"name":"es","steam_id":76561198006892337,"connected_time":111000000000,"state":"active","ping":84},{"user_id":366,"name":"Megumin Tech Tips","steam_id":76561198375650360,"connected_time":82000000000,"state":"active","ping":91},{"user_id":324,"name":"Eris","steam_id":76561199471434875,"connected_time":2515000000000,"state":"active","ping":43},{"user_id":345,"name":"Greskrendtregk","steam_id":76561197969553142,"connected_time":1124000000000,"state":"active","ping":52},{"user_id":356,"name":"Lowkey Lopes","steam_id":76561198003181343,"connected_time":865000000000,"state":"active","ping":118},{"user_id":357,"name":"quick coffee + a snack","steam_id":76561198159933043,"connected_time":854000000000,"state":"active","ping":92},{"user_id":320,"name":"Themasterman75","steam_id":76561199385573293,"connected_time":3952000000000,"state":"active","ping":71},{"user_id":346,"name":"eraser cat","steam_id":76561199045570463,"connected_time":1112000000000,"state":"active","ping":57}]},{"server_id":406,"name":"Uncletopia | Seattle | 3 | Stopwatch Beta","name_short":"sea-3","host":"sea-1.us.uncletopia.com","port":27035,"enabled":true,"region":"us-west","cc":"us","latitude":47.608013,"longitude":-122.33517,"reserved":0,"last_update":"0001-01-01T00:00:00Z","name_a2s":"Uncletopia | Seattle | 3 | Stopwatch Beta","protocol":17,"map":"koth_highpass","folder":"tf","game":"Team Fortress","app_id":440,"player_count":24,"max_players":24,"Bots":0,"server_type":"Dedicated","server_os":"Linux","password":true,"vac":true,"version":"7757534","steam_id":85568392924515217,"keywords":["cp","nocrits","nodmgspread","uncletopia"],"game_id":440,"stv_port":27036,"stv_name":"Uncletopia | Seattle | 3 | Stopwatch Beta | STV","players":[{"user_id":179,"name":"EliminateSingleFamilyZoning","steam_id":76561198276653985,"connected_time":87000000000,"state":"active","ping":116},{"user_id":172,"name":"Malmart_Employee","steam_id":76561198320388704,"connected_time":429000000000,"state":"active","ping":59},{"user_id":139,"name":"ole_diggy","steam_id":76561198970212746,"connected_time":2225000000000,"state":"active","ping":133},{"user_id":173,"name":"uzr","steam_id":76561198799343084,"connected_time":388000000000,"state":"active","ping":80},{"user_id":163,"name":"BWJC","steam_id":76561198033656626,"connected_time":1236000000000,"state":"active","ping":76},{"user_id":96,"name":"Gift_Card","steam_id":76561197995405617,"connected_time":4485000000000,"state":"active","ping":99},{"user_id":151,"name":"A Fruit","steam_id":76561198951830050,"connected_time":1568000000000,"state":"active","ping":91},{"user_id":155,"name":"Maid 'n' China","steam_id":76561198423392976,"connected_time":1388000000000,"state":"active","ping":70},{"user_id":177,"name":"leroy","steam_id":76561199013064727,"connected_time":170000000000,"state":"active","ping":59},{"user_id":180,"name":"Room","steam_id":76561199174579733,"connected_time":74000000000,"state":"active","ping":123},{"user_id":145,"name":"Gordon Ramsay.","steam_id":76561199167165627,"connected_time":1983000000000,"state":"active","ping":51},{"user_id":167,"name":"AJAXX","steam_id":76561198001296113,"connected_time":885000000000,"state":"active","ping":81},{"user_id":175,"name":"Burrowdizzy","steam_id":76561198057599050,"connected_time":311000000000,"state":"active","ping":83},{"user_id":170,"name":"McSpazatron","steam_id":76561198955942148,"connected_time":754000000000,"state":"active","ping":85},{"user_id":111,"name":"Shmebulock","steam_id":76561198046941925,"connected_time":3731000000000,"state":"active","ping":109},{"user_id":156,"name":"BestTux","steam_id":76561198048965587,"connected_time":1361000000000,"state":"active","ping":125},{"user_id":157,"name":"Loaf","steam_id":76561199220083136,"connected_time":1307000000000,"state":"active","ping":88},{"user_id":152,"name":"bluffish","steam_id":76561199164580672,"connected_time":1565000000000,"state":"active","ping":99},{"user_id":169,"name":"Super Mega Buster #savetf2","steam_id":76561198160316069,"connected_time":826000000000,"state":"active","ping":50},{"user_id":140,"name":"primordialheath","steam_id":76561199386942638,"connected_time":2218000000000,"state":"active","ping":118},{"user_id":181,"name":"mush","steam_id":76561198310089797,"connected_time":27000000000,"state":"active","ping":123},{"user_id":178,"name":"sagekiss","steam_id":76561198038831240,"connected_time":137000000000,"state":"active","ping":57},{"user_id":135,"name":"AvW4","steam_id":76561199230784126,"connected_time":2580000000000,"state":"active","ping":133},{"user_id":166,"name":"Sacrificial Wormy","steam_id":76561198054539200,"connected_time":1017000000000,"state":"active","ping":57}]},{"server_id":17,"name":"Uncletopia | San Francisco | 1 | All Maps","name_short":"sfo-1","host":"sfo-1.us.uncletopia.com","port":27015,"enabled":true,"region":"us-west","cc":"us","latitude":37.77397,"longitude":-122.4313,"reserved":0,"last_update":"0001-01-01T00:00:00Z","name_a2s":"Uncletopia | San Francisco | 1 | All Maps","protocol":17,"map":"plr_pipeline","folder":"tf","game":"Team Fortress","app_id":440,"player_count":24,"max_players":24,"Bots":0,"server_type":"Dedicated","server_os":"Linux","password":true,"vac":true,"version":"7757534","steam_id":85568392924469999,"keywords":["nocrits","nodmgspread","payload","uncletopia"],"game_id":440,"stv_port":27016,"stv_name":"Uncletopia | San Francisco | 1 | All Maps | STV","players":[{"user_id":695,"name":"Bastion","steam_id":76561199133903803,"connected_time":852000000000,"state":"active","ping":115},{"user_id":690,"name":"Kopenich","steam_id":76561198066205245,"connected_time":1485000000000,"state":"active","ping":57},{"user_id":696,"name":"Fred","steam_id":76561197983870604,"connected_time":833000000000,"state":"active","ping":60},{"user_id":701,"name":"westward","steam_id":76561198805512350,"connected_time":711000000000,"state":"active","ping":80},{"user_id":556,"name":"Soap Man","steam_id":76561198000490235,"connected_time":9795000000000,"state":"active","ping":90},{"user_id":679,"name":"bruxing hater","steam_id":76561198069190432,"connected_time":2336000000000,"state":"active","ping":119},{"user_id":681,"name":"Nuggies","steam_id":76561198272432592,"connected_time":2218000000000,"state":"active","ping":56},{"user_id":697,"name":"hoOmIN","steam_id":76561198334947079,"connected_time":830000000000,"state":"active","ping":56},{"user_id":677,"name":"bruxing and boggling","steam_id":76561198204169516,"connected_time":2417000000000,"state":"active","ping":73},{"user_id":662,"name":"\\m/ Cyfun (she/it)","steam_id":76561197960882221,"connected_time":3059000000000,"state":"active","ping":110},{"user_id":703,"name":"Goawhey","steam_id":76561198159714066,"connected_time":641000000000,"state":"active","ping":73},{"user_id":698,"name":"dandy","steam_id":76561197967362217,"connected_time":828000000000,"state":"active","ping":58},{"user_id":699,"name":"tN|SpiritofLight","steam_id":76561197967936643,"connected_time":818000000000,"state":"active","ping":53},{"user_id":643,"name":"DaBeatGoOff?","steam_id":76561198106507400,"connected_time":3723000000000,"state":"active","ping":55},{"user_id":700,"name":"Markz","steam_id":76561197996278159,"connected_time":786000000000,"state":"active","ping":69},{"user_id":702,"name":"Delta","steam_id":76561198021957971,"connected_time":691000000000,"state":"active","ping":46},{"user_id":707,"name":"intek","steam_id":76561198052705291,"connected_time":6000000000,"state":"spawning","ping":97},{"user_id":687,"name":"O bez","steam_id":76561198841579939,"connected_time":1996000000000,"state":"active","ping":71},{"user_id":686,"name":"Cob","steam_id":76561198042518365,"connected_time":2122000000000,"state":"active","ping":50},{"user_id":693,"name":"cameron","steam_id":76561199066436068,"connected_time":1260000000000,"state":"active","ping":80},{"user_id":616,"name":"THE NUT","steam_id":76561198067813626,"connected_time":5086000000000,"state":"active","ping":66},{"user_id":602,"name":"netro","steam_id":76561198131458027,"connected_time":6260000000000,"state":"active","ping":134},{"user_id":676,"name":"Gamebun 🐇","steam_id":76561197998855425,"connected_time":2454000000000,"state":"active","ping":81},{"user_id":705,"name":"SvicidalBug","steam_id":76561198221390504,"connected_time":602000000000,"state":"active","ping":86}]},{"server_id":18,"name":"Uncletopia | San Francisco | 2 | All Maps","name_short":"sfo-2","host":"sfo-1.us.uncletopia.com","port":27025,"enabled":true,"region":"us-west","cc":"us","latitude":37.77397,"longitude":-122.4313,"reserved":0,"last_update":"0001-01-01T00:00:00Z","name_a2s":"Uncletopia | San Francisco | 2 | All Maps","protocol":17,"map":"pl_badwater","folder":"tf","game":"Team Fortress","app_id":440,"player_count":24,"max_players":24,"Bots":0,"server_type":"Dedicated","server_os":"Linux","password":true,"vac":true,"version":"7757534","steam_id":85568392924470000,"keywords":["nocrits","nodmgspread","payload","uncletopia"],"game_id":440,"stv_port":27026,"stv_name":"Uncletopia | San Francisco | 2 | All Maps | STV","players":[{"user_id":89,"name":"Bullwinkle J. Moose","steam_id":76561198075977196,"connected_time":6534000000000,"state":"active","ping":89},{"user_id":173,"name":"BruhMaster12","steam_id":76561199121946793,"connected_time":2840000000000,"state":"active","ping":134},{"user_id":144,"name":"Len","steam_id":76561199141913673,"connected_time":5354000000000,"state":"active","ping":43},{"user_id":149,"name":"Mr. human","steam_id":76561199405891554,"connected_time":4371000000000,"state":"active","ping":131},{"user_id":195,"name":"Dosario","steam_id":76561198298095535,"connected_time":2194000000000,"state":"active","ping":77},{"user_id":179,"name":"Mint Widget","steam_id":76561198036875245,"connected_time":2620000000000,"state":"active","ping":84},{"user_id":238,"name":"TheFakeApple","steam_id":76561199090113472,"connected_time":1376000000000,"state":"active","ping":71},{"user_id":151,"name":"Frongus","steam_id":76561197979056451,"connected_time":4321000000000,"state":"active","ping":62},{"user_id":76,"name":"liensofsanfrancisco","steam_id":76561198068672882,"connected_time":7390000000000,"state":"active","ping":51},{"user_id":196,"name":"The Caretaker","steam_id":76561198125241411,"connected_time":2147000000000,"state":"active","ping":93},{"user_id":210,"name":"Mr.Pan","steam_id":76561198069030613,"connected_time":1886000000000,"state":"active","ping":83},{"user_id":234,"name":"Greenland","steam_id":76561198860933958,"connected_time":1498000000000,"state":"active","ping":65},{"user_id":231,"name":"Wind Fucker","steam_id":76561198275362375,"connected_time":1670000000000,"state":"active","ping":53},{"user_id":243,"name":"daud","steam_id":76561198172714142,"connected_time":1056000000000,"state":"active","ping":74},{"user_id":155,"name":"Ogre Commander","steam_id":76561198124066405,"connected_time":4230000000000,"state":"active","ping":56},{"user_id":240,"name":"zinnk","steam_id":76561198092081825,"connected_time":1270000000000,"state":"active","ping":39},{"user_id":233,"name":"\u003c3Elise\u003c3","steam_id":76561198146435005,"connected_time":1576000000000,"state":"active","ping":90},{"user_id":241,"name":"Xx_Half-Life2fan420_xX","steam_id":76561199231634222,"connected_time":1258000000000,"state":"active","ping":105},{"user_id":245,"name":"$3.99 Shrimps","steam_id":76561198077272494,"connected_time":509000000000,"state":"active","ping":102},{"user_id":246,"name":"Jezzus","steam_id":76561199289676387,"connected_time":458000000000,"state":"active","ping":108},{"user_id":244,"name":"nav","steam_id":76561198872608266,"connected_time":825000000000,"state":"active","ping":144},{"user_id":237,"name":"LARGE LAD","steam_id":76561198044561918,"connected_time":1435000000000,"state":"active","ping":75},{"user_id":163,"name":"Frenchfry_Addict","steam_id":76561199156867989,"connected_time":4053000000000,"state":"active","ping":79},{"user_id":145,"name":"ApertureCity","steam_id":76561198004153607,"connected_time":5278000000000,"state":"active","ping":127}]},{"server_id":19,"name":"Uncletopia | San Francisco | 3 | Stopwatch Beta","name_short":"sfo-3","host":"sfo-1.us.uncletopia.com","port":27035,"enabled":true,"region":"us-west","cc":"us","latitude":37.77397,"longitude":-122.4313,"reserved":0,"last_update":"0001-01-01T00:00:00Z","name_a2s":"Uncletopia | San Francisco | 3 | Stopwatch Beta","protocol":17,"map":"pl_borneo","folder":"tf","game":"Team Fortress","app_id":440,"player_count":0,"max_players":24,"Bots":0,"server_type":"Dedicated","server_os":"Linux","password":true,"vac":true,"version":"7757534","steam_id":85568392924742824,"keywords":["nocrits","nodmgspread","payload","uncletopia"],"game_id":440,"stv_port":27036,"stv_name":"Uncletopia | San Francisco | 3 | Stopwatch Beta | STV","players":null},{"server_id":20,"name":"Uncletopia | San Francisco | 4 | Community","name_short":"sfo-4","host":"sfo-1.us.uncletopia.com","port":27045,"enabled":true,"region":"us-west","cc":"us","latitude":37.77397,"longitude":-122.4313,"reserved":0,"last_update":"0001-01-01T00:00:00Z","name_a2s":"Uncletopia | San Francisco | 4 | Community","protocol":17,"map":"koth_highpass","folder":"tf","game":"Team Fortress","app_id":440,"player_count":0,"max_players":24,"Bots":0,"server_type":"Dedicated","server_os":"Linux","password":true,"vac":true,"version":"7757534","steam_id":85568392924742826,"keywords":["cp","nocrits","nodmgspread","uncletopia"],"game_id":440,"stv_port":27046,"stv_name":"Uncletopia | San Francisco | 4 | Community | STV","players":null},{"server_id":141,"name":"Uncletopia | Sydney | 1 | All Maps","name_short":"syd-1","host":"syd-1.au.uncletopia.com","port":27015,"enabled":true,"region":"au","cc":"au","latitude":-33.865143,"longitude":151.2099,"reserved":0,"last_update":"0001-01-01T00:00:00Z","name_a2s":"Uncletopia | Sydney | 1 | All Maps","protocol":17,"map":"pl_barnblitz","folder":"tf","game":"Team Fortress","app_id":440,"player_count":0,"max_players":24,"Bots":0,"server_type":"Dedicated","server_os":"Linux","password":true,"vac":true,"version":"7757534","steam_id":85568392924470001,"keywords":["nocrits","nodmgspread","payload","uncletopia"],"game_id":440,"stv_port":27016,"stv_name":"Uncletopia | Sydney | 1 | All Maps | STV","players":null},{"server_id":123,"name":"Uncletopia | Sydney | 2 | All Maps","name_short":"syd-2","host":"syd-1.au.uncletopia.com","port":27025,"enabled":true,"region":"au","cc":"au","latitude":-33.865143,"longitude":151.2099,"reserved":0,"last_update":"0001-01-01T00:00:00Z","name_a2s":"Uncletopia | Sydney | 2 | All Maps","protocol":17,"map":"koth_viaduct","folder":"tf","game":"Team Fortress","app_id":440,"player_count":0,"max_players":24,"Bots":0,"server_type":"Dedicated","server_os":"Linux","password":true,"vac":true,"version":"7757534","steam_id":85568392924470002,"keywords":["cp","nocrits","nodmgspread","uncletopia"],"game_id":440,"stv_port":27026,"stv_name":"Uncletopia | Sydney | 2 | All Maps | STV","players":null},{"server_id":395,"name":"Uncletopia | Sydney | 3 | All Maps","name_short":"syd-3","host":"syd-1.au.uncletopia.com","port":27035,"enabled":true,"region":"au","cc":"au","latitude":-33.865143,"longitude":151.2099,"reserved":0,"last_update":"0001-01-01T00:00:00Z","name_a2s":"Uncletopia | Sydney | 3 | All Maps","protocol":17,"map":"cp_process_final","folder":"tf","game":"Team Fortress","app_id":440,"player_count":1,"max_players":24,"Bots":0,"server_type":"Dedicated","server_os":"Linux","password":true,"vac":true,"version":"7757534","steam_id":85568392925194467,"keywords":["cp","nocrits","nodmgspread","uncletopia"],"game_id":440,"stv_port":27036,"stv_name":"Uncletopia | Sydney | 3 | All Maps | STV","players":[{"user_id":7,"name":"Meihronias","steam_id":76561199163845108,"connected_time":176000000000,"state":"active","ping":66}]},{"server_id":396,"name":"Uncletopia | Sydney | 4 | All Maps","name_short":"syd-4","host":"syd-1.au.uncletopia.com","port":27045,"enabled":true,"region":"au","cc":"au","latitude":-33.865143,"longitude":151.2099,"reserved":0,"last_update":"0001-01-01T00:00:00Z","name_a2s":"Uncletopia | Sydney | 4 | All Maps","protocol":17,"map":"pl_frontier_final","folder":"tf","game":"Team Fortress","app_id":440,"player_count":23,"max_players":24,"Bots":0,"server_type":"Dedicated","server_os":"Linux","password":true,"vac":true,"version":"7757534","steam_id":85568392925397958,"keywords":["nocrits","nodmgspread","payload","uncletopia"],"game_id":440,"stv_port":27046,"stv_name":"Uncletopia | Sydney | 4 | All Maps | STV","players":[{"user_id":161,"name":"nurf","steam_id":76561198019391327,"connected_time":220000000000,"state":"active","ping":75},{"user_id":135,"name":"Janbric OwO","steam_id":76561199161207802,"connected_time":1751000000000,"state":"active","ping":94},{"user_id":25,"name":"Jimsehy","steam_id":76561198061059871,"connected_time":9936000000000,"state":"active","ping":71},{"user_id":138,"name":"mantreads","steam_id":76561199055347769,"connected_time":1664000000000,"state":"active","ping":36},{"user_id":100,"name":"East","steam_id":76561197998179587,"connected_time":3381000000000,"state":"active","ping":100},{"user_id":101,"name":"Radio","steam_id":76561199436707447,"connected_time":3379000000000,"state":"active","ping":54},{"user_id":99,"name":"nea","steam_id":76561198044980908,"connected_time":3521000000000,"state":"active","ping":65},{"user_id":145,"name":"DragRiper","steam_id":76561198050917553,"connected_time":1323000000000,"state":"active","ping":57},{"user_id":124,"name":"ViktorPradley","steam_id":76561198057618081,"connected_time":2324000000000,"state":"active","ping":70},{"user_id":140,"name":"AfroMeerkat","steam_id":76561197995499647,"connected_time":1488000000000,"state":"active","ping":55},{"user_id":120,"name":"huey","steam_id":76561199069777966,"connected_time":2466000000000,"state":"active","ping":68},{"user_id":44,"name":"Clown 1","steam_id":76561198095752015,"connected_time":6887000000000,"state":"active","ping":84},{"user_id":106,"name":"What appears to be a UFO","steam_id":76561197989274958,"connected_time":3156000000000,"state":"active","ping":45},{"user_id":121,"name":"Milk Boi","steam_id":76561198238708000,"connected_time":2449000000000,"state":"active","ping":94},{"user_id":113,"name":"UpsideDown","steam_id":76561199099672129,"connected_time":2937000000000,"state":"active","ping":46},{"user_id":148,"name":"Gasoline","steam_id":76561198879023728,"connected_time":1169000000000,"state":"active","ping":77},{"user_id":157,"name":"Ocean Man","steam_id":76561198418884663,"connected_time":753000000000,"state":"active","ping":75},{"user_id":158,"name":"voxii","steam_id":76561198099698281,"connected_time":577000000000,"state":"active","ping":68},{"user_id":122,"name":"giant skeleton","steam_id":76561198951165749,"connected_time":2442000000000,"state":"active","ping":48},{"user_id":142,"name":"Bigrichard","steam_id":76561198032092945,"connected_time":1450000000000,"state":"active","ping":78},{"user_id":154,"name":"Tumbleweed","steam_id":76561198049369645,"connected_time":847000000000,"state":"active","ping":84},{"user_id":152,"name":"itsjustmarvin77","steam_id":76561199375656301,"connected_time":909000000000,"state":"active","ping":73},{"user_id":159,"name":"cimpact","steam_id":76561198452258917,"connected_time":489000000000,"state":"active","ping":123}]},{"server_id":58,"name":"Uncletopia | Sydney | 5 | Stopwatch Beta","name_short":"syd-5","host":"syd-1.au.uncletopia.com","port":27055,"enabled":true,"region":"au","cc":"au","latitude":-33.865143,"longitude":151.2099,"reserved":0,"last_update":"0001-01-01T00:00:00Z","name_a2s":"Uncletopia | Sydney | 5 | Stopwatch Beta","protocol":17,"map":"koth_lakeside_final","folder":"tf","game":"Team Fortress","app_id":440,"player_count":0,"max_players":24,"Bots":0,"server_type":"Dedicated","server_os":"Linux","password":true,"vac":true,"version":"7757534","steam_id":85568392925397959,"keywords":["cp","nocrits","nodmgspread","uncletopia"],"game_id":440,"stv_port":27056,"stv_name":"Uncletopia | Sydney | 5 | Stopwatch Beta | STV","players":null},{"server_id":59,"name":"Uncletopia | Sydney | 6 | Community","name_short":"syd-6","host":"syd-1.au.uncletopia.com","port":27065,"enabled":true,"region":"au","cc":"au","latitude":-33.865143,"longitude":151.2099,"reserved":0,"last_update":"0001-01-01T00:00:00Z","name_a2s":"Uncletopia | Sydney | 6 | Community","protocol":17,"map":"cp_sunshine","folder":"tf","game":"Team Fortress","app_id":440,"player_count":0,"max_players":24,"Bots":0,"server_type":"Dedicated","server_os":"Linux","password":true,"vac":true,"version":"7757534","steam_id":85568392925397960,"keywords":["cp","nocrits","nodmgspread","uncletopia"],"game_id":440,"stv_port":27066,"stv_name":"Uncletopia | Sydney | 6 | Community | STV","players":null},{"server_id":49,"name":"Uncletopia | Warsaw | 1 | All Maps","name_short":"waw-1","host":"waw-1.pl.uncletopia.com","port":27015,"enabled":true,"region":"eu","cc":"pl","latitude":52.2297,"longitude":21.017532,"reserved":0,"last_update":"0001-01-01T00:00:00Z","name_a2s":"","protocol":0,"map":"","folder":"","game":"","app_id":0,"player_count":0,"max_players":0,"Bots":0,"server_type":"","server_os":"","password":false,"vac":false,"version":"","steam_id":0,"keywords":null,"game_id":0,"stv_port":0,"stv_name":"","players":null},{"server_id":50,"name":"Uncletopia | Warsaw | 2 | All Maps","name_short":"waw-2","host":"waw-1.pl.uncletopia.com","port":27025,"enabled":true,"region":"eu","cc":"pl","latitude":52.2297,"longitude":21.017532,"reserved":0,"last_update":"0001-01-01T00:00:00Z","name_a2s":"Uncletopia | Warsaw | 2 | All Maps","protocol":17,"map":"koth_viaduct","folder":"tf","game":"Team Fortress","app_id":440,"player_count":2,"max_players":24,"Bots":0,"server_type":"Dedicated","server_os":"Linux","password":true,"vac":true,"version":"7757534","steam_id":85568392925397851,"keywords":["cp","nocrits","nodmgspread","uncletopia"],"game_id":440,"stv_port":27026,"stv_name":"Uncletopia | Warsaw | 2 | All Maps | STV","players":[{"user_id":16,"name":"TheFallenFox","steam_id":76561199074190919,"connected_time":1386000000000,"state":"active","ping":78},{"user_id":17,"name":"mikkelschwartz77","steam_id":76561198066137854,"connected_time":1340000000000,"state":"active","ping":88}]},{"server_id":51,"name":"Uncletopia | Warsaw | 3 | All Maps","name_short":"waw-3","host":"waw-1.pl.uncletopia.com","port":27035,"enabled":true,"region":"eu","cc":"pl","latitude":52.2297,"longitude":21.017532,"reserved":0,"last_update":"0001-01-01T00:00:00Z","name_a2s":"Uncletopia | Warsaw | 3 | All Maps","protocol":17,"map":"koth_cascade","folder":"tf","game":"Team Fortress","app_id":440,"player_count":0,"max_players":24,"Bots":0,"server_type":"Dedicated","server_os":"Linux","password":true,"vac":true,"version":"7757534","steam_id":85568392925397852,"keywords":["cp","nocrits","nodmgspread","uncletopia"],"game_id":440,"stv_port":27036,"stv_name":"Uncletopia | Warsaw | 3 | All Maps | STV","players":null},{"server_id":52,"name":"Uncletopia | Warsaw | 4 | All Maps","name_short":"waw-4","host":"waw-1.pl.uncletopia.com","port":27045,"enabled":true,"region":"eu","cc":"pl","latitude":52.2297,"longitude":21.017532,"reserved":0,"last_update":"0001-01-01T00:00:00Z","name_a2s":"Uncletopia | Warsaw | 4 | All Maps","protocol":17,"map":"koth_viaduct","folder":"tf","game":"Team Fortress","app_id":440,"player_count":0,"max_players":24,"Bots":0,"server_type":"Dedicated","server_os":"Linux","password":true,"vac":true,"version":"7757534","steam_id":85568392925397853,"keywords":["cp","nocrits","nodmgspread","uncletopia"],"game_id":440,"stv_port":27046,"stv_name":"Uncletopia | Warsaw | 4 | All Maps | STV","players":null},{"server_id":53,"name":"Uncletopia | Warsaw | 5 | Stopwatch Beta","name_short":"waw-5","host":"waw-1.pl.uncletopia.com","port":27055,"enabled":true,"region":"eu","cc":"pl","latitude":52.2297,"longitude":21.017532,"reserved":0,"last_update":"0001-01-01T00:00:00Z","name_a2s":"Uncletopia | Warsaw | 5 | Stopwatch Beta","protocol":17,"map":"pl_barnblitz","folder":"tf","game":"Team Fortress","app_id":440,"player_count":0,"max_players":24,"Bots":0,"server_type":"Dedicated","server_os":"Linux","password":true,"vac":true,"version":"7757534","steam_id":85568392925397854,"keywords":["nocrits","nodmgspread","payload","uncletopia"],"game_id":440,"stv_port":27056,"stv_name":"Uncletopia | Warsaw | 5 | Stopwatch Beta | STV","players":null},{"server_id":54,"name":"Uncletopia | Warsaw | 6 | Community","name_short":"waw-6","host":"waw-1.pl.uncletopia.com","port":27065,"enabled":true,"region":"eu","cc":"pl","latitude":52.2297,"longitude":21.017532,"reserved":0,"last_update":"0001-01-01T00:00:00Z","name_a2s":"Uncletopia | Warsaw | 6 | Community","protocol":17,"map":"workshop/koth_trenchfoot_b1a.ugc731436616","folder":"tf","game":"Team Fortress","app_id":440,"player_count":0,"max_players":24,"Bots":0,"server_type":"Dedicated","server_os":"Linux","password":true,"vac":true,"version":"7757534","steam_id":85568392925397856,"keywords":["cp","nocrits","nodmgspread","uncletopia"],"game_id":440,"stv_port":27066,"stv_name":"Uncletopia | Warsaw | 6 | Community | STV","players":null}]}