{"status":true,"message":"","result":[{"server_id":9,"name":"Uncletopia | Atlanta | 1 | All Maps","name_short":"atl-1","host":"atl-1.us.uncletopia.com","port":27015,"enabled":true,"region":"us-east","cc":"us","latitude":33.753746,"longitude":-84.38633,"reserved":0,"last_update":"0001-01-01T00:00:00Z","name_a2s":"Uncletopia | Atlanta | 1 | All Maps","protocol":17,"map":"cp_process_final","folder":"tf","game":"Team Fortress","app_id":440,"player_count":24,"max_players":24,"Bots":0,"server_type":"Dedicated","server_os":"Linux","password":true,"vac":true,"version":"7882260","steam_id":85568392924469982,"keywords":["cp","nocrits","nodmgspread","uncletopia"],"game_id":440,"stv_port":27016,"stv_name":"Uncletopia | Atlanta | 1 | All Maps | STV","players":[{"user_id":352,"name":"Korra \u003c3","steam_id":76561198044991497,"connected_time":589000000000,"state":"active","ping":95},{"user_id":349,"name":"god gamer","steam_id":76561198168149434,"connected_time":942000000000,"state":"active","ping":104},{"user_id":361,"name":"Digital Menace","steam_id":76561198131332027,"connected_time":377000000000,"state":"active","ping":65},{"user_id":330,"name":"lynt","steam_id":76561198988333976,"connected_time":1927000000000,"state":"active","ping":44},{"user_id":343,"name":"Likeia #Savetf2","steam_id":76561198005214207,"connected_time":1486000000000,"state":"active","ping":39},{"user_id":356,"name":"basil","steam_id":76561198075758026,"connected_time":492000000000,"state":"active","ping":64},{"user_id":307,"name":"what's your point of view","steam_id":76561198106938500,"connected_time":3424000000000,"state":"active","ping":91},{"user_id":329,"name":"Voids","steam_id":76561198128386726,"connected_time":2009000000000,"state":"active","ping":70},{"user_id":335,"name":"TheTiredMario","steam_id":76561199062425739,"connected_time":1782000000000,"state":"active","ping":54},{"user_id":346,"name":"fi_ji","steam_id":76561198126087725,"connected_time":1110000000000,"state":"active","ping":69},{"user_id":363,"name":"goon19","steam_id":76561199239168878,"connected_time":79000000000,"state":"active","ping":94},{"user_id":341,"name":"Snoball","steam_id":76561198205838372,"connected_time":1603000000000,"state":"active","ping":44},{"user_id":353,"name":"MFSHROOM","steam_id":76561198305836153,"connected_time":565000000000,"state":"active","ping":90},{"user_id":360,"name":"morphine","steam_id":76561198072124799,"connected_time":398000000000,"state":"active","ping":92},{"user_id":328,"name":"Uung","steam_id":76561198183956731,"connected_time":2140000000000,"state":"active","ping":54},{"user_id":350,"name":"It's Shovellin' Time!","steam_id":76561198273239893,"connected_time":810000000000,"state":"active","ping":71},{"user_id":357,"name":"Worst Scenario","steam_id":76561199052130229,"connected_time":489000000000,"state":"active","ping":78},{"user_id":358,"name":"Probably Still a Furry","steam_id":76561198816076211,"connected_time":429000000000,"state":"active","ping":105},{"user_id":351,"name":"Voodo133","steam_id":76561198042670351,"connected_time":723000000000,"state":"active","ping":80},{"user_id":338,"name":"3dspit","steam_id":76561197963326874,"connected_time":1765000000000,"state":"active","ping":134},{"user_id":304,"name":"whittlo","steam_id":76561198056793479,"connected_time":3742000000000,"state":"active","ping":75},{"user_id":359,"name":"footoftheday","steam_id":76561198052712449,"connected_time":406000000000,"state":"active","ping":80},{"user_id":362,"name":"Waffle Wannabe","steam_id":76561198064510650,"connected_time":365000000000,"state":"active","ping":56},{"user_id":348,"name":"$lime k✔ng WHYYYTEb0y^-^","steam_id":76561198283687382,"connected_time":982000000000,"state":"active","ping":100}]},{"server_id":104,"name":"Uncletopia | Atlanta | 2 | All Maps","name_short":"atl-2","host":"atl-1.us.uncletopia.com","port":27025,"enabled":true,"region":"us-east","cc":"us","latitude":33.753746,"longitude":-84.38633,"reserved":0,"last_update":"0001-01-01T00:00:00Z","name_a2s":"Uncletopia | Atlanta | 2 | All Maps","protocol":17,"map":"pl_goldrush","folder":"tf","game":"Team Fortress","app_id":440,"player_count":18,"max_players":24,"Bots":0,"server_type":"Dedicated","server_os":"Linux","password":true,"vac":true,"version":"7882260","steam_id":85568392924469983,"keywords":["nocrits","nodmgspread","payload","uncletopia"],"game_id":440,"stv_port":27026,"stv_name":"Uncletopia | Atlanta | 2 | All Maps | STV","players":[{"user_id":221,"name":"Goldensliv","steam_id":76561198161673891,"connected_time":334000000000,"state":"active","ping":91},{"user_id":227,"name":"Smiles","steam_id":76561198107197973,"connected_time":174000000000,"state":"active","ping":85},{"user_id":219,"name":"UberGoober","steam_id":76561198075061489,"connected_time":464000000000,"state":"active","ping":82},{"user_id":220,"name":"jregueiro08","steam_id":76561199251785909,"connected_time":412000000000,"state":"active","ping":73},{"user_id":209,"name":"Satchamo","steam_id":76561198012968239,"connected_time":976000000000,"state":"active","ping":89},{"user_id":214,"name":"Mecha","steam_id":76561198014927379,"connected_time":747000000000,"state":"active","ping":87},{"user_id":223,"name":"Sprit ♥","steam_id":76561198268780781,"connected_time":292000000000,"state":"active","ping":59},{"user_id":224,"name":"Truly Cryo","steam_id":76561198347497484,"connected_time":252000000000,"state":"active","ping":81},{"user_id":225,"name":"SunnyC","steam_id":76561199221208923,"connected_time":236000000000,"state":"active","ping":70},{"user_id":226,"name":"Noctis","steam_id":76561198845208323,"connected_time":204000000000,"state":"active","ping":77},{"user_id":200,"name":"Doctor Bear ʕ •ᴥ•ʔ","steam_id":76561197968103161,"connected_time":1564000000000,"state":"active","ping":75},{"user_id":215,"name":"jstn","steam_id":76561198845283665,"connected_time":662000000000,"state":"active","ping":47},{"user_id":228,"name":"Chip","steam_id":76561198328948567,"connected_time":123000000000,"state":"active","ping":116},{"user_id":229,"name":"BurningPride","steam_id":76561198080592800,"connected_time":1000000000,"state":"spawning","ping":81},{"user_id":212,"name":"Violet42","steam_id":76561198072927887,"connected_time":767000000000,"state":"active","ping":68},{"user_id":187,"name":"i never liked jazz jerry","steam_id":76561198114011311,"connected_time":2802000000000,"state":"active","ping":54},{"user_id":216,"name":"Jon Snuh","steam_id":76561198075298635,"connected_time":656000000000,"state":"active","ping":75},{"user_id":176,"name":"FRANKY!!!","steam_id":76561199211305343,"connected_time":3563000000000,"state":"active","ping":114}]},{"server_id":400,"name":"Uncletopia | Atlanta | 3 | Community","name_short":"atl-3","host":"atl-1.us.uncletopia.com","port":27035,"enabled":true,"region":"us-east","cc":"us","latitude":33.753746,"longitude":-84.38633,"reserved":0,"last_update":"0001-01-01T00:00:00Z","name_a2s":"Uncletopia | Atlanta | 3 | Community","protocol":17,"map":"workshop/cp_sulfur_rc2.ugc619869471","folder":"tf","game":"Team Fortress","app_id":440,"player_count":0,"max_players":24,"Bots":0,"server_type":"Dedicated","server_os":"Linux","password":true,"vac":true,"version":"7882260","steam_id":85568392924515187,"keywords":["cp","nocrits","nodmgspread","uncletopia"],"game_id":440,"stv_port":27036,"stv_name":"Uncletopia | Atlanta | 3 | Community | STV","players":null},{"server_id":401,"name":"Uncletopia | Atlanta | 4 | No Payload","name_short":"atl-4","host":"atl-1.us.uncletopia.com","port":27045,"enabled":true,"region":"us-east","cc":"us","latitude":33.753746,"longitude":-84.38633,"reserved":0,"last_update":"0001-01-01T00:00:00Z","name_a2s":"","protocol":0,"map":"","folder":"","game":"","app_id":0,"player_count":0,"max_players":0,"Bots":0,"server_type":"","server_os":"","password":false,"vac":false,"version":"","steam_id":0,"keywords":null,"game_id":0,"stv_port":0,"stv_name":"","players":null},{"server_id":2,"name":"Uncletopia | Chicago | 1 | All Maps","name_short":"chi-1","host":"chi-1.us.uncletopia.com","port":27015,"enabled":true,"region":"us-central","cc":"us","latitude":41.881832,"longitude":-87.62318,"reserved":0,"last_update":"0001-01-01T00:00:00Z","name_a2s":"Uncletopia | Chicago | 1 | All Maps","protocol":17,"map":"pl_pier","folder":"tf","game":"Team Fortress","app_id":440,"player_count":24,"max_players":24,"Bots":0,"server_type":"Dedicated","server_os":"Linux","password":true,"vac":true,"version":"7882260","steam_id":85568392924469984,"keywords":["nocrits","nodmgspread","payload","uncletopia"],"game_id":440,"stv_port":27016,"stv_name":"Uncletopia | Chicago | 1 | All Maps | STV","players":[{"user_id":161,"name":"GuyGoom","steam_id":76561198254522178,"connected_time":640000000000,"state":"active","ping":48},{"user_id":168,"name":"sebjzy ♥","steam_id":76561198009959034,"connected_time":293000000000,"state":"active","ping":72},{"user_id":116,"name":"Ben","steam_id":76561198129254533,"connected_time":3179000000000,"state":"active","ping":87},{"user_id":173,"name":"tobrehto","steam_id":76561198097544038,"connected_time":142000000000,"state":"active","ping":92},{"user_id":149,"name":"Idk","steam_id":76561198971629959,"connected_time":1047000000000,"state":"active","ping":135},{"user_id":83,"name":"Sychke","steam_id":76561198067144055,"connected_time":6013000000000,"state":"active","ping":45},{"user_id":136,"name":"goose","steam_id":76561198367551668,"connected_time":1382000000000,"state":"active","ping":51},{"user_id":164,"name":"Prestoneon003","steam_id":76561198348279581,"connected_time":625000000000,"state":"active","ping":51},{"user_id":125,"name":"nhbiker","steam_id":76561198081277675,"connected_time":2595000000000,"state":"active","ping":60},{"user_id":140,"name":"wiiblob","steam_id":76561198109106242,"connected_time":1184000000000,"state":"active","ping":135},{"user_id":174,"name":"Dolphin","steam_id":76561199132214008,"connected_time":21000000000,"state":"active","ping":89},{"user_id":175,"name":"blob","steam_id":76561198122375328,"connected_time":10000000000,"state":"spawning","ping":60},{"user_id":166,"name":"the.land.of.avalon","steam_id":76561198245431668,"connected_time":568000000000,"state":"active","ping":56},{"user_id":158,"name":"SHADY SWEATER SALESMAN","steam_id":76561198014616865,"connected_time":675000000000,"state":"active","ping":82},{"user_id":48,"name":"vv","steam_id":76561198134813102,"connected_time":8803000000000,"state":"active","ping":60},{"user_id":172,"name":"yateyay","steam_id":76561198311004039,"connected_time":185000000000,"state":"active","ping":90},{"user_id":145,"name":"Lo-Pan","steam_id":76561198085670133,"connected_time":1133000000000,"state":"active","ping":84},{"user_id":157,"name":"Astoriae!","steam_id":76561199090168858,"connected_time":690000000000,"state":"active","ping":69},{"user_id":165,"name":"Va1lentine","steam_id":76561198216281649,"connected_time":606000000000,"state":"active","ping":102},{"user_id":167,"name":"hippo mode","steam_id":76561198073455521,"connected_time":422000000000,"state":"active","ping":67},{"user_id":169,"name":"[يهودي] Bill Clinton [אל","steam_id":76561198163291190,"connected_time":289000000000,"state":"active","ping":86},{"user_id":148,"name":"Monsrox","steam_id":76561198253732619,"connected_time":1071000000000,"state":"active","ping":83},{"user_id":151,"name":"Acehay14","steam_id":76561198052373291,"connected_time":985000000000,"state":"active","ping":56},{"user_id":122,"name":"Try Gardening","steam_id":76561198120311340,"connected_time":2643000000000,"state":"active","ping":49}]},{"server_id":106,"name":"Uncletopia | Chicago | 2 | All Maps","name_short":"chi-2","host":"chi-1.us.uncletopia.com","port":27025,"enabled":true,"region":"us-central","cc":"us","latitude":41.881832,"longitude":-87.62318,"reserved":0,"last_update":"0001-01-01T00:00:00Z","name_a2s":"Uncletopia | Chicago | 2 | All Maps","protocol":17,"map":"cp_steel","folder":"tf","game":"Team Fortress","app_id":440,"player_count":24,"max_players":24,"Bots":0,"server_type":"Dedicated","server_os":"Linux","password":true,"vac":true,"version":"7882260","steam_id":85568392924469985,"keywords":["cp","nocrits","nodmgspread","uncletopia"],"game_id":440,"stv_port":27026,"stv_name":"Uncletopia | Chicago | 2 | All Maps | STV","players":[{"user_id":297,"name":"JoeJoeJoeBob","steam_id":76561198067236683,"connected_time":685000000000,"state":"active","ping":105},{"user_id":265,"name":"büddeh","steam_id":76561198070735936,"connected_time":2321000000000,"state":"active","ping":54},{"user_id":307,"name":"bear","steam_id":76561198909415646,"connected_time":34000000000,"state":"active","ping":121},{"user_id":287,"name":"Addy \u003c3","steam_id":76561198045819723,"connected_time":902000000000,"state":"active","ping":81},{"user_id":288,"name":"DaMultiversalist","steam_id":76561198239552412,"connected_time":900000000000,"state":"active","ping":64},{"user_id":189,"name":"Rec","steam_id":76561198022813906,"connected_time":8110000000000,"state":"active","ping":49},{"user_id":258,"name":"BoneHeadTRex","steam_id":76561199438411250,"connected_time":3409000000000,"state":"active","ping":90},{"user_id":300,"name":"Franko","steam_id":76561198045554683,"connected_time":501000000000,"state":"active","ping":86},{"user_id":301,"name":"zonemaster95","steam_id":76561198072572032,"connected_time":474000000000,"state":"active","ping":103},{"user_id":256,"name":"A Puppy","steam_id":76561198828184456,"connected_time":3650000000000,"state":"active","ping":54},{"user_id":289,"name":"VLC Media Player","steam_id":76561198103243847,"connected_time":887000000000,"state":"active","ping":84},{"user_id":305,"name":"No im Dirty Dan","steam_id":76561198153247744,"connected_time":193000000000,"state":"active","ping":47},{"user_id":234,"name":"JSClinton","steam_id":76561198067487389,"connected_time":5156000000000,"state":"active","ping":66},{"user_id":290,"name":"Node⋄","steam_id":76561198219359475,"connected_time":885000000000,"state":"active","ping":70},{"user_id":304,"name":"carrotcake","steam_id":76561198030997761,"connected_time":243000000000,"state":"active","ping":68},{"user_id":291,"name":"LemonZest","steam_id":76561199196369249,"connected_time":873000000000,"state":"active","ping":78},{"user_id":292,"name":"*‧˚kitsu ʚ♥ɞ","steam_id":76561198091741658,"connected_time":863000000000,"state":"active","ping":67},{"user_id":293,"name":"Speeply","steam_id":76561198429538809,"connected_time":859000000000,"state":"active","ping":92},{"user_id":295,"name":"Provocator","steam_id":76561197961830410,"connected_time":817000000000,"state":"active","ping":73},{"user_id":266,"name":"Wigl","steam_id":76561198019324464,"connected_time":2321000000000,"state":"active","ping":68},{"user_id":303,"name":"LightBulbGlue #SaveTF2","steam_id":76561198329573529,"connected_time":284000000000,"state":"active","ping":69},{"user_id":190,"name":"Jak(i)","steam_id":76561198076823144,"connected_time":8109000000000,"state":"active","ping":83},{"user_id":306,"name":"Token","steam_id":76561198067814426,"connected_time":96000000000,"state":"active","ping":73},{"user_id":272,"name":"crashymicsplody","steam_id":76561198213916765,"connected_time":2043000000000,"state":"active","ping":66}]},{"server_id":402,"name":"Uncletopia | Chicago | 3 | All Maps","name_short":"chi-3","host":"chi-1.us.uncletopia.com","port":27035,"enabled":true,"region":"us-central","cc":"us","latitude":41.881832,"longitude":-87.62318,"reserved":0,"last_update":"0001-01-01T00:00:00Z","name_a2s":"Uncletopia | Chicago | 3 | All Maps","protocol":17,"map":"cp_steel","folder":"tf","game":"Team Fortress","app_id":440,"player_count":23,"max_players":24,"Bots":0,"server_type":"Dedicated","server_os":"Linux","password":true,"vac":true,"version":"7882260","steam_id":85568392924515191,"keywords":["cp","nocrits","nodmgspread","uncletopia"],"game_id":440,"stv_port":27036,"stv_name":"Uncletopia | Chicago | 3 | All Maps | STV","players":[{"user_id":92,"name":"Mohammed","steam_id":76561198448718642,"connected_time":4579000000000,"state":"active","ping":59},{"user_id":143,"name":"Battlemedic27","steam_id":76561198121818007,"connected_time":1748000000000,"state":"active","ping":75},{"user_id":157,"name":"Herr Doktor","steam_id":76561198025473302,"connected_time":739000000000,"state":"active","ping":88},{"user_id":164,"name":"swag in ohio","steam_id":76561198031675881,"connected_time":267000000000,"state":"active","ping":39},{"user_id":131,"name":"Scorpie Doodle","steam_id":76561198021845763,"connected_time":2153000000000,"state":"active","ping":52},{"user_id":136,"name":"killername","steam_id":76561199105156791,"connected_time":2019000000000,"state":"active","ping":58},{"user_id":126,"name":"WatchWill","steam_id":76561198157237945,"connected_time":2458000000000,"state":"active","ping":67},{"user_id":130,"name":"tasty","steam_id":76561198083839061,"connected_time":2285000000000,"state":"active","ping":69},{"user_id":153,"name":"Zixzs","steam_id":76561198055504126,"connected_time":1097000000000,"state":"active","ping":63},{"user_id":145,"name":"goopshit","steam_id":76561198126489501,"connected_time":1649000000000,"state":"active","ping":53},{"user_id":156,"name":"nurp","steam_id":76561198071687616,"connected_time":838000000000,"state":"active","ping":62},{"user_id":161,"name":"OsoNervous","steam_id":76561198335305893,"connected_time":610000000000,"state":"active","ping":61},{"user_id":154,"name":"pants","steam_id":76561198097564192,"connected_time":1075000000000,"state":"active","ping":71},{"user_id":158,"name":"410 E Walnut Ave, Dawson, Iowa","steam_id":76561198285931413,"connected_time":730000000000,"state":"active","ping":68},{"user_id":132,"name":"Knox","steam_id":76561198965045525,"connected_time":2148000000000,"state":"active","ping":104},{"user_id":146,"name":"DoubleX2000","steam_id":76561198164134387,"connected_time":1640000000000,"state":"active","ping":108},{"user_id":165,"name":"Sloothman","steam_id":76561198081703122,"connected_time":80000000000,"state":"active","ping":46},{"user_id":141,"name":"jumbi","steam_id":76561198353456379,"connected_time":1838000000000,"state":"active","ping":72},{"user_id":142,"name":"Dean Martin","steam_id":76561198846529984,"connected_time":1824000000000,"state":"active","ping":87},{"user_id":159,"name":"Ziath","steam_id":76561198094009164,"connected_time":687000000000,"state":"active","ping":63},{"user_id":162,"name":"Ex-PFC Wintergreen","steam_id":76561198203851303,"connected_time":311000000000,"state":"active","ping":83},{"user_id":99,"name":"emotional Suport engi :)","steam_id":76561198882404753,"connected_time":4476000000000,"state":"active","ping":74},{"user_id":125,"name":"muddy","steam_id":76561198035015260,"connected_time":2483000000000,"state":"active","ping":77}]},{"server_id":403,"name":"Uncletopia | Chicago | 4 | All Maps","name_short":"chi-4","host":"chi-1.us.uncletopia.com","port":27045,"enabled":true,"region":"us-central","cc":"us","latitude":41.881832,"longitude":-87.62318,"reserved":0,"last_update":"0001-01-01T00:00:00Z","name_a2s":"Uncletopia | Chicago | 4 | All Maps","protocol":17,"map":"koth_cascade","folder":"tf","game":"Team Fortress","app_id":440,"player_count":0,"max_players":24,"Bots":0,"server_type":"Dedicated","server_os":"Linux","password":true,"vac":true,"version":"7882260","steam_id":85568392924515193,"keywords":["cp","nocrits","nodmgspread","uncletopia"],"game_id":440,"stv_port":27046,"stv_name":"Uncletopia | Chicago | 4 | All Maps | STV","players":null},{"server_id":36,"name":"Uncletopia | Chicago | 5 | All Maps","name_short":"chi-5","host":"chi-2.us.uncletopia.com","port":27015,"enabled":true,"region":"us-central","cc":"us","latitude":41.881832,"longitude":-87.62318,"reserved":0,"last_update":"0001-01-01T00:00:00Z","name_a2s":"Uncletopia | Chicago | 5 | All Maps","protocol":17,"map":"pl_upward","folder":"tf","game":"Team Fortress","app_id":440,"player_count":24,"max_players":24,"Bots":0,"server_type":"Dedicated","server_os":"Linux","password":true,"vac":true,"version":"7882260","steam_id":85568392924866362,"keywords":["nocrits","nodmgspread","payload","uncletopia"],"game_id":440,"stv_port":27016,"stv_name":"Uncletopia | Chicago | 5 | All Maps | STV","players":[{"user_id":377,"name":"Lakhesis","steam_id":76561197969796919,"connected_time":3870000000000,"state":"active","ping":58},{"user_id":381,"name":"Rustyorion","steam_id":76561198439186347,"connected_time":3584000000000,"state":"active","ping":100},{"user_id":434,"name":"Yanii","steam_id":76561198109292501,"connected_time":150000000000,"state":"active","ping":151},{"user_id":402,"name":"PeesTi2","steam_id":76561199016865192,"connected_time":2964000000000,"state":"active","ping":95},{"user_id":427,"name":"Hazel","steam_id":76561199019819798,"connected_time":805000000000,"state":"active","ping":89},{"user_id":425,"name":"KendraTheHylian","steam_id":76561198395784051,"connected_time":866000000000,"state":"active","ping":80},{"user_id":383,"name":"5unny PHD IN HATEOLOGY","steam_id":76561198133111058,"connected_time":3501000000000,"state":"active","ping":72},{"user_id":433,"name":"Amy Roxwell","steam_id":76561198303391830,"connected_time":408000000000,"state":"active","ping":128},{"user_id":409,"name":"[DEEP] Fitts1099","steam_id":76561198044986906,"connected_time":2426000000000,"state":"active","ping":47},{"user_id":436,"name":"[DEEP] Roz257","steam_id":76561198842844532,"connected_time":104000000000,"state":"active","ping":77},{"user_id":420,"name":"Keather","steam_id":76561198971091188,"connected_time":1108000000000,"state":"active","ping":160},{"user_id":389,"name":"Tohru","steam_id":76561198175722677,"connected_time":3323000000000,"state":"active","ping":59},{"user_id":419,"name":"Chin","steam_id":76561198247426906,"connected_time":1457000000000,"state":"active","ping":78},{"user_id":432,"name":"TV12Lime","steam_id":76561199036195384,"connected_time":444000000000,"state":"active","ping":75},{"user_id":423,"name":"ttv/blazeulrich2961","steam_id":76561198050038315,"connected_time":1056000000000,"state":"active","ping":56},{"user_id":394,"name":"josh","steam_id":76561198111565081,"connected_time":3252000000000,"state":"active","ping":150},{"user_id":407,"name":"jrdoran","steam_id":76561197984753094,"connected_time":2440000000000,"state":"active","ping":58},{"user_id":408,"name":"[DEEP] Danmar33","steam_id":76561198056453091,"connected_time":2436000000000,"state":"active","ping":82},{"user_id":395,"name":"ObiNotKenobi","steam_id":76561198340018440,"connected_time":3248000000000,"state":"active","ping":189},{"user_id":422,"name":"[PFF] Giacomo","steam_id":76561198058560798,"connected_time":1067000000000,"state":"active","ping":59},{"user_id":411,"name":"Just call me Assteeth","steam_id":76561198049837377,"connected_time":2379000000000,"state":"active","ping":50},{"user_id":396,"name":"Soupman_Official","steam_id":76561198314308732,"connected_time":3238000000000,"state":"active","ping":79},{"user_id":435,"name":"EchoReplayz","steam_id":76561198229366892,"connected_time":130000000000,"state":"active","ping":49},{"user_id":418,"name":"CyberZayne","steam_id":76561198002351356,"connected_time":1767000000000,"state":"active","ping":126}]},{"server_id":37,"name":"Uncletopia | Chicago | 6 | All Maps","name_short":"chi-6","host":"chi-2.us.uncletopia.com","port":27025,"enabled":true,"region":"us-central","cc":"us","latitude":41.881832,"longitude":-87.62318,"reserved":0,"last_update":"0001-01-01T00:00:00Z","name_a2s":"Uncletopia | Chicago | 6 | All Maps","protocol":17,"map":"pl_badwater","folder":"tf","game":"Team Fortress","app_id":440,"player_count":0,"max_players":24,"Bots":0,"server_type":"Dedicated","server_os":"Linux","password":true,"vac":true,"version":"7882260","steam_id":85568392924866363,"keywords":["nocrits","nodmgspread","payload","uncletopia"],"game_id":440,"stv_port":27026,"stv_name":"Uncletopia | Chicago | 6 | All Maps | STV","players":null},{"server_id":38,"name":"Uncletopia | Chicago | 7 | Stopwatch Beta","name_short":"chi-7","host":"chi-2.us.uncletopia.com","port":27035,"enabled":true,"region":"us-central","cc":"us","latitude":41.881832,"longitude":-87.62318,"reserved":0,"last_update":"0001-01-01T00:00:00Z","name_a2s":"Uncletopia | Chicago | 7 | Stopwatch Beta","protocol":17,"map":"pl_borneo","folder":"tf","game":"Team Fortress","app_id":440,"player_count":0,"max_players":24,"Bots":0,"server_type":"Dedicated","server_os":"Linux","password":true,"vac":true,"version":"7882260","steam_id":85568392924866364,"keywords":["nocrits","nodmgspread","payload","uncletopia"],"game_id":440,"stv_port":27036,"stv_name":"Uncletopia | Chicago | 7 | Stopwatch Beta | STV","players":null},{"server_id":39,"name":"Uncletopia | Chicago | 8 | Community","name_short":"chi-8","host":"chi-2.us.uncletopia.com","port":27045,"enabled":true,"region":"us-central","cc":"us","latitude":41.881832,"longitude":-87.62318,"reserved":0,"last_update":"0001-01-01T00:00:00Z","name_a2s":"Uncletopia | Chicago | 8 | Community","protocol":17,"map":"cp_snakewater_final1","folder":"tf","game":"Team Fortress","app_id":440,"player_count":1,"max_players":24,"Bots":0,"server_type":"Dedicated","server_os":"Linux","password":true,"vac":true,"version":"7882260","steam_id":85568392924866365,"keywords":["cp","nocrits","nodmgspread","uncletopia"],"game_id":440,"stv_port":27046,"stv_name":"Uncletopia | Chicago | 8 | Community | STV","players":[{"user_id":654,"name":"0xness","steam_id":76561199186175096,"connected_time":287000000000,"state":"connecting","ping":0}]},{"server_id":8,"name":"Uncletopia | Dallas | 1 | All Maps","name_short":"dal-1","host":"dal-1.us.uncletopia.com","port":27015,"enabled":true,"region":"us-central","cc":"us","latitude":32.779167,"longitude":-96.80889,"reserved":0,"last_update":"0001-01-01T00:00:00Z","name_a2s":"Uncletopia | Dallas | 1 | All Maps","protocol":17,"map":"koth_brazil","folder":"tf","game":"Team Fortress","app_id":440,"player_count":24,"max_players":24,"Bots":0,"server_type":"Dedicated","server_os":"Linux","password":true,"vac":true,"version":"7882260","steam_id":85568392924469986,"keywords":["cp","nocrits","nodmgspread","uncletopia"],"game_id":440,"stv_port":27016,"stv_name":"Uncletopia | Dallas | 1 | All Maps | STV","players":[{"user_id":132,"name":"Milo","steam_id":76561198870491380,"connected_time":373000000000,"state":"active","ping":47},{"user_id":109,"name":"Jesus used Dead Ringer","steam_id":76561198268991349,"connected_time":1547000000000,"state":"active","ping":67},{"user_id":133,"name":"rawrie","steam_id":76561198005371178,"connected_time":346000000000,"state":"active","ping":60},{"user_id":110,"name":"Врубель","steam_id":76561198078990173,"connected_time":1542000000000,"state":"active","ping":75},{"user_id":111,"name":"TrashMann","steam_id":76561198040969743,"connected_time":1465000000000,"state":"active","ping":72},{"user_id":112,"name":"chesapeake","steam_id":76561198407129137,"connected_time":1430000000000,"state":"active","ping":83},{"user_id":140,"name":"G.L.O.R.I.","steam_id":76561198134414380,"connected_time":6000000000,"state":"spawning","ping":185},{"user_id":108,"name":"Jrock","steam_id":76561198045715996,"connected_time":1917000000000,"state":"active","ping":115},{"user_id":62,"name":"ROGUE-PLANET","steam_id":76561198116023052,"connected_time":5090000000000,"state":"active","ping":67},{"user_id":91,"name":"alandus","steam_id":76561198310789626,"connected_time":3495000000000,"state":"active","ping":69},{"user_id":131,"name":"BallisticGamer","steam_id":76561198293567287,"connected_time":437000000000,"state":"active","ping":69},{"user_id":114,"name":"Mixbreed","steam_id":76561198087189722,"connected_time":1405000000000,"state":"active","ping":64},{"user_id":42,"name":"1 cel","steam_id":76561198950243192,"connected_time":6307000000000,"state":"active","ping":81},{"user_id":136,"name":"Kid B8","steam_id":76561198086764710,"connected_time":310000000000,"state":"active","ping":76},{"user_id":116,"name":"chilling","steam_id":76561199350898075,"connected_time":1396000000000,"state":"active","ping":150},{"user_id":123,"name":"gabaghoulio","steam_id":76561198013650292,"connected_time":1236000000000,"state":"active","ping":118},{"user_id":127,"name":"Mrakan","steam_id":76561199239780769,"connected_time":1008000000000,"state":"active","ping":175},{"user_id":120,"name":"You Don't Nomi.","steam_id":76561197969137836,"connected_time":1315000000000,"state":"active","ping":91},{"user_id":134,"name":"Cretronus","steam_id":76561198160854358,"connected_time":339000000000,"state":"active","ping":86},{"user_id":122,"name":"Mario \"Jumpman\" Mario","steam_id":76561198175748806,"connected_time":1293000000000,"state":"active","ping":99},{"user_id":105,"name":"The Spectrum Diabetus®","steam_id":76561198297223309,"connected_time":2408000000000,"state":"active","ping":86},{"user_id":138,"name":"Ice cream sandwich","steam_id":76561198172748357,"connected_time":105000000000,"state":"active","ping":98},{"user_id":128,"name":"SudoNoun","steam_id":76561198127221113,"connected_time":1003000000000,"state":"active","ping":111},{"user_id":139,"name":"WeegeePJ","steam_id":76561199383362382,"connected_time":49000000000,"state":"spawning","ping":89}]},{"server_id":108,"name":"Uncletopia | Dallas | 2 | All Maps","name_short":"dal-2","host":"dal-1.us.uncletopia.com","port":27025,"enabled":true,"region":"us-central","cc":"us","latitude":32.779167,"longitude":-96.80889,"reserved":0,"last_update":"0001-01-01T00:00:00Z","name_a2s":"Uncletopia | Dallas | 2 | All Maps","protocol":17,"map":"cp_sunshine","folder":"tf","game":"Team Fortress","app_id":440,"player_count":24,"max_players":24,"Bots":0,"server_type":"Dedicated","server_os":"Linux","password":true,"vac":true,"version":"7882260","steam_id":85568392924469988,"keywords":["cp","nocrits","nodmgspread","uncletopia"],"game_id":440,"stv_port":27026,"stv_name":"Uncletopia | Dallas | 2 | All Maps | STV","players":[{"user_id":149,"name":"Dave The Sloth","steam_id":76561199135831355,"connected_time":306000000000,"state":"active","ping":154},{"user_id":138,"name":"Royal Birb","steam_id":76561198124184158,"connected_time":1404000000000,"state":"active","ping":76},{"user_id":141,"name":"1up","steam_id":76561198038080028,"connected_time":788000000000,"state":"active","ping":90},{"user_id":140,"name":"tf3aflyingmouse","steam_id":76561198058134934,"connected_time":871000000000,"state":"active","ping":96},{"user_id":148,"name":"Shalom","steam_id":76561198410005222,"connected_time":359000000000,"state":"active","ping":62},{"user_id":109,"name":"Blink","steam_id":76561197986181277,"connected_time":2822000000000,"state":"active","ping":45},{"user_id":139,"name":"Sgt. Pepper","steam_id":76561198063674627,"connected_time":1396000000000,"state":"active","ping":76},{"user_id":151,"name":"CrackedSanity","steam_id":76561198279841251,"connected_time":275000000000,"state":"active","ping":75},{"user_id":119,"name":"Legit_Jaxer","steam_id":76561198172234053,"connected_time":2289000000000,"state":"active","ping":107},{"user_id":104,"name":"Snivy64","steam_id":76561198423445376,"connected_time":3280000000000,"state":"active","ping":68},{"user_id":120,"name":"Gavial the Invincible","steam_id":76561198348354629,"connected_time":2268000000000,"state":"active","ping":65},{"user_id":128,"name":"Miro","steam_id":76561198936412406,"connected_time":1616000000000,"state":"active","ping":83},{"user_id":123,"name":"amazingzeal","steam_id":76561198135955352,"connected_time":2085000000000,"state":"active","ping":92},{"user_id":147,"name":"moah380","steam_id":76561198090644581,"connected_time":403000000000,"state":"active","ping":110},{"user_id":143,"name":"SmokeyGalaxy","steam_id":76561198118780516,"connected_time":617000000000,"state":"active","ping":60},{"user_id":153,"name":"DVD Copy of Men in Black II","steam_id":76561198080067715,"connected_time":186000000000,"state":"active","ping":79},{"user_id":131,"name":"God","steam_id":76561199245320103,"connected_time":1597000000000,"state":"active","ping":103},{"user_id":157,"name":"Genius Meme","steam_id":76561198162911254,"connected_time":62000000000,"state":"active","ping":85},{"user_id":155,"name":"DiamondPower","steam_id":76561198806372286,"connected_time":166000000000,"state":"active","ping":196},{"user_id":156,"name":"iTzEtHaN","steam_id":76561198041323669,"connected_time":159000000000,"state":"active","ping":109},{"user_id":71,"name":"james may","steam_id":76561198043857339,"connected_time":5556000000000,"state":"active","ping":85},{"user_id":137,"name":"cheetaz","steam_id":76561198224614084,"connected_time":1460000000000,"state":"active","ping":63},{"user_id":136,"name":"Atlas (Skylar)","steam_id":76561198041531774,"connected_time":1513000000000,"state":"active","ping":74},{"user_id":145,"name":"Gaiduk","steam_id":76561198112323877,"connected_time":491000000000,"state":"active","ping":112}]},{"server_id":5,"name":"Uncletopia | Frankfurt | 1 | All Maps","name_short":"frk-1","host":"frk-1.de.uncletopia.com","port":27015,"enabled":true,"region":"eu","cc":"de","latitude":50.110924,"longitude":8.682127,"reserved":0,"last_update":"0001-01-01T00:00:00Z","name_a2s":"Uncletopia | Frankfurt | 1 | All Maps","protocol":17,"map":"koth_harvest_final","folder":"tf","game":"Team Fortress","app_id":440,"player_count":24,"max_players":24,"Bots":0,"server_type":"Dedicated","server_os":"Linux","password":true,"vac":true,"version":"7882260","steam_id":85568392924469989,"keywords":["cp","nocrits","nodmgspread","uncletopia"],"game_id":440,"stv_port":27016,"stv_name":"Uncletopia | Frankfurt | 1 | All Maps | STV","players":[{"user_id":434,"name":"Filleman","steam_id":76561198159386946,"connected_time":782000000000,"state":"active","ping":65},{"user_id":430,"name":"T der Ba","steam_id":76561198091189185,"connected_time":941000000000,"state":"active","ping":46},{"user_id":382,"name":"Fish 'n' Chips","steam_id":76561198033476886,"connected_time":4227000000000,"state":"active","ping":45},{"user_id":440,"name":"strideΔ","steam_id":76561199007826093,"connected_time":630000000000,"state":"active","ping":82},{"user_id":443,"name":"Penis Contortionist","steam_id":76561198073663784,"connected_time":530000000000,"state":"active","ping":60},{"user_id":405,"name":"dimitrij_6ix_god","steam_id":76561199023275543,"connected_time":2301000000000,"state":"active","ping":74},{"user_id":423,"name":"meap","steam_id":76561198126639221,"connected_time":1218000000000,"state":"active","ping":91},{"user_id":407,"name":"MoinMaX40K","steam_id":76561199137983269,"connected_time":2287000000000,"state":"active","ping":64},{"user_id":431,"name":"джегеми хэпкингс","steam_id":76561198131531394,"connected_time":870000000000,"state":"active","ping":87},{"user_id":417,"name":"I drink 3D printer ink","steam_id":76561198056434693,"connected_time":1772000000000,"state":"active","ping":45},{"user_id":432,"name":"vadr","steam_id":76561198334528186,"connected_time":844000000000,"state":"active","ping":58},{"user_id":444,"name":"the least schizo med main","steam_id":76561198048530109,"connected_time":525000000000,"state":"active","ping":61},{"user_id":410,"name":"JGV","steam_id":76561198094654971,"connected_time":2272000000000,"state":"active","ping":73},{"user_id":445,"name":"Bella","steam_id":76561198214004331,"connected_time":455000000000,"state":"active","ping":78},{"user_id":412,"name":"Yunker","steam_id":76561198339576891,"connected_time":2261000000000,"state":"active","ping":169},{"user_id":449,"name":"General William Tecumseh Sherma","steam_id":76561199078307343,"connected_time":34000000000,"state":"active","ping":173},{"user_id":391,"name":"boom","steam_id":76561199004664917,"connected_time":3606000000000,"state":"active","ping":100},{"user_id":439,"name":"LordWoodpecker","steam_id":76561198031647387,"connected_time":651000000000,"state":"active","ping":55},{"user_id":441,"name":"Kokica_King","steam_id":76561198349578349,"connected_time":618000000000,"state":"active","ping":90},{"user_id":426,"name":"Charles Darwin","steam_id":76561197973496139,"connected_time":1143000000000,"state":"active","ping":61},{"user_id":394,"name":"Magirby","steam_id":76561198818777390,"connected_time":3566000000000,"state":"active","ping":109},{"user_id":442,"name":"IONYCH","steam_id":76561198378350040,"connected_time":605000000000,"state":"active","ping":80},{"user_id":396,"name":"JareJare","steam_id":76561199040893751,"connected_time":3479000000000,"state":"active","ping":63},{"user_id":421,"name":"Cyn","steam_id":76561198037521577,"connected_time":1393000000000,"state":"active","ping":64}]},{"server_id":110,"name":"Uncletopia | Frankfurt | 2 | All Maps","name_short":"frk-2","host":"frk-1.de.uncletopia.com","port":27025,"enabled":true,"region":"eu","cc":"de","latitude":50.110924,"longitude":8.682127,"reserved":0,"last_update":"0001-01-01T00:00:00Z","name_a2s":"Uncletopia | Frankfurt | 2 | All Maps","protocol":17,"map":"pl_upward","folder":"tf","game":"Team Fortress","app_id":440,"player_count":24,"max_players":24,"Bots":0,"server_type":"Dedicated","server_os":"Linux","password":true,"vac":true,"version":"7882260","steam_id":85568392924469990,"keywords":["nocrits","nodmgspread","payload","uncletopia"],"game_id":440,"stv_port":27026,"stv_name":"Uncletopia | Frankfurt | 2 | All Maps | STV","players":[{"user_id":179,"name":"\"_Dogi_\"","steam_id":76561199272691570,"connected_time":471000000000,"state":"active","ping":69},{"user_id":191,"name":"Shovelhalfrusty","steam_id":76561198346447513,"connected_time":63000000000,"state":"active","ping":133},{"user_id":163,"name":"N00Bslayer69","steam_id":76561198251601692,"connected_time":1145000000000,"state":"active","ping":77},{"user_id":140,"name":"MrBanana","steam_id":76561198116021623,"connected_time":2363000000000,"state":"active","ping":48},{"user_id":142,"name":"Ixsus\u003c3","steam_id":76561198094756869,"connected_time":2250000000000,"state":"active","ping":52},{"user_id":90,"name":"F.K. Fan","steam_id":76561198032359132,"connected_time":6107000000000,"state":"active","ping":61},{"user_id":178,"name":"Microsoft PowerPoint","steam_id":76561198204290539,"connected_time":499000000000,"state":"active","ping":81},{"user_id":180,"name":"sven5011","steam_id":76561198064398200,"connected_time":468000000000,"state":"active","ping":55},{"user_id":146,"name":"David \"Crash\" Murphy","steam_id":76561198292845505,"connected_time":2023000000000,"state":"active","ping":81},{"user_id":181,"name":"Botanist_42","steam_id":76561199106858922,"connected_time":436000000000,"state":"active","ping":66},{"user_id":177,"name":"Klifton","steam_id":76561198803743443,"connected_time":629000000000,"state":"active","ping":73},{"user_id":161,"name":"Plain Toast","steam_id":76561198451580251,"connected_time":1185000000000,"state":"active","ping":168},{"user_id":182,"name":"Birdie","steam_id":76561198090080922,"connected_time":430000000000,"state":"active","ping":58},{"user_id":154,"name":"SupMan","steam_id":76561199044123799,"connected_time":1534000000000,"state":"active","ping":100},{"user_id":159,"name":"Radegast the Brown","steam_id":76561198075489505,"connected_time":1278000000000,"state":"active","ping":65},{"user_id":174,"name":"Mr.Schnittlauch","steam_id":76561198295868113,"connected_time":790000000000,"state":"active","ping":62},{"user_id":156,"name":"Dor_atar","steam_id":76561198973980542,"connected_time":1411000000000,"state":"active","ping":68},{"user_id":186,"name":"Chef","steam_id":76561198392489772,"connected_time":311000000000,"state":"active","ping":57},{"user_id":165,"name":"Houf*venomcrosshairs","steam_id":76561198448050535,"connected_time":1114000000000,"state":"active","ping":61},{"user_id":190,"name":"Clark","steam_id":76561197998520785,"connected_time":220000000000,"state":"active","ping":75},{"user_id":173,"name":"♬ ᴛᴇᴋɪᴛ ♬","steam_id":76561198111704722,"connected_time":883000000000,"state":"active","ping":75},{"user_id":188,"name":"Egor Pomidor","steam_id":76561199175688390,"connected_time":302000000000,"state":"active","ping":76},{"user_id":189,"name":"Keloklan","steam_id":76561198171674370,"connected_time":274000000000,"state":"active","ping":66},{"user_id":184,"name":"Vaptor","steam_id":76561198799323148,"connected_time":398000000000,"state":"active","ping":74}]},{"server_id":308,"name":"Uncletopia | Frankfurt | 3 | All Maps","name_short":"frk-3","host":"frk-1.de.uncletopia.com","port":27035,"enabled":true,"region":"eu","cc":"de","latitude":50.110924,"longitude":8.682127,"reserved":0,"last_update":"0001-01-01T00:00:00Z","name_a2s":"Uncletopia | Frankfurt | 3 | All Maps","protocol":17,"map":"pl_upward","folder":"tf","game":"Team Fortress","app_id":440,"player_count":24,"max_players":24,"Bots":0,"server_type":"Dedicated","server_os":"Linux","password":true,"vac":true,"version":"7882260","steam_id":85568392924504274,"keywords":["nocrits","nodmgspread","payload","uncletopia"],"game_id":440,"stv_port":27036,"stv_name":"Uncletopia | Frankfurt | 3 | All Maps | STV","players":[{"user_id":536,"name":"Russian Bot","steam_id":76561197970526018,"connected_time":1467000000000,"state":"active","ping":148},{"user_id":544,"name":"0","steam_id":76561199084809092,"connected_time":1206000000000,"state":"active","ping":93},{"user_id":520,"name":"Rimx","steam_id":76561198053034840,"connected_time":2701000000000,"state":"active","ping":94},{"user_id":509,"name":"tallen","steam_id":76561198061708595,"connected_time":4708000000000,"state":"active","ping":79},{"user_id":547,"name":"frosty","steam_id":76561198094560834,"connected_time":818000000000,"state":"active","ping":72},{"user_id":497,"name":"flr","steam_id":76561198249327786,"connected_time":5411000000000,"state":"active","ping":61},{"user_id":524,"name":"Estyle","steam_id":76561198157804700,"connected_time":2539000000000,"state":"active","ping":80},{"user_id":525,"name":"syms","steam_id":76561198066679812,"connected_time":2492000000000,"state":"active","ping":71},{"user_id":526,"name":"migger","steam_id":76561199387063710,"connected_time":2491000000000,"state":"active","ping":88},{"user_id":540,"name":"Lössö","steam_id":76561197994254413,"connected_time":1306000000000,"state":"active","ping":66},{"user_id":503,"name":"After8","steam_id":76561198090750865,"connected_time":5085000000000,"state":"active","ping":66},{"user_id":488,"name":"glyph","steam_id":76561197980736364,"connected_time":6455000000000,"state":"active","ping":78},{"user_id":519,"name":"Toasty5050","steam_id":76561198073540881,"connected_time":3291000000000,"state":"active","ping":42},{"user_id":548,"name":"HoLy","steam_id":76561197997431870,"connected_time":792000000000,"state":"active","ping":56},{"user_id":500,"name":"Local anal opener","steam_id":76561198950402176,"connected_time":5163000000000,"state":"active","ping":58},{"user_id":549,"name":"Peaky Blinder","steam_id":76561198979874772,"connected_time":790000000000,"state":"active","ping":69},{"user_id":533,"name":"vurtun","steam_id":76561198857395274,"connected_time":1904000000000,"state":"active","ping":52},{"user_id":528,"name":"mesλ","steam_id":76561198324582918,"connected_time":2442000000000,"state":"active","ping":95},{"user_id":556,"name":"Johan","steam_id":76561199380849468,"connected_time":453000000000,"state":"active","ping":63},{"user_id":553,"name":"Mi Manchi","steam_id":76561198171573129,"connected_time":661000000000,"state":"active","ping":55},{"user_id":529,"name":"H-say","steam_id":76561198177400362,"connected_time":2439000000000,"state":"active","ping":92},{"user_id":530,"name":"Труп Володя","steam_id":76561198035718457,"connected_time":2412000000000,"state":"active","ping":94},{"user_id":555,"name":"Vershal Smershal","steam_id":76561198116223995,"connected_time":635000000000,"state":"active","ping":64},{"user_id":554,"name":"xavier","steam_id":76561198076494034,"connected_time":653000000000,"state":"active","ping":60}]},{"server_id":309,"name":"Uncletopia | Frankfurt | 4 | All Maps","name_short":"frk-4","host":"frk-1.de.uncletopia.com","port":27045,"enabled":true,"region":"eu","cc":"de","latitude":50.110924,"longitude":8.682127,"reserved":0,"last_update":"0001-01-01T00:00:00Z","name_a2s":"Uncletopia | Frankfurt | 4 | All Maps","protocol":17,"map":"cp_sunshine","folder":"tf","game":"Team Fortress","app_id":440,"player_count":7,"max_players":24,"Bots":0,"server_type":"Dedicated","server_os":"Linux","password":true,"vac":true,"version":"7882260","steam_id":85568392924504275,"keywords":["cp","nocrits","nodmgspread","uncletopia"],"game_id":440,"stv_port":27046,"stv_name":"Uncletopia | Frankfurt | 4 | All Maps | STV","players":[{"user_id":239,"name":"ari","steam_id":76561198355068405,"connected_time":425000000000,"state":"active","ping":158},{"user_id":233,"name":"ddchdrn","steam_id":76561198024358566,"connected_time":803000000000,"state":"active","ping":60},{"user_id":234,"name":"Loitsu","steam_id":76561198098177012,"connected_time":798000000000,"state":"active","ping":110},{"user_id":240,"name":"Destroy Jackary","steam_id":76561198193405221,"connected_time":318000000000,"state":"active","ping":150},{"user_id":242,"name":"mt","steam_id":76561197961319303,"connected_time":19000000000,"state":"active","ping":48},{"user_id":241,"name":"triple -ƒ$-","steam_id":76561198119449463,"connected_time":228000000000,"state":"active","ping":64},{"user_id":169,"name":"roblan11","steam_id":76561198066839258,"connected_time":6132000000000,"state":"active","ping":43}]},{"server_id":310,"name":"Uncletopia | Frankfurt | 5 | All Maps","name_short":"frk-5","host":"frk-1.de.uncletopia.com","port":27055,"enabled":true,"region":"eu","cc":"de","latitude":50.110924,"longitude":8.682127,"reserved":0,"last_update":"0001-01-01T00:00:00Z","name_a2s":"Uncletopia | Frankfurt | 5 | All Maps","protocol":17,"map":"koth_viaduct","folder":"tf","game":"Team Fortress","app_id":440,"player_count":4,"max_players":24,"Bots":0,"server_type":"Dedicated","server_os":"Linux","password":true,"vac":true,"version":"7882260","steam_id":85568392924504277,"keywords":["cp","nocrits","nodmgspread","uncletopia"],"game_id":440,"stv_port":27056,"stv_name":"Uncletopia | Frankfurt | 5 | All Maps | STV","players":[{"user_id":25,"name":"Truegr","steam_id":76561198811912339,"connected_time":96000000000,"state":"active","ping":57},{"user_id":19,"name":"fried","steam_id":76561198307522022,"connected_time":2388000000000,"state":"active","ping":45},{"user_id":20,"name":"yes","steam_id":76561199474391695,"connected_time":1908000000000,"state":"active","ping":67},{"user_id":22,"name":"толя","steam_id":76561199098518615,"connected_time":1755000000000,"state":"active","ping":61}]},{"server_id":311,"name":"Uncletopia | Frankfurt | 6 | All Maps","name_short":"frk-6","host":"frk-1.de.uncletopia.com","port":27065,"enabled":true,"region":"eu","cc":"de","latitude":50.110924,"longitude":8.682127,"reserved":0,"last_update":"0001-01-01T00:00:00Z","name_a2s":"Uncletopia | Frankfurt | 6 | All Maps","protocol":17,"map":"pl_frontier_final","folder":"tf","game":"Team Fortress","app_id":440,"player_count":24,"max_players":24,"Bots":0,"server_type":"Dedicated","server_os":"Linux","password":true,"vac":true,"version":"7882260","steam_id":85568392924504278,"keywords":["nocrits","nodmgspread","payload","uncletopia"],"game_id":440,"stv_port":27066,"stv_name":"Uncletopia | Frankfurt | 6 | All Maps | STV","players":[{"user_id":623,"name":"cister0","steam_id":76561198130195469,"connected_time":4337000000000,"state":"active","ping":71},{"user_id":640,"name":"Ketich","steam_id":76561198021772703,"connected_time":2803000000000,"state":"active","ping":72},{"user_id":650,"name":"Jeetach","steam_id":76561199062437546,"connected_time":2233000000000,"state":"active","ping":52},{"user_id":689,"name":"MAKENTAKEN","steam_id":76561199127359587,"connected_time":255000000000,"state":"active","ping":89},{"user_id":652,"name":"Fat Pigeon","steam_id":76561198817940142,"connected_time":2208000000000,"state":"active","ping":55},{"user_id":684,"name":"Fakie13","steam_id":76561197994582123,"connected_time":450000000000,"state":"active","ping":96},{"user_id":683,"name":"Xi Jingping","steam_id":76561198000958139,"connected_time":465000000000,"state":"active","ping":71},{"user_id":676,"name":"giclure :;","steam_id":76561197986362828,"connected_time":849000000000,"state":"active","ping":57},{"user_id":653,"name":"Utvar","steam_id":76561198131838460,"connected_time":2187000000000,"state":"active","ping":66},{"user_id":654,"name":"RCST","steam_id":76561198174955254,"connected_time":2179000000000,"state":"active","ping":92},{"user_id":677,"name":"hananamanna","steam_id":76561198006570285,"connected_time":762000000000,"state":"active","ping":107},{"user_id":662,"name":"pako","steam_id":76561198429046379,"connected_time":1284000000000,"state":"active","ping":53},{"user_id":682,"name":"Raldow","steam_id":76561198021389301,"connected_time":487000000000,"state":"active","ping":75},{"user_id":688,"name":"knob cheese","steam_id":76561199154515506,"connected_time":258000000000,"state":"active","ping":75},{"user_id":690,"name":"smell_my_cheese","steam_id":76561198008517427,"connected_time":210000000000,"state":"active","ping":72},{"user_id":587,"name":"omony","steam_id":76561197983750025,"connected_time":5926000000000,"state":"active","ping":88},{"user_id":678,"name":"Vanilla","steam_id":76561198073933435,"connected_time":720000000000,"state":"active","ping":60},{"user_id":679,"name":"hunte","steam_id":76561198063483484,"connected_time":693000000000,"state":"active","ping":70},{"user_id":646,"name":"meriones","steam_id":76561198034234373,"connected_time":2545000000000,"state":"active","ping":59},{"user_id":686,"name":"*-*","steam_id":76561198119230058,"connected_time":430000000000,"state":"active","ping":69},{"user_id":691,"name":"S.Scary","steam_id":76561198248602386,"connected_time":197000000000,"state":"active","ping":71},{"user_id":680,"name":"Menny","steam_id":76561197992054834,"connected_time":691000000000,"state":"active","ping":53},{"user_id":692,"name":"tïger","steam_id":76561198260483157,"connected_time":196000000000,"state":"active","ping":86},{"user_id":693,"name":"Hey, I´m Andy!","steam_id":76561198060337777,"connected_time":170000000000,"state":"active","ping":74}]},{"server_id":23,"name":"Uncletopia | Frankfurt | 7 | Stopwatch Beta","name_short":"frk-7","host":"frk-1.de.uncletopia.com","port":27075,"enabled":true,"region":"eu","cc":"de","latitude":50.110924,"longitude":8.682127,"reserved":0,"last_update":"0001-01-01T00:00:00Z","name_a2s":"Uncletopia | Frankfurt | 7 | Stopwatch Beta","protocol":17,"map":"workshop/cp_process_f12.ugc2302948105","folder":"tf","game":"Team Fortress","app_id":440,"player_count":0,"max_players":24,"Bots":0,"server_type":"Dedicated","server_os":"Linux","password":true,"vac":true,"version":"7882260","steam_id":85568392924742827,"keywords":["cp","nocrits","nodmgspread","uncletopia"],"game_id":440,"stv_port":27076,"stv_name":"Uncletopia | Frankfurt | 7 | Stopwatch Beta | STV","players":null},{"server_id":24,"name":"Uncletopia | Frankfurt | 8 | Community","name_short":"frk-8","host":"frk-1.de.uncletopia.com","port":27085,"enabled":true,"region":"eu","cc":"de","latitude":50.110924,"longitude":8.682127,"reserved":0,"last_update":"0001-01-01T00:00:00Z","name_a2s":"Uncletopia | Frankfurt | 8 | Community","protocol":17,"map":"koth_cascade","folder":"tf","game":"Team Fortress","app_id":440,"player_count":0,"max_players":24,"Bots":0,"server_type":"Dedicated","server_os":"Linux","password":true,"vac":true,"version":"7882260","steam_id":85568392924742828,"keywords":["cp","nocrits","nodmgspread","uncletopia"],"game_id":440,"stv_port":27086,"stv_name":"Uncletopia | Frankfurt | 8 | Community | STV","players":null},{"server_id":202,"name":"Uncletopia | Hong Kong | 1 | All Maps","name_short":"hgk-1","host":"hgk-1.hk.uncletopia.com","port":27015,"enabled":true,"region":"asia","cc":"hk","latitude":22.302711,"longitude":114.177216,"reserved":0,"last_update":"0001-01-01T00:00:00Z","name_a2s":"Uncletopia | Hong Kong | 1 | All Maps","protocol":17,"map":"koth_cascade","folder":"tf","game":"Team Fortress","app_id":440,"player_count":0,"max_players":24,"Bots":0,"server_type":"Dedicated","server_os":"Linux","password":true,"vac":true,"version":"7882260","steam_id":85568392924494504,"keywords":["cp","nocrits","nodmgspread","uncletopia"],"game_id":440,"stv_port":27016,"stv_name":"Uncletopia | Hong Kong | 1 | All Maps | STV","players":null},{"server_id":1,"name":"Uncletopia | Los Angeles | 1 | All Maps","name_short":"lax-1","host":"lax-1.us.uncletopia.com","port":27015,"enabled":true,"region":"us-west","cc":"us","latitude":33.94279,"longitude":-118.41004,"reserved":0,"last_update":"0001-01-01T00:00:00Z","name_a2s":"Uncletopia | Los Angeles | 1 | All Maps","protocol":17,"map":"cp_dustbowl","folder":"tf","game":"Team Fortress","app_id":440,"player_count":23,"max_players":24,"Bots":0,"server_type":"Dedicated","server_os":"Linux","password":true,"vac":true,"version":"7882260","steam_id":85568392924469991,"keywords":["cp","nocrits","nodmgspread","uncletopia"],"game_id":440,"stv_port":27016,"stv_name":"Uncletopia | Los Angeles | 1 | All Maps | STV","players":[{"user_id":71,"name":"ObamaBGaming","steam_id":76561198173912102,"connected_time":9000000000,"state":"active","ping":41},{"user_id":10,"name":"Nibotshooter","steam_id":76561199284825579,"connected_time":3216000000000,"state":"active","ping":69},{"user_id":11,"name":"BlackArrow","steam_id":76561198402145629,"connected_time":3014000000000,"state":"active","ping":72},{"user_id":54,"name":"Platino","steam_id":76561198410957728,"connected_time":1264000000000,"state":"active","ping":91},{"user_id":53,"name":"im basically a drunk driver rn","steam_id":76561198128164970,"connected_time":1297000000000,"state":"active","ping":44},{"user_id":51,"name":"Drakon","steam_id":76561198078210822,"connected_time":1481000000000,"state":"active","ping":59},{"user_id":66,"name":"triph","steam_id":76561198067196509,"connected_time":364000000000,"state":"active","ping":29},{"user_id":16,"name":"Ockulus","steam_id":76561199069638460,"connected_time":2772000000000,"state":"active","ping":48},{"user_id":65,"name":"Jazpy","steam_id":76561198036872545,"connected_time":580000000000,"state":"active","ping":61},{"user_id":20,"name":"DiscoTraveler","steam_id":76561199240168088,"connected_time":2561000000000,"state":"active","ping":96},{"user_id":48,"name":"Void","steam_id":76561198308290211,"connected_time":1770000000000,"state":"active","ping":67},{"user_id":56,"name":"Mr. Baseball","steam_id":76561198112635823,"connected_time":1208000000000,"state":"active","ping":93},{"user_id":68,"name":"Goku","steam_id":76561198064143198,"connected_time":290000000000,"state":"active","ping":102},{"user_id":26,"name":"Schnitz","steam_id":76561198265484253,"connected_time":2267000000000,"state":"active","ping":56},{"user_id":57,"name":"dang it/darn it/crap","steam_id":76561198204593875,"connected_time":1201000000000,"state":"active","ping":89},{"user_id":69,"name":"Sadistic Dentist","steam_id":76561198103189993,"connected_time":273000000000,"state":"active","ping":75},{"user_id":70,"name":"muffinman12126","steam_id":76561199471924109,"connected_time":161000000000,"state":"active","ping":60},{"user_id":59,"name":"Random Person","steam_id":76561198990531385,"connected_time":1190000000000,"state":"active","ping":95},{"user_id":46,"name":"WalkinMan","steam_id":76561198047941142,"connected_time":1937000000000,"state":"active","ping":51},{"user_id":35,"name":"Madman","steam_id":76561198452780465,"connected_time":2087000000000,"state":"active","ping":118},{"user_id":36,"name":"squash","steam_id":76561198150281353,"connected_time":2084000000000,"state":"active","ping":89},{"user_id":67,"name":"NFL.com","steam_id":76561198113405376,"connected_time":326000000000,"state":"active","ping":58},{"user_id":61,"name":"Mr defrost","steam_id":76561198322125657,"connected_time":1180000000000,"state":"active","ping":91}]},{"server_id":112,"name":"Uncletopia | Los Angeles | 2 | All Maps","name_short":"lax-2","host":"lax-1.us.uncletopia.com","port":27025,"enabled":true,"region":"us-west","cc":"us","latitude":33.94279,"longitude":-118.41004,"reserved":0,"last_update":"0001-01-01T00:00:00Z","name_a2s":"Uncletopia | Los Angeles | 2 | All Maps","protocol":17,"map":"koth_viaduct","folder":"tf","game":"Team Fortress","app_id":440,"player_count":0,"max_players":24,"Bots":0,"server_type":"Dedicated","server_os":"Linux","password":true,"vac":true,"version":"7882260","steam_id":85568392924469992,"keywords":["cp","nocrits","nodmgspread","uncletopia"],"game_id":440,"stv_port":27026,"stv_name":"Uncletopia | Los Angeles | 2 | All Maps | STV","players":null},{"server_id":324,"name":"Uncletopia | Los Angeles | 3 | All Maps","name_short":"lax-3","host":"lax-1.us.uncletopia.com","port":27035,"enabled":true,"region":"us-west","cc":"us","latitude":33.94279,"longitude":-118.41004,"reserved":0,"last_update":"0001-01-01T00:00:00Z","name_a2s":"Uncletopia | Los Angeles | 3 | All Maps","protocol":17,"map":"koth_cascade","folder":"tf","game":"Team Fortress","app_id":440,"player_count":2,"max_players":24,"Bots":0,"server_type":"Dedicated","server_os":"Linux","password":true,"vac":true,"version":"7882260","steam_id":85568392924510198,"keywords":["cp","nocrits","nodmgspread","uncletopia"],"game_id":440,"stv_port":27036,"stv_name":"Uncletopia | Los Angeles | 3 | All Maps | STV","players":[{"user_id":12,"name":"Archie","steam_id":76561198137112917,"connected_time":1730000000000,"state":"active","ping":53},{"user_id":14,"name":"McLovin","steam_id":76561198114934503,"connected_time":1453000000000,"state":"active","ping":72}]},{"server_id":25,"name":"Uncletopia | Los Angeles | 4 | Stopwatch Beta","name_short":"lax-4","host":"lax-1.us.uncletopia.com","port":27045,"enabled":true,"region":"us-west","cc":"us","latitude":33.94279,"longitude":-118.41004,"reserved":0,"last_update":"0001-01-01T00:00:00Z","name_a2s":"Uncletopia | Los Angeles | 4 | Stopwatch Beta","protocol":17,"map":"cp_snakewater_final1","folder":"tf","game":"Team Fortress","app_id":440,"player_count":0,"max_players":24,"Bots":0,"server_type":"Dedicated","server_os":"Linux","password":true,"vac":true,"version":"7882260","steam_id":85568392924510199,"keywords":["cp","nocrits","nodmgspread","uncletopia"],"game_id":440,"stv_port":27046,"stv_name":"Uncletopia | Los Angeles | 4 | Stopwatch Beta | STV","players":null},{"server_id":11,"name":"Uncletopia | London | 1 | All Maps","name_short":"lon-1","host":"lon-1.uk.uncletopia.com","port":27015,"enabled":true,"region":"eu","cc":"gb","latitude":51.509865,"longitude":-0.118092,"reserved":0,"last_update":"0001-01-01T00:00:00Z","name_a2s":"Uncletopia | London | 1 | All Maps","protocol":17,"map":"pl_goldrush","folder":"tf","game":"Team Fortress","app_id":440,"player_count":23,"max_players":24,"Bots":0,"server_type":"Dedicated","server_os":"Linux","password":true,"vac":true,"version":"7882260","steam_id":85568392924367362,"keywords":["nocrits","nodmgspread","payload","uncletopia"],"game_id":440,"stv_port":27016,"stv_name":"Uncletopia | London | 1 | All Maps | STV","players":[{"user_id":353,"name":"franky","steam_id":76561198070903328,"connected_time":192000000000,"state":"active","ping":125},{"user_id":351,"name":"Kriv","steam_id":76561198344276348,"connected_time":371000000000,"state":"active","ping":97},{"user_id":336,"name":"croco.","steam_id":76561198988882521,"connected_time":1339000000000,"state":"active","ping":85},{"user_id":337,"name":"ijustsmokeandcry","steam_id":76561198044189114,"connected_time":1169000000000,"state":"active","ping":77},{"user_id":338,"name":"BatemanPatrick","steam_id":76561198393691611,"connected_time":1093000000000,"state":"active","ping":61},{"user_id":345,"name":"trite","steam_id":76561197983765323,"connected_time":823000000000,"state":"active","ping":50},{"user_id":281,"name":"ayadam","steam_id":76561198161515769,"connected_time":5708000000000,"state":"active","ping":116},{"user_id":325,"name":"Aaron","steam_id":76561197990046953,"connected_time":2459000000000,"state":"active","ping":56},{"user_id":352,"name":"Carrotcracker","steam_id":76561198034862396,"connected_time":367000000000,"state":"active","ping":82},{"user_id":284,"name":"Dragco","steam_id":76561198133902802,"connected_time":5588000000000,"state":"active","ping":75},{"user_id":271,"name":"DeSepp","steam_id":76561198063149086,"connected_time":7019000000000,"state":"active","ping":70},{"user_id":244,"name":"Jesus Enjoyer","steam_id":76561198840259819,"connected_time":8334000000000,"state":"active","ping":62},{"user_id":334,"name":"Qxillum","steam_id":76561198037201297,"connected_time":1476000000000,"state":"active","ping":55},{"user_id":339,"name":"1 toke 4 mars bars","steam_id":76561198056460000,"connected_time":1086000000000,"state":"active","ping":51},{"user_id":272,"name":"Ewelinka Zniszczenia","steam_id":76561198307374456,"connected_time":7001000000000,"state":"active","ping":82},{"user_id":347,"name":"Milk","steam_id":76561198125876588,"connected_time":725000000000,"state":"active","ping":42},{"user_id":348,"name":"☭Mr.Potato☭","steam_id":76561198186741717,"connected_time":536000000000,"state":"active","ping":55},{"user_id":273,"name":"SpaceCake","steam_id":76561198151394497,"connected_time":6964000000000,"state":"active","ping":100},{"user_id":341,"name":"Tea","steam_id":76561198799243030,"connected_time":1048000000000,"state":"active","ping":54},{"user_id":343,"name":"Reomk","steam_id":76561198309314129,"connected_time":947000000000,"state":"active","ping":122},{"user_id":238,"name":"Alibi","steam_id":76561198061845595,"connected_time":8745000000000,"state":"active","ping":51},{"user_id":349,"name":"eeeeee","steam_id":76561198017786875,"connected_time":528000000000,"state":"active","ping":77},{"user_id":328,"name":"plont","steam_id":76561198060105180,"connected_time":2407000000000,"state":"active","ping":60}]},{"server_id":114,"name":"Uncletopia | London | 2 | All Maps","name_short":"lon-2","host":"lon-1.uk.uncletopia.com","port":27025,"enabled":true,"region":"eu","cc":"gb","latitude":51.509865,"longitude":-0.118092,"reserved":0,"last_update":"0001-01-01T00:00:00Z","name_a2s":"Uncletopia | London | 2 | All Maps","protocol":17,"map":"pl_badwater","folder":"tf","game":"Team Fortress","app_id":440,"player_count":24,"max_players":24,"Bots":0,"server_type":"Dedicated","server_os":"Linux","password":true,"vac":true,"version":"7882260","steam_id":85568392924470941,"keywords":["nocrits","nodmgspread","payload","uncletopia"],"game_id":440,"stv_port":27026,"stv_name":"Uncletopia | London | 2 | All Maps | STV","players":[{"user_id":282,"name":"dafydd","steam_id":76561198052200325,"connected_time":1970000000000,"state":"active","ping":93},{"user_id":278,"name":"kitsune miku","steam_id":76561198058432834,"connected_time":2365000000000,"state":"active","ping":59},{"user_id":268,"name":"ZackMcRizzl","steam_id":76561198062075870,"connected_time":2854000000000,"state":"active","ping":90},{"user_id":286,"name":"Joseph Stalin","steam_id":76561198033199746,"connected_time":1358000000000,"state":"active","ping":60},{"user_id":276,"name":"scarecrow (evil)","steam_id":76561198082979347,"connected_time":2471000000000,"state":"active","ping":133},{"user_id":294,"name":"LuckyAce444","steam_id":76561198871963391,"connected_time":1047000000000,"state":"active","ping":135},{"user_id":288,"name":"worm","steam_id":76561198345744589,"connected_time":1337000000000,"state":"active","ping":68},{"user_id":221,"name":"LeSpiper","steam_id":76561198104757617,"connected_time":6300000000000,"state":"active","ping":31},{"user_id":226,"name":"Bartツ","steam_id":76561198164718893,"connected_time":5961000000000,"state":"active","ping":41},{"user_id":247,"name":"washed up","steam_id":76561198275742101,"connected_time":4989000000000,"state":"active","ping":72},{"user_id":258,"name":"Tekky","steam_id":76561197990987315,"connected_time":3858000000000,"state":"active","ping":44},{"user_id":293,"name":"Kaishakunin","steam_id":76561198028123874,"connected_time":1210000000000,"state":"active","ping":99},{"user_id":298,"name":"TJ1212","steam_id":76561199013575313,"connected_time":901000000000,"state":"active","ping":75},{"user_id":271,"name":"hipster_doofus","steam_id":76561197970902697,"connected_time":2694000000000,"state":"active","ping":56},{"user_id":222,"name":"s_dimo","steam_id":76561198289862451,"connected_time":6300000000000,"state":"active","ping":59},{"user_id":285,"name":"YoHn","steam_id":76561199178079625,"connected_time":1826000000000,"state":"active","ping":113},{"user_id":299,"name":"Pershing[GER]","steam_id":76561197970330818,"connected_time":486000000000,"state":"active","ping":77},{"user_id":296,"name":"mkwii","steam_id":76561198062507768,"connected_time":1009000000000,"state":"active","ping":63},{"user_id":289,"name":"The Sex","steam_id":76561199142022395,"connected_time":1321000000000,"state":"active","ping":97},{"user_id":252,"name":"gediot#2","steam_id":76561199229899155,"connected_time":4599000000000,"state":"active","ping":41},{"user_id":145,"name":"Mr_Pulse_","steam_id":76561198095001602,"connected_time":10379000000000,"state":"active","ping":121},{"user_id":256,"name":"Desj","steam_id":76561198114212636,"connected_time":4134000000000,"state":"active","ping":48},{"user_id":280,"name":"Axord","steam_id":76561199289652176,"connected_time":2040000000000,"state":"active","ping":68},{"user_id":295,"name":"svantezch","steam_id":76561198373831657,"connected_time":1042000000000,"state":"active","ping":84}]},{"server_id":320,"name":"Uncletopia | London | 3 | All Maps","name_short":"lon-3","host":"lon-1.uk.uncletopia.com","port":27035,"enabled":true,"region":"eu","cc":"gb","latitude":51.509865,"longitude":-0.118092,"reserved":0,"last_update":"0001-01-01T00:00:00Z","name_a2s":"Uncletopia | London | 3 | All Maps","protocol":17,"map":"pl_borneo","folder":"tf","game":"Team Fortress","app_id":440,"player_count":24,"max_players":24,"Bots":0,"server_type":"Dedicated","server_os":"Linux","password":true,"vac":true,"version":"7882260","steam_id":85568392924510192,"keywords":["nocrits","nodmgspread","payload","uncletopia"],"game_id":440,"stv_port":27036,"stv_name":"Uncletopia | London | 3 | All Maps | STV","players":[{"user_id":521,"name":"ramirez","steam_id":76561198117060048,"connected_time":3274000000000,"state":"active","ping":67},{"user_id":552,"name":"rabbitface26","steam_id":76561198327540113,"connected_time":1125000000000,"state":"active","ping":35},{"user_id":501,"name":"HurrpNana","steam_id":76561199102156562,"connected_time":4066000000000,"state":"active","ping":143},{"user_id":565,"name":"Effy","steam_id":76561199343131221,"connected_time":197000000000,"state":"active","ping":131},{"user_id":567,"name":"Dunxle","steam_id":76561198236630276,"connected_time":89000000000,"state":"active","ping":44},{"user_id":520,"name":"lulu","steam_id":76561199147764133,"connected_time":3409000000000,"state":"active","ping":75},{"user_id":558,"name":"Clairv0yance","steam_id":76561198085698566,"connected_time":631000000000,"state":"active","ping":70},{"user_id":566,"name":"A stripper","steam_id":76561198034865891,"connected_time":160000000000,"state":"active","ping":56},{"user_id":554,"name":"Jeppe","steam_id":76561198036055494,"connected_time":1118000000000,"state":"active","ping":67},{"user_id":425,"name":"CommanderLex","steam_id":76561198123115529,"connected_time":8657000000000,"state":"active","ping":74},{"user_id":514,"name":"Mike","steam_id":76561198228455736,"connected_time":3670000000000,"state":"active","ping":48},{"user_id":536,"name":"Crazy Ivan","steam_id":76561197993072059,"connected_time":1867000000000,"state":"active","ping":136},{"user_id":486,"name":"Tails8521","steam_id":76561198051747164,"connected_time":5617000000000,"state":"active","ping":60},{"user_id":555,"name":"Nassu","steam_id":76561198147367577,"connected_time":1034000000000,"state":"active","ping":164},{"user_id":551,"name":"Devilish Ghouls","steam_id":76561198107784653,"connected_time":1200000000000,"state":"active","ping":122},{"user_id":556,"name":"s a i","steam_id":76561197970379754,"connected_time":950000000000,"state":"active","ping":66},{"user_id":557,"name":"astigmatic","steam_id":76561199103959197,"connected_time":947000000000,"state":"active","ping":100},{"user_id":531,"name":"Stupid Sexy Flanders","steam_id":76561198136311983,"connected_time":2646000000000,"state":"active","ping":138},{"user_id":519,"name":"Son Goku","steam_id":76561199383437138,"connected_time":3509000000000,"state":"active","ping":129},{"user_id":498,"name":"Cosmetic brain","steam_id":76561198055936410,"connected_time":4339000000000,"state":"active","ping":90},{"user_id":543,"name":"hedon/","steam_id":76561198249832770,"connected_time":1460000000000,"state":"active","ping":52},{"user_id":562,"name":"gnarly business","steam_id":76561198832688767,"connected_time":377000000000,"state":"active","ping":58},{"user_id":561,"name":"etc","steam_id":76561197998394797,"connected_time":533000000000,"state":"active","ping":61}]},{"server_id":321,"name":"Uncletopia | London | 4 | All Maps","name_short":"lon-4","host":"lon-1.uk.uncletopia.com","port":27045,"enabled":true,"region":"eu","cc":"gb","latitude":51.509865,"longitude":-0.118092,"reserved":0,"last_update":"0001-01-01T00:00:00Z","name_a2s":"Uncletopia | London | 4 | All Maps","protocol":17,"map":"pl_pier","folder":"tf","game":"Team Fortress","app_id":440,"player_count":24,"max_players":24,"Bots":0,"server_type":"Dedicated","server_os":"Linux","password":true,"vac":true,"version":"7882260","steam_id":85568392924510193,"keywords":["nocrits","nodmgspread","payload","uncletopia"],"game_id":440,"stv_port":27046,"stv_name":"Uncletopia | London | 4 | All Maps | STV","players":[{"user_id":233,"name":"Sandvich","steam_id":76561199079493666,"connected_time":1827000000000,"state":"active","ping":104},{"user_id":215,"name":"skille","steam_id":76561198005794325,"connected_time":2772000000000,"state":"active","ping":74},{"user_id":87,"name":"Zerfesh","steam_id":76561198117534358,"connected_time":12153000000000,"state":"active","ping":105},{"user_id":191,"name":"Mr.Duck","steam_id":76561197983710667,"connected_time":5043000000000,"state":"active","ping":86},{"user_id":218,"name":"Andy","steam_id":76561198046918834,"connected_time":2609000000000,"state":"active","ping":67},{"user_id":251,"name":"Bonca","steam_id":76561198137503531,"connected_time":254000000000,"state":"active","ping":71},{"user_id":238,"name":"Succubus_Lilith (She/They)","steam_id":76561198240578890,"connected_time":1712000000000,"state":"active","ping":151},{"user_id":237,"name":"Voks_","steam_id":76561198159687785,"connected_time":1735000000000,"state":"active","ping":74},{"user_id":223,"name":"Biskit","steam_id":76561198104877105,"connected_time":2363000000000,"state":"active","ping":57},{"user_id":240,"name":"Carter","steam_id":76561198005243938,"connected_time":1694000000000,"state":"active","ping":78},{"user_id":239,"name":"Jen","steam_id":76561198800760923,"connected_time":1707000000000,"state":"active","ping":96},{"user_id":228,"name":"Max Andrew","steam_id":76561198158955194,"connected_time":2191000000000,"state":"active","ping":57},{"user_id":232,"name":"I'M CLINICALLY INSANE","steam_id":76561198208349835,"connected_time":1910000000000,"state":"active","ping":69},{"user_id":129,"name":"d u k k i","steam_id":76561198071807437,"connected_time":8866000000000,"state":"active","ping":88},{"user_id":241,"name":"FluoducK","steam_id":76561198158175778,"connected_time":1651000000000,"state":"active","ping":69},{"user_id":231,"name":"Orbit","steam_id":76561198242999878,"connected_time":2013000000000,"state":"active","ping":56},{"user_id":242,"name":"Roder","steam_id":76561199101393339,"connected_time":1636000000000,"state":"active","ping":68},{"user_id":250,"name":"Cookies and Bakies","steam_id":76561198017442928,"connected_time":473000000000,"state":"active","ping":65},{"user_id":243,"name":"SwsNietNiek","steam_id":76561198049799253,"connected_time":1614000000000,"state":"active","ping":65},{"user_id":217,"name":"weleenkerk","steam_id":76561198143969491,"connected_time":2752000000000,"state":"active","ping":71},{"user_id":249,"name":"Yelowchy","steam_id":76561198199416121,"connected_time":669000000000,"state":"active","ping":77},{"user_id":203,"name":"British Disapproval","steam_id":76561198001375260,"connected_time":4172000000000,"state":"active","ping":86},{"user_id":189,"name":"Yami","steam_id":76561198000825743,"connected_time":5142000000000,"state":"active","ping":50},{"user_id":244,"name":"n1ceguy","steam_id":76561199199499453,"connected_time":1553000000000,"state":"active","ping":76}]},{"server_id":21,"name":"Uncletopia | London | 5 | All Maps","name_short":"lon-5","host":"lon-1.uk.uncletopia.com","port":27055,"enabled":true,"region":"eu","cc":"gb","latitude":51.509865,"longitude":-0.118092,"reserved":0,"last_update":"0001-01-01T00:00:00Z","name_a2s":"Uncletopia | London | 5 | All Maps","protocol":17,"map":"cp_mountainlab","folder":"tf","game":"Team Fortress","app_id":440,"player_count":24,"max_players":24,"Bots":0,"server_type":"Dedicated","server_os":"Linux","password":true,"vac":true,"version":"7882260","steam_id":85568392924742829,"keywords":["cp","nocrits","nodmgspread","uncletopia"],"game_id":440,"stv_port":27056,"stv_name":"Uncletopia | London | 5 | All Maps | STV","players":[{"user_id":168,"name":"balanced diet","steam_id":76561198240320806,"connected_time":1829000000000,"state":"active","ping":89},{"user_id":188,"name":"Rigel","steam_id":76561197993641284,"connected_time":739000000000,"state":"active","ping":46},{"user_id":194,"name":"No Cheat? No Bitches.","steam_id":76561198367317012,"connected_time":59000000000,"state":"active","ping":120},{"user_id":190,"name":"Bobo","steam_id":76561198052308399,"connected_time":506000000000,"state":"active","ping":82},{"user_id":158,"name":"Shrek","steam_id":76561199250487117,"connected_time":2206000000000,"state":"active","ping":98},{"user_id":195,"name":"Jan.","steam_id":76561197974066329,"connected_time":15000000000,"state":"active","ping":394},{"user_id":123,"name":"RLCrazyCat3","steam_id":76561197983757878,"connected_time":4138000000000,"state":"active","ping":67},{"user_id":183,"name":"Yuzu","steam_id":76561198121694613,"connected_time":947000000000,"state":"active","ping":56},{"user_id":115,"name":"Qwertuss","steam_id":76561198026305366,"connected_time":4853000000000,"state":"active","ping":68},{"user_id":131,"name":"Hercules","steam_id":76561198041164170,"connected_time":3969000000000,"state":"active","ping":74},{"user_id":99,"name":"Economic crisis","steam_id":76561198063562843,"connected_time":6097000000000,"state":"active","ping":70},{"user_id":164,"name":"Stańczyk","steam_id":76561197998906563,"connected_time":1909000000000,"state":"active","ping":45},{"user_id":160,"name":"LIGHTWEIGHT BABY","steam_id":76561198002761980,"connected_time":2087000000000,"state":"active","ping":61},{"user_id":193,"name":"TarekInnit","steam_id":76561198298618127,"connected_time":449000000000,"state":"active","ping":70},{"user_id":178,"name":"LaTeX Enjoyer","steam_id":76561198141757730,"connected_time":1329000000000,"state":"active","ping":73},{"user_id":166,"name":"i am the one who glocks","steam_id":76561198140691505,"connected_time":1894000000000,"state":"active","ping":60},{"user_id":148,"name":"Rosguard","steam_id":76561198030984263,"connected_time":2617000000000,"state":"active","ping":45},{"user_id":167,"name":"Pin","steam_id":76561198043820474,"connected_time":1857000000000,"state":"active","ping":91},{"user_id":196,"name":"meatsoupcube","steam_id":76561198276802249,"connected_time":9000000000,"state":"active","ping":106},{"user_id":120,"name":"Termenator_","steam_id":76561199358003730,"connected_time":4325000000000,"state":"active","ping":90},{"user_id":192,"name":"chumby","steam_id":76561199229379783,"connected_time":488000000000,"state":"active","ping":127},{"user_id":185,"name":"Well, off to hang myself","steam_id":76561198053374944,"connected_time":937000000000,"state":"active","ping":70},{"user_id":129,"name":"Syd","steam_id":76561198020515027,"connected_time":4050000000000,"state":"active","ping":64},{"user_id":176,"name":"OFFICAL PUT CAKE BDB","steam_id":76561198256265555,"connected_time":1644000000000,"state":"active","ping":90}]},{"server_id":22,"name":"Uncletopia | London | 6 | All Maps","name_short":"lon-6","host":"lon-1.uk.uncletopia.com","port":27065,"enabled":true,"region":"eu","cc":"gb","latitude":51.509865,"longitude":-0.118092,"reserved":0,"last_update":"0001-01-01T00:00:00Z","name_a2s":"Uncletopia | London | 6 | All Maps","protocol":17,"map":"koth_cascade","folder":"tf","game":"Team Fortress","app_id":440,"player_count":24,"max_players":24,"Bots":0,"server_type":"Dedicated","server_os":"Linux","password":true,"vac":true,"version":"7882260","steam_id":85568392924742830,"keywords":["cp","nocrits","nodmgspread","uncletopia"],"game_id":440,"stv_port":27066,"stv_name":"Uncletopia | London | 6 | All Maps | STV","players":[{"user_id":83,"name":"Commander Slem","steam_id":76561198064900840,"connected_time":334000000000,"state":"active","ping":82},{"user_id":88,"name":"frank gallagher","steam_id":76561198973429541,"connected_time":180000000000,"state":"active","ping":146},{"user_id":18,"name":"EddieTheBear","steam_id":76561197962698753,"connected_time":6542000000000,"state":"active","ping":77},{"user_id":12,"name":"Festive Pie","steam_id":76561198299159635,"connected_time":6980000000000,"state":"active","ping":73},{"user_id":13,"name":"Tortoise01Swe","steam_id":76561198118673227,"connected_time":6957000000000,"state":"active","ping":91},{"user_id":14,"name":"DOODL","steam_id":76561198358378176,"connected_time":6956000000000,"state":"active","ping":82},{"user_id":15,"name":"Patrik Stjärna","steam_id":76561198044435735,"connected_time":6947000000000,"state":"active","ping":99},{"user_id":16,"name":"Gardvord","steam_id":76561198120715753,"connected_time":6933000000000,"state":"active","ping":82},{"user_id":17,"name":"Elix","steam_id":76561198157179447,"connected_time":6891000000000,"state":"active","ping":69},{"user_id":89,"name":"DARK VARNU","steam_id":76561198104896547,"connected_time":178000000000,"state":"active","ping":87},{"user_id":61,"name":"PotatoAim","steam_id":76561198262489076,"connected_time":2320000000000,"state":"active","ping":69},{"user_id":80,"name":"Zvifty","steam_id":76561198036514896,"connected_time":508000000000,"state":"active","ping":89},{"user_id":73,"name":"I Drink Diesel","steam_id":76561198354223410,"connected_time":1445000000000,"state":"active","ping":33},{"user_id":85,"name":"Michael","steam_id":76561198003146906,"connected_time":296000000000,"state":"active","ping":44},{"user_id":86,"name":"quickfast","steam_id":76561199438900919,"connected_time":288000000000,"state":"active","ping":45},{"user_id":64,"name":"Sentry_Molester","steam_id":76561198240499888,"connected_time":2149000000000,"state":"active","ping":90},{"user_id":54,"name":"JSX #savetf2","steam_id":76561198039097662,"connected_time":3315000000000,"state":"active","ping":75},{"user_id":42,"name":"RapterXman","steam_id":76561198047341050,"connected_time":4885000000000,"state":"active","ping":71},{"user_id":65,"name":"Queen Dashie","steam_id":76561198097584870,"connected_time":2133000000000,"state":"active","ping":121},{"user_id":71,"name":"Unfortunate","steam_id":76561198125500777,"connected_time":1834000000000,"state":"active","ping":106},{"user_id":79,"name":"Psyborg","steam_id":76561199158462312,"connected_time":672000000000,"state":"active","ping":62},{"user_id":76,"name":"Ay yo the pizza here","steam_id":76561198178250598,"connected_time":1132000000000,"state":"active","ping":62},{"user_id":75,"name":"Your Going To Twitter","steam_id":76561199222788613,"connected_time":1413000000000,"state":"active","ping":78},{"user_id":87,"name":"CielAlji","steam_id":76561198090115199,"connected_time":275000000000,"state":"active","ping":56}]},{"server_id":40,"name":"Uncletopia | London | 7 | No Payload","name_short":"lon-7","host":"lon-1.uk.uncletopia.com","port":27075,"enabled":true,"region":"eu","cc":"gb","latitude":51.509865,"longitude":-0.118092,"reserved":0,"last_update":"0001-01-01T00:00:00Z","name_a2s":"Uncletopia | London | 7 | No Payload","protocol":17,"map":"koth_suijin","folder":"tf","game":"Team Fortress","app_id":440,"player_count":23,"max_players":24,"Bots":0,"server_type":"Dedicated","server_os":"Linux","password":true,"vac":true,"version":"7882260","steam_id":85568392924964314,"keywords":["cp","nocrits","nodmgspread","uncletopia"],"game_id":440,"stv_port":27076,"stv_name":"Uncletopia | London | 7 | No Payload | STV","players":[{"user_id":307,"name":"fearlessbot","steam_id":76561199002587064,"connected_time":4443000000000,"state":"active","ping":47},{"user_id":333,"name":"Anoobis","steam_id":76561199419533757,"connected_time":2611000000000,"state":"active","ping":74},{"user_id":346,"name":"God's Goofiest Goober","steam_id":76561198103175187,"connected_time":1282000000000,"state":"active","ping":73},{"user_id":341,"name":"PerskuleBenener","steam_id":76561198156899375,"connected_time":1850000000000,"state":"active","ping":87},{"user_id":356,"name":"Pugzilla","steam_id":76561198108088960,"connected_time":277000000000,"state":"active","ping":150},{"user_id":359,"name":"kotamine","steam_id":76561198068907991,"connected_time":60000000000,"state":"active","ping":76},{"user_id":358,"name":"G/3","steam_id":76561198234844188,"connected_time":151000000000,"state":"active","ping":58},{"user_id":335,"name":"IndigoJones","steam_id":76561198050284262,"connected_time":2385000000000,"state":"active","ping":46},{"user_id":329,"name":"trash","steam_id":76561199133635066,"connected_time":3082000000000,"state":"active","ping":69},{"user_id":293,"name":"Birdseye","steam_id":76561198025852216,"connected_time":4974000000000,"state":"active","ping":46},{"user_id":342,"name":"Envy","steam_id":76561198132723219,"connected_time":1668000000000,"state":"active","ping":123},{"user_id":360,"name":"Dr. Sir Knight","steam_id":76561198146313878,"connected_time":4000000000,"state":"spawning","ping":62},{"user_id":294,"name":"Gimli","steam_id":76561198004149706,"connected_time":4940000000000,"state":"active","ping":62},{"user_id":345,"name":"Garden Freeman","steam_id":76561199073314677,"connected_time":1325000000000,"state":"active","ping":79},{"user_id":361,"name":"deflox","steam_id":76561198087450635,"connected_time":3000000000,"state":"spawning","ping":63},{"user_id":343,"name":"\u003c blank \u003e","steam_id":76561198059375315,"connected_time":1494000000000,"state":"active","ping":83},{"user_id":337,"name":"Providence","steam_id":76561198003920270,"connected_time":2158000000000,"state":"active","ping":69},{"user_id":348,"name":"TheBeardedM1G","steam_id":76561198040208946,"connected_time":1140000000000,"state":"active","ping":47},{"user_id":330,"name":"Lou","steam_id":76561198043835724,"connected_time":2868000000000,"state":"active","ping":56},{"user_id":299,"name":"Tohseno","steam_id":76561197995813008,"connected_time":4725000000000,"state":"active","ping":54},{"user_id":355,"name":"notMe","steam_id":76561198040429367,"connected_time":348000000000,"state":"active","ping":87},{"user_id":354,"name":"Mailer","steam_id":76561198062690074,"connected_time":630000000000,"state":"active","ping":68},{"user_id":344,"name":"Saul Goodman","steam_id":76561198346169853,"connected_time":1332000000000,"state":"active","ping":102}]},{"server_id":41,"name":"Uncletopia | London | 8 | Community","name_short":"lon-8","host":"lon-1.uk.uncletopia.com","port":27085,"enabled":true,"region":"eu","cc":"gb","latitude":51.509865,"longitude":-0.118092,"reserved":0,"last_update":"0001-01-01T00:00:00Z","name_a2s":"Uncletopia | London | 8 | Community","protocol":17,"map":"pl_swiftwater_final1","folder":"tf","game":"Team Fortress","app_id":440,"player_count":0,"max_players":24,"Bots":0,"server_type":"Dedicated","server_os":"Linux","password":true,"vac":true,"version":"7882260","steam_id":85568392924964315,"keywords":["nocrits","nodmgspread","payload","uncletopia"],"game_id":440,"stv_port":27086,"stv_name":"Uncletopia | London | 8 | Community | STV","players":null},{"server_id":300,"name":"Uncletopia | Montréal | 1 | All Maps","name_short":"mtl-1","host":"mtl-1.ca.uncletopia.com","port":27015,"enabled":true,"region":"us-east","cc":"ca","latitude":45.50889,"longitude":-73.56167,"reserved":0,"last_update":"0001-01-01T00:00:00Z","name_a2s":"Uncletopia | Montréal | 1 | All Maps","protocol":17,"map":"pl_snowycoast","folder":"tf","game":"Team Fortress","app_id":440,"player_count":0,"max_players":24,"Bots":0,"server_type":"Dedicated","server_os":"Linux","password":true,"vac":true,"version":"7882260","steam_id":85568392924500087,"keywords":["nocrits","nodmgspread","payload","uncletopia"],"game_id":440,"stv_port":27016,"stv_name":"Uncletopia | Montréal | 1 | All Maps | STV","players":null},{"server_id":301,"name":"Uncletopia | Montréal | 2 | All Maps","name_short":"mtl-2","host":"mtl-1.ca.uncletopia.com","port":27025,"enabled":true,"region":"us-east","cc":"ca","latitude":45.50889,"longitude":-73.56167,"reserved":0,"last_update":"0001-01-01T00:00:00Z","name_a2s":"Uncletopia | Montréal | 2 | All Maps","protocol":17,"map":"pl_pier","folder":"tf","game":"Team Fortress","app_id":440,"player_count":1,"max_players":24,"Bots":0,"server_type":"Dedicated","server_os":"Linux","password":true,"vac":true,"version":"7882260","steam_id":85568392924500088,"keywords":["nocrits","nodmgspread","payload","uncletopia"],"game_id":440,"stv_port":27026,"stv_name":"Uncletopia | Montréal | 2 | All Maps | STV","players":[{"user_id":4,"name":"Goldoche","steam_id":76561197995065045,"connected_time":133000000000,"state":"active","ping":48}]},{"server_id":302,"name":"Uncletopia | Montréal | 3 | All Maps","name_short":"mtl-3","host":"mtl-1.ca.uncletopia.com","port":27035,"enabled":true,"region":"us-east","cc":"ca","latitude":45.50889,"longitude":-73.56167,"reserved":0,"last_update":"0001-01-01T00:00:00Z","name_a2s":"Uncletopia | Montréal | 3 | All Maps","protocol":17,"map":"koth_lakeside_final","folder":"tf","game":"Team Fortress","app_id":440,"player_count":0,"max_players":24,"Bots":0,"server_type":"Dedicated","server_os":"Linux","password":true,"vac":true,"version":"7882260","steam_id":85568392924500089,"keywords":["cp","nocrits","nodmgspread","uncletopia"],"game_id":440,"stv_port":27036,"stv_name":"Uncletopia | Montréal | 3 | All Maps | STV","players":null},{"server_id":303,"name":"Uncletopia | Montréal | 4 | No Payload","name_short":"mtl-4","host":"mtl-1.ca.uncletopia.com","port":27045,"enabled":true,"region":"us-east","cc":"ca","latitude":45.50889,"longitude":-73.56167,"reserved":0,"last_update":"0001-01-01T00:00:00Z","name_a2s":"Uncletopia | Montréal | 4 | No Payload","protocol":17,"map":"cp_altitude","folder":"tf","game":"Team Fortress","app_id":440,"player_count":0,"max_players":24,"Bots":0,"server_type":"Dedicated","server_os":"Linux","password":true,"vac":true,"version":"7882260","steam_id":85568392924500090,"keywords":["cp","nocrits","nodmgspread","uncletopia"],"game_id":440,"stv_port":27046,"stv_name":"Uncletopia | Montréal | 4 | No Payload | STV","players":null},{"server_id":13,"name":"Uncletopia | New York City | 1 | All Maps","name_short":"nyc-1","host":"nyc-1.us.uncletopia.com","port":27015,"enabled":true,"region":"us-east","cc":"us","latitude":40.73061,"longitude":-73.93524,"reserved":0,"last_update":"0001-01-01T00:00:00Z","name_a2s":"Uncletopia | New York City | 1 | All Maps","protocol":17,"map":"cp_altitude","folder":"tf","game":"Team Fortress","app_id":440,"player_count":23,"max_players":24,"Bots":0,"server_type":"Dedicated","server_os":"Linux","password":true,"vac":true,"version":"7882260","steam_id":85568392924469993,"keywords":["cp","nocrits","nodmgspread","uncletopia"],"game_id":440,"stv_port":27016,"stv_name":"Uncletopia | New York City | 1 | All Maps | STV","players":[{"user_id":129,"name":"alN","steam_id":76561198329171346,"connected_time":7634000000000,"state":"spawning","ping":62},{"user_id":223,"name":"Obelix","steam_id":76561198274715109,"connected_time":45000000000,"state":"spawning","ping":41},{"user_id":190,"name":"craf","steam_id":76561198163535075,"connected_time":3175000000000,"state":"spawning","ping":49},{"user_id":205,"name":"cynics","steam_id":76561198086719843,"connected_time":1534000000000,"state":"spawning","ping":73},{"user_id":191,"name":"Churchilla","steam_id":76561198317915810,"connected_time":3170000000000,"state":"spawning","ping":65},{"user_id":182,"name":"wolfgrey139","steam_id":76561199206554751,"connected_time":3764000000000,"state":"spawning","ping":49},{"user_id":210,"name":"Temujin","steam_id":76561198030936583,"connected_time":1125000000000,"state":"spawning","ping":45},{"user_id":186,"name":"Kerflumple","steam_id":76561198050602757,"connected_time":3597000000000,"state":"spawning","ping":48},{"user_id":202,"name":"Kurt Biscuitmaker","steam_id":76561198331701823,"connected_time":2368000000000,"state":"spawning","ping":46},{"user_id":127,"name":"Bryguy","steam_id":76561198092096120,"connected_time":7789000000000,"state":"spawning","ping":61},{"user_id":215,"name":"Minus273C","steam_id":76561197967510404,"connected_time":448000000000,"state":"spawning","ping":62},{"user_id":219,"name":"proon","steam_id":76561198155983535,"connected_time":336000000000,"state":"spawning","ping":54},{"user_id":222,"name":"Ace","steam_id":76561198099039451,"connected_time":78000000000,"state":"spawning","ping":85},{"user_id":203,"name":"[TF2Apples] Intense Green Apple","steam_id":76561198803561622,"connected_time":2037000000000,"state":"spawning","ping":62},{"user_id":226,"name":"Sparky","steam_id":76561198114574421,"connected_time":2000000000,"state":"spawning","ping":88},{"user_id":218,"name":"pogo","steam_id":76561198148913461,"connected_time":350000000000,"state":"spawning","ping":46},{"user_id":170,"name":"Mr.noob","steam_id":76561199200442395,"connected_time":4745000000000,"state":"spawning","ping":138},{"user_id":163,"name":"Bee Sauce","steam_id":76561198055860449,"connected_time":5585000000000,"state":"spawning","ping":78},{"user_id":208,"name":"Nexusthenormie","steam_id":76561198880184146,"connected_time":1187000000000,"state":"spawning","ping":34},{"user_id":189,"name":"Denzel McFlurry","steam_id":76561199231296521,"connected_time":3253000000000,"state":"spawning","ping":54},{"user_id":224,"name":"Ewan","steam_id":76561198003921933,"connected_time":28000000000,"state":"spawning","ping":1018},{"user_id":206,"name":"custodian","steam_id":76561198058793778,"connected_time":1329000000000,"state":"spawning","ping":83},{"user_id":221,"name":"いちごまろ","steam_id":76561198166100997,"connected_time":161000000000,"state":"spawning","ping":68}]},{"server_id":14,"name":"Uncletopia | New York City | 2 | All Maps","name_short":"nyc-2","host":"nyc-1.us.uncletopia.com","port":27025,"enabled":true,"region":"us-east","cc":"us","latitude":40.73061,"longitude":-73.93524,"reserved":0,"last_update":"0001-01-01T00:00:00Z","name_a2s":"Uncletopia | New York City | 2 | All Maps","protocol":17,"map":"cp_process_final","folder":"tf","game":"Team Fortress","app_id":440,"player_count":24,"max_players":24,"Bots":0,"server_type":"Dedicated","server_os":"Linux","password":true,"vac":true,"version":"7882260","steam_id":85568392924469994,"keywords":["cp","nocrits","nodmgspread","uncletopia"],"game_id":440,"stv_port":27026,"stv_name":"Uncletopia | New York City | 2 | All Maps | STV","players":[{"user_id":272,"name":"p4","steam_id":76561198078400787,"connected_time":3027000000000,"state":"active","ping":47},{"user_id":262,"name":"g00bur","steam_id":76561197993622520,"connected_time":3941000000000,"state":"active","ping":56},{"user_id":263,"name":"***FoRgIvEn***","steam_id":76561199216222247,"connected_time":3934000000000,"state":"active","ping":85},{"user_id":275,"name":"Primal","steam_id":76561197983118203,"connected_time":2526000000000,"state":"active","ping":79},{"user_id":300,"name":"Acute Surrealism","steam_id":76561198109618175,"connected_time":613000000000,"state":"active","ping":99},{"user_id":301,"name":"FooFLit","steam_id":76561198236967080,"connected_time":581000000000,"state":"active","ping":66},{"user_id":265,"name":"m","steam_id":76561198069456508,"connected_time":3892000000000,"state":"active","ping":76},{"user_id":303,"name":"Anthoneeee","steam_id":76561199209220671,"connected_time":121000000000,"state":"active","ping":119},{"user_id":295,"name":"Best_Garbage","steam_id":76561199070436446,"connected_time":890000000000,"state":"active","ping":65},{"user_id":279,"name":"Super D Duper","steam_id":76561198078203677,"connected_time":2040000000000,"state":"active","ping":50},{"user_id":293,"name":"Brumpo Tungus","steam_id":76561198054669779,"connected_time":926000000000,"state":"active","ping":62},{"user_id":211,"name":"Birch","steam_id":76561198316231704,"connected_time":9436000000000,"state":"active","ping":37},{"user_id":287,"name":"C papi","steam_id":76561198027779564,"connected_time":1348000000000,"state":"active","ping":59},{"user_id":298,"name":"Jimothy_Jammy","steam_id":76561198238016644,"connected_time":702000000000,"state":"active","ping":72},{"user_id":260,"name":"Solstrom","steam_id":76561198313364985,"connected_time":4608000000000,"state":"active","ping":87},{"user_id":280,"name":"TheKromeDome","steam_id":76561198288951592,"connected_time":2002000000000,"state":"active","ping":159},{"user_id":283,"name":"xen","steam_id":76561198048568188,"connected_time":1570000000000,"state":"active","ping":45},{"user_id":288,"name":"Draykon","steam_id":76561198377247950,"connected_time":1348000000000,"state":"active","ping":40},{"user_id":304,"name":"greeno","steam_id":76561198109901138,"connected_time":75000000000,"state":"active","ping":59},{"user_id":64,"name":"Raptortastic","steam_id":76561198105613110,"connected_time":19790000000000,"state":"active","ping":60},{"user_id":218,"name":"Fartly","steam_id":76561197987805095,"connected_time":7900000000000,"state":"active","ping":105},{"user_id":292,"name":"Fredrick","steam_id":76561197981419964,"connected_time":1060000000000,"state":"active","ping":53},{"user_id":290,"name":"Lost CS player","steam_id":76561198892387723,"connected_time":1238000000000,"state":"active","ping":59},{"user_id":221,"name":"--_Cook_--","steam_id":76561198080855748,"connected_time":7829000000000,"state":"active","ping":52}]},{"server_id":15,"name":"Uncletopia | New York City | 3 | Stopwatch Beta","name_short":"nyc-3","host":"nyc-1.us.uncletopia.com","port":27035,"enabled":true,"region":"us-east","cc":"us","latitude":40.73061,"longitude":-73.93524,"reserved":0,"last_update":"0001-01-01T00:00:00Z","name_a2s":"Uncletopia | New York City | 3 | Stopwatch Beta","protocol":17,"map":"pl_borneo","folder":"tf","game":"Team Fortress","app_id":440,"player_count":0,"max_players":24,"Bots":0,"server_type":"Dedicated","server_os":"Linux","password":true,"vac":true,"version":"7882260","steam_id":85568392924742820,"keywords":["nocrits","nodmgspread","payload","uncletopia"],"game_id":440,"stv_port":27036,"stv_name":"Uncletopia | New York City | 3 | Stopwatch Beta | STV","players":null},{"server_id":16,"name":"Uncletopia | New York City | 4 | Community","name_short":"nyc-4","host":"nyc-1.us.uncletopia.com","port":27045,"enabled":true,"region":"us-east","cc":"us","latitude":40.73061,"longitude":-73.93524,"reserved":0,"last_update":"0001-01-01T00:00:00Z","name_a2s":"Uncletopia | New York City | 4 | Community","protocol":17,"map":"pl_badwater","folder":"tf","game":"Team Fortress","app_id":440,"player_count":0,"max_players":24,"Bots":0,"server_type":"Dedicated","server_os":"Linux","password":true,"vac":true,"version":"7882260","steam_id":85568392924742821,"keywords":["nocrits","nodmgspread","payload","uncletopia"],"game_id":440,"stv_port":27046,"stv_name":"Uncletopia | New York City | 4 | Community | STV","players":null},{"server_id":142,"name":"Uncletopia | São Paulo | 1 | All Maps","name_short":"sao-1","host":"sao-1.br.uncletopia.com","port":27015,"enabled":true,"region":"sa","cc":"br","latitude":-23.533773,"longitude":-46.62529,"reserved":0,"last_update":"0001-01-01T00:00:00Z","name_a2s":"Uncletopia | São Paulo | 1 | All Maps","protocol":17,"map":"cp_coldfront","folder":"tf","game":"Team Fortress","app_id":440,"player_count":0,"max_players":24,"Bots":0,"server_type":"Dedicated","server_os":"Linux","password":true,"vac":true,"version":"7882260","steam_id":85568392924469996,"keywords":["cp","nocrits","nodmgspread","uncletopia"],"game_id":440,"stv_port":27016,"stv_name":"Uncletopia | São Paulo | 1 | All Maps | STV","players":null},{"server_id":143,"name":"Uncletopia | São Paulo | 2 | All Maps","name_short":"sao-2","host":"sao-2.br.uncletopia.com","port":27015,"enabled":true,"region":"sa","cc":"br","latitude":-23.533773,"longitude":-46.62529,"reserved":0,"last_update":"0001-01-01T00:00:00Z","name_a2s":"Uncletopia | São Paulo | 2 | All Maps","protocol":17,"map":"pl_swiftwater_final1","folder":"tf","game":"Team Fortress","app_id":440,"player_count":0,"max_players":24,"Bots":0,"server_type":"Dedicated","server_os":"Linux","password":true,"vac":true,"version":"7882260","steam_id":85568392924485349,"keywords":["nocrits","nodmgspread","payload","uncletopia"],"game_id":440,"stv_port":27016,"stv_name":"Uncletopia | São Paulo | 2 | All Maps | STV","players":null},{"server_id":7,"name":"Uncletopia | Seattle | 1 | All Maps","name_short":"sea-1","host":"sea-1.us.uncletopia.com","port":27015,"enabled":true,"region":"us-west","cc":"us","latitude":47.608013,"longitude":-122.33517,"reserved":0,"last_update":"0001-01-01T00:00:00Z","name_a2s":"Uncletopia | Seattle | 1 | All Maps","protocol":17,"map":"pl_thundermountain","folder":"tf","game":"Team Fortress","app_id":440,"player_count":24,"max_players":24,"Bots":0,"server_type":"Dedicated","server_os":"Linux","password":true,"vac":true,"version":"7882260","steam_id":85568392924469997,"keywords":["nocrits","nodmgspread","payload","uncletopia"],"game_id":440,"stv_port":27016,"stv_name":"Uncletopia | Seattle | 1 | All Maps | STV","players":[{"user_id":254,"name":"ghostFireGloom","steam_id":76561198385231745,"connected_time":1948000000000,"state":"active","ping":57},{"user_id":280,"name":"CR3EP","steam_id":76561198071554862,"connected_time":236000000000,"state":"active","ping":63},{"user_id":275,"name":"Vincent Van Bro","steam_id":76561197966919802,"connected_time":521000000000,"state":"active","ping":56},{"user_id":260,"name":"V∆lume The 1rd","steam_id":76561198133260990,"connected_time":1610000000000,"state":"active","ping":61},{"user_id":288,"name":"Frogzilla","steam_id":76561198077657538,"connected_time":202000000000,"state":"active","ping":76},{"user_id":266,"name":"FidelGuevara","steam_id":76561198368296171,"connected_time":1179000000000,"state":"active","ping":112},{"user_id":263,"name":"rick hardslab","steam_id":76561198048007844,"connected_time":1529000000000,"state":"active","ping":74},{"user_id":289,"name":"keithykeithers","steam_id":76561197995552615,"connected_time":202000000000,"state":"active","ping":47},{"user_id":290,"name":"forest (girldick)","steam_id":76561198157960257,"connected_time":152000000000,"state":"active","ping":41},{"user_id":233,"name":"BuncusBeffer","steam_id":76561198285936616,"connected_time":3164000000000,"state":"active","ping":79},{"user_id":225,"name":"jacix3 [gay wolfgirl]{she/it}","steam_id":76561198205004165,"connected_time":3555000000000,"state":"active","ping":63},{"user_id":265,"name":"M","steam_id":76561198255827013,"connected_time":1254000000000,"state":"active","ping":87},{"user_id":284,"name":"Willy Wonker","steam_id":76561198082944789,"connected_time":215000000000,"state":"active","ping":80},{"user_id":267,"name":"Aqua Tofana","steam_id":76561198351183381,"connected_time":1088000000000,"state":"active","ping":54},{"user_id":231,"name":"AmiableNebula","steam_id":76561198094306627,"connected_time":3280000000000,"state":"active","ping":76},{"user_id":281,"name":"come to butthead","steam_id":76561198020322241,"connected_time":236000000000,"state":"active","ping":56},{"user_id":270,"name":"SlurpyTheDog","steam_id":76561198799733154,"connected_time":766000000000,"state":"active","ping":117},{"user_id":283,"name":"mike, freshly circed","steam_id":76561198225411004,"connected_time":224000000000,"state":"active","ping":70},{"user_id":282,"name":"Username","steam_id":76561198855586261,"connected_time":233000000000,"state":"active","ping":62},{"user_id":271,"name":"voidpuppy","steam_id":76561198799922000,"connected_time":745000000000,"state":"active","ping":78},{"user_id":276,"name":"Rat","steam_id":76561198330059340,"connected_time":430000000000,"state":"active","ping":67},{"user_id":286,"name":"Yakts","steam_id":76561198115044159,"connected_time":215000000000,"state":"active","ping":48},{"user_id":251,"name":"Boyaredeen","steam_id":76561198880492636,"connected_time":2245000000000,"state":"active","ping":49},{"user_id":279,"name":"BlazedBunny","steam_id":76561198243610560,"connected_time":356000000000,"state":"active","ping":128}]},{"server_id":119,"name":"Uncletopia | Seattle | 2 | All Maps","name_short":"sea-2","host":"sea-1.us.uncletopia.com","port":27025,"enabled":true,"region":"us-west","cc":"us","latitude":47.608013,"longitude":-122.33517,"reserved":0,"last_update":"0001-01-01T00:00:00Z","name_a2s":"Uncletopia | Seattle | 2 | All Maps","protocol":17,"map":"cp_process_final","folder":"tf","game":"Team Fortress","app_id":440,"player_count":0,"max_players":24,"Bots":0,"server_type":"Dedicated","server_os":"Linux","password":true,"vac":true,"version":"7882260","steam_id":85568392924469998,"keywords":["cp","nocrits","nodmgspread","uncletopia"],"game_id":440,"stv_port":27026,"stv_name":"Uncletopia | Seattle | 2 | All Maps | STV","players":null},{"server_id":406,"name":"Uncletopia | Seattle | 3 | Stopwatch Beta","name_short":"sea-3","host":"sea-1.us.uncletopia.com","port":27035,"enabled":true,"region":"us-west","cc":"us","latitude":47.608013,"longitude":-122.33517,"reserved":0,"last_update":"0001-01-01T00:00:00Z","name_a2s":"Uncletopia | Seattle | 3 | Stopwatch Beta","protocol":17,"map":"koth_highpass","folder":"tf","game":"Team Fortress","app_id":440,"player_count":0,"max_players":24,"Bots":0,"server_type":"Dedicated","server_os":"Linux","password":true,"vac":true,"version":"7882260","steam_id":85568392924515217,"keywords":["cp","nocrits","nodmgspread","uncletopia"],"game_id":440,"stv_port":27036,"stv_name":"Uncletopia | Seattle | 3 | Stopwatch Beta | STV","players":null},{"server_id":17,"name":"Uncletopia | San Francisco | 1 | All Maps","name_short":"sfo-1","host":"sfo-1.us.uncletopia.com","port":27015,"enabled":true,"region":"us-west","cc":"us","latitude":37.77397,"longitude":-122.4313,"reserved":0,"last_update":"0001-01-01T00:00:00Z","name_a2s":"Uncletopia | San Francisco | 1 | All Maps","protocol":17,"map":"cp_process_final","folder":"tf","game":"Team Fortress","app_id":440,"player_count":0,"max_players":24,"Bots":0,"server_type":"Dedicated","server_os":"Linux","password":true,"vac":true,"version":"7757534","steam_id":85568392924469999,"keywords":["cp","nocrits","nodmgspread","uncletopia"],"game_id":440,"stv_port":27016,"stv_name":"Uncletopia | San Francisco | 1 | All Maps | STV","players":null},{"server_id":18,"name":"Uncletopia | San Francisco | 2 | All Maps","name_short":"sfo-2","host":"sfo-1.us.uncletopia.com","port":27025,"enabled":true,"region":"us-west","cc":"us","latitude":37.77397,"longitude":-122.4313,"reserved":0,"last_update":"0001-01-01T00:00:00Z","name_a2s":"Uncletopia | San Francisco | 2 | All Maps","protocol":17,"map":"koth_highpass","folder":"tf","game":"Team Fortress","app_id":440,"player_count":0,"max_players":24,"Bots":0,"server_type":"Dedicated","server_os":"Linux","password":true,"vac":true,"version":"7757534","steam_id":85568392924470000,"keywords":["cp","nocrits","nodmgspread","uncletopia"],"game_id":440,"stv_port":27026,"stv_name":"Uncletopia | San Francisco | 2 | All Maps | STV","players":null},{"server_id":19,"name":"Uncletopia | San Francisco | 3 | Stopwatch Beta","name_short":"sfo-3","host":"sfo-1.us.uncletopia.com","port":27035,"enabled":true,"region":"us-west","cc":"us","latitude":37.77397,"longitude":-122.4313,"reserved":0,"last_update":"0001-01-01T00:00:00Z","name_a2s":"Uncletopia | San Francisco | 3 | Stopwatch Beta","protocol":17,"map":"koth_lakeside_final","folder":"tf","game":"Team Fortress","app_id":440,"player_count":0,"max_players":24,"Bots":0,"server_type":"Dedicated","server_os":"Linux","password":true,"vac":true,"version":"7757534","steam_id":85568392924742824,"keywords":["cp","nocrits","nodmgspread","uncletopia"],"game_id":440,"stv_port":27036,"stv_name":"Uncletopia | San Francisco | 3 | Stopwatch Beta | STV","players":null},{"server_id":20,"name":"Uncletopia | San Francisco | 4 | Community","name_short":"sfo-4","host":"sfo-1.us.uncletopia.com","port":27045,"enabled":true,"region":"us-west","cc":"us","latitude":37.77397,"longitude":-122.4313,"reserved":0,"last_update":"0001-01-01T00:00:00Z","name_a2s":"Uncletopia | San Francisco | 4 | Community","protocol":17,"map":"cp_altitude","folder":"tf","game":"Team Fortress","app_id":440,"player_count":0,"max_players":24,"Bots":0,"server_type":"Dedicated","server_os":"Linux","password":true,"vac":true,"version":"7757534","steam_id":85568392924742826,"keywords":["cp","nocrits","nodmgspread","uncletopia"],"game_id":440,"stv_port":27046,"stv_name":"Uncletopia | San Francisco | 4 | Community | STV","players":null},{"server_id":141,"name":"Uncletopia | Sydney | 1 | All Maps","name_short":"syd-1","host":"syd-1.au.uncletopia.com","port":27015,"enabled":true,"region":"au","cc":"au","latitude":-33.865143,"longitude":151.2099,"reserved":0,"last_update":"0001-01-01T00:00:00Z","name_a2s":"Uncletopia | Sydney | 1 | All Maps","protocol":17,"map":"pl_pier","folder":"tf","game":"Team Fortress","app_id":440,"player_count":0,"max_players":24,"Bots":0,"server_type":"Dedicated","server_os":"Linux","password":true,"vac":true,"version":"7882260","steam_id":85568392924470001,"keywords":["nocrits","nodmgspread","payload","uncletopia"],"game_id":440,"stv_port":27016,"stv_name":"Uncletopia | Sydney | 1 | All Maps | STV","players":null},{"server_id":123,"name":"Uncletopia | Sydney | 2 | All Maps","name_short":"syd-2","host":"syd-1.au.uncletopia.com","port":27025,"enabled":true,"region":"au","cc":"au","latitude":-33.865143,"longitude":151.2099,"reserved":0,"last_update":"0001-01-01T00:00:00Z","name_a2s":"Uncletopia | Sydney | 2 | All Maps","protocol":17,"map":"pl_swiftwater_final1","folder":"tf","game":"Team Fortress","app_id":440,"player_count":6,"max_players":24,"Bots":0,"server_type":"Dedicated","server_os":"Linux","password":true,"vac":true,"version":"7882260","steam_id":85568392924470002,"keywords":["nocrits","nodmgspread","payload","uncletopia"],"game_id":440,"stv_port":27026,"stv_name":"Uncletopia | Sydney | 2 | All Maps | STV","players":[{"user_id":8,"name":"xAzureZephyr","steam_id":76561198082793586,"connected_time":2000000000000,"state":"active","ping":67},{"user_id":9,"name":"Canon","steam_id":76561198151562518,"connected_time":1963000000000,"state":"active","ping":106},{"user_id":18,"name":"中文单词","steam_id":76561199017211623,"connected_time":434000000000,"state":"active","ping":73},{"user_id":12,"name":"username32157","steam_id":76561199210542463,"connected_time":1395000000000,"state":"active","ping":94},{"user_id":13,"name":"Axel Mate","steam_id":76561198358163411,"connected_time":1095000000000,"state":"active","ping":72},{"user_id":17,"name":"Red Shot 70","steam_id":76561198888787064,"connected_time":544000000000,"state":"active","ping":428}]},{"server_id":395,"name":"Uncletopia | Sydney | 3 | All Maps","name_short":"syd-3","host":"syd-1.au.uncletopia.com","port":27035,"enabled":true,"region":"au","cc":"au","latitude":-33.865143,"longitude":151.2099,"reserved":0,"last_update":"0001-01-01T00:00:00Z","name_a2s":"Uncletopia | Sydney | 3 | All Maps","protocol":17,"map":"pl_badwater","folder":"tf","game":"Team Fortress","app_id":440,"player_count":0,"max_players":24,"Bots":0,"server_type":"Dedicated","server_os":"Linux","password":true,"vac":true,"version":"7882260","steam_id":85568392925194467,"keywords":["nocrits","nodmgspread","payload","uncletopia"],"game_id":440,"stv_port":27036,"stv_name":"Uncletopia | Sydney | 3 | All Maps | STV","players":null},{"server_id":396,"name":"Uncletopia | Sydney | 4 | All Maps","name_short":"syd-4","host":"syd-1.au.uncletopia.com","port":27045,"enabled":true,"region":"au","cc":"au","latitude":-33.865143,"longitude":151.2099,"reserved":0,"last_update":"0001-01-01T00:00:00Z","name_a2s":"Uncletopia | Sydney | 4 | All Maps","protocol":17,"map":"cp_dustbowl","folder":"tf","game":"Team Fortress","app_id":440,"player_count":0,"max_players":24,"Bots":0,"server_type":"Dedicated","server_os":"Linux","password":true,"vac":true,"version":"7882260","steam_id":85568392925397958,"keywords":["cp","nocrits","nodmgspread","uncletopia"],"game_id":440,"stv_port":27046,"stv_name":"Uncletopia | Sydney | 4 | All Maps | STV","players":null},{"server_id":58,"name":"Uncletopia | Sydney | 5 | Stopwatch Beta","name_short":"syd-5","host":"syd-1.au.uncletopia.com","port":27055,"enabled":true,"region":"au","cc":"au","latitude":-33.865143,"longitude":151.2099,"reserved":0,"last_update":"0001-01-01T00:00:00Z","name_a2s":"Uncletopia | Sydney | 5 | Stopwatch Beta","protocol":17,"map":"cp_snakewater_final1","folder":"tf","game":"Team Fortress","app_id":440,"player_count":0,"max_players":24,"Bots":0,"server_type":"Dedicated","server_os":"Linux","password":true,"vac":true,"version":"7882260","steam_id":85568392925397959,"keywords":["cp","nocrits","nodmgspread","uncletopia"],"game_id":440,"stv_port":27056,"stv_name":"Uncletopia | Sydney | 5 | Stopwatch Beta | STV","players":null},{"server_id":59,"name":"Uncletopia | Sydney | 6 | Community","name_short":"syd-6","host":"syd-1.au.uncletopia.com","port":27065,"enabled":true,"region":"au","cc":"au","latitude":-33.865143,"longitude":151.2099,"reserved":0,"last_update":"0001-01-01T00:00:00Z","name_a2s":"Uncletopia | Sydney | 6 | Community","protocol":17,"map":"pl_snowycoast","folder":"tf","game":"Team Fortress","app_id":440,"player_count":0,"max_players":24,"Bots":0,"server_type":"Dedicated","server_os":"Linux","password":true,"vac":true,"version":"7882260","steam_id":85568392925397960,"keywords":["nocrits","nodmgspread","payload","uncletopia"],"game_id":440,"stv_port":27066,"stv_name":"Uncletopia | Sydney | 6 | Community | STV","players":null},{"server_id":49,"name":"Uncletopia | Warsaw | 1 | All Maps","name_short":"waw-1","host":"waw-1.pl.uncletopia.com","port":27015,"enabled":true,"region":"eu","cc":"pl","latitude":52.2297,"longitude":21.017532,"reserved":0,"last_update":"0001-01-01T00:00:00Z","name_a2s":"","protocol":0,"map":"","folder":"","game":"","app_id":0,"player_count":0,"max_players":0,"Bots":0,"server_type":"","server_os":"","password":false,"vac":false,"version":"","steam_id":0,"keywords":null,"game_id":0,"stv_port":0,"stv_name":"","players":null},{"server_id":50,"name":"Uncletopia | Warsaw | 2 | All Maps","name_short":"waw-2","host":"waw-1.pl.uncletopia.com","port":27025,"enabled":true,"region":"eu","cc":"pl","latitude":52.2297,"longitude":21.017532,"reserved":0,"last_update":"0001-01-01T00:00:00Z","name_a2s":"Uncletopia | Warsaw | 2 | All Maps","protocol":17,"map":"cp_dustbowl","folder":"tf","game":"Team Fortress","app_id":440,"player_count":0,"max_players":24,"Bots":0,"server_type":"Dedicated","server_os":"Linux","password":true,"vac":true,"version":"7882260","steam_id":85568392925397851,"keywords":["cp","nocrits","nodmgspread","uncletopia"],"game_id":440,"stv_port":27026,"stv_name":"Uncletopia | Warsaw | 2 | All Maps | STV","players":null},{"server_id":51,"name":"Uncletopia | Warsaw | 3 | All Maps","name_short":"waw-3","host":"waw-1.pl.uncletopia.com","port":27035,"enabled":true,"region":"eu","cc":"pl","latitude":52.2297,"longitude":21.017532,"reserved":0,"last_update":"0001-01-01T00:00:00Z","name_a2s":"Uncletopia | Warsaw | 3 | All Maps","protocol":17,"map":"pl_frontier_final","folder":"tf","game":"Team Fortress","app_id":440,"player_count":0,"max_players":24,"Bots":0,"server_type":"Dedicated","server_os":"Linux","password":true,"vac":true,"version":"7882260","steam_id":85568392925397852,"keywords":["nocrits","nodmgspread","payload","uncletopia"],"game_id":440,"stv_port":27036,"stv_name":"Uncletopia | Warsaw | 3 | All Maps | STV","players":null},{"server_id":52,"name":"Uncletopia | Warsaw | 4 | All Maps","name_short":"waw-4","host":"waw-1.pl.uncletopia.com","port":27045,"enabled":true,"region":"eu","cc":"pl","latitude":52.2297,"longitude":21.017532,"reserved":0,"last_update":"0001-01-01T00:00:00Z","name_a2s":"Uncletopia | Warsaw | 4 | All Maps","protocol":17,"map":"koth_highpass","folder":"tf","game":"Team Fortress","app_id":440,"player_count":0,"max_players":24,"Bots":0,"server_type":"Dedicated","server_os":"Linux","password":true,"vac":true,"version":"7882260","steam_id":85568392925397853,"keywords":["cp","nocrits","nodmgspread","uncletopia"],"game_id":440,"stv_port":27046,"stv_name":"Uncletopia | Warsaw | 4 | All Maps | STV","players":null},{"server_id":53,"name":"Uncletopia | Warsaw | 5 | Stopwatch Beta","name_short":"waw-5","host":"waw-1.pl.uncletopia.com","port":27055,"enabled":true,"region":"eu","cc":"pl","latitude":52.2297,"longitude":21.017532,"reserved":0,"last_update":"0001-01-01T00:00:00Z","name_a2s":"Uncletopia | Warsaw | 5 | Stopwatch Beta","protocol":17,"map":"cp_mountainlab","folder":"tf","game":"Team Fortress","app_id":440,"player_count":0,"max_players":24,"Bots":0,"server_type":"Dedicated","server_os":"Linux","password":true,"vac":true,"version":"7882260","steam_id":85568392925397854,"keywords":["cp","nocrits","nodmgspread","uncletopia"],"game_id":440,"stv_port":27056,"stv_name":"Uncletopia | Warsaw | 5 | Stopwatch Beta | STV","players":null},{"server_id":54,"name":"Uncletopia | Warsaw | 6 | Community","name_short":"waw-6","host":"waw-1.pl.uncletopia.com","port":27065,"enabled":true,"region":"eu","cc":"pl","latitude":52.2297,"longitude":21.017532,"reserved":0,"last_update":"0001-01-01T00:00:00Z","name_a2s":"Uncletopia | Warsaw | 6 | Community","protocol":17,"map":"koth_viaduct","folder":"tf","game":"Team Fortress","app_id":440,"player_count":0,"max_players":24,"Bots":0,"server_type":"Dedicated","server_os":"Linux","password":true,"vac":true,"version":"7882260","steam_id":85568392925397856,"keywords":["cp","nocrits","nodmgspread","uncletopia"],"game_id":440,"stv_port":27066,"stv_name":"Uncletopia | Warsaw | 6 | Community | STV","players":null}]}