{"status":true,"message":"","result":[{"server_id":9,"name":"Uncletopia | Atlanta | 1 | All Maps","name_short":"atl-1","host":"atl-1.us.uncletopia.com","port":27015,"enabled":true,"region":"us-east","cc":"us","latitude":33.753746,"longitude":-84.38633,"reserved":0,"last_update":"0001-01-01T00:00:00Z","name_a2s":"Uncletopia | Atlanta | 1 | All Maps","protocol":17,"map":"pl_snowycoast","folder":"tf","game":"Team Fortress","app_id":440,"player_count":24,"max_players":24,"Bots":0,"server_type":"Dedicated","server_os":"Linux","password":true,"vac":true,"version":"7742253","steam_id":85568392924469982,"keywords":["nocrits","nodmgspread","payload","uncletopia"],"game_id":440,"stv_port":27016,"stv_name":"Uncletopia | Atlanta | 1 | All Maps | STV","players":[{"user_id":197,"name":"Caberknight TF2 (real)","steam_id":76561198038832034,"connected_time":5234000000000,"state":"active","ping":111},{"user_id":82,"name":"noelle","steam_id":76561198386344068,"connected_time":14644000000000,"state":"active","ping":75},{"user_id":191,"name":"Pixler544","steam_id":76561198240575132,"connected_time":5859000000000,"state":"active","ping":79},{"user_id":228,"name":"Magpies Know All","steam_id":76561198868286632,"connected_time":1791000000000,"state":"active","ping":58},{"user_id":240,"name":"ATL1 | merryy","steam_id":76561198968001329,"connected_time":696000000000,"state":"active","ping":46},{"user_id":247,"name":"Liker of Metal Gear Solid","steam_id":76561198125609923,"connected_time":218000000000,"state":"active","ping":62},{"user_id":214,"name":"Obelisk","steam_id":76561198049416866,"connected_time":2701000000000,"state":"active","ping":52},{"user_id":222,"name":"MamaLuigi","steam_id":76561199054368008,"connected_time":2124000000000,"state":"active","ping":82},{"user_id":152,"name":"Coup de Grass","steam_id":76561198011643226,"connected_time":9058000000000,"state":"active","ping":63},{"user_id":210,"name":"SHADOWBURN","steam_id":76561199245670274,"connected_time":3246000000000,"state":"active","ping":105},{"user_id":209,"name":"caberknight tf2","steam_id":76561199273882768,"connected_time":3252000000000,"state":"active","ping":61},{"user_id":174,"name":"Rin \"Hindwing\" Redtail","steam_id":76561199074865638,"connected_time":7488000000000,"state":"active","ping":62},{"user_id":238,"name":"-Enter Name Here-","steam_id":76561198040358938,"connected_time":1061000000000,"state":"active","ping":60},{"user_id":245,"name":"Rick Assley","steam_id":76561198365019199,"connected_time":292000000000,"state":"active","ping":78},{"user_id":241,"name":"ATL1 | on my hunting trip","steam_id":76561198315341646,"connected_time":652000000000,"state":"active","ping":66},{"user_id":231,"name":"callum","steam_id":76561198070918366,"connected_time":1423000000000,"state":"active","ping":97},{"user_id":219,"name":"e0e0","steam_id":76561198293839750,"connected_time":2206000000000,"state":"active","ping":60},{"user_id":239,"name":"ATL1 | MarrowMarauder","steam_id":76561198930350337,"connected_time":885000000000,"state":"active","ping":60},{"user_id":244,"name":"Im High","steam_id":76561198049954886,"connected_time":294000000000,"state":"active","ping":73},{"user_id":206,"name":"Cat_Soldier","steam_id":76561198799974610,"connected_time":4504000000000,"state":"active","ping":66},{"user_id":179,"name":"ATL1 | Lancer Fan Club","steam_id":76561198355495948,"connected_time":6545000000000,"state":"active","ping":88},{"user_id":246,"name":"ATL1 | SparkStorm","steam_id":76561198095817025,"connected_time":266000000000,"state":"active","ping":43},{"user_id":194,"name":"goober","steam_id":76561198943598378,"connected_time":5683000000000,"state":"active","ping":57},{"user_id":226,"name":"floofy","steam_id":76561198389769098,"connected_time":1922000000000,"state":"active","ping":89}]},{"server_id":400,"name":"Uncletopia | Atlanta | 3 | Stopwatch Beta","name_short":"atl-3","host":"atl-1.us.uncletopia.com","port":27035,"enabled":true,"region":"us-east","cc":"us","latitude":33.753746,"longitude":-84.38633,"reserved":0,"last_update":"0001-01-01T00:00:00Z","name_a2s":"Uncletopia | Atlanta | 3 | Stopwatch Beta","protocol":17,"map":"workshop/pl_badwater_pro_v12.ugc2142942074","folder":"tf","game":"Team Fortress","app_id":440,"player_count":22,"max_players":24,"Bots":0,"server_type":"Dedicated","server_os":"Linux","password":true,"vac":true,"version":"7742253","steam_id":85568392924515187,"keywords":["nocrits","nodmgspread","payload","uncletopia"],"game_id":440,"stv_port":27036,"stv_name":"Uncletopia | Atlanta | 3 | Stopwatch Beta | STV","players":[{"user_id":62,"name":"The Industrial Revolution","steam_id":76561198318151266,"connected_time":680000000000,"state":"spawning","ping":346},{"user_id":58,"name":"Haunting","steam_id":76561198088529360,"connected_time":938000000000,"state":"active","ping":80},{"user_id":59,"name":"Waffle Wannabe","steam_id":76561198064510650,"connected_time":937000000000,"state":"active","ping":67},{"user_id":77,"name":"KaleidoscopeOk7981","steam_id":76561198110449520,"connected_time":194000000000,"state":"spawning","ping":131},{"user_id":47,"name":"xyt0nix","steam_id":76561199437938235,"connected_time":1178000000000,"state":"active","ping":48},{"user_id":27,"name":"vinny6","steam_id":76561198386735728,"connected_time":1977000000000,"state":"active","ping":58},{"user_id":26,"name":"tjisconfused","steam_id":76561199231962798,"connected_time":2050000000000,"state":"spawning","ping":236},{"user_id":66,"name":"uzr","steam_id":76561198799343084,"connected_time":552000000000,"state":"active","ping":106},{"user_id":30,"name":"Apple kid","steam_id":76561199357412577,"connected_time":1631000000000,"state":"spawning","ping":128},{"user_id":61,"name":"Alphaspectre","steam_id":76561198152955020,"connected_time":831000000000,"state":"active","ping":65},{"user_id":63,"name":"Raxdu","steam_id":76561198317568239,"connected_time":666000000000,"state":"active","ping":70},{"user_id":83,"name":"scrumpy #SAVE TF2","steam_id":76561199121314219,"connected_time":22000000000,"state":"spawning","ping":103},{"user_id":35,"name":"gustavoerod","steam_id":76561198431330545,"connected_time":1536000000000,"state":"spawning","ping":145},{"user_id":67,"name":"Tywhip","steam_id":76561199207545191,"connected_time":532000000000,"state":"active","ping":159},{"user_id":82,"name":"scuttles","steam_id":76561199250039100,"connected_time":43000000000,"state":"spawning","ping":373},{"user_id":72,"name":"Neoplix","steam_id":76561199012756422,"connected_time":429000000000,"state":"spawning","ping":120},{"user_id":52,"name":"werm","steam_id":76561198111222000,"connected_time":1056000000000,"state":"spawning","ping":276},{"user_id":69,"name":"Yoru","steam_id":76561198119698950,"connected_time":494000000000,"state":"spawning","ping":274},{"user_id":56,"name":"static","steam_id":76561198364916394,"connected_time":1010000000000,"state":"spawning","ping":166},{"user_id":78,"name":"Beanboi","steam_id":76561198977881677,"connected_time":168000000000,"state":"spawning","ping":101},{"user_id":71,"name":"Laundry","steam_id":76561198106170346,"connected_time":455000000000,"state":"spawning","ping":137},{"user_id":81,"name":"Sir Iasis","steam_id":76561198035666760,"connected_time":61000000000,"state":"spawning","ping":128}]},{"server_id":401,"name":"Uncletopia | Atlanta | 4 | No Payload","name_short":"atl-4","host":"atl-1.us.uncletopia.com","port":27045,"enabled":true,"region":"us-east","cc":"us","latitude":33.753746,"longitude":-84.38633,"reserved":0,"last_update":"0001-01-01T00:00:00Z","name_a2s":"Uncletopia | Atlanta | 4 | No Payload","protocol":17,"map":"pl_pier","folder":"tf","game":"Team Fortress","app_id":440,"player_count":0,"max_players":24,"Bots":0,"server_type":"Dedicated","server_os":"Linux","password":true,"vac":true,"version":"7723704","steam_id":85568392924515188,"keywords":["nocrits","nodmgspread","payload","uncletopia"],"game_id":440,"stv_port":27046,"stv_name":"Uncletopia | Atlanta | 4 | No Payload | STV","players":null},{"server_id":2,"name":"Uncletopia | Chicago | 1 | All Maps","name_short":"chi-1","host":"chi-1.us.uncletopia.com","port":27015,"enabled":true,"region":"us-central","cc":"us","latitude":41.881832,"longitude":-87.62318,"reserved":0,"last_update":"0001-01-01T00:00:00Z","name_a2s":"Uncletopia | Chicago | 1 | All Maps","protocol":17,"map":"koth_harvest_final","folder":"tf","game":"Team Fortress","app_id":440,"player_count":25,"max_players":24,"Bots":0,"server_type":"Dedicated","server_os":"Linux","password":true,"vac":true,"version":"7742253","steam_id":85568392924469984,"keywords":["cp","nocrits","nodmgspread","uncletopia"],"game_id":440,"stv_port":27016,"stv_name":"Uncletopia | Chicago | 1 | All Maps | STV","players":[{"user_id":205,"name":"CoconutRice","steam_id":76561198114909164,"connected_time":3641000000000,"state":"active","ping":49},{"user_id":253,"name":"Shturman","steam_id":76561198165437987,"connected_time":618000000000,"state":"active","ping":52},{"user_id":224,"name":"Ch4rl33","steam_id":76561198037008621,"connected_time":2231000000000,"state":"active","ping":50},{"user_id":214,"name":"PuzzlePuddles","steam_id":76561198856494882,"connected_time":2752000000000,"state":"active","ping":65},{"user_id":188,"name":"musicwilldie","steam_id":76561198395833764,"connected_time":5130000000000,"state":"active","ping":59},{"user_id":281,"name":"Neil Degrassy","steam_id":76561198132980934,"connected_time":7000000000,"state":"spawning","ping":52},{"user_id":258,"name":"steakfarmasian","steam_id":76561198212754036,"connected_time":511000000000,"state":"active","ping":60},{"user_id":240,"name":"toontown grandmaster pie throwe","steam_id":76561198075610861,"connected_time":933000000000,"state":"active","ping":62},{"user_id":223,"name":"da.epic.dante.2005","steam_id":76561198069580305,"connected_time":2253000000000,"state":"active","ping":47},{"user_id":245,"name":"One Shot and A Miss","steam_id":76561198124269698,"connected_time":904000000000,"state":"active","ping":63},{"user_id":254,"name":"Boyfriend from FNF","steam_id":76561198144049265,"connected_time":598000000000,"state":"active","ping":54},{"user_id":230,"name":"Big Smoke","steam_id":76561198278375987,"connected_time":1894000000000,"state":"active","ping":73},{"user_id":243,"name":"sosu","steam_id":76561198012675381,"connected_time":922000000000,"state":"active","ping":76},{"user_id":244,"name":"katryna","steam_id":76561198023440304,"connected_time":916000000000,"state":"active","ping":57},{"user_id":252,"name":"OneFestiveCorvid","steam_id":76561199012953221,"connected_time":681000000000,"state":"active","ping":85},{"user_id":257,"name":"stop","steam_id":76561198268686419,"connected_time":544000000000,"state":"active","ping":61},{"user_id":261,"name":"gangstalker","steam_id":76561198363267009,"connected_time":315000000000,"state":"active","ping":67},{"user_id":236,"name":"bite of 87 (real NOT CLICKBAIT)","steam_id":76561198045832398,"connected_time":1717000000000,"state":"active","ping":81},{"user_id":255,"name":"Cuttle's Fish","steam_id":76561198280483257,"connected_time":581000000000,"state":"active","ping":91},{"user_id":249,"name":"soldiertf2","steam_id":76561198031861286,"connected_time":835000000000,"state":"active","ping":84},{"user_id":250,"name":"highWayy","steam_id":76561198042844908,"connected_time":821000000000,"state":"active","ping":72},{"user_id":213,"name":"kosova numer 1","steam_id":76561198114713240,"connected_time":2944000000000,"state":"active","ping":62},{"user_id":220,"name":"Pisser12434","steam_id":76561198835144780,"connected_time":2516000000000,"state":"active","ping":66},{"user_id":199,"name":"[TrC] Dackstrus","steam_id":76561197973518509,"connected_time":4336000000000,"state":"active","ping":109},{"user_id":260,"name":"keffers | Chrimbus Time","steam_id":76561198202338796,"connected_time":350000000000,"state":"active","ping":75}]},{"server_id":106,"name":"Uncletopia | Chicago | 2 | All Maps","name_short":"chi-2","host":"chi-1.us.uncletopia.com","port":27025,"enabled":true,"region":"us-central","cc":"us","latitude":41.881832,"longitude":-87.62318,"reserved":0,"last_update":"0001-01-01T00:00:00Z","name_a2s":"Uncletopia | Chicago | 2 | All Maps","protocol":17,"map":"pl_borneo","folder":"tf","game":"Team Fortress","app_id":440,"player_count":24,"max_players":24,"Bots":0,"server_type":"Dedicated","server_os":"Linux","password":true,"vac":true,"version":"7742253","steam_id":85568392924469985,"keywords":["nocrits","nodmgspread","payload","uncletopia"],"game_id":440,"stv_port":27026,"stv_name":"Uncletopia | Chicago | 2 | All Maps | STV","players":[{"user_id":369,"name":"Fishstall","steam_id":76561198038126034,"connected_time":205000000000,"state":"active","ping":87},{"user_id":370,"name":"Rein","steam_id":76561198300340427,"connected_time":188000000000,"state":"active","ping":71},{"user_id":335,"name":"A Pizza Already","steam_id":76561198064918401,"connected_time":2537000000000,"state":"active","ping":101},{"user_id":368,"name":"supcupman","steam_id":76561198051513866,"connected_time":223000000000,"state":"active","ping":104},{"user_id":353,"name":"The Best Healer","steam_id":76561198079452621,"connected_time":1141000000000,"state":"active","ping":98},{"user_id":324,"name":"scrapmetal.crafter.2009","steam_id":76561198138221795,"connected_time":2657000000000,"state":"active","ping":75},{"user_id":362,"name":"trobin120","steam_id":76561199122420273,"connected_time":602000000000,"state":"active","ping":78},{"user_id":367,"name":"Rornir","steam_id":76561198081829615,"connected_time":293000000000,"state":"active","ping":38},{"user_id":361,"name":"Jacck916","steam_id":76561198176874157,"connected_time":644000000000,"state":"active","ping":112},{"user_id":343,"name":"sansa musa","steam_id":76561198163723555,"connected_time":1450000000000,"state":"active","ping":75},{"user_id":224,"name":"no","steam_id":76561198248853140,"connected_time":4696000000000,"state":"active","ping":47},{"user_id":371,"name":"∀ɐ","steam_id":76561198139718219,"connected_time":178000000000,"state":"active","ping":68},{"user_id":355,"name":"Koishi","steam_id":76561198054541054,"connected_time":912000000000,"state":"active","ping":52},{"user_id":344,"name":"FireQuiz","steam_id":76561198107357249,"connected_time":1448000000000,"state":"active","ping":105},{"user_id":372,"name":"Kora (It/Its)","steam_id":76561198128017814,"connected_time":175000000000,"state":"active","ping":80},{"user_id":373,"name":"Exotic","steam_id":76561198094518524,"connected_time":166000000000,"state":"active","ping":36},{"user_id":375,"name":"TheSpyCrabKing #SaveTF2","steam_id":76561198090177784,"connected_time":147000000000,"state":"active","ping":76},{"user_id":350,"name":"w a l k  q u i e t","steam_id":76561198143453873,"connected_time":1320000000000,"state":"active","ping":60},{"user_id":360,"name":"swooce","steam_id":76561198156232484,"connected_time":686000000000,"state":"active","ping":65},{"user_id":354,"name":"Blartinator","steam_id":76561198083079605,"connected_time":1092000000000,"state":"active","ping":76},{"user_id":340,"name":"donti","steam_id":76561197977223197,"connected_time":1648000000000,"state":"active","ping":49},{"user_id":328,"name":"misterjozo","steam_id":76561198012300755,"connected_time":2615000000000,"state":"active","ping":111},{"user_id":376,"name":"DrPloxo","steam_id":76561198048400997,"connected_time":139000000000,"state":"active","ping":47},{"user_id":365,"name":"bear","steam_id":76561198313696546,"connected_time":547000000000,"state":"active","ping":82}]},{"server_id":402,"name":"Uncletopia | Chicago | 3 | All Maps","name_short":"chi-3","host":"chi-1.us.uncletopia.com","port":27035,"enabled":true,"region":"us-central","cc":"us","latitude":41.881832,"longitude":-87.62318,"reserved":0,"last_update":"0001-01-01T00:00:00Z","name_a2s":"Uncletopia | Chicago | 3 | All Maps","protocol":17,"map":"koth_cascade","folder":"tf","game":"Team Fortress","app_id":440,"player_count":24,"max_players":24,"Bots":0,"server_type":"Dedicated","server_os":"Linux","password":true,"vac":true,"version":"7742253","steam_id":85568392924515191,"keywords":["cp","nocrits","nodmgspread","uncletopia"],"game_id":440,"stv_port":27036,"stv_name":"Uncletopia | Chicago | 3 | All Maps | STV","players":[{"user_id":132,"name":"Young-OG","steam_id":76561198058800479,"connected_time":1601000000000,"state":"active","ping":79},{"user_id":136,"name":"hamdrinker985","steam_id":76561199241807676,"connected_time":1395000000000,"state":"active","ping":92},{"user_id":143,"name":"Critscare","steam_id":76561198087712508,"connected_time":818000000000,"state":"active","ping":45},{"user_id":144,"name":"Awkward silence","steam_id":76561198451905776,"connected_time":777000000000,"state":"active","ping":62},{"user_id":107,"name":"gromit mug","steam_id":76561198806443221,"connected_time":3119000000000,"state":"active","ping":69},{"user_id":120,"name":"lutican","steam_id":76561198215383452,"connected_time":2604000000000,"state":"active","ping":62},{"user_id":135,"name":"Mr. Tickle","steam_id":76561198126684647,"connected_time":1421000000000,"state":"active","ping":58},{"user_id":152,"name":"OctoRocket","steam_id":76561198877250477,"connected_time":179000000000,"state":"active","ping":52},{"user_id":155,"name":"kablong","steam_id":76561199094392047,"connected_time":28000000000,"state":"active","ping":67},{"user_id":102,"name":"Bitkrin","steam_id":76561198995819530,"connected_time":4031000000000,"state":"active","ping":77},{"user_id":141,"name":"eBay","steam_id":76561198061214569,"connected_time":1071000000000,"state":"active","ping":85},{"user_id":138,"name":"FP","steam_id":76561198111259720,"connected_time":1303000000000,"state":"active","ping":66},{"user_id":140,"name":"WesternSky","steam_id":76561198042873863,"connected_time":1159000000000,"state":"active","ping":52},{"user_id":72,"name":"xSwiftblade","steam_id":76561198100635749,"connected_time":7334000000000,"state":"active","ping":73},{"user_id":124,"name":"Scromch","steam_id":76561198045211728,"connected_time":2234000000000,"state":"active","ping":99},{"user_id":131,"name":"NovaSc6ut","steam_id":76561198277163301,"connected_time":1648000000000,"state":"active","ping":85},{"user_id":62,"name":"Red","steam_id":76561197998285162,"connected_time":8127000000000,"state":"active","ping":78},{"user_id":125,"name":"odifin","steam_id":76561198081699142,"connected_time":2224000000000,"state":"active","ping":64},{"user_id":154,"name":"Bread Baker","steam_id":76561198185335103,"connected_time":127000000000,"state":"active","ping":55},{"user_id":118,"name":"king of bogers","steam_id":76561198045731295,"connected_time":2829000000000,"state":"active","ping":67},{"user_id":70,"name":"The Great Eagle Scourge of 1822","steam_id":76561198325086209,"connected_time":7550000000000,"state":"active","ping":106},{"user_id":95,"name":"des","steam_id":76561198079226634,"connected_time":5147000000000,"state":"active","ping":80},{"user_id":139,"name":"derz","steam_id":76561198010742216,"connected_time":1219000000000,"state":"active","ping":50},{"user_id":147,"name":"2L84U","steam_id":76561198079176017,"connected_time":651000000000,"state":"active","ping":92}]},{"server_id":403,"name":"Uncletopia | Chicago | 4 | All Maps","name_short":"chi-4","host":"chi-1.us.uncletopia.com","port":27045,"enabled":true,"region":"us-central","cc":"us","latitude":41.881832,"longitude":-87.62318,"reserved":0,"last_update":"0001-01-01T00:00:00Z","name_a2s":"Uncletopia | Chicago | 4 | All Maps","protocol":17,"map":"koth_viaduct","folder":"tf","game":"Team Fortress","app_id":440,"player_count":0,"max_players":24,"Bots":0,"server_type":"Dedicated","server_os":"Linux","password":true,"vac":true,"version":"7742253","steam_id":85568392924515193,"keywords":["cp","nocrits","nodmgspread","uncletopia"],"game_id":440,"stv_port":27046,"stv_name":"Uncletopia | Chicago | 4 | All Maps | STV","players":null},{"server_id":36,"name":"Uncletopia | Chicago | 5 | All Maps","name_short":"chi-5","host":"chi-2.us.uncletopia.com","port":27015,"enabled":true,"region":"us-central","cc":"us","latitude":41.881832,"longitude":-87.62318,"reserved":0,"last_update":"0001-01-01T00:00:00Z","name_a2s":"Uncletopia | Chicago | 5 | All Maps","protocol":17,"map":"koth_highpass","folder":"tf","game":"Team Fortress","app_id":440,"player_count":0,"max_players":24,"Bots":0,"server_type":"Dedicated","server_os":"Linux","password":true,"vac":true,"version":"7742253","steam_id":85568392924866362,"keywords":["cp","nocrits","nodmgspread","uncletopia"],"game_id":440,"stv_port":27016,"stv_name":"Uncletopia | Chicago | 5 | All Maps | STV","players":null},{"server_id":37,"name":"Uncletopia | Chicago | 6 | All Maps","name_short":"chi-6","host":"chi-2.us.uncletopia.com","port":27025,"enabled":true,"region":"us-central","cc":"us","latitude":41.881832,"longitude":-87.62318,"reserved":0,"last_update":"0001-01-01T00:00:00Z","name_a2s":"Uncletopia | Chicago | 6 | All Maps","protocol":17,"map":"koth_cascade","folder":"tf","game":"Team Fortress","app_id":440,"player_count":0,"max_players":24,"Bots":0,"server_type":"Dedicated","server_os":"Linux","password":true,"vac":true,"version":"7742253","steam_id":85568392924866363,"keywords":["cp","nocrits","nodmgspread","uncletopia"],"game_id":440,"stv_port":27026,"stv_name":"Uncletopia | Chicago | 6 | All Maps | STV","players":null},{"server_id":38,"name":"Uncletopia | Chicago | 7 | Stopwatch Beta","name_short":"chi-7","host":"chi-2.us.uncletopia.com","port":27035,"enabled":true,"region":"us-central","cc":"us","latitude":41.881832,"longitude":-87.62318,"reserved":0,"last_update":"0001-01-01T00:00:00Z","name_a2s":"Uncletopia | Chicago | 7 | Stopwatch Beta","protocol":17,"map":"cp_altitude","folder":"tf","game":"Team Fortress","app_id":440,"player_count":0,"max_players":24,"Bots":0,"server_type":"Dedicated","server_os":"Linux","password":true,"vac":true,"version":"7742253","steam_id":85568392924866364,"keywords":["cp","nocrits","nodmgspread","uncletopia"],"game_id":440,"stv_port":27036,"stv_name":"Uncletopia | Chicago | 7 | Stopwatch Beta | STV","players":null},{"server_id":39,"name":"Uncletopia | Chicago | 8 | Community","name_short":"chi-8","host":"chi-2.us.uncletopia.com","port":27045,"enabled":true,"region":"us-central","cc":"us","latitude":41.881832,"longitude":-87.62318,"reserved":0,"last_update":"0001-01-01T00:00:00Z","name_a2s":"Uncletopia | Chicago | 8 | Community","protocol":17,"map":"koth_cascade","folder":"tf","game":"Team Fortress","app_id":440,"player_count":0,"max_players":24,"Bots":0,"server_type":"Dedicated","server_os":"Linux","password":true,"vac":true,"version":"7742253","steam_id":85568392924866365,"keywords":["cp","nocrits","nodmgspread","uncletopia"],"game_id":440,"stv_port":27046,"stv_name":"Uncletopia | Chicago | 8 | Community | STV","players":null},{"server_id":8,"name":"Uncletopia | Dallas | 1 | All Maps","name_short":"dal-1","host":"dal-1.us.uncletopia.com","port":27015,"enabled":true,"region":"us-central","cc":"us","latitude":32.779167,"longitude":-96.80889,"reserved":0,"last_update":"0001-01-01T00:00:00Z","name_a2s":"Uncletopia | Dallas | 1 | All Maps","protocol":17,"map":"koth_viaduct","folder":"tf","game":"Team Fortress","app_id":440,"player_count":0,"max_players":24,"Bots":0,"server_type":"Dedicated","server_os":"Linux","password":true,"vac":true,"version":"7742253","steam_id":85568392924469986,"keywords":["cp","nocrits","nodmgspread","uncletopia"],"game_id":440,"stv_port":27016,"stv_name":"Uncletopia | Dallas | 1 | All Maps | STV","players":null},{"server_id":108,"name":"Uncletopia | Dallas | 2 | All Maps","name_short":"dal-2","host":"dal-1.us.uncletopia.com","port":27025,"enabled":true,"region":"us-central","cc":"us","latitude":32.779167,"longitude":-96.80889,"reserved":0,"last_update":"0001-01-01T00:00:00Z","name_a2s":"Uncletopia | Dallas | 2 | All Maps","protocol":17,"map":"koth_lakeside_final","folder":"tf","game":"Team Fortress","app_id":440,"player_count":1,"max_players":24,"Bots":0,"server_type":"Dedicated","server_os":"Linux","password":true,"vac":true,"version":"7742253","steam_id":85568392924469988,"keywords":["cp","nocrits","nodmgspread","uncletopia"],"game_id":440,"stv_port":27026,"stv_name":"Uncletopia | Dallas | 2 | All Maps | STV","players":[{"user_id":10,"name":"Modern Day Wizard","steam_id":76561198354689252,"connected_time":80000000000,"state":"active","ping":57}]},{"server_id":5,"name":"Uncletopia | Frankfurt | 1 | All Maps","name_short":"frk-1","host":"frk-1.de.uncletopia.com","port":27015,"enabled":true,"region":"eu","cc":"de","latitude":50.110924,"longitude":8.682127,"reserved":0,"last_update":"0001-01-01T00:00:00Z","name_a2s":"Uncletopia | Frankfurt | 1 | All Maps","protocol":17,"map":"pl_barnblitz","folder":"tf","game":"Team Fortress","app_id":440,"player_count":24,"max_players":24,"Bots":0,"server_type":"Dedicated","server_os":"Linux","password":true,"vac":true,"version":"7742253","steam_id":85568392924469989,"keywords":["nocrits","nodmgspread","payload","uncletopia"],"game_id":440,"stv_port":27016,"stv_name":"Uncletopia | Frankfurt | 1 | All Maps | STV","players":[{"user_id":352,"name":"An unnecessary Jojo reference","steam_id":76561198121764825,"connected_time":325000000000,"state":"active","ping":54},{"user_id":325,"name":"Mor'du","steam_id":76561198274105878,"connected_time":2247000000000,"state":"active","ping":85},{"user_id":353,"name":"daimao622","steam_id":76561198042082838,"connected_time":324000000000,"state":"active","ping":62},{"user_id":317,"name":"Seargant Snagge","steam_id":76561198055227276,"connected_time":2680000000000,"state":"active","ping":80},{"user_id":361,"name":"Viperense","steam_id":76561198036206811,"connected_time":144000000000,"state":"active","ping":79},{"user_id":354,"name":"Doriian","steam_id":76561198071438810,"connected_time":319000000000,"state":"active","ping":77},{"user_id":319,"name":"citronous","steam_id":76561198093290934,"connected_time":2534000000000,"state":"active","ping":54},{"user_id":348,"name":"varnu (enhanced)","steam_id":76561198104896547,"connected_time":370000000000,"state":"active","ping":65},{"user_id":355,"name":"hushhx","steam_id":76561198216200092,"connected_time":306000000000,"state":"active","ping":61},{"user_id":356,"name":"Kruthal","steam_id":76561198245726582,"connected_time":291000000000,"state":"active","ping":74},{"user_id":301,"name":"adolf rizzler","steam_id":76561198015876799,"connected_time":3319000000000,"state":"active","ping":60},{"user_id":310,"name":"Buddy","steam_id":76561198050185582,"connected_time":2881000000000,"state":"active","ping":77},{"user_id":271,"name":"Zateske","steam_id":76561198047446276,"connected_time":6193000000000,"state":"active","ping":65},{"user_id":288,"name":"masatin","steam_id":76561198044967818,"connected_time":5175000000000,"state":"active","ping":60},{"user_id":321,"name":"Piox","steam_id":76561198125689157,"connected_time":2406000000000,"state":"active","ping":75},{"user_id":283,"name":"breaking bow","steam_id":76561198076219289,"connected_time":5246000000000,"state":"active","ping":58},{"user_id":349,"name":"loolman/T.I.D.K.","steam_id":76561199104188934,"connected_time":354000000000,"state":"active","ping":68},{"user_id":343,"name":"ampekk`","steam_id":76561198299893189,"connected_time":720000000000,"state":"active","ping":102},{"user_id":357,"name":"yuh","steam_id":76561199005555839,"connected_time":286000000000,"state":"active","ping":66},{"user_id":351,"name":"Wüstenfuchs","steam_id":76561198453885708,"connected_time":340000000000,"state":"active","ping":59},{"user_id":358,"name":"Darkmaen","steam_id":76561198060543390,"connected_time":272000000000,"state":"active","ping":48},{"user_id":359,"name":"LesaPán","steam_id":76561198158691758,"connected_time":261000000000,"state":"active","ping":78},{"user_id":360,"name":"The Panmaster","steam_id":76561198388432185,"connected_time":260000000000,"state":"active","ping":62},{"user_id":346,"name":"the vvvrinch","steam_id":76561198874811732,"connected_time":465000000000,"state":"active","ping":91}]},{"server_id":110,"name":"Uncletopia | Frankfurt | 2 | All Maps","name_short":"frk-2","host":"frk-1.de.uncletopia.com","port":27025,"enabled":true,"region":"eu","cc":"de","latitude":50.110924,"longitude":8.682127,"reserved":0,"last_update":"0001-01-01T00:00:00Z","name_a2s":"Uncletopia | Frankfurt | 2 | All Maps","protocol":17,"map":"koth_lakeside_final","folder":"tf","game":"Team Fortress","app_id":440,"player_count":0,"max_players":24,"Bots":0,"server_type":"Dedicated","server_os":"Linux","password":true,"vac":true,"version":"7742253","steam_id":85568392924469990,"keywords":["cp","nocrits","nodmgspread","uncletopia"],"game_id":440,"stv_port":27026,"stv_name":"Uncletopia | Frankfurt | 2 | All Maps | STV","players":null},{"server_id":308,"name":"Uncletopia | Frankfurt | 3 | All Maps","name_short":"frk-3","host":"frk-1.de.uncletopia.com","port":27035,"enabled":true,"region":"eu","cc":"de","latitude":50.110924,"longitude":8.682127,"reserved":0,"last_update":"0001-01-01T00:00:00Z","name_a2s":"Uncletopia | Frankfurt | 3 | All Maps","protocol":17,"map":"pl_frontier_final","folder":"tf","game":"Team Fortress","app_id":440,"player_count":24,"max_players":24,"Bots":0,"server_type":"Dedicated","server_os":"Linux","password":true,"vac":true,"version":"7742253","steam_id":85568392924504274,"keywords":["nocrits","nodmgspread","payload","uncletopia"],"game_id":440,"stv_port":27036,"stv_name":"Uncletopia | Frankfurt | 3 | All Maps | STV","players":[{"user_id":464,"name":"wide","steam_id":76561198875441652,"connected_time":1234000000000,"state":"active","ping":72},{"user_id":444,"name":"BoomerTheZoomer","steam_id":76561199153724130,"connected_time":2208000000000,"state":"active","ping":61},{"user_id":481,"name":"Tinsel","steam_id":76561197995290557,"connected_time":213000000000,"state":"active","ping":64},{"user_id":454,"name":"crolee","steam_id":76561198865817316,"connected_time":1722000000000,"state":"active","ping":55},{"user_id":480,"name":"ok","steam_id":76561198052575567,"connected_time":368000000000,"state":"active","ping":75},{"user_id":485,"name":"clipsy11","steam_id":76561199185851191,"connected_time":108000000000,"state":"active","ping":68},{"user_id":432,"name":"TylowStar","steam_id":76561198357107806,"connected_time":2847000000000,"state":"active","ping":66},{"user_id":463,"name":"Rob Rotten","steam_id":76561198170543542,"connected_time":1389000000000,"state":"active","ping":143},{"user_id":478,"name":"muza♥","steam_id":76561198220183377,"connected_time":787000000000,"state":"active","ping":105},{"user_id":483,"name":"Julez","steam_id":76561198045505082,"connected_time":140000000000,"state":"active","ping":75},{"user_id":473,"name":"Force A Nature Pro","steam_id":76561199004214779,"connected_time":1092000000000,"state":"active","ping":95},{"user_id":431,"name":"freemantel30","steam_id":76561198065669800,"connected_time":2916000000000,"state":"active","ping":50},{"user_id":484,"name":"Äärik ♣","steam_id":76561198131871737,"connected_time":137000000000,"state":"active","ping":54},{"user_id":476,"name":"Festivised Paper","steam_id":76561199037749675,"connected_time":891000000000,"state":"active","ping":44},{"user_id":429,"name":"Flint","steam_id":76561197995920776,"connected_time":2989000000000,"state":"active","ping":45},{"user_id":461,"name":"jShroom","steam_id":76561198833885769,"connected_time":1483000000000,"state":"active","ping":71},{"user_id":457,"name":"Gebagemid","steam_id":76561198003684717,"connected_time":1601000000000,"state":"active","ping":65},{"user_id":486,"name":"Lisiasty","steam_id":76561198445810164,"connected_time":104000000000,"state":"active","ping":69},{"user_id":489,"name":"rennie orange 40oz","steam_id":76561198056152479,"connected_time":80000000000,"state":"active","ping":58},{"user_id":450,"name":"beanie_snail","steam_id":76561199111476299,"connected_time":2030000000000,"state":"active","ping":71},{"user_id":458,"name":"matt.roser","steam_id":76561198200195855,"connected_time":1592000000000,"state":"active","ping":58},{"user_id":491,"name":"Bosnian Ketamine Mafia","steam_id":76561198163571788,"connected_time":17000000000,"state":"spawning","ping":94},{"user_id":460,"name":"Erikalus","steam_id":76561198343627716,"connected_time":1539000000000,"state":"active","ping":52},{"user_id":471,"name":"unrik76","steam_id":76561198147134386,"connected_time":1173000000000,"state":"active","ping":73}]},{"server_id":309,"name":"Uncletopia | Frankfurt | 4 | All Maps","name_short":"frk-4","host":"frk-1.de.uncletopia.com","port":27045,"enabled":true,"region":"eu","cc":"de","latitude":50.110924,"longitude":8.682127,"reserved":0,"last_update":"0001-01-01T00:00:00Z","name_a2s":"Uncletopia | Frankfurt | 4 | All Maps","protocol":17,"map":"pl_badwater","folder":"tf","game":"Team Fortress","app_id":440,"player_count":14,"max_players":24,"Bots":0,"server_type":"Dedicated","server_os":"Linux","password":true,"vac":true,"version":"7742253","steam_id":85568392924504275,"keywords":["nocrits","nodmgspread","payload","uncletopia"],"game_id":440,"stv_port":27046,"stv_name":"Uncletopia | Frankfurt | 4 | All Maps | STV","players":[{"user_id":477,"name":"BiasedAcorn","steam_id":76561198970772881,"connected_time":1386000000000,"state":"active","ping":55},{"user_id":476,"name":"Nabler","steam_id":76561198312938996,"connected_time":1619000000000,"state":"active","ping":64},{"user_id":479,"name":"Kompot","steam_id":76561198281613592,"connected_time":1151000000000,"state":"active","ping":65},{"user_id":495,"name":"Tomfool","steam_id":76561197993256481,"connected_time":162000000000,"state":"active","ping":72},{"user_id":496,"name":"UnusualBrit","steam_id":76561198255679838,"connected_time":156000000000,"state":"active","ping":62},{"user_id":497,"name":"The Scout","steam_id":76561199057666269,"connected_time":154000000000,"state":"active","ping":58},{"user_id":500,"name":"AforeKingDwarf","steam_id":76561198043562926,"connected_time":63000000000,"state":"active","ping":60},{"user_id":484,"name":"kornetov.vitalya","steam_id":76561199286034833,"connected_time":700000000000,"state":"active","ping":86},{"user_id":501,"name":"Albert Einstein","steam_id":76561198351190006,"connected_time":53000000000,"state":"active","ping":91},{"user_id":502,"name":"BananaBG676","steam_id":76561199111813554,"connected_time":46000000000,"state":"active","ping":155},{"user_id":499,"name":"XavierSweet","steam_id":76561198091781913,"connected_time":128000000000,"state":"active","ping":62},{"user_id":489,"name":"Zelmor","steam_id":76561197997708311,"connected_time":520000000000,"state":"active","ping":58},{"user_id":503,"name":"mohemmedmokhter2005","steam_id":76561199197650506,"connected_time":31000000000,"state":"active","ping":114},{"user_id":493,"name":"Blyatwork","steam_id":76561198825379598,"connected_time":422000000000,"state":"active","ping":44}]},{"server_id":310,"name":"Uncletopia | Frankfurt | 5 | All Maps","name_short":"frk-5","host":"frk-1.de.uncletopia.com","port":27055,"enabled":true,"region":"eu","cc":"de","latitude":50.110924,"longitude":8.682127,"reserved":0,"last_update":"0001-01-01T00:00:00Z","name_a2s":"Uncletopia | Frankfurt | 5 | All Maps","protocol":17,"map":"pl_barnblitz","folder":"tf","game":"Team Fortress","app_id":440,"player_count":24,"max_players":24,"Bots":0,"server_type":"Dedicated","server_os":"Linux","password":true,"vac":true,"version":"7742253","steam_id":85568392924504277,"keywords":["nocrits","nodmgspread","payload","uncletopia"],"game_id":440,"stv_port":27056,"stv_name":"Uncletopia | Frankfurt | 5 | All Maps | STV","players":[{"user_id":119,"name":"Slooshie","steam_id":76561198008749909,"connected_time":943000000000,"state":"active","ping":69},{"user_id":128,"name":"Clamor_","steam_id":76561198104368295,"connected_time":477000000000,"state":"active","ping":75},{"user_id":110,"name":"fishska","steam_id":76561198051166015,"connected_time":1344000000000,"state":"active","ping":69},{"user_id":40,"name":"Frog","steam_id":76561198043981067,"connected_time":6617000000000,"state":"active","ping":68},{"user_id":122,"name":"2D","steam_id":76561199113659141,"connected_time":852000000000,"state":"active","ping":128},{"user_id":117,"name":"where is my egg?","steam_id":76561198172542535,"connected_time":968000000000,"state":"active","ping":81},{"user_id":129,"name":"YeetusFeetus","steam_id":76561199043598948,"connected_time":28000000000,"state":"spawning","ping":124},{"user_id":114,"name":"generic alias","steam_id":76561198271607226,"connected_time":1299000000000,"state":"active","ping":158},{"user_id":102,"name":"simn","steam_id":76561198159182269,"connected_time":2149000000000,"state":"active","ping":48},{"user_id":86,"name":"Emxx52","steam_id":76561198059374194,"connected_time":2990000000000,"state":"active","ping":74},{"user_id":75,"name":"fundo","steam_id":76561198063910174,"connected_time":3385000000000,"state":"active","ping":75},{"user_id":100,"name":"ŽgræÐek113","steam_id":76561198306883632,"connected_time":2384000000000,"state":"active","ping":61},{"user_id":120,"name":"StinkyVoet","steam_id":76561198189612898,"connected_time":940000000000,"state":"active","ping":58},{"user_id":103,"name":"Ascendary","steam_id":76561198036267241,"connected_time":2115000000000,"state":"active","ping":74},{"user_id":69,"name":"VK2124 :D","steam_id":76561198111130688,"connected_time":3737000000000,"state":"active","ping":55},{"user_id":121,"name":"NaN","steam_id":76561198071098413,"connected_time":887000000000,"state":"active","ping":46},{"user_id":123,"name":"Rameneratu","steam_id":76561198182586538,"connected_time":832000000000,"state":"active","ping":63},{"user_id":125,"name":"SVNJ","steam_id":76561198204480969,"connected_time":788000000000,"state":"active","ping":63},{"user_id":124,"name":"Grunf","steam_id":76561199006140585,"connected_time":828000000000,"state":"active","ping":85},{"user_id":127,"name":"LouPeuu","steam_id":76561198920074360,"connected_time":657000000000,"state":"active","ping":205},{"user_id":80,"name":"mismatch","steam_id":76561198041993514,"connected_time":3321000000000,"state":"active","ping":75},{"user_id":81,"name":"online orca","steam_id":76561197990442043,"connected_time":3316000000000,"state":"active","ping":90},{"user_id":94,"name":"goodguy","steam_id":76561199048167724,"connected_time":2733000000000,"state":"active","ping":126},{"user_id":107,"name":"Pabs :D","steam_id":76561198000016962,"connected_time":1814000000000,"state":"active","ping":60}]},{"server_id":311,"name":"Uncletopia | Frankfurt | 6 | All Maps","name_short":"frk-6","host":"frk-1.de.uncletopia.com","port":27065,"enabled":true,"region":"eu","cc":"de","latitude":50.110924,"longitude":8.682127,"reserved":0,"last_update":"0001-01-01T00:00:00Z","name_a2s":"Uncletopia | Frankfurt | 6 | All Maps","protocol":17,"map":"cp_process_final","folder":"tf","game":"Team Fortress","app_id":440,"player_count":24,"max_players":24,"Bots":0,"server_type":"Dedicated","server_os":"Linux","password":true,"vac":true,"version":"7742253","steam_id":85568392924504278,"keywords":["cp","nocrits","nodmgspread","uncletopia"],"game_id":440,"stv_port":27066,"stv_name":"Uncletopia | Frankfurt | 6 | All Maps | STV","players":[{"user_id":392,"name":"Mr.Pink","steam_id":76561198434042064,"connected_time":3722000000000,"state":"active","ping":66},{"user_id":460,"name":"Leto","steam_id":76561198419429742,"connected_time":619000000000,"state":"active","ping":58},{"user_id":371,"name":"Uncle Owen","steam_id":76561198157999291,"connected_time":5062000000000,"state":"active","ping":84},{"user_id":455,"name":"Oxitocin","steam_id":76561198119542899,"connected_time":698000000000,"state":"active","ping":78},{"user_id":472,"name":"demomallet","steam_id":76561199382535912,"connected_time":419000000000,"state":"active","ping":64},{"user_id":457,"name":"GlassesMode","steam_id":76561199142786677,"connected_time":675000000000,"state":"active","ping":64},{"user_id":458,"name":"demoman","steam_id":76561198046170435,"connected_time":661000000000,"state":"active","ping":58},{"user_id":463,"name":"Use The Finger","steam_id":76561198050203563,"connected_time":604000000000,"state":"active","ping":71},{"user_id":459,"name":"autistic luigi","steam_id":76561199218285040,"connected_time":639000000000,"state":"active","ping":65},{"user_id":425,"name":"Aydin Channel","steam_id":76561198138031624,"connected_time":2215000000000,"state":"active","ping":119},{"user_id":382,"name":"GAJtheSPY","steam_id":76561198256080023,"connected_time":4028000000000,"state":"active","ping":60},{"user_id":426,"name":"mumbler","steam_id":76561197970641239,"connected_time":2190000000000,"state":"active","ping":45},{"user_id":461,"name":"SparkleButt","steam_id":76561199128547077,"connected_time":615000000000,"state":"active","ping":64},{"user_id":462,"name":"HwK!","steam_id":76561198287835588,"connected_time":614000000000,"state":"active","ping":82},{"user_id":438,"name":"Nizzeus","steam_id":76561198243146480,"connected_time":1735000000000,"state":"active","ping":97},{"user_id":393,"name":"Miss.Pink","steam_id":76561198344666389,"connected_time":3667000000000,"state":"active","ping":78},{"user_id":405,"name":"Raeews","steam_id":76561198254646517,"connected_time":3179000000000,"state":"active","ping":49},{"user_id":464,"name":"fröga","steam_id":76561198412559828,"connected_time":595000000000,"state":"active","ping":94},{"user_id":448,"name":"Tedkon","steam_id":76561198034141061,"connected_time":1032000000000,"state":"active","ping":144},{"user_id":465,"name":"Thäas","steam_id":76561198264708239,"connected_time":590000000000,"state":"active","ping":57},{"user_id":473,"name":"gion","steam_id":76561199065121816,"connected_time":214000000000,"state":"active","ping":101},{"user_id":469,"name":"YourDoom","steam_id":76561198080790857,"connected_time":538000000000,"state":"active","ping":45},{"user_id":470,"name":"_Captain Medic_","steam_id":76561198156576122,"connected_time":522000000000,"state":"active","ping":68},{"user_id":475,"name":"Mistress of the universe","steam_id":76561198115988477,"connected_time":25000000000,"state":"spawning","ping":60}]},{"server_id":23,"name":"Uncletopia | Frankfurt | 7 | Stopwatch Beta","name_short":"frk-7","host":"frk-1.de.uncletopia.com","port":27075,"enabled":true,"region":"eu","cc":"de","latitude":50.110924,"longitude":8.682127,"reserved":0,"last_update":"0001-01-01T00:00:00Z","name_a2s":"Uncletopia | Frankfurt | 7 | Stopwatch Beta","protocol":17,"map":"koth_lakeside_final","folder":"tf","game":"Team Fortress","app_id":440,"player_count":7,"max_players":24,"Bots":0,"server_type":"Dedicated","server_os":"Linux","password":true,"vac":true,"version":"7742253","steam_id":85568392924742827,"keywords":["cp","nocrits","nodmgspread","uncletopia"],"game_id":440,"stv_port":27076,"stv_name":"Uncletopia | Frankfurt | 7 | Stopwatch Beta | STV","players":[{"user_id":122,"name":"cosmetical","steam_id":76561198444036574,"connected_time":329000000000,"state":"active","ping":65},{"user_id":118,"name":"submackeen","steam_id":76561198799855913,"connected_time":989000000000,"state":"active","ping":156},{"user_id":119,"name":"space","steam_id":76561199012165476,"connected_time":952000000000,"state":"active","ping":134},{"user_id":121,"name":"Wyro","steam_id":76561199176835169,"connected_time":409000000000,"state":"active","ping":62},{"user_id":123,"name":"Argo","steam_id":76561198353725622,"connected_time":231000000000,"state":"active","ping":150},{"user_id":124,"name":"3armedfalcon","steam_id":76561199257817140,"connected_time":43000000000,"state":"active","ping":159},{"user_id":125,"name":"Sgt. VARD","steam_id":76561198329576763,"connected_time":3000000000,"state":"spawning","ping":83}]},{"server_id":24,"name":"Uncletopia | Frankfurt | 8 | Community","name_short":"frk-8","host":"frk-1.de.uncletopia.com","port":27085,"enabled":true,"region":"eu","cc":"de","latitude":50.110924,"longitude":8.682127,"reserved":0,"last_update":"0001-01-01T00:00:00Z","name_a2s":"Uncletopia | Frankfurt | 8 | Community","protocol":17,"map":"workshop/koth_ramjam_v2_b2.ugc2865676487","folder":"tf","game":"Team Fortress","app_id":440,"player_count":0,"max_players":24,"Bots":0,"server_type":"Dedicated","server_os":"Linux","password":true,"vac":true,"version":"7742253","steam_id":85568392924742828,"keywords":["cp","nocrits","nodmgspread","uncletopia"],"game_id":440,"stv_port":27086,"stv_name":"Uncletopia | Frankfurt | 8 | Community | STV","players":null},{"server_id":202,"name":"Uncletopia | Hong Kong | 1 | All Maps","name_short":"hgk-1","host":"hgk-1.hk.uncletopia.com","port":27015,"enabled":true,"region":"asia","cc":"hk","latitude":22.302711,"longitude":114.177216,"reserved":0,"last_update":"0001-01-01T00:00:00Z","name_a2s":"Uncletopia | Hong Kong | 1 | All Maps","protocol":17,"map":"koth_highpass","folder":"tf","game":"Team Fortress","app_id":440,"player_count":0,"max_players":24,"Bots":0,"server_type":"Dedicated","server_os":"Linux","password":true,"vac":true,"version":"7742253","steam_id":85568392924494504,"keywords":["cp","nocrits","nodmgspread","uncletopia"],"game_id":440,"stv_port":27016,"stv_name":"Uncletopia | Hong Kong | 1 | All Maps | STV","players":null},{"server_id":1,"name":"Uncletopia | Los Angeles | 1 | All Maps","name_short":"lax-1","host":"lax-1.us.uncletopia.com","port":27015,"enabled":true,"region":"us-west","cc":"us","latitude":33.94279,"longitude":-118.41004,"reserved":0,"last_update":"0001-01-01T00:00:00Z","name_a2s":"Uncletopia | Los Angeles | 1 | All Maps","protocol":17,"map":"cp_dustbowl","folder":"tf","game":"Team Fortress","app_id":440,"player_count":0,"max_players":24,"Bots":0,"server_type":"Dedicated","server_os":"Linux","password":true,"vac":true,"version":"7742253","steam_id":85568392924469991,"keywords":["cp","nocrits","nodmgspread","uncletopia"],"game_id":440,"stv_port":27016,"stv_name":"Uncletopia | Los Angeles | 1 | All Maps | STV","players":null},{"server_id":112,"name":"Uncletopia | Los Angeles | 2 | All Maps","name_short":"lax-2","host":"lax-1.us.uncletopia.com","port":27025,"enabled":true,"region":"us-west","cc":"us","latitude":33.94279,"longitude":-118.41004,"reserved":0,"last_update":"0001-01-01T00:00:00Z","name_a2s":"Uncletopia | Los Angeles | 2 | All Maps","protocol":17,"map":"pl_upward","folder":"tf","game":"Team Fortress","app_id":440,"player_count":0,"max_players":24,"Bots":0,"server_type":"Dedicated","server_os":"Linux","password":true,"vac":true,"version":"7742253","steam_id":85568392924469992,"keywords":["nocrits","nodmgspread","payload","uncletopia"],"game_id":440,"stv_port":27026,"stv_name":"Uncletopia | Los Angeles | 2 | All Maps | STV","players":null},{"server_id":324,"name":"Uncletopia | Los Angeles | 3 | All Maps","name_short":"lax-3","host":"lax-1.us.uncletopia.com","port":27035,"enabled":true,"region":"us-west","cc":"us","latitude":33.94279,"longitude":-118.41004,"reserved":0,"last_update":"0001-01-01T00:00:00Z","name_a2s":"Uncletopia | Los Angeles | 3 | All Maps","protocol":17,"map":"pl_borneo","folder":"tf","game":"Team Fortress","app_id":440,"player_count":0,"max_players":24,"Bots":0,"server_type":"Dedicated","server_os":"Linux","password":true,"vac":true,"version":"7742253","steam_id":85568392924510198,"keywords":["nocrits","nodmgspread","payload","uncletopia"],"game_id":440,"stv_port":27036,"stv_name":"Uncletopia | Los Angeles | 3 | All Maps | STV","players":null},{"server_id":25,"name":"Uncletopia | Los Angeles | 4 | Stopwatch Beta","name_short":"lax-4","host":"lax-1.us.uncletopia.com","port":27045,"enabled":true,"region":"us-west","cc":"us","latitude":33.94279,"longitude":-118.41004,"reserved":0,"last_update":"0001-01-01T00:00:00Z","name_a2s":"Uncletopia | Los Angeles | 4 | Stopwatch Beta","protocol":17,"map":"cp_process_final","folder":"tf","game":"Team Fortress","app_id":440,"player_count":0,"max_players":24,"Bots":0,"server_type":"Dedicated","server_os":"Linux","password":true,"vac":true,"version":"7742253","steam_id":85568392924510199,"keywords":["cp","nocrits","nodmgspread","uncletopia"],"game_id":440,"stv_port":27046,"stv_name":"Uncletopia | Los Angeles | 4 | Stopwatch Beta | STV","players":null},{"server_id":11,"name":"Uncletopia | London | 1 | All Maps","name_short":"lon-1","host":"lon-1.uk.uncletopia.com","port":27015,"enabled":true,"region":"eu","cc":"gb","latitude":51.509865,"longitude":-0.118092,"reserved":0,"last_update":"0001-01-01T00:00:00Z","name_a2s":"Uncletopia | London | 1 | All Maps","protocol":17,"map":"pl_swiftwater_final1","folder":"tf","game":"Team Fortress","app_id":440,"player_count":24,"max_players":24,"Bots":0,"server_type":"Dedicated","server_os":"Linux","password":true,"vac":true,"version":"7742253","steam_id":85568392924367362,"keywords":["nocrits","nodmgspread","payload","uncletopia"],"game_id":440,"stv_port":27016,"stv_name":"Uncletopia | London | 1 | All Maps | STV","players":[{"user_id":472,"name":"ciliorkun18","steam_id":76561198228942500,"connected_time":4037000000000,"state":"active","ping":103},{"user_id":493,"name":"Dr. Funkenstein","steam_id":76561197977816210,"connected_time":2711000000000,"state":"active","ping":48},{"user_id":496,"name":"Mr.Dies a lot","steam_id":76561199061602946,"connected_time":1761000000000,"state":"active","ping":89},{"user_id":504,"name":"qualitykk | tfsource2.com","steam_id":76561198835895479,"connected_time":891000000000,"state":"active","ping":67},{"user_id":497,"name":"blue mean-eyes","steam_id":76561198060105180,"connected_time":1464000000000,"state":"active","ping":75},{"user_id":492,"name":"Calmedy","steam_id":76561198295310457,"connected_time":2827000000000,"state":"active","ping":60},{"user_id":484,"name":"Open Mailbox","steam_id":76561198051933580,"connected_time":3070000000000,"state":"active","ping":130},{"user_id":485,"name":"AviSheepie","steam_id":76561198154361272,"connected_time":3019000000000,"state":"active","ping":104},{"user_id":505,"name":"James","steam_id":76561198138558005,"connected_time":66000000000,"state":"active","ping":53},{"user_id":462,"name":"robbob","steam_id":76561198137375391,"connected_time":4574000000000,"state":"active","ping":80},{"user_id":500,"name":"gagalak","steam_id":76561198089979108,"connected_time":1286000000000,"state":"active","ping":106},{"user_id":427,"name":"Borat","steam_id":76561198122226417,"connected_time":7416000000000,"state":"active","ping":38},{"user_id":498,"name":"Lightbulb Monkey","steam_id":76561198045033173,"connected_time":1351000000000,"state":"active","ping":84},{"user_id":501,"name":"EastmoreRandoms.","steam_id":76561198048921203,"connected_time":1284000000000,"state":"active","ping":65},{"user_id":425,"name":"dec","steam_id":76561198009660168,"connected_time":7434000000000,"state":"active","ping":53},{"user_id":435,"name":"Kahvi","steam_id":76561198723244199,"connected_time":6930000000000,"state":"active","ping":81},{"user_id":441,"name":"One armed fiddle enthusiast","steam_id":76561198045847051,"connected_time":6265000000000,"state":"active","ping":61},{"user_id":452,"name":"Twin Fantasy (Mirror To Mirror)","steam_id":76561198397024973,"connected_time":5691000000000,"state":"active","ping":38},{"user_id":468,"name":"profi248","steam_id":76561198144795505,"connected_time":4469000000000,"state":"active","ping":60},{"user_id":491,"name":"Solymr ibn Wali Barad","steam_id":76561198044008976,"connected_time":2897000000000,"state":"active","ping":72},{"user_id":489,"name":"gorrian","steam_id":76561198278199225,"connected_time":2937000000000,"state":"active","ping":72},{"user_id":448,"name":"gracfulldove","steam_id":76561199109120198,"connected_time":5926000000000,"state":"active","ping":157},{"user_id":499,"name":"Dictatorial Karelian","steam_id":76561198196736457,"connected_time":1339000000000,"state":"active","ping":104},{"user_id":480,"name":"Bait","steam_id":76561198335188568,"connected_time":3779000000000,"state":"active","ping":44}]},{"server_id":114,"name":"Uncletopia | London | 2 | All Maps","name_short":"lon-2","host":"lon-1.uk.uncletopia.com","port":27025,"enabled":true,"region":"eu","cc":"gb","latitude":51.509865,"longitude":-0.118092,"reserved":0,"last_update":"0001-01-01T00:00:00Z","name_a2s":"Uncletopia | London | 2 | All Maps","protocol":17,"map":"pl_frontier_final","folder":"tf","game":"Team Fortress","app_id":440,"player_count":24,"max_players":24,"Bots":0,"server_type":"Dedicated","server_os":"Linux","password":true,"vac":true,"version":"7742253","steam_id":85568392924470941,"keywords":["nocrits","nodmgspread","payload","uncletopia"],"game_id":440,"stv_port":27026,"stv_name":"Uncletopia | London | 2 | All Maps | STV","players":[{"user_id":318,"name":"päämies","steam_id":76561198305961381,"connected_time":476000000000,"state":"active","ping":74},{"user_id":313,"name":"cantsniff","steam_id":76561198259668029,"connected_time":1343000000000,"state":"active","ping":47},{"user_id":310,"name":"Mean Green Peen","steam_id":76561198228455736,"connected_time":1421000000000,"state":"active","ping":50},{"user_id":302,"name":"silicon based life form","steam_id":76561199127121346,"connected_time":1613000000000,"state":"active","ping":51},{"user_id":274,"name":"bANji","steam_id":76561198108898161,"connected_time":2585000000000,"state":"active","ping":53},{"user_id":324,"name":"moser23","steam_id":76561197960543171,"connected_time":385000000000,"state":"active","ping":45},{"user_id":281,"name":"the high amby spy","steam_id":76561198212488780,"connected_time":2451000000000,"state":"active","ping":61},{"user_id":311,"name":"blazeeight","steam_id":76561198159456502,"connected_time":1406000000000,"state":"active","ping":53},{"user_id":278,"name":"Sweetcheesus","steam_id":76561198022299033,"connected_time":2500000000000,"state":"active","ping":60},{"user_id":301,"name":"average f2p","steam_id":76561199136308055,"connected_time":1665000000000,"state":"active","ping":70},{"user_id":320,"name":"Sw1pe","steam_id":76561198209796024,"connected_time":431000000000,"state":"active","ping":93},{"user_id":327,"name":"astrom651","steam_id":76561199121128962,"connected_time":331000000000,"state":"active","ping":47},{"user_id":322,"name":"ScottMachine","steam_id":76561198813531432,"connected_time":404000000000,"state":"active","ping":56},{"user_id":304,"name":"Walter Griffin","steam_id":76561199415989636,"connected_time":1588000000000,"state":"active","ping":95},{"user_id":292,"name":"sigma female","steam_id":76561198298576765,"connected_time":2110000000000,"state":"active","ping":59},{"user_id":284,"name":".quickfast.","steam_id":76561199438900919,"connected_time":2392000000000,"state":"active","ping":51},{"user_id":317,"name":"Marssie","steam_id":76561198071368131,"connected_time":746000000000,"state":"active","ping":70},{"user_id":316,"name":"Edla","steam_id":76561198062815315,"connected_time":752000000000,"state":"active","ping":107},{"user_id":315,"name":"cirrem","steam_id":76561198265192382,"connected_time":1183000000000,"state":"active","ping":70},{"user_id":286,"name":"The Funny Cat-Heaby","steam_id":76561198439978112,"connected_time":2363000000000,"state":"active","ping":103},{"user_id":328,"name":"flange","steam_id":76561198040182692,"connected_time":314000000000,"state":"active","ping":45},{"user_id":325,"name":"the joy of recycling","steam_id":76561198415564349,"connected_time":385000000000,"state":"active","ping":67},{"user_id":326,"name":"Medvedeff","steam_id":76561198830058161,"connected_time":347000000000,"state":"active","ping":101},{"user_id":329,"name":"guner drg","steam_id":76561198203486600,"connected_time":306000000000,"state":"active","ping":46}]},{"server_id":320,"name":"Uncletopia | London | 3 | All Maps","name_short":"lon-3","host":"lon-1.uk.uncletopia.com","port":27035,"enabled":true,"region":"eu","cc":"gb","latitude":51.509865,"longitude":-0.118092,"reserved":0,"last_update":"0001-01-01T00:00:00Z","name_a2s":"Uncletopia | London | 3 | All Maps","protocol":17,"map":"cp_process_final","folder":"tf","game":"Team Fortress","app_id":440,"player_count":24,"max_players":24,"Bots":0,"server_type":"Dedicated","server_os":"Linux","password":true,"vac":true,"version":"7742253","steam_id":85568392924510192,"keywords":["cp","nocrits","nodmgspread","uncletopia"],"game_id":440,"stv_port":27036,"stv_name":"Uncletopia | London | 3 | All Maps | STV","players":[{"user_id":373,"name":"Insanitybomb","steam_id":76561198048707708,"connected_time":4765000000000,"state":"active","ping":59},{"user_id":407,"name":"Valoxi","steam_id":76561197995042938,"connected_time":1731000000000,"state":"active","ping":61},{"user_id":430,"name":"nemśs","steam_id":76561198134203031,"connected_time":299000000000,"state":"active","ping":69},{"user_id":432,"name":"Biblo Ballbaggins","steam_id":76561198070593514,"connected_time":190000000000,"state":"active","ping":56},{"user_id":423,"name":"Joseph Stalin LFT","steam_id":76561198033199746,"connected_time":620000000000,"state":"active","ping":51},{"user_id":393,"name":"Españaa","steam_id":76561198879587832,"connected_time":2350000000000,"state":"active","ping":80},{"user_id":419,"name":"Mr.O #deletesniper","steam_id":76561198039567498,"connected_time":862000000000,"state":"active","ping":60},{"user_id":412,"name":"Shortyyy","steam_id":76561198059005030,"connected_time":1001000000000,"state":"active","ping":49},{"user_id":429,"name":"Jaxonfogcap","steam_id":76561198327688357,"connected_time":412000000000,"state":"active","ping":49},{"user_id":413,"name":"Rodia","steam_id":76561197968293161,"connected_time":990000000000,"state":"active","ping":75},{"user_id":425,"name":"Noxifoxis","steam_id":76561198838493783,"connected_time":473000000000,"state":"active","ping":96},{"user_id":339,"name":"Lyra","steam_id":76561198043601838,"connected_time":6765000000000,"state":"active","ping":60},{"user_id":427,"name":"Favi","steam_id":76561198013236935,"connected_time":457000000000,"state":"active","ping":78},{"user_id":343,"name":"the Black Hunter","steam_id":76561198106049954,"connected_time":6363000000000,"state":"active","ping":85},{"user_id":381,"name":"emacs kitty","steam_id":76561199057953617,"connected_time":3447000000000,"state":"active","ping":60},{"user_id":431,"name":"can i have hotdog boss","steam_id":76561198156677470,"connected_time":291000000000,"state":"active","ping":71},{"user_id":324,"name":"lugi","steam_id":76561199020785925,"connected_time":8076000000000,"state":"active","ping":65},{"user_id":377,"name":"mr teleports","steam_id":76561197980736364,"connected_time":4549000000000,"state":"active","ping":76},{"user_id":428,"name":"reho-iwnw","steam_id":76561198348062373,"connected_time":451000000000,"state":"active","ping":123},{"user_id":417,"name":"Krombopulos Michael","steam_id":76561198035780048,"connected_time":984000000000,"state":"active","ping":139},{"user_id":390,"name":"jwesa","steam_id":76561198018330092,"connected_time":2719000000000,"state":"active","ping":91},{"user_id":418,"name":"borderline schizo","steam_id":76561199422417148,"connected_time":984000000000,"state":"active","ping":69},{"user_id":406,"name":"Enforcer02","steam_id":76561197966045944,"connected_time":1824000000000,"state":"active","ping":70}]},{"server_id":321,"name":"Uncletopia | London | 4 | All Maps","name_short":"lon-4","host":"lon-1.uk.uncletopia.com","port":27045,"enabled":true,"region":"eu","cc":"gb","latitude":51.509865,"longitude":-0.118092,"reserved":0,"last_update":"0001-01-01T00:00:00Z","name_a2s":"Uncletopia | London | 4 | All Maps","protocol":17,"map":"pl_badwater","folder":"tf","game":"Team Fortress","app_id":440,"player_count":24,"max_players":24,"Bots":0,"server_type":"Dedicated","server_os":"Linux","password":true,"vac":true,"version":"7742253","steam_id":85568392924510193,"keywords":["nocrits","nodmgspread","payload","uncletopia"],"game_id":440,"stv_port":27046,"stv_name":"Uncletopia | London | 4 | All Maps | STV","players":[{"user_id":375,"name":"Penis Contortionist","steam_id":76561198073663784,"connected_time":2362000000000,"state":"active","ping":43},{"user_id":411,"name":"TheBeardedM1G","steam_id":76561198040208946,"connected_time":920000000000,"state":"active","ping":48},{"user_id":421,"name":"d u k k i","steam_id":76561198071807437,"connected_time":273000000000,"state":"active","ping":97},{"user_id":400,"name":"tugcan3021","steam_id":76561198236015392,"connected_time":1176000000000,"state":"active","ping":124},{"user_id":401,"name":"chayanifaiez27","steam_id":76561199443487443,"connected_time":1173000000000,"state":"active","ping":108},{"user_id":422,"name":"skaipe","steam_id":76561198184881255,"connected_time":249000000000,"state":"active","ping":74},{"user_id":355,"name":"your dads bald spot","steam_id":76561199383437138,"connected_time":3018000000000,"state":"active","ping":133},{"user_id":431,"name":"ZeeRoll","steam_id":76561198131129970,"connected_time":147000000000,"state":"active","ping":74},{"user_id":409,"name":"Flanjam","steam_id":76561198020525331,"connected_time":1020000000000,"state":"active","ping":78},{"user_id":310,"name":"i am bread","steam_id":76561199180277321,"connected_time":5714000000000,"state":"active","ping":50},{"user_id":430,"name":"|==[шприц]\u003e--- RAMA","steam_id":76561198040423618,"connected_time":184000000000,"state":"active","ping":80},{"user_id":390,"name":"Standingo","steam_id":76561198035642311,"connected_time":1737000000000,"state":"active","ping":98},{"user_id":419,"name":"prome alone","steam_id":76561199050383942,"connected_time":606000000000,"state":"active","ping":95},{"user_id":413,"name":"Realist 40","steam_id":76561198052476979,"connected_time":890000000000,"state":"active","ping":90},{"user_id":404,"name":"FishNachoz","steam_id":76561198026519426,"connected_time":1090000000000,"state":"active","ping":58},{"user_id":398,"name":"Like Ahayo LXIX","steam_id":76561198368508349,"connected_time":1440000000000,"state":"active","ping":89},{"user_id":425,"name":"Jason","steam_id":76561198079170457,"connected_time":229000000000,"state":"active","ping":45},{"user_id":414,"name":"k","steam_id":76561198281932740,"connected_time":881000000000,"state":"active","ping":63},{"user_id":426,"name":"Fwebbie","steam_id":76561199006875621,"connected_time":227000000000,"state":"active","ping":55},{"user_id":427,"name":"K.V. #RemoveRandomCrits","steam_id":76561197994832993,"connected_time":212000000000,"state":"active","ping":78},{"user_id":399,"name":"Wolvithe","steam_id":76561198142555612,"connected_time":1330000000000,"state":"active","ping":45},{"user_id":428,"name":"brtaba","steam_id":76561198796334790,"connected_time":212000000000,"state":"active","ping":69},{"user_id":417,"name":"Revettah","steam_id":76561198040442214,"connected_time":837000000000,"state":"active","ping":42},{"user_id":435,"name":"Topme","steam_id":76561198091734693,"connected_time":66000000000,"state":"active","ping":71}]},{"server_id":21,"name":"Uncletopia | London | 5 | All Maps","name_short":"lon-5","host":"lon-1.uk.uncletopia.com","port":27055,"enabled":true,"region":"eu","cc":"gb","latitude":51.509865,"longitude":-0.118092,"reserved":0,"last_update":"0001-01-01T00:00:00Z","name_a2s":"Uncletopia | London | 5 | All Maps","protocol":17,"map":"cp_altitude","folder":"tf","game":"Team Fortress","app_id":440,"player_count":0,"max_players":24,"Bots":0,"server_type":"Dedicated","server_os":"Linux","password":true,"vac":true,"version":"7742253","steam_id":85568392924742829,"keywords":["cp","nocrits","nodmgspread","uncletopia"],"game_id":440,"stv_port":27056,"stv_name":"Uncletopia | London | 5 | All Maps | STV","players":null},{"server_id":22,"name":"Uncletopia | London | 6 | All Maps","name_short":"lon-6","host":"lon-1.uk.uncletopia.com","port":27065,"enabled":true,"region":"eu","cc":"gb","latitude":51.509865,"longitude":-0.118092,"reserved":0,"last_update":"0001-01-01T00:00:00Z","name_a2s":"Uncletopia | London | 6 | All Maps","protocol":17,"map":"koth_cascade","folder":"tf","game":"Team Fortress","app_id":440,"player_count":2,"max_players":24,"Bots":0,"server_type":"Dedicated","server_os":"Linux","password":true,"vac":true,"version":"7742253","steam_id":85568392924742830,"keywords":["cp","nocrits","nodmgspread","uncletopia"],"game_id":440,"stv_port":27066,"stv_name":"Uncletopia | London | 6 | All Maps | STV","players":[{"user_id":25,"name":"Kiwi #savetf2","steam_id":76561198825965947,"connected_time":463000000000,"state":"active","ping":39},{"user_id":27,"name":"Thegoldenhotdog","steam_id":76561198032318242,"connected_time":93000000000,"state":"active","ping":136}]},{"server_id":40,"name":"Uncletopia | London | 7 | No Payload","name_short":"lon-7","host":"lon-1.uk.uncletopia.com","port":27075,"enabled":true,"region":"eu","cc":"gb","latitude":51.509865,"longitude":-0.118092,"reserved":0,"last_update":"0001-01-01T00:00:00Z","name_a2s":"Uncletopia | London | 7 | No Payload","protocol":17,"map":"koth_harvest_final","folder":"tf","game":"Team Fortress","app_id":440,"player_count":0,"max_players":24,"Bots":0,"server_type":"Dedicated","server_os":"Linux","password":true,"vac":true,"version":"7742253","steam_id":85568392924964314,"keywords":["cp","nocrits","nodmgspread","uncletopia"],"game_id":440,"stv_port":27076,"stv_name":"Uncletopia | London | 7 | No Payload | STV","players":null},{"server_id":41,"name":"Uncletopia | London | 8 | Community","name_short":"lon-8","host":"lon-1.uk.uncletopia.com","port":27085,"enabled":true,"region":"eu","cc":"gb","latitude":51.509865,"longitude":-0.118092,"reserved":0,"last_update":"0001-01-01T00:00:00Z","name_a2s":"Uncletopia | London | 8 | Community","protocol":17,"map":"workshop/cp_villa_b19.ugc2113052569","folder":"tf","game":"Team Fortress","app_id":440,"player_count":0,"max_players":24,"Bots":0,"server_type":"Dedicated","server_os":"Linux","password":true,"vac":true,"version":"7742253","steam_id":85568392924964315,"keywords":["cp","nocrits","nodmgspread","uncletopia"],"game_id":440,"stv_port":27086,"stv_name":"Uncletopia | London | 8 | Community | STV","players":null},{"server_id":300,"name":"Uncletopia | Montréal | 1 | All Maps","name_short":"mtl-1","host":"mtl-1.ca.uncletopia.com","port":27015,"enabled":true,"region":"us-east","cc":"ca","latitude":45.50889,"longitude":-73.56167,"reserved":0,"last_update":"0001-01-01T00:00:00Z","name_a2s":"Uncletopia | Montréal | 1 | All Maps","protocol":17,"map":"koth_lakeside_final","folder":"tf","game":"Team Fortress","app_id":440,"player_count":0,"max_players":24,"Bots":0,"server_type":"Dedicated","server_os":"Linux","password":true,"vac":true,"version":"7742253","steam_id":85568392924500087,"keywords":["cp","nocrits","nodmgspread","uncletopia"],"game_id":440,"stv_port":27016,"stv_name":"Uncletopia | Montréal | 1 | All Maps | STV","players":null},{"server_id":301,"name":"Uncletopia | Montréal | 2 | All Maps","name_short":"mtl-2","host":"mtl-1.ca.uncletopia.com","port":27025,"enabled":true,"region":"us-east","cc":"ca","latitude":45.50889,"longitude":-73.56167,"reserved":0,"last_update":"0001-01-01T00:00:00Z","name_a2s":"Uncletopia | Montréal | 2 | All Maps","protocol":17,"map":"koth_lakeside_final","folder":"tf","game":"Team Fortress","app_id":440,"player_count":0,"max_players":24,"Bots":0,"server_type":"Dedicated","server_os":"Linux","password":true,"vac":true,"version":"7742253","steam_id":85568392924500088,"keywords":["cp","nocrits","nodmgspread","uncletopia"],"game_id":440,"stv_port":27026,"stv_name":"Uncletopia | Montréal | 2 | All Maps | STV","players":null},{"server_id":302,"name":"Uncletopia | Montréal | 3 | All Maps","name_short":"mtl-3","host":"mtl-1.ca.uncletopia.com","port":27035,"enabled":true,"region":"us-east","cc":"ca","latitude":45.50889,"longitude":-73.56167,"reserved":0,"last_update":"0001-01-01T00:00:00Z","name_a2s":"Uncletopia | Montréal | 3 | All Maps","protocol":17,"map":"cp_altitude","folder":"tf","game":"Team Fortress","app_id":440,"player_count":0,"max_players":24,"Bots":0,"server_type":"Dedicated","server_os":"Linux","password":true,"vac":true,"version":"7742253","steam_id":85568392924500089,"keywords":["cp","nocrits","nodmgspread","uncletopia"],"game_id":440,"stv_port":27036,"stv_name":"Uncletopia | Montréal | 3 | All Maps | STV","players":null},{"server_id":303,"name":"Uncletopia | Montréal | 4 | No Payload","name_short":"mtl-4","host":"mtl-1.ca.uncletopia.com","port":27045,"enabled":true,"region":"us-east","cc":"ca","latitude":45.50889,"longitude":-73.56167,"reserved":0,"last_update":"0001-01-01T00:00:00Z","name_a2s":"Uncletopia | Montréal | 4 | No Payload","protocol":17,"map":"koth_highpass","folder":"tf","game":"Team Fortress","app_id":440,"player_count":0,"max_players":24,"Bots":0,"server_type":"Dedicated","server_os":"Linux","password":true,"vac":true,"version":"7742253","steam_id":85568392924500090,"keywords":["cp","nocrits","nodmgspread","uncletopia"],"game_id":440,"stv_port":27046,"stv_name":"Uncletopia | Montréal | 4 | No Payload | STV","players":null},{"server_id":13,"name":"Uncletopia | New York City | 1 | All Maps","name_short":"nyc-1","host":"nyc-1.us.uncletopia.com","port":27015,"enabled":true,"region":"us-east","cc":"us","latitude":40.73061,"longitude":-73.93524,"reserved":0,"last_update":"0001-01-01T00:00:00Z","name_a2s":"Uncletopia | New York City | 1 | All Maps","protocol":17,"map":"koth_cascade","folder":"tf","game":"Team Fortress","app_id":440,"player_count":24,"max_players":24,"Bots":0,"server_type":"Dedicated","server_os":"Linux","password":true,"vac":true,"version":"7742253","steam_id":85568392924469993,"keywords":["cp","nocrits","nodmgspread","uncletopia"],"game_id":440,"stv_port":27016,"stv_name":"Uncletopia | New York City | 1 | All Maps | STV","players":[{"user_id":99,"name":"Raincool","steam_id":76561198042953645,"connected_time":2120000000000,"state":"active","ping":58},{"user_id":70,"name":"Spiral Mountain","steam_id":76561198058683715,"connected_time":3824000000000,"state":"active","ping":72},{"user_id":112,"name":"THRILLHO","steam_id":76561198371663047,"connected_time":565000000000,"state":"active","ping":46},{"user_id":98,"name":"Oh my PKCells...","steam_id":76561198008577961,"connected_time":2377000000000,"state":"active","ping":71},{"user_id":117,"name":"Spirit","steam_id":76561199069322627,"connected_time":379000000000,"state":"active","ping":60},{"user_id":95,"name":"lost in spaaaaace","steam_id":76561199085974120,"connected_time":2651000000000,"state":"active","ping":56},{"user_id":91,"name":"plastiquemonk","steam_id":76561198126035719,"connected_time":2825000000000,"state":"active","ping":120},{"user_id":27,"name":"average catgirl","steam_id":76561198124028045,"connected_time":6804000000000,"state":"active","ping":52},{"user_id":113,"name":"Ubadiah","steam_id":76561198329996885,"connected_time":502000000000,"state":"active","ping":45},{"user_id":118,"name":"Eliza (They/She)","steam_id":76561198108938752,"connected_time":338000000000,"state":"active","ping":88},{"user_id":105,"name":"jade harley","steam_id":76561198044363630,"connected_time":1665000000000,"state":"active","ping":45},{"user_id":30,"name":"chompsky honk","steam_id":76561198056742506,"connected_time":6690000000000,"state":"active","ping":46},{"user_id":119,"name":"starkiller_141","steam_id":76561198162426849,"connected_time":329000000000,"state":"active","ping":35},{"user_id":124,"name":"B. Comet","steam_id":76561198058235498,"connected_time":107000000000,"state":"active","ping":152},{"user_id":103,"name":"Bell_Boy","steam_id":76561198397512046,"connected_time":1890000000000,"state":"active","ping":85},{"user_id":88,"name":"All 24 Pokémon movies at once","steam_id":76561198164738311,"connected_time":2875000000000,"state":"active","ping":77},{"user_id":123,"name":"sus12358","steam_id":76561199193963659,"connected_time":196000000000,"state":"active","ping":141},{"user_id":100,"name":"basil","steam_id":76561198075758026,"connected_time":1949000000000,"state":"active","ping":89},{"user_id":115,"name":"the swarm","steam_id":76561198422570099,"connected_time":394000000000,"state":"active","ping":61},{"user_id":122,"name":"G6 MR 1920","steam_id":76561198111669774,"connected_time":214000000000,"state":"active","ping":61},{"user_id":67,"name":"catgirl giantess in heat","steam_id":76561198439042583,"connected_time":4415000000000,"state":"active","ping":103},{"user_id":106,"name":"wack","steam_id":76561198095697330,"connected_time":1348000000000,"state":"active","ping":83},{"user_id":43,"name":"nalezinik","steam_id":76561198030026119,"connected_time":6274000000000,"state":"active","ping":70},{"user_id":116,"name":"makaio","steam_id":76561198067631696,"connected_time":393000000000,"state":"active","ping":87}]},{"server_id":14,"name":"Uncletopia | New York City | 2 | All Maps","name_short":"nyc-2","host":"nyc-1.us.uncletopia.com","port":27025,"enabled":true,"region":"us-east","cc":"us","latitude":40.73061,"longitude":-73.93524,"reserved":0,"last_update":"0001-01-01T00:00:00Z","name_a2s":"Uncletopia | New York City | 2 | All Maps","protocol":17,"map":"pl_snowycoast","folder":"tf","game":"Team Fortress","app_id":440,"player_count":24,"max_players":24,"Bots":0,"server_type":"Dedicated","server_os":"Linux","password":true,"vac":true,"version":"7742253","steam_id":85568392924469994,"keywords":["nocrits","nodmgspread","payload","uncletopia"],"game_id":440,"stv_port":27026,"stv_name":"Uncletopia | New York City | 2 | All Maps | STV","players":[{"user_id":180,"name":"Fudgely","steam_id":76561198039425862,"connected_time":363000000000,"state":"active","ping":60},{"user_id":181,"name":"Quansen","steam_id":76561198151594550,"connected_time":324000000000,"state":"active","ping":66},{"user_id":171,"name":"Rudy","steam_id":76561198013456828,"connected_time":949000000000,"state":"active","ping":44},{"user_id":170,"name":"Whizzo the Clown","steam_id":76561197995910627,"connected_time":977000000000,"state":"active","ping":67},{"user_id":130,"name":"SuperJagops","steam_id":76561198034689716,"connected_time":4000000000000,"state":"active","ping":55},{"user_id":182,"name":"LegendaryMister151","steam_id":76561198064890524,"connected_time":264000000000,"state":"active","ping":82},{"user_id":183,"name":"Protato","steam_id":76561198061182563,"connected_time":253000000000,"state":"active","ping":61},{"user_id":167,"name":"-W3E- grim10465","steam_id":76561198045698581,"connected_time":1189000000000,"state":"active","ping":44},{"user_id":169,"name":"HappiGi","steam_id":76561198431439548,"connected_time":987000000000,"state":"active","ping":82},{"user_id":184,"name":"Zivision","steam_id":76561198116870830,"connected_time":242000000000,"state":"active","ping":82},{"user_id":177,"name":"pablo","steam_id":76561198395577807,"connected_time":444000000000,"state":"active","ping":42},{"user_id":165,"name":"wool","steam_id":76561198869689933,"connected_time":1310000000000,"state":"active","ping":55},{"user_id":143,"name":"Skadewsh","steam_id":76561198102772209,"connected_time":3064000000000,"state":"active","ping":64},{"user_id":137,"name":"JPSS","steam_id":76561199239530493,"connected_time":3462000000000,"state":"active","ping":78},{"user_id":179,"name":"PunchGhost","steam_id":76561198041668043,"connected_time":410000000000,"state":"active","ping":69},{"user_id":153,"name":"Sprucelass","steam_id":76561197998391724,"connected_time":2021000000000,"state":"active","ping":60},{"user_id":134,"name":"Bother","steam_id":76561198336750909,"connected_time":3645000000000,"state":"active","ping":48},{"user_id":185,"name":"we","steam_id":76561198994761483,"connected_time":225000000000,"state":"active","ping":131},{"user_id":188,"name":"gps","steam_id":76561198067492304,"connected_time":134000000000,"state":"active","ping":89},{"user_id":189,"name":"batheman63","steam_id":76561198881818552,"connected_time":91000000000,"state":"active","ping":56},{"user_id":142,"name":"Psychosis","steam_id":76561198078659070,"connected_time":3269000000000,"state":"active","ping":73},{"user_id":178,"name":"Fantastibad","steam_id":76561199087329262,"connected_time":436000000000,"state":"active","ping":61},{"user_id":163,"name":"The Rizzler","steam_id":76561198142699958,"connected_time":1766000000000,"state":"active","ping":95},{"user_id":187,"name":"Amoxacin","steam_id":76561198171121818,"connected_time":160000000000,"state":"active","ping":66}]},{"server_id":15,"name":"Uncletopia | New York City | 3 | Stopwatch Beta","name_short":"nyc-3","host":"nyc-1.us.uncletopia.com","port":27035,"enabled":true,"region":"us-east","cc":"us","latitude":40.73061,"longitude":-73.93524,"reserved":0,"last_update":"0001-01-01T00:00:00Z","name_a2s":"Uncletopia | New York City | 3 | Stopwatch Beta","protocol":17,"map":"koth_lakeside_final","folder":"tf","game":"Team Fortress","app_id":440,"player_count":0,"max_players":24,"Bots":0,"server_type":"Dedicated","server_os":"Linux","password":true,"vac":true,"version":"7742253","steam_id":85568392924742820,"keywords":["cp","nocrits","nodmgspread","uncletopia"],"game_id":440,"stv_port":27036,"stv_name":"Uncletopia | New York City | 3 | Stopwatch Beta | STV","players":null},{"server_id":16,"name":"Uncletopia | New York City | 4 | Community","name_short":"nyc-4","host":"nyc-1.us.uncletopia.com","port":27045,"enabled":true,"region":"us-east","cc":"us","latitude":40.73061,"longitude":-73.93524,"reserved":0,"last_update":"0001-01-01T00:00:00Z","name_a2s":"Uncletopia | New York City | 4 | Community","protocol":17,"map":"pl_barnblitz","folder":"tf","game":"Team Fortress","app_id":440,"player_count":0,"max_players":24,"Bots":0,"server_type":"Dedicated","server_os":"Linux","password":true,"vac":true,"version":"7742253","steam_id":85568392924742821,"keywords":["nocrits","nodmgspread","payload","uncletopia"],"game_id":440,"stv_port":27046,"stv_name":"Uncletopia | New York City | 4 | Community | STV","players":null},{"server_id":142,"name":"Uncletopia | São Paulo | 1 | All Maps","name_short":"sao-1","host":"sao-1.br.uncletopia.com","port":27015,"enabled":true,"region":"sa","cc":"br","latitude":-23.533773,"longitude":-46.62529,"reserved":0,"last_update":"0001-01-01T00:00:00Z","name_a2s":"Uncletopia | São Paulo | 1 | All Maps","protocol":17,"map":"koth_harvest_final","folder":"tf","game":"Team Fortress","app_id":440,"player_count":1,"max_players":24,"Bots":0,"server_type":"Dedicated","server_os":"Linux","password":true,"vac":true,"version":"7742253","steam_id":85568392924469996,"keywords":["cp","nocrits","nodmgspread","uncletopia"],"game_id":440,"stv_port":27016,"stv_name":"Uncletopia | São Paulo | 1 | All Maps | STV","players":[{"user_id":22,"name":"Mikael_01","steam_id":76561199080253129,"connected_time":573000000000,"state":"active","ping":41}]},{"server_id":143,"name":"Uncletopia | São Paulo | 2 | All Maps","name_short":"sao-2","host":"sao-2.br.uncletopia.com","port":27015,"enabled":true,"region":"sa","cc":"br","latitude":-23.533773,"longitude":-46.62529,"reserved":0,"last_update":"0001-01-01T00:00:00Z","name_a2s":"Uncletopia | São Paulo | 2 | All Maps","protocol":17,"map":"koth_lakeside_final","folder":"tf","game":"Team Fortress","app_id":440,"player_count":7,"max_players":24,"Bots":0,"server_type":"Dedicated","server_os":"Linux","password":true,"vac":true,"version":"7742253","steam_id":85568392924485349,"keywords":["cp","nocrits","nodmgspread","uncletopia"],"game_id":440,"stv_port":27016,"stv_name":"Uncletopia | São Paulo | 2 | All Maps | STV","players":[{"user_id":8,"name":"mancha eletrica","steam_id":76561198999280972,"connected_time":1167000000000,"state":"active","ping":51},{"user_id":9,"name":"belitcha","steam_id":76561199054267089,"connected_time":1063000000000,"state":"active","ping":40},{"user_id":12,"name":"Liniker","steam_id":76561198948736406,"connected_time":756000000000,"state":"active","ping":46},{"user_id":13,"name":"Rogerium","steam_id":76561198366237958,"connected_time":737000000000,"state":"active","ping":45},{"user_id":14,"name":"즈하","steam_id":76561198143438576,"connected_time":507000000000,"state":"active","ping":30},{"user_id":15,"name":"AtUm","steam_id":76561199025395478,"connected_time":203000000000,"state":"active","ping":58},{"user_id":16,"name":"ZantyC","steam_id":76561199012003565,"connected_time":106000000000,"state":"active","ping":72}]},{"server_id":7,"name":"Uncletopia | Seattle | 1 | All Maps","name_short":"sea-1","host":"sea-1.us.uncletopia.com","port":27015,"enabled":true,"region":"us-west","cc":"us","latitude":47.608013,"longitude":-122.33517,"reserved":0,"last_update":"0001-01-01T00:00:00Z","name_a2s":"Uncletopia | Seattle | 1 | All Maps","protocol":17,"map":"pl_upward","folder":"tf","game":"Team Fortress","app_id":440,"player_count":17,"max_players":24,"Bots":0,"server_type":"Dedicated","server_os":"Linux","password":true,"vac":true,"version":"7742253","steam_id":85568392924469997,"keywords":["nocrits","nodmgspread","payload","uncletopia"],"game_id":440,"stv_port":27016,"stv_name":"Uncletopia | Seattle | 1 | All Maps | STV","players":[{"user_id":11,"name":"FestiveAnarchist","steam_id":76561199116042550,"connected_time":1713000000000,"state":"active","ping":98},{"user_id":12,"name":"dookie nukem","steam_id":76561199195655939,"connected_time":1557000000000,"state":"active","ping":160},{"user_id":13,"name":"PachucoWaffle","steam_id":76561198051491032,"connected_time":1376000000000,"state":"active","ping":67},{"user_id":14,"name":"forest ranger","steam_id":76561198203851303,"connected_time":1110000000000,"state":"active","ping":76},{"user_id":15,"name":"Gaming","steam_id":76561198327632113,"connected_time":1071000000000,"state":"active","ping":47},{"user_id":17,"name":"SesataPomang","steam_id":76561198145133059,"connected_time":1032000000000,"state":"active","ping":99},{"user_id":19,"name":"squash","steam_id":76561198150281353,"connected_time":487000000000,"state":"active","ping":59},{"user_id":21,"name":"mp3dotjpg","steam_id":76561199086931196,"connected_time":290000000000,"state":"active","ping":61},{"user_id":22,"name":"Luca","steam_id":76561198125087140,"connected_time":285000000000,"state":"active","ping":45},{"user_id":23,"name":"bibliomaniac","steam_id":76561198290256750,"connected_time":255000000000,"state":"active","ping":77},{"user_id":24,"name":"bad player","steam_id":76561198957233710,"connected_time":255000000000,"state":"active","ping":74},{"user_id":25,"name":"the cats name is misty","steam_id":76561198366828434,"connected_time":223000000000,"state":"active","ping":94},{"user_id":26,"name":"Skabbety","steam_id":76561198168044257,"connected_time":222000000000,"state":"active","ping":35},{"user_id":27,"name":"Phoenix_The_Hellhound™","steam_id":76561199210503134,"connected_time":217000000000,"state":"spawning","ping":427},{"user_id":28,"name":"fish","steam_id":76561198984893161,"connected_time":82000000000,"state":"active","ping":83},{"user_id":29,"name":"The Woman Disrespecter","steam_id":76561198964373968,"connected_time":44000000000,"state":"active","ping":82},{"user_id":30,"name":"gordon freeman christmas","steam_id":76561198367735460,"connected_time":19000000000,"state":"active","ping":97}]},{"server_id":119,"name":"Uncletopia | Seattle | 2 | All Maps","name_short":"sea-2","host":"sea-1.us.uncletopia.com","port":27025,"enabled":true,"region":"us-west","cc":"us","latitude":47.608013,"longitude":-122.33517,"reserved":0,"last_update":"0001-01-01T00:00:00Z","name_a2s":"Uncletopia | Seattle | 2 | All Maps","protocol":17,"map":"cp_sunshine","folder":"tf","game":"Team Fortress","app_id":440,"player_count":0,"max_players":24,"Bots":0,"server_type":"Dedicated","server_os":"Linux","password":true,"vac":true,"version":"7742253","steam_id":85568392924469998,"keywords":["cp","nocrits","nodmgspread","uncletopia"],"game_id":440,"stv_port":27026,"stv_name":"Uncletopia | Seattle | 2 | All Maps | STV","players":null},{"server_id":406,"name":"Uncletopia | Seattle | 3 | Stopwatch Beta","name_short":"sea-3","host":"sea-1.us.uncletopia.com","port":27035,"enabled":true,"region":"us-west","cc":"us","latitude":47.608013,"longitude":-122.33517,"reserved":0,"last_update":"0001-01-01T00:00:00Z","name_a2s":"Uncletopia | Seattle | 3 | Stopwatch Beta","protocol":17,"map":"pl_upward","folder":"tf","game":"Team Fortress","app_id":440,"player_count":0,"max_players":24,"Bots":0,"server_type":"Dedicated","server_os":"Linux","password":true,"vac":false,"version":"7742253","steam_id":0,"keywords":["nocrits","nodmgspread","payload","uncletopia"],"game_id":440,"stv_port":27036,"stv_name":"Uncletopia | Seattle | 3 | Stopwatch Beta | STV","players":null},{"server_id":17,"name":"Uncletopia | San Francisco | 1 | All Maps","name_short":"sfo-1","host":"sfo-1.us.uncletopia.com","port":27015,"enabled":true,"region":"us-west","cc":"us","latitude":37.77397,"longitude":-122.4313,"reserved":0,"last_update":"0001-01-01T00:00:00Z","name_a2s":"Uncletopia | San Francisco | 1 | All Maps","protocol":17,"map":"koth_cascade","folder":"tf","game":"Team Fortress","app_id":440,"player_count":0,"max_players":24,"Bots":0,"server_type":"Dedicated","server_os":"Linux","password":true,"vac":true,"version":"7742253","steam_id":85568392924469999,"keywords":["cp","nocrits","nodmgspread","uncletopia"],"game_id":440,"stv_port":27016,"stv_name":"Uncletopia | San Francisco | 1 | All Maps | STV","players":null},{"server_id":18,"name":"Uncletopia | San Francisco | 2 | All Maps","name_short":"sfo-2","host":"sfo-1.us.uncletopia.com","port":27025,"enabled":true,"region":"us-west","cc":"us","latitude":37.77397,"longitude":-122.4313,"reserved":0,"last_update":"0001-01-01T00:00:00Z","name_a2s":"Uncletopia | San Francisco | 2 | All Maps","protocol":17,"map":"pl_pier","folder":"tf","game":"Team Fortress","app_id":440,"player_count":24,"max_players":24,"Bots":0,"server_type":"Dedicated","server_os":"Linux","password":true,"vac":true,"version":"7742253","steam_id":85568392924470000,"keywords":["nocrits","nodmgspread","payload","uncletopia"],"game_id":440,"stv_port":27026,"stv_name":"Uncletopia | San Francisco | 2 | All Maps | STV","players":[{"user_id":4,"name":"IF I WIN, YOU ARE STINKY!","steam_id":76561198093368703,"connected_time":3719000000000,"state":"active","ping":59},{"user_id":32,"name":"AmirKhaan","steam_id":76561198992403254,"connected_time":2666000000000,"state":"active","ping":114},{"user_id":48,"name":"KaiserArc","steam_id":76561198201702142,"connected_time":2120000000000,"state":"active","ping":52},{"user_id":72,"name":"jennco","steam_id":76561198212421513,"connected_time":535000000000,"state":"active","ping":51},{"user_id":73,"name":"Wookie","steam_id":76561198019780053,"connected_time":507000000000,"state":"active","ping":122},{"user_id":70,"name":"Gooster","steam_id":76561198255311543,"connected_time":705000000000,"state":"active","ping":139},{"user_id":59,"name":"TheOtherBrush","steam_id":76561199048222977,"connected_time":1552000000000,"state":"active","ping":59},{"user_id":43,"name":"hoOmIN","steam_id":76561198334947079,"connected_time":2275000000000,"state":"active","ping":51},{"user_id":68,"name":"Final_MarioXD","steam_id":76561199184862419,"connected_time":763000000000,"state":"active","ping":102},{"user_id":66,"name":"Stapler","steam_id":76561198099295077,"connected_time":811000000000,"state":"active","ping":48},{"user_id":78,"name":"Frank Accardi","steam_id":76561198017275707,"connected_time":160000000000,"state":"active","ping":77},{"user_id":77,"name":"/r/redscareforcishetmen","steam_id":76561198045926594,"connected_time":313000000000,"state":"active","ping":56},{"user_id":16,"name":"Biosock Infiknit","steam_id":76561198072693794,"connected_time":3123000000000,"state":"active","ping":105},{"user_id":61,"name":"Dimple","steam_id":76561198980324190,"connected_time":1333000000000,"state":"active","ping":71},{"user_id":53,"name":"Kgs","steam_id":76561198972639004,"connected_time":1800000000000,"state":"active","ping":136},{"user_id":71,"name":"Doom","steam_id":76561199093691968,"connected_time":568000000000,"state":"active","ping":60},{"user_id":46,"name":"corbenis","steam_id":76561199012442511,"connected_time":2211000000000,"state":"active","ping":62},{"user_id":74,"name":"Lonagen","steam_id":76561198157158506,"connected_time":486000000000,"state":"active","ping":74},{"user_id":30,"name":"hack fraud","steam_id":76561198015036066,"connected_time":2792000000000,"state":"active","ping":69},{"user_id":75,"name":"Thatoddboi","steam_id":76561199427185916,"connected_time":451000000000,"state":"active","ping":47},{"user_id":76,"name":"professional_Hoovy","steam_id":76561199032560322,"connected_time":398000000000,"state":"active","ping":149},{"user_id":38,"name":"Tmiracle","steam_id":76561198052375275,"connected_time":2488000000000,"state":"active","ping":52},{"user_id":60,"name":"KingTinkerer","steam_id":76561198226856548,"connected_time":1541000000000,"state":"active","ping":109},{"user_id":64,"name":"Sivinus","steam_id":76561198025589541,"connected_time":1094000000000,"state":"active","ping":71}]},{"server_id":19,"name":"Uncletopia | San Francisco | 3 | Stopwatch Beta","name_short":"sfo-3","host":"sfo-1.us.uncletopia.com","port":27035,"enabled":true,"region":"us-west","cc":"us","latitude":37.77397,"longitude":-122.4313,"reserved":0,"last_update":"0001-01-01T00:00:00Z","name_a2s":"Uncletopia | San Francisco | 3 | Stopwatch Beta","protocol":17,"map":"cp_snakewater_final1","folder":"tf","game":"Team Fortress","app_id":440,"player_count":0,"max_players":24,"Bots":0,"server_type":"Dedicated","server_os":"Linux","password":true,"vac":true,"version":"7742253","steam_id":85568392924742824,"keywords":["cp","nocrits","nodmgspread","uncletopia"],"game_id":440,"stv_port":27036,"stv_name":"Uncletopia | San Francisco | 3 | Stopwatch Beta | STV","players":null},{"server_id":20,"name":"Uncletopia | San Francisco | 4 | Community","name_short":"sfo-4","host":"sfo-1.us.uncletopia.com","port":27045,"enabled":true,"region":"us-west","cc":"us","latitude":37.77397,"longitude":-122.4313,"reserved":0,"last_update":"0001-01-01T00:00:00Z","name_a2s":"Uncletopia | San Francisco | 4 | Community","protocol":17,"map":"cp_altitude","folder":"tf","game":"Team Fortress","app_id":440,"player_count":0,"max_players":24,"Bots":0,"server_type":"Dedicated","server_os":"Linux","password":true,"vac":true,"version":"7742253","steam_id":85568392924742826,"keywords":["cp","nocrits","nodmgspread","uncletopia"],"game_id":440,"stv_port":27046,"stv_name":"Uncletopia | San Francisco | 4 | Community | STV","players":null},{"server_id":141,"name":"Uncletopia | Sydney | 1 | All Maps","name_short":"syd-1","host":"syd-1.au.uncletopia.com","port":27015,"enabled":true,"region":"au","cc":"au","latitude":-33.865143,"longitude":151.2099,"reserved":0,"last_update":"0001-01-01T00:00:00Z","name_a2s":"Uncletopia | Sydney | 1 | All Maps","protocol":17,"map":"pl_snowycoast","folder":"tf","game":"Team Fortress","app_id":440,"player_count":1,"max_players":24,"Bots":0,"server_type":"Dedicated","server_os":"Linux","password":true,"vac":true,"version":"7742253","steam_id":85568392924470001,"keywords":["nocrits","nodmgspread","payload","uncletopia"],"game_id":440,"stv_port":27016,"stv_name":"Uncletopia | Sydney | 1 | All Maps | STV","players":[{"user_id":5,"name":"Coffee","steam_id":76561198072414195,"connected_time":3000000000,"state":"spawning","ping":73}]},{"server_id":123,"name":"Uncletopia | Sydney | 2 | All Maps","name_short":"syd-2","host":"syd-1.au.uncletopia.com","port":27025,"enabled":true,"region":"au","cc":"au","latitude":-33.865143,"longitude":151.2099,"reserved":0,"last_update":"0001-01-01T00:00:00Z","name_a2s":"Uncletopia | Sydney | 2 | All Maps","protocol":17,"map":"koth_lakeside_final","folder":"tf","game":"Team Fortress","app_id":440,"player_count":0,"max_players":24,"Bots":0,"server_type":"Dedicated","server_os":"Linux","password":true,"vac":true,"version":"7742253","steam_id":85568392924470002,"keywords":["cp","nocrits","nodmgspread","uncletopia"],"game_id":440,"stv_port":27026,"stv_name":"Uncletopia | Sydney | 2 | All Maps | STV","players":null},{"server_id":395,"name":"Uncletopia | Sydney | 3 | All Maps","name_short":"syd-3","host":"syd-1.au.uncletopia.com","port":27035,"enabled":true,"region":"au","cc":"au","latitude":-33.865143,"longitude":151.2099,"reserved":0,"last_update":"0001-01-01T00:00:00Z","name_a2s":"Uncletopia | Sydney | 3 | All Maps","protocol":17,"map":"cp_dustbowl","folder":"tf","game":"Team Fortress","app_id":440,"player_count":0,"max_players":24,"Bots":0,"server_type":"Dedicated","server_os":"Linux","password":true,"vac":true,"version":"7742253","steam_id":85568392925194467,"keywords":["cp","nocrits","nodmgspread","uncletopia"],"game_id":440,"stv_port":27036,"stv_name":"Uncletopia | Sydney | 3 | All Maps | STV","players":null},{"server_id":396,"name":"Uncletopia | Sydney | 4 | All Maps","name_short":"syd-4","host":"syd-1.au.uncletopia.com","port":27045,"enabled":true,"region":"au","cc":"au","latitude":-33.865143,"longitude":151.2099,"reserved":0,"last_update":"0001-01-01T00:00:00Z","name_a2s":"Uncletopia | Sydney | 4 | All Maps","protocol":17,"map":"pl_borneo","folder":"tf","game":"Team Fortress","app_id":440,"player_count":0,"max_players":24,"Bots":0,"server_type":"Dedicated","server_os":"Linux","password":true,"vac":true,"version":"7742253","steam_id":85568392925397958,"keywords":["nocrits","nodmgspread","payload","uncletopia"],"game_id":440,"stv_port":27046,"stv_name":"Uncletopia | Sydney | 4 | All Maps | STV","players":null},{"server_id":58,"name":"Uncletopia | Sydney | 5 | Stopwatch Beta","name_short":"syd-5","host":"syd-1.au.uncletopia.com","port":27055,"enabled":true,"region":"au","cc":"au","latitude":-33.865143,"longitude":151.2099,"reserved":0,"last_update":"0001-01-01T00:00:00Z","name_a2s":"Uncletopia | Sydney | 5 | Stopwatch Beta","protocol":17,"map":"cp_snakewater_final1","folder":"tf","game":"Team Fortress","app_id":440,"player_count":0,"max_players":24,"Bots":0,"server_type":"Dedicated","server_os":"Linux","password":true,"vac":true,"version":"7742253","steam_id":85568392925397959,"keywords":["cp","nocrits","nodmgspread","uncletopia"],"game_id":440,"stv_port":27056,"stv_name":"Uncletopia | Sydney | 5 | Stopwatch Beta | STV","players":null},{"server_id":59,"name":"Uncletopia | Sydney | 6 | Community","name_short":"syd-6","host":"syd-1.au.uncletopia.com","port":27065,"enabled":true,"region":"au","cc":"au","latitude":-33.865143,"longitude":151.2099,"reserved":0,"last_update":"0001-01-01T00:00:00Z","name_a2s":"Uncletopia | Sydney | 6 | Community","protocol":17,"map":"cp_snakewater_final1","folder":"tf","game":"Team Fortress","app_id":440,"player_count":0,"max_players":24,"Bots":0,"server_type":"Dedicated","server_os":"Linux","password":true,"vac":true,"version":"7742253","steam_id":85568392925397960,"keywords":["cp","nocrits","nodmgspread","uncletopia"],"game_id":440,"stv_port":27066,"stv_name":"Uncletopia | Sydney | 6 | Community | STV","players":null},{"server_id":49,"name":"Uncletopia | Warsaw | 1 | All Maps","name_short":"waw-1","host":"waw-1.pl.uncletopia.com","port":27015,"enabled":true,"region":"eu","cc":"pl","latitude":52.2297,"longitude":21.017532,"reserved":0,"last_update":"0001-01-01T00:00:00Z","name_a2s":"Uncletopia | Warsaw | 1 | All Maps","protocol":17,"map":"koth_lakeside_final","folder":"tf","game":"Team Fortress","app_id":440,"player_count":0,"max_players":24,"Bots":0,"server_type":"Dedicated","server_os":"Linux","password":true,"vac":true,"version":"7723704","steam_id":85568392925397850,"keywords":["cp","nocrits","nodmgspread","uncletopia"],"game_id":440,"stv_port":27016,"stv_name":"Uncletopia | Warsaw | 1 | All Maps | STV","players":null},{"server_id":50,"name":"Uncletopia | Warsaw | 2 | All Maps","name_short":"waw-2","host":"waw-1.pl.uncletopia.com","port":27025,"enabled":true,"region":"eu","cc":"pl","latitude":52.2297,"longitude":21.017532,"reserved":0,"last_update":"0001-01-01T00:00:00Z","name_a2s":"Uncletopia | Warsaw | 2 | All Maps","protocol":17,"map":"koth_highpass","folder":"tf","game":"Team Fortress","app_id":440,"player_count":0,"max_players":24,"Bots":0,"server_type":"Dedicated","server_os":"Linux","password":true,"vac":true,"version":"7742253","steam_id":85568392925397851,"keywords":["cp","nocrits","nodmgspread","uncletopia"],"game_id":440,"stv_port":27026,"stv_name":"Uncletopia | Warsaw | 2 | All Maps | STV","players":null},{"server_id":51,"name":"Uncletopia | Warsaw | 3 | All Maps","name_short":"waw-3","host":"waw-1.pl.uncletopia.com","port":27035,"enabled":true,"region":"eu","cc":"pl","latitude":52.2297,"longitude":21.017532,"reserved":0,"last_update":"0001-01-01T00:00:00Z","name_a2s":"Uncletopia | Warsaw | 3 | All Maps","protocol":17,"map":"pl_frontier_final","folder":"tf","game":"Team Fortress","app_id":440,"player_count":2,"max_players":24,"Bots":0,"server_type":"Dedicated","server_os":"Linux","password":true,"vac":true,"version":"7742253","steam_id":85568392925397852,"keywords":["nocrits","nodmgspread","payload","uncletopia"],"game_id":440,"stv_port":27036,"stv_name":"Uncletopia | Warsaw | 3 | All Maps | STV","players":[{"user_id":3,"name":"Maxmysz_2137","steam_id":76561199112588927,"connected_time":1589000000000,"state":"active","ping":75},{"user_id":4,"name":"Cummer","steam_id":76561199170675751,"connected_time":1541000000000,"state":"active","ping":74}]},{"server_id":52,"name":"Uncletopia | Warsaw | 4 | All Maps","name_short":"waw-4","host":"waw-1.pl.uncletopia.com","port":27045,"enabled":true,"region":"eu","cc":"pl","latitude":52.2297,"longitude":21.017532,"reserved":0,"last_update":"0001-01-01T00:00:00Z","name_a2s":"Uncletopia | Warsaw | 4 | All Maps","protocol":17,"map":"pl_swiftwater_final1","folder":"tf","game":"Team Fortress","app_id":440,"player_count":0,"max_players":24,"Bots":0,"server_type":"Dedicated","server_os":"Linux","password":true,"vac":true,"version":"7742253","steam_id":85568392925397853,"keywords":["nocrits","nodmgspread","payload","uncletopia"],"game_id":440,"stv_port":27046,"stv_name":"Uncletopia | Warsaw | 4 | All Maps | STV","players":null},{"server_id":53,"name":"Uncletopia | Warsaw | 5 | Stopwatch Beta","name_short":"waw-5","host":"waw-1.pl.uncletopia.com","port":27055,"enabled":true,"region":"eu","cc":"pl","latitude":52.2297,"longitude":21.017532,"reserved":0,"last_update":"0001-01-01T00:00:00Z","name_a2s":"Uncletopia | Warsaw | 5 | Stopwatch Beta","protocol":17,"map":"pl_pier","folder":"tf","game":"Team Fortress","app_id":440,"player_count":0,"max_players":24,"Bots":0,"server_type":"Dedicated","server_os":"Linux","password":true,"vac":true,"version":"7742253","steam_id":85568392925397854,"keywords":["nocrits","nodmgspread","payload","uncletopia"],"game_id":440,"stv_port":27056,"stv_name":"Uncletopia | Warsaw | 5 | Stopwatch Beta | STV","players":null},{"server_id":54,"name":"Uncletopia | Warsaw | 6 | Community","name_short":"waw-6","host":"waw-1.pl.uncletopia.com","port":27065,"enabled":true,"region":"eu","cc":"pl","latitude":52.2297,"longitude":21.017532,"reserved":0,"last_update":"0001-01-01T00:00:00Z","name_a2s":"Uncletopia | Warsaw | 6 | Community","protocol":17,"map":"workshop/pl_cactuscanyon_redux_rc4b.ugc2579644293","folder":"tf","game":"Team Fortress","app_id":440,"player_count":0,"max_players":24,"Bots":0,"server_type":"Dedicated","server_os":"Linux","password":true,"vac":true,"version":"7742253","steam_id":85568392925397856,"keywords":["nocrits","nodmgspread","payload","uncletopia"],"game_id":440,"stv_port":27066,"stv_name":"Uncletopia | Warsaw | 6 | Community | STV","players":null}]}