{"status":true,"message":"","result":[{"server_id":9,"name":"Uncletopia | Atlanta | 1 | All Maps","name_short":"atl-1","host":"atl-1.us.uncletopia.com","port":27015,"enabled":true,"region":"us-east","cc":"us","latitude":33.753746,"longitude":-84.38633,"reserved":0,"last_update":"0001-01-01T00:00:00Z","name_a2s":"Uncletopia | Atlanta | 1 | All Maps","protocol":17,"map":"pl_borneo","folder":"tf","game":"Team Fortress","app_id":440,"player_count":21,"max_players":24,"Bots":0,"server_type":"Dedicated","server_os":"Linux","password":true,"vac":true,"version":"7961495","steam_id":85568392924469982,"keywords":["nocrits","nodmgspread","payload","uncletopia"],"game_id":440,"stv_port":27016,"stv_name":"Uncletopia | Atlanta | 1 | All Maps | STV","players":[{"user_id":89,"name":"PeopleOrderOurPatties","steam_id":76561198323144922,"connected_time":1567000000000,"state":"active","ping":109},{"user_id":18,"name":"Night time Dan","steam_id":76561199022178492,"connected_time":5719000000000,"state":"active","ping":43},{"user_id":108,"name":"Dreszerg","steam_id":76561198838757422,"connected_time":172000000000,"state":"active","ping":83},{"user_id":96,"name":"Icaras","steam_id":76561198416724843,"connected_time":1365000000000,"state":"active","ping":119},{"user_id":87,"name":"Gaio","steam_id":76561198136293406,"connected_time":1918000000000,"state":"active","ping":60},{"user_id":109,"name":"thundermuffin","steam_id":76561198067770965,"connected_time":100000000000,"state":"active","ping":75},{"user_id":97,"name":"doug","steam_id":76561198020534493,"connected_time":1317000000000,"state":"active","ping":77},{"user_id":93,"name":"jade","steam_id":76561198055611029,"connected_time":1501000000000,"state":"active","ping":44},{"user_id":88,"name":"TheGrassMan (He/Him)","steam_id":76561198118984048,"connected_time":1829000000000,"state":"active","ping":84},{"user_id":81,"name":"sansa musa","steam_id":76561198163723555,"connected_time":2431000000000,"state":"active","ping":75},{"user_id":104,"name":"Maestro #pride","steam_id":76561198157325020,"connected_time":694000000000,"state":"active","ping":149},{"user_id":112,"name":"Rat Cycle","steam_id":76561198113364714,"connected_time":16000000000,"state":"spawning","ping":61},{"user_id":83,"name":"Heathcliff","steam_id":76561198044288534,"connected_time":2414000000000,"state":"active","ping":62},{"user_id":58,"name":"Sinta","steam_id":76561198098398841,"connected_time":3776000000000,"state":"active","ping":74},{"user_id":107,"name":"aurro","steam_id":76561198315692300,"connected_time":204000000000,"state":"active","ping":69},{"user_id":98,"name":"Sex Midfielder","steam_id":76561198048918192,"connected_time":1303000000000,"state":"active","ping":46},{"user_id":66,"name":"Obelisk","steam_id":76561198049416866,"connected_time":3133000000000,"state":"active","ping":49},{"user_id":103,"name":"freyja","steam_id":76561198249206656,"connected_time":1026000000000,"state":"active","ping":82},{"user_id":85,"name":"rat","steam_id":76561198272622003,"connected_time":1931000000000,"state":"active","ping":73},{"user_id":86,"name":"Stacks63bs","steam_id":76561198067797130,"connected_time":1931000000000,"state":"active","ping":68},{"user_id":51,"name":"SHUSH nikoOS","steam_id":76561198180020521,"connected_time":4361000000000,"state":"active","ping":115}]},{"server_id":104,"name":"Uncletopia | Atlanta | 2 | All Maps","name_short":"atl-2","host":"atl-1.us.uncletopia.com","port":27025,"enabled":true,"region":"us-east","cc":"us","latitude":33.753746,"longitude":-84.38633,"reserved":0,"last_update":"0001-01-01T00:00:00Z","name_a2s":"Uncletopia | Atlanta | 2 | All Maps","protocol":17,"map":"cp_mountainlab","folder":"tf","game":"Team Fortress","app_id":440,"player_count":24,"max_players":24,"Bots":0,"server_type":"Dedicated","server_os":"Linux","password":true,"vac":true,"version":"7961495","steam_id":85568392924469983,"keywords":["cp","nocrits","nodmgspread","uncletopia"],"game_id":440,"stv_port":27026,"stv_name":"Uncletopia | Atlanta | 2 | All Maps | STV","players":[{"user_id":249,"name":"neet","steam_id":76561197968115168,"connected_time":2421000000000,"state":"active","ping":59},{"user_id":237,"name":"Kumusta ka dong","steam_id":76561198964360520,"connected_time":3529000000000,"state":"active","ping":93},{"user_id":274,"name":"fully vacced, fully autistic","steam_id":76561198968058652,"connected_time":507000000000,"state":"active","ping":108},{"user_id":267,"name":"-SL- Jeb Bush Liberation Army","steam_id":76561198046050045,"connected_time":716000000000,"state":"active","ping":59},{"user_id":268,"name":"Lobstar","steam_id":76561198015310322,"connected_time":591000000000,"state":"active","ping":75},{"user_id":270,"name":"Sergeant Snowflake","steam_id":76561198041474489,"connected_time":575000000000,"state":"active","ping":73},{"user_id":259,"name":"ṽ⧉ cookie","steam_id":76561197998884823,"connected_time":1563000000000,"state":"active","ping":89},{"user_id":282,"name":"shroom.","steam_id":76561198140792282,"connected_time":231000000000,"state":"active","ping":85},{"user_id":171,"name":"Thoughtfully Ignorant","steam_id":76561199509991902,"connected_time":7997000000000,"state":"active","ping":65},{"user_id":275,"name":"Beersy","steam_id":76561198022426298,"connected_time":471000000000,"state":"active","ping":89},{"user_id":272,"name":"mu","steam_id":76561197997530228,"connected_time":550000000000,"state":"active","ping":120},{"user_id":265,"name":"KhorneBread ︻デ 一","steam_id":76561198097069958,"connected_time":759000000000,"state":"active","ping":67},{"user_id":238,"name":"Eomy","steam_id":76561198297783627,"connected_time":3421000000000,"state":"active","ping":73},{"user_id":278,"name":"Allen Poe","steam_id":76561198115937355,"connected_time":421000000000,"state":"active","ping":45},{"user_id":260,"name":"Jody","steam_id":76561199224251631,"connected_time":1366000000000,"state":"active","ping":72},{"user_id":283,"name":"CabezaGrande","steam_id":76561197972555502,"connected_time":207000000000,"state":"active","ping":85},{"user_id":284,"name":"Drygongames","steam_id":76561198250418424,"connected_time":128000000000,"state":"active","ping":90},{"user_id":261,"name":"blåhaj enjoyer","steam_id":76561199038860035,"connected_time":1289000000000,"state":"active","ping":147},{"user_id":255,"name":"zzealot","steam_id":76561198332527242,"connected_time":2106000000000,"state":"active","ping":63},{"user_id":263,"name":"•PixelGhost25•","steam_id":76561197998922428,"connected_time":808000000000,"state":"active","ping":76},{"user_id":279,"name":"Kaiju","steam_id":76561198243774754,"connected_time":386000000000,"state":"active","ping":63},{"user_id":280,"name":"♂ I R O N ♂ M I K E ♂","steam_id":76561199405378993,"connected_time":354000000000,"state":"active","ping":88},{"user_id":281,"name":"UnkownGamerLOL","steam_id":76561198225902368,"connected_time":331000000000,"state":"active","ping":80},{"user_id":286,"name":"nefarious criminal","steam_id":76561198077506415,"connected_time":24000000000,"state":"active","ping":54}]},{"server_id":400,"name":"Uncletopia | Atlanta | 3 | Stopwatch","name_short":"atl-3","host":"atl-1.us.uncletopia.com","port":27035,"enabled":true,"region":"us-east","cc":"us","latitude":33.753746,"longitude":-84.38633,"reserved":0,"last_update":"0001-01-01T00:00:00Z","name_a2s":"Uncletopia | Atlanta | 3 | Stopwatch","protocol":17,"map":"workshop/pl_badwater_pro_v12.ugc2142942074","folder":"tf","game":"Team Fortress","app_id":440,"player_count":0,"max_players":24,"Bots":0,"server_type":"Dedicated","server_os":"Linux","password":true,"vac":true,"version":"7961495","steam_id":85568392924515187,"keywords":["nocrits","nodmgspread","payload","uncletopia"],"game_id":440,"stv_port":27036,"stv_name":"Uncletopia | Atlanta | 3 | Stopwatch | STV","players":null},{"server_id":401,"name":"Uncletopia | Atlanta | 4 | Community","name_short":"atl-4","host":"atl-1.us.uncletopia.com","port":27045,"enabled":true,"region":"us-east","cc":"us","latitude":33.753746,"longitude":-84.38633,"reserved":0,"last_update":"0001-01-01T00:00:00Z","name_a2s":"Uncletopia | Atlanta | 4 | Community","protocol":17,"map":"workshop/pl_phoenix_b4a.ugc2969509359","folder":"tf","game":"Team Fortress","app_id":440,"player_count":0,"max_players":24,"Bots":0,"server_type":"Dedicated","server_os":"Linux","password":true,"vac":true,"version":"7961495","steam_id":85568392924515188,"keywords":["nocrits","nodmgspread","payload","uncletopia"],"game_id":440,"stv_port":27046,"stv_name":"Uncletopia | Atlanta | 4 | Community | STV","players":null},{"server_id":2,"name":"Uncletopia | Chicago | 1 | All Maps","name_short":"chi-1","host":"chi-1.us.uncletopia.com","port":27015,"enabled":true,"region":"us-central","cc":"us","latitude":41.881832,"longitude":-87.62318,"reserved":0,"last_update":"0001-01-01T00:00:00Z","name_a2s":"Uncletopia | Chicago | 1 | All Maps","protocol":17,"map":"pl_frontier_final","folder":"tf","game":"Team Fortress","app_id":440,"player_count":24,"max_players":24,"Bots":0,"server_type":"Dedicated","server_os":"Linux","password":true,"vac":true,"version":"7961495","steam_id":85568392924469984,"keywords":["nocrits","nodmgspread","payload","uncletopia"],"game_id":440,"stv_port":27016,"stv_name":"Uncletopia | Chicago | 1 | All Maps | STV","players":[{"user_id":102,"name":"summer babe (winter version)","steam_id":76561198079504588,"connected_time":1439000000000,"state":"active","ping":66},{"user_id":44,"name":"Kitty","steam_id":76561198123758854,"connected_time":5993000000000,"state":"active","ping":86},{"user_id":113,"name":"john sniping","steam_id":76561198148059714,"connected_time":868000000000,"state":"active","ping":60},{"user_id":118,"name":"Ŧiger","steam_id":76561198058804265,"connected_time":504000000000,"state":"active","ping":77},{"user_id":121,"name":"Ciryl Lyn","steam_id":76561198160091331,"connected_time":166000000000,"state":"active","ping":57},{"user_id":104,"name":"Super CD-ROM Leaf","steam_id":76561199121320640,"connected_time":1316000000000,"state":"active","ping":65},{"user_id":120,"name":"Ninjoth","steam_id":76561198038611753,"connected_time":236000000000,"state":"active","ping":81},{"user_id":127,"name":"Sco","steam_id":76561198081148684,"connected_time":10000000000,"state":"active","ping":46},{"user_id":62,"name":"BiggFoot","steam_id":76561197998605599,"connected_time":4138000000000,"state":"active","ping":75},{"user_id":103,"name":"Aztea","steam_id":76561198982089893,"connected_time":1431000000000,"state":"active","ping":84},{"user_id":105,"name":"The King","steam_id":76561198117344758,"connected_time":1311000000000,"state":"active","ping":65},{"user_id":123,"name":"Gaming Grandpa","steam_id":76561198121418631,"connected_time":93000000000,"state":"active","ping":50},{"user_id":119,"name":"O'brien","steam_id":76561198289339403,"connected_time":422000000000,"state":"active","ping":88},{"user_id":114,"name":"botato","steam_id":76561198079925551,"connected_time":837000000000,"state":"active","ping":60},{"user_id":98,"name":"Jason","steam_id":76561198107058140,"connected_time":1853000000000,"state":"active","ping":66},{"user_id":115,"name":"lego star wars on the psp","steam_id":76561198148014773,"connected_time":837000000000,"state":"active","ping":66},{"user_id":92,"name":"snark","steam_id":76561198132980859,"connected_time":2977000000000,"state":"active","ping":60},{"user_id":76,"name":"Heroofchaos","steam_id":76561199106660090,"connected_time":3693000000000,"state":"active","ping":77},{"user_id":125,"name":"bAlls","steam_id":76561198976282224,"connected_time":58000000000,"state":"connecting","ping":50},{"user_id":73,"name":"The Jar","steam_id":76561198146013385,"connected_time":3873000000000,"state":"active","ping":76},{"user_id":40,"name":"The Nikocado Enjoyer","steam_id":76561198263154374,"connected_time":6551000000000,"state":"active","ping":72},{"user_id":126,"name":"NovaGenetics","steam_id":76561198048539287,"connected_time":43000000000,"state":"active","ping":81},{"user_id":97,"name":"Hulkster","steam_id":76561198278156353,"connected_time":1906000000000,"state":"active","ping":117},{"user_id":94,"name":"dr. chungy ph.d","steam_id":76561198215559840,"connected_time":2930000000000,"state":"active","ping":60}]},{"server_id":106,"name":"Uncletopia | Chicago | 2 | All Maps","name_short":"chi-2","host":"chi-1.us.uncletopia.com","port":27025,"enabled":true,"region":"us-central","cc":"us","latitude":41.881832,"longitude":-87.62318,"reserved":0,"last_update":"0001-01-01T00:00:00Z","name_a2s":"Uncletopia | Chicago | 2 | All Maps","protocol":17,"map":"koth_harvest_final","folder":"tf","game":"Team Fortress","app_id":440,"player_count":4,"max_players":24,"Bots":0,"server_type":"Dedicated","server_os":"Linux","password":true,"vac":true,"version":"7961495","steam_id":85568392924469985,"keywords":["cp","nocrits","nodmgspread","uncletopia"],"game_id":440,"stv_port":27026,"stv_name":"Uncletopia | Chicago | 2 | All Maps | STV","players":[{"user_id":14,"name":"the funni brazilian samurai","steam_id":76561199074170774,"connected_time":1132000000000,"state":"active","ping":204},{"user_id":16,"name":"Annoying Thing","steam_id":76561199207075429,"connected_time":1058000000000,"state":"active","ping":135},{"user_id":21,"name":"Wafflehead","steam_id":76561198053539741,"connected_time":101000000000,"state":"active","ping":60},{"user_id":20,"name":"Harry S. Truman","steam_id":76561197993339757,"connected_time":143000000000,"state":"active","ping":63}]},{"server_id":402,"name":"Uncletopia | Chicago | 3 | All Maps","name_short":"chi-3","host":"chi-1.us.uncletopia.com","port":27035,"enabled":true,"region":"us-central","cc":"us","latitude":41.881832,"longitude":-87.62318,"reserved":0,"last_update":"0001-01-01T00:00:00Z","name_a2s":"Uncletopia | Chicago | 3 | All Maps","protocol":17,"map":"cp_gorge","folder":"tf","game":"Team Fortress","app_id":440,"player_count":24,"max_players":24,"Bots":0,"server_type":"Dedicated","server_os":"Linux","password":true,"vac":true,"version":"7961495","steam_id":85568392924515191,"keywords":["cp","nocrits","nodmgspread","uncletopia"],"game_id":440,"stv_port":27036,"stv_name":"Uncletopia | Chicago | 3 | All Maps | STV","players":[{"user_id":114,"name":"Rornir","steam_id":76561198081829615,"connected_time":3903000000000,"state":"active","ping":39},{"user_id":156,"name":"FBI (Federal Bonk Inspector)","steam_id":76561199498088524,"connected_time":318000000000,"state":"active","ping":106},{"user_id":103,"name":"2 bit catgirl","steam_id":76561198399936004,"connected_time":4774000000000,"state":"active","ping":58},{"user_id":139,"name":"Ziath","steam_id":76561198094009164,"connected_time":1736000000000,"state":"active","ping":59},{"user_id":153,"name":"prop","steam_id":76561198866419663,"connected_time":446000000000,"state":"active","ping":53},{"user_id":142,"name":"Swedish Crowbar","steam_id":76561199105488936,"connected_time":1438000000000,"state":"active","ping":151},{"user_id":56,"name":"zoey","steam_id":76561198084679526,"connected_time":9777000000000,"state":"active","ping":45},{"user_id":23,"name":"GorbTheImmortal","steam_id":76561198125936721,"connected_time":12176000000000,"state":"active","ping":141},{"user_id":152,"name":"Mazdamundi!","steam_id":76561198044691081,"connected_time":678000000000,"state":"active","ping":55},{"user_id":124,"name":"CyMeryy/TTV","steam_id":76561197984986540,"connected_time":3154000000000,"state":"active","ping":64},{"user_id":154,"name":"jorden crayola jr.","steam_id":76561198398918486,"connected_time":367000000000,"state":"active","ping":61},{"user_id":147,"name":"Candy Sparkles","steam_id":76561198126871264,"connected_time":1367000000000,"state":"active","ping":90},{"user_id":155,"name":"ʏƚiᴎɒsᴎI","steam_id":76561198826005248,"connected_time":343000000000,"state":"active","ping":157},{"user_id":138,"name":"Bottom Trans Cowgirl","steam_id":76561198304239680,"connected_time":1766000000000,"state":"active","ping":75},{"user_id":57,"name":"vv","steam_id":76561198134813102,"connected_time":9767000000000,"state":"active","ping":53},{"user_id":117,"name":"Tyler\u0026Fingers","steam_id":76561198085154485,"connected_time":3705000000000,"state":"active","ping":82},{"user_id":126,"name":"DysfunctionJunction","steam_id":76561198051815183,"connected_time":3030000000000,"state":"active","ping":47},{"user_id":144,"name":"Quark","steam_id":76561198328155605,"connected_time":1433000000000,"state":"active","ping":55},{"user_id":150,"name":"That_MF","steam_id":76561198077553888,"connected_time":813000000000,"state":"active","ping":66},{"user_id":157,"name":"litroolay","steam_id":76561197995226856,"connected_time":274000000000,"state":"active","ping":89},{"user_id":128,"name":"❋Pfc. BFS","steam_id":76561198326359972,"connected_time":3001000000000,"state":"active","ping":73},{"user_id":158,"name":"Doctor Bear ʕ •ᴥ•ʔ","steam_id":76561197968103161,"connected_time":264000000000,"state":"active","ping":63},{"user_id":159,"name":"Zonk","steam_id":76561198846893994,"connected_time":258000000000,"state":"active","ping":82},{"user_id":133,"name":"Pixeled","steam_id":76561198088917077,"connected_time":2444000000000,"state":"active","ping":88}]},{"server_id":403,"name":"Uncletopia | Chicago | 4 | All Maps","name_short":"chi-4","host":"chi-1.us.uncletopia.com","port":27045,"enabled":true,"region":"us-central","cc":"us","latitude":41.881832,"longitude":-87.62318,"reserved":0,"last_update":"0001-01-01T00:00:00Z","name_a2s":"Uncletopia | Chicago | 4 | All Maps","protocol":17,"map":"koth_viaduct","folder":"tf","game":"Team Fortress","app_id":440,"player_count":0,"max_players":24,"Bots":0,"server_type":"Dedicated","server_os":"Linux","password":true,"vac":true,"version":"7961495","steam_id":85568392924515193,"keywords":["cp","nocrits","nodmgspread","uncletopia"],"game_id":440,"stv_port":27046,"stv_name":"Uncletopia | Chicago | 4 | All Maps | STV","players":null},{"server_id":36,"name":"Uncletopia | Chicago | 5 | All Maps","name_short":"chi-5","host":"chi-2.us.uncletopia.com","port":27015,"enabled":true,"region":"us-central","cc":"us","latitude":41.881832,"longitude":-87.62318,"reserved":0,"last_update":"0001-01-01T00:00:00Z","name_a2s":"Uncletopia | Chicago | 5 | All Maps","protocol":17,"map":"pl_swiftwater_final1","folder":"tf","game":"Team Fortress","app_id":440,"player_count":0,"max_players":24,"Bots":0,"server_type":"Dedicated","server_os":"Linux","password":true,"vac":true,"version":"7961495","steam_id":85568392924866362,"keywords":["nocrits","nodmgspread","payload","uncletopia"],"game_id":440,"stv_port":27016,"stv_name":"Uncletopia | Chicago | 5 | All Maps | STV","players":null},{"server_id":37,"name":"Uncletopia | Chicago | 6 | All Maps","name_short":"chi-6","host":"chi-2.us.uncletopia.com","port":27025,"enabled":true,"region":"us-central","cc":"us","latitude":41.881832,"longitude":-87.62318,"reserved":0,"last_update":"0001-01-01T00:00:00Z","name_a2s":"Uncletopia | Chicago | 6 | All Maps","protocol":17,"map":"koth_cascade","folder":"tf","game":"Team Fortress","app_id":440,"player_count":0,"max_players":24,"Bots":0,"server_type":"Dedicated","server_os":"Linux","password":true,"vac":true,"version":"7961495","steam_id":85568392924866363,"keywords":["cp","nocrits","nodmgspread","uncletopia"],"game_id":440,"stv_port":27026,"stv_name":"Uncletopia | Chicago | 6 | All Maps | STV","players":null},{"server_id":38,"name":"Uncletopia | Chicago | 7 | Stopwatch","name_short":"chi-7","host":"chi-2.us.uncletopia.com","port":27035,"enabled":true,"region":"us-central","cc":"us","latitude":41.881832,"longitude":-87.62318,"reserved":0,"last_update":"0001-01-01T00:00:00Z","name_a2s":"Uncletopia | Chicago | 7 | Stopwatch","protocol":17,"map":"workshop/koth_clearcut_b15.ugc2107050255","folder":"tf","game":"Team Fortress","app_id":440,"player_count":2,"max_players":24,"Bots":0,"server_type":"Dedicated","server_os":"Linux","password":true,"vac":true,"version":"7961495","steam_id":85568392924866364,"keywords":["cp","nocrits","nodmgspread","uncletopia"],"game_id":440,"stv_port":27036,"stv_name":"Uncletopia | Chicago | 7 | Stopwatch | STV","players":[{"user_id":6,"name":"spiderfat","steam_id":76561198957917221,"connected_time":1155000000000,"state":"active","ping":92},{"user_id":7,"name":"RoboticPyroRobo","steam_id":76561198355732200,"connected_time":1128000000000,"state":"active","ping":65}]},{"server_id":39,"name":"Uncletopia | Chicago | 8 | Community","name_short":"chi-8","host":"chi-2.us.uncletopia.com","port":27045,"enabled":true,"region":"us-central","cc":"us","latitude":41.881832,"longitude":-87.62318,"reserved":0,"last_update":"0001-01-01T00:00:00Z","name_a2s":"Uncletopia | Chicago | 8 | Community","protocol":17,"map":"workshop/cp_caldera_rc3.ugc2834196889","folder":"tf","game":"Team Fortress","app_id":440,"player_count":0,"max_players":24,"Bots":0,"server_type":"Dedicated","server_os":"Linux","password":true,"vac":true,"version":"7961495","steam_id":85568392924866365,"keywords":["cp","nocrits","nodmgspread","uncletopia"],"game_id":440,"stv_port":27046,"stv_name":"Uncletopia | Chicago | 8 | Community | STV","players":null},{"server_id":8,"name":"Uncletopia | Dallas | 1 | All Maps","name_short":"dal-1","host":"dal-1.us.uncletopia.com","port":27015,"enabled":true,"region":"us-central","cc":"us","latitude":32.779167,"longitude":-96.80889,"reserved":0,"last_update":"0001-01-01T00:00:00Z","name_a2s":"Uncletopia | Dallas | 1 | All Maps","protocol":17,"map":"pl_barnblitz","folder":"tf","game":"Team Fortress","app_id":440,"player_count":24,"max_players":24,"Bots":0,"server_type":"Dedicated","server_os":"Linux","password":true,"vac":true,"version":"7961495","steam_id":85568392924469986,"keywords":["nocrits","nodmgspread","payload","uncletopia"],"game_id":440,"stv_port":27016,"stv_name":"Uncletopia | Dallas | 1 | All Maps | STV","players":[{"user_id":216,"name":"MackDaddy69","steam_id":76561198060121935,"connected_time":7841000000000,"state":"active","ping":80},{"user_id":271,"name":"gunch","steam_id":76561198029318657,"connected_time":3194000000000,"state":"active","ping":43},{"user_id":287,"name":"Sweet Tooth","steam_id":76561198830158092,"connected_time":1715000000000,"state":"active","ping":82},{"user_id":297,"name":"jojo","steam_id":76561199509297015,"connected_time":1391000000000,"state":"active","ping":90},{"user_id":305,"name":"The Notorious RBG","steam_id":76561198014275148,"connected_time":306000000000,"state":"active","ping":90},{"user_id":307,"name":"rakk","steam_id":76561197970887887,"connected_time":157000000000,"state":"active","ping":184},{"user_id":286,"name":"Ethanol Buttchugger","steam_id":76561199127590316,"connected_time":1786000000000,"state":"active","ping":83},{"user_id":298,"name":"schmuck","steam_id":76561198143789773,"connected_time":1368000000000,"state":"active","ping":56},{"user_id":299,"name":"BLOCKHEAD","steam_id":76561198808224331,"connected_time":1336000000000,"state":"active","ping":106},{"user_id":268,"name":"MrHappyMAg","steam_id":76561198060359133,"connected_time":3554000000000,"state":"active","ping":43},{"user_id":284,"name":"elcarlos1010","steam_id":76561198201986832,"connected_time":2505000000000,"state":"active","ping":60},{"user_id":230,"name":"Boxxed","steam_id":76561198255787237,"connected_time":6951000000000,"state":"active","ping":58},{"user_id":294,"name":"the thing","steam_id":76561199016285746,"connected_time":1416000000000,"state":"active","ping":66},{"user_id":309,"name":"EVAN XD","steam_id":76561198945614624,"connected_time":62000000000,"state":"active","ping":64},{"user_id":308,"name":"Texas guy","steam_id":76561198082315370,"connected_time":143000000000,"state":"active","ping":84},{"user_id":304,"name":"Gotta Move That Gear Up","steam_id":76561197993467034,"connected_time":349000000000,"state":"active","ping":60},{"user_id":293,"name":"Limitless","steam_id":76561198057139998,"connected_time":1457000000000,"state":"active","ping":54},{"user_id":280,"name":"Rin \"Hindwing\" Redtail","steam_id":76561199074865638,"connected_time":2845000000000,"state":"active","ping":54},{"user_id":277,"name":"SaaxoM","steam_id":76561198208256603,"connected_time":3026000000000,"state":"active","ping":88},{"user_id":302,"name":"Cooki","steam_id":76561198051705314,"connected_time":493000000000,"state":"active","ping":104},{"user_id":300,"name":"goobiestgoober","steam_id":76561199487899460,"connected_time":1273000000000,"state":"active","ping":90},{"user_id":260,"name":"Certified Hood Classic","steam_id":76561199086159354,"connected_time":4429000000000,"state":"active","ping":62},{"user_id":266,"name":"Boulvier","steam_id":76561198067834895,"connected_time":3579000000000,"state":"active","ping":69},{"user_id":303,"name":"smartest living creature","steam_id":76561198392069179,"connected_time":400000000000,"state":"active","ping":68}]},{"server_id":108,"name":"Uncletopia | Dallas | 2 | All Maps","name_short":"dal-2","host":"dal-1.us.uncletopia.com","port":27025,"enabled":true,"region":"us-central","cc":"us","latitude":32.779167,"longitude":-96.80889,"reserved":0,"last_update":"0001-01-01T00:00:00Z","name_a2s":"Uncletopia | Dallas | 2 | All Maps","protocol":17,"map":"pl_badwater","folder":"tf","game":"Team Fortress","app_id":440,"player_count":24,"max_players":24,"Bots":0,"server_type":"Dedicated","server_os":"Linux","password":true,"vac":true,"version":"7961495","steam_id":85568392924469988,"keywords":["nocrits","nodmgspread","payload","uncletopia"],"game_id":440,"stv_port":27026,"stv_name":"Uncletopia | Dallas | 2 | All Maps | STV","players":[{"user_id":17,"name":"BeyondEffect","steam_id":76561198061017324,"connected_time":1202000000000,"state":"active","ping":81},{"user_id":8,"name":"Sugarslice","steam_id":76561199080056592,"connected_time":2765000000000,"state":"active","ping":66},{"user_id":41,"name":"TheSmokingMan","steam_id":76561198032652995,"connected_time":695000000000,"state":"active","ping":61},{"user_id":24,"name":"TOTALLY HARDCORE","steam_id":76561198842311643,"connected_time":1086000000000,"state":"active","ping":45},{"user_id":53,"name":"TF2C | fac","steam_id":76561198009818412,"connected_time":456000000000,"state":"active","ping":60},{"user_id":13,"name":"Prof. Eggnog","steam_id":76561198193389166,"connected_time":1753000000000,"state":"active","ping":86},{"user_id":14,"name":"Cydil","steam_id":76561198957738799,"connected_time":1743000000000,"state":"active","ping":90},{"user_id":15,"name":"Dr. W0lv","steam_id":76561198129237487,"connected_time":1693000000000,"state":"active","ping":71},{"user_id":35,"name":"tsz","steam_id":76561199246231090,"connected_time":879000000000,"state":"active","ping":88},{"user_id":63,"name":"High Tier Mortal","steam_id":76561198138347045,"connected_time":274000000000,"state":"active","ping":81},{"user_id":19,"name":"Hope","steam_id":76561199201900779,"connected_time":1179000000000,"state":"active","ping":95},{"user_id":66,"name":"Used Car Salesman","steam_id":76561198079416360,"connected_time":58000000000,"state":"active","ping":45},{"user_id":46,"name":"Bored Barred Owl","steam_id":76561198263895597,"connected_time":618000000000,"state":"active","ping":104},{"user_id":65,"name":"ultrapuffs","steam_id":76561198023463293,"connected_time":151000000000,"state":"active","ping":68},{"user_id":28,"name":"Twiggy","steam_id":76561199169825151,"connected_time":1045000000000,"state":"active","ping":62},{"user_id":29,"name":"finmin","steam_id":76561198127639913,"connected_time":1012000000000,"state":"active","ping":78},{"user_id":30,"name":"Mamas Texas Chicken","steam_id":76561199156409732,"connected_time":1011000000000,"state":"active","ping":59},{"user_id":31,"name":"Bea","steam_id":76561198197928515,"connected_time":983000000000,"state":"active","ping":61},{"user_id":32,"name":"Family Guy Funny Moments","steam_id":76561198847752839,"connected_time":978000000000,"state":"active","ping":87},{"user_id":52,"name":"kn0n","steam_id":76561198249172818,"connected_time":484000000000,"state":"active","ping":145},{"user_id":40,"name":"swooce","steam_id":76561198156232484,"connected_time":702000000000,"state":"active","ping":89},{"user_id":42,"name":"Hamlindigo Blue™","steam_id":76561198116337540,"connected_time":694000000000,"state":"active","ping":79},{"user_id":43,"name":"Username","steam_id":76561198198918781,"connected_time":678000000000,"state":"active","ping":107},{"user_id":44,"name":"Trapilicious","steam_id":76561198061430457,"connected_time":665000000000,"state":"active","ping":55}]},{"server_id":404,"name":"Uncletopia | Dallas | 3 | All Maps","name_short":"dal-3","host":"dal-1.us.uncletopia.com","port":27035,"enabled":true,"region":"us-central","cc":"us","latitude":32.779167,"longitude":-96.80889,"reserved":0,"last_update":"0001-01-01T00:00:00Z","name_a2s":"Uncletopia | Dallas | 3 | All Maps","protocol":17,"map":"cp_yukon_final","folder":"tf","game":"Team Fortress","app_id":440,"player_count":0,"max_players":24,"Bots":0,"server_type":"Dedicated","server_os":"Linux","password":true,"vac":true,"version":"7961495","steam_id":85568392924515219,"keywords":["cp","nocrits","nodmgspread","uncletopia"],"game_id":440,"stv_port":27036,"stv_name":"Uncletopia | Dallas | 3 | All Maps | STV","players":null},{"server_id":405,"name":"Uncletopia | Dallas | 4 | Community","name_short":"dal-4","host":"dal-1.us.uncletopia.com","port":27045,"enabled":true,"region":"us-central","cc":"us","latitude":32.779167,"longitude":-96.80889,"reserved":0,"last_update":"0001-01-01T00:00:00Z","name_a2s":"Uncletopia | Dallas | 4 | Community","protocol":17,"map":"workshop/cp_croissant_final.ugc458840209","folder":"tf","game":"Team Fortress","app_id":440,"player_count":0,"max_players":24,"Bots":0,"server_type":"Dedicated","server_os":"Linux","password":true,"vac":true,"version":"7961495","steam_id":85568392924515220,"keywords":["cp","nocrits","nodmgspread","uncletopia"],"game_id":440,"stv_port":27046,"stv_name":"Uncletopia | Dallas | 4 | Community | STV","players":null},{"server_id":5,"name":"Uncletopia | Frankfurt | 1 | All Maps","name_short":"frk-1","host":"frk-1.de.uncletopia.com","port":27015,"enabled":true,"region":"eu","cc":"de","latitude":50.110924,"longitude":8.682127,"reserved":0,"last_update":"0001-01-01T00:00:00Z","name_a2s":"Uncletopia | Frankfurt | 1 | All Maps","protocol":17,"map":"pl_pier","folder":"tf","game":"Team Fortress","app_id":440,"player_count":24,"max_players":24,"Bots":0,"server_type":"Dedicated","server_os":"Linux","password":true,"vac":true,"version":"7961495","steam_id":85568392924469989,"keywords":["nocrits","nodmgspread","payload","uncletopia"],"game_id":440,"stv_port":27016,"stv_name":"Uncletopia | Frankfurt | 1 | All Maps | STV","players":[{"user_id":260,"name":"PanPatrik","steam_id":76561198293331527,"connected_time":437000000000,"state":"active","ping":57},{"user_id":267,"name":"Gugu gaga","steam_id":76561198161822358,"connected_time":76000000000,"state":"active","ping":60},{"user_id":256,"name":"тукку ирма","steam_id":76561197998715016,"connected_time":499000000000,"state":"active","ping":57},{"user_id":234,"name":"Ve stylu","steam_id":76561198218257120,"connected_time":1518000000000,"state":"active","ping":61},{"user_id":268,"name":"brtaba","steam_id":76561198796334790,"connected_time":40000000000,"state":"active","ping":43},{"user_id":224,"name":"Gasket","steam_id":76561198107889867,"connected_time":2132000000000,"state":"active","ping":63},{"user_id":239,"name":"Mr_Joergen","steam_id":76561198364713702,"connected_time":1130000000000,"state":"active","ping":59},{"user_id":240,"name":"Toripistefi","steam_id":76561199173353462,"connected_time":1123000000000,"state":"active","ping":115},{"user_id":243,"name":"Ozzie","steam_id":76561197992915315,"connected_time":1071000000000,"state":"active","ping":61},{"user_id":269,"name":"ʜᴜɢᴏ ʏᴀᴋᴜᴢᴀ","steam_id":76561199508353360,"connected_time":39000000000,"state":"active","ping":55},{"user_id":233,"name":"GET REKT","steam_id":76561198368543007,"connected_time":1570000000000,"state":"active","ping":80},{"user_id":251,"name":"Ghost11","steam_id":76561198068892992,"connected_time":728000000000,"state":"active","ping":100},{"user_id":253,"name":"METhOphetamine","steam_id":76561198068216224,"connected_time":658000000000,"state":"active","ping":47},{"user_id":264,"name":"Usagi Alohaoe","steam_id":76561198981191925,"connected_time":371000000000,"state":"active","ping":52},{"user_id":261,"name":"hasky","steam_id":76561197986052798,"connected_time":430000000000,"state":"active","ping":65},{"user_id":247,"name":"sixhundredseventy","steam_id":76561199441772083,"connected_time":1044000000000,"state":"active","ping":58},{"user_id":262,"name":"tj","steam_id":76561198160466307,"connected_time":404000000000,"state":"active","ping":56},{"user_id":265,"name":"Tyren","steam_id":76561198993747516,"connected_time":276000000000,"state":"active","ping":65},{"user_id":221,"name":"LILY-CHAN","steam_id":76561198035085893,"connected_time":2173000000000,"state":"active","ping":96},{"user_id":255,"name":"joachym (vc muted)","steam_id":76561198428579761,"connected_time":633000000000,"state":"active","ping":66},{"user_id":249,"name":"Pabs :D","steam_id":76561198000016962,"connected_time":1033000000000,"state":"active","ping":56},{"user_id":236,"name":"Carry Krypl","steam_id":76561198136938121,"connected_time":1221000000000,"state":"active","ping":59},{"user_id":266,"name":"mikeal from taaj mahaal","steam_id":76561198241759034,"connected_time":110000000000,"state":"active","ping":97},{"user_id":230,"name":"Turek","steam_id":76561198280066503,"connected_time":2069000000000,"state":"active","ping":81}]},{"server_id":110,"name":"Uncletopia | Frankfurt | 2 | All Maps","name_short":"frk-2","host":"frk-1.de.uncletopia.com","port":27025,"enabled":true,"region":"eu","cc":"de","latitude":50.110924,"longitude":8.682127,"reserved":0,"last_update":"0001-01-01T00:00:00Z","name_a2s":"Uncletopia | Frankfurt | 2 | All Maps","protocol":17,"map":"pl_frontier_final","folder":"tf","game":"Team Fortress","app_id":440,"player_count":24,"max_players":24,"Bots":0,"server_type":"Dedicated","server_os":"Linux","password":true,"vac":true,"version":"7961495","steam_id":85568392924469990,"keywords":["nocrits","nodmgspread","payload","uncletopia"],"game_id":440,"stv_port":27026,"stv_name":"Uncletopia | Frankfurt | 2 | All Maps | STV","players":[{"user_id":729,"name":"Maxy Luck","steam_id":76561199009583144,"connected_time":1820000000000,"state":"active","ping":106},{"user_id":736,"name":"váza","steam_id":76561198384577448,"connected_time":1257000000000,"state":"active","ping":51},{"user_id":750,"name":"EEEEEH","steam_id":76561198126717413,"connected_time":360000000000,"state":"active","ping":72},{"user_id":724,"name":"Kyjara","steam_id":76561198048600523,"connected_time":1869000000000,"state":"active","ping":62},{"user_id":749,"name":"gagalak","steam_id":76561198089979108,"connected_time":395000000000,"state":"active","ping":95},{"user_id":764,"name":"kilo","steam_id":76561198015641339,"connected_time":84000000000,"state":"active","ping":64},{"user_id":754,"name":"rekatama","steam_id":76561199096691729,"connected_time":274000000000,"state":"active","ping":105},{"user_id":755,"name":"tort","steam_id":76561198147246166,"connected_time":273000000000,"state":"active","ping":77},{"user_id":760,"name":"dog?","steam_id":76561199232839385,"connected_time":202000000000,"state":"active","ping":88},{"user_id":706,"name":"Spajro","steam_id":76561198257383813,"connected_time":3302000000000,"state":"active","ping":45},{"user_id":686,"name":"Wardruna96","steam_id":76561199057083828,"connected_time":4870000000000,"state":"active","ping":76},{"user_id":756,"name":"♥♥TGA♥♥","steam_id":76561198853016656,"connected_time":253000000000,"state":"active","ping":51},{"user_id":757,"name":"Not A Fake Uncletopia Server","steam_id":76561198152871288,"connected_time":252000000000,"state":"active","ping":66},{"user_id":720,"name":"Lunara","steam_id":76561198123141355,"connected_time":2471000000000,"state":"active","ping":58},{"user_id":758,"name":"Pixel_Flamex","steam_id":76561198398929110,"connected_time":245000000000,"state":"active","ping":144},{"user_id":451,"name":"0iO","steam_id":76561198093526408,"connected_time":13882000000000,"state":"active","ping":64},{"user_id":765,"name":"GogsCrunchyNuts","steam_id":76561198150599213,"connected_time":41000000000,"state":"spawning","ping":88},{"user_id":761,"name":"MoistMomMauler","steam_id":76561198069359049,"connected_time":199000000000,"state":"active","ping":80},{"user_id":741,"name":"not a nihilist","steam_id":76561198004340466,"connected_time":950000000000,"state":"active","ping":49},{"user_id":742,"name":"Jeremy265","steam_id":76561199004316549,"connected_time":921000000000,"state":"active","ping":120},{"user_id":762,"name":"Skelet (Contract Signer)","steam_id":76561198051685232,"connected_time":195000000000,"state":"active","ping":45},{"user_id":746,"name":"Jedunahoru","steam_id":76561199508744635,"connected_time":469000000000,"state":"active","ping":94},{"user_id":763,"name":"Itai","steam_id":76561198804555329,"connected_time":192000000000,"state":"active","ping":97},{"user_id":711,"name":"Zulik92","steam_id":76561198152442373,"connected_time":3034000000000,"state":"active","ping":74}]},{"server_id":308,"name":"Uncletopia | Frankfurt | 3 | All Maps","name_short":"frk-3","host":"frk-1.de.uncletopia.com","port":27035,"enabled":true,"region":"eu","cc":"de","latitude":50.110924,"longitude":8.682127,"reserved":0,"last_update":"0001-01-01T00:00:00Z","name_a2s":"Uncletopia | Frankfurt | 3 | All Maps","protocol":17,"map":"cp_dustbowl","folder":"tf","game":"Team Fortress","app_id":440,"player_count":23,"max_players":24,"Bots":0,"server_type":"Dedicated","server_os":"Linux","password":true,"vac":true,"version":"7961495","steam_id":85568392924504274,"keywords":["cp","nocrits","nodmgspread","uncletopia"],"game_id":440,"stv_port":27036,"stv_name":"Uncletopia | Frankfurt | 3 | All Maps | STV","players":[{"user_id":77,"name":"waluigi","steam_id":76561198215809251,"connected_time":572000000000,"state":"active","ping":49},{"user_id":24,"name":"Abudabec2007(pro gamer)","steam_id":76561199110975331,"connected_time":4064000000000,"state":"active","ping":118},{"user_id":27,"name":"Sexellent","steam_id":76561199508803502,"connected_time":3435000000000,"state":"active","ping":70},{"user_id":74,"name":"LinxMc","steam_id":76561199278379888,"connected_time":741000000000,"state":"active","ping":77},{"user_id":30,"name":"Pepe the Frog","steam_id":76561199500477314,"connected_time":3247000000000,"state":"active","ping":109},{"user_id":81,"name":"Frust","steam_id":76561198009785922,"connected_time":71000000000,"state":"active","ping":106},{"user_id":79,"name":"kingdead4","steam_id":76561198079576655,"connected_time":188000000000,"state":"active","ping":67},{"user_id":33,"name":"Mozzaza","steam_id":76561198156316111,"connected_time":3094000000000,"state":"active","ping":142},{"user_id":54,"name":"Reomk","steam_id":76561198309314129,"connected_time":2641000000000,"state":"active","ping":71},{"user_id":64,"name":"Kewlan","steam_id":76561198042775020,"connected_time":1872000000000,"state":"active","ping":81},{"user_id":37,"name":"alfus","steam_id":76561198071003109,"connected_time":3041000000000,"state":"active","ping":59},{"user_id":72,"name":"BurningJoke","steam_id":76561199014358707,"connected_time":864000000000,"state":"active","ping":47},{"user_id":39,"name":"DevFish","steam_id":76561199010456751,"connected_time":2813000000000,"state":"active","ping":51},{"user_id":52,"name":"TicTic","steam_id":76561198035563318,"connected_time":2719000000000,"state":"active","ping":71},{"user_id":41,"name":"Jughead","steam_id":76561198000355410,"connected_time":2809000000000,"state":"active","ping":47},{"user_id":42,"name":"Xi Bingchilling","steam_id":76561198154310301,"connected_time":2806000000000,"state":"active","ping":94},{"user_id":55,"name":"Emperor Mateus","steam_id":76561198263503740,"connected_time":2537000000000,"state":"active","ping":73},{"user_id":80,"name":"lolimsogreat21","steam_id":76561199052033788,"connected_time":139000000000,"state":"active","ping":68},{"user_id":75,"name":"Gety0","steam_id":76561198044387185,"connected_time":701000000000,"state":"active","ping":89},{"user_id":46,"name":"W","steam_id":76561198273623211,"connected_time":2762000000000,"state":"active","ping":84},{"user_id":69,"name":"MIKI","steam_id":76561197971415497,"connected_time":1542000000000,"state":"active","ping":50},{"user_id":48,"name":"de6s","steam_id":76561199223240505,"connected_time":2752000000000,"state":"active","ping":104},{"user_id":53,"name":"Dave The Sloth","steam_id":76561199135831355,"connected_time":2710000000000,"state":"active","ping":62}]},{"server_id":309,"name":"Uncletopia | Frankfurt | 4 | All Maps","name_short":"frk-4","host":"frk-1.de.uncletopia.com","port":27045,"enabled":true,"region":"eu","cc":"de","latitude":50.110924,"longitude":8.682127,"reserved":0,"last_update":"0001-01-01T00:00:00Z","name_a2s":"Uncletopia | Frankfurt | 4 | All Maps","protocol":17,"map":"pl_pier","folder":"tf","game":"Team Fortress","app_id":440,"player_count":24,"max_players":24,"Bots":0,"server_type":"Dedicated","server_os":"Linux","password":true,"vac":true,"version":"7961495","steam_id":85568392924504275,"keywords":["nocrits","nodmgspread","payload","uncletopia"],"game_id":440,"stv_port":27046,"stv_name":"Uncletopia | Frankfurt | 4 | All Maps | STV","players":[{"user_id":164,"name":"Optimist 50","steam_id":76561198039631442,"connected_time":1355000000000,"state":"active","ping":80},{"user_id":153,"name":"Heavy Duty","steam_id":76561198219594541,"connected_time":1763000000000,"state":"active","ping":96},{"user_id":141,"name":"pKaskar","steam_id":76561198046248945,"connected_time":2087000000000,"state":"active","ping":90},{"user_id":178,"name":"Yanniki","steam_id":76561197986058110,"connected_time":127000000000,"state":"active","ping":64},{"user_id":165,"name":"Pico","steam_id":76561198063552545,"connected_time":1252000000000,"state":"active","ping":85},{"user_id":171,"name":"Big Trader","steam_id":76561197992364667,"connected_time":555000000000,"state":"active","ping":57},{"user_id":167,"name":"HayLeX","steam_id":76561198130997343,"connected_time":958000000000,"state":"active","ping":86},{"user_id":140,"name":"Kesska","steam_id":76561198106116035,"connected_time":2131000000000,"state":"active","ping":128},{"user_id":172,"name":"RamSoz","steam_id":76561198818421936,"connected_time":538000000000,"state":"active","ping":69},{"user_id":179,"name":"She Dooby","steam_id":76561198334042273,"connected_time":120000000000,"state":"active","ping":64},{"user_id":144,"name":"Mind Fuzz","steam_id":76561198050079428,"connected_time":2053000000000,"state":"active","ping":105},{"user_id":180,"name":"jovi_","steam_id":76561198449280552,"connected_time":87000000000,"state":"active","ping":62},{"user_id":181,"name":"Udinese Dion","steam_id":76561198067931573,"connected_time":82000000000,"state":"active","ping":52},{"user_id":151,"name":"LOBZIK","steam_id":76561198114830120,"connected_time":1869000000000,"state":"active","ping":76},{"user_id":175,"name":"Sang","steam_id":76561198008510868,"connected_time":305000000000,"state":"active","ping":64},{"user_id":39,"name":"DiscoTraveler","steam_id":76561199240168088,"connected_time":7076000000000,"state":"active","ping":132},{"user_id":109,"name":"Gorgeous George","steam_id":76561198144256544,"connected_time":4245000000000,"state":"active","ping":62},{"user_id":174,"name":"Dr. Josef","steam_id":76561198171353373,"connected_time":504000000000,"state":"active","ping":65},{"user_id":152,"name":"Dakeyras","steam_id":76561198057069564,"connected_time":1843000000000,"state":"active","ping":109},{"user_id":163,"name":"Kangaroo aids","steam_id":76561199142022395,"connected_time":1383000000000,"state":"active","ping":60},{"user_id":135,"name":"TommySleepyEyes","steam_id":76561198261007349,"connected_time":2261000000000,"state":"active","ping":60},{"user_id":149,"name":"LuckyHappyGuy","steam_id":76561198353023996,"connected_time":1980000000000,"state":"active","ping":75},{"user_id":147,"name":"SpyCrab  Erik Twice","steam_id":76561198009710309,"connected_time":2020000000000,"state":"active","ping":66},{"user_id":169,"name":"LivEssense","steam_id":76561198052476979,"connected_time":920000000000,"state":"active","ping":78}]},{"server_id":310,"name":"Uncletopia | Frankfurt | 5 | All Maps","name_short":"frk-5","host":"frk-1.de.uncletopia.com","port":27055,"enabled":true,"region":"eu","cc":"de","latitude":50.110924,"longitude":8.682127,"reserved":0,"last_update":"0001-01-01T00:00:00Z","name_a2s":"Uncletopia | Frankfurt | 5 | All Maps","protocol":17,"map":"cp_gravelpit","folder":"tf","game":"Team Fortress","app_id":440,"player_count":20,"max_players":24,"Bots":0,"server_type":"Dedicated","server_os":"Linux","password":true,"vac":true,"version":"7961495","steam_id":85568392924504277,"keywords":["cp","nocrits","nodmgspread","uncletopia"],"game_id":440,"stv_port":27056,"stv_name":"Uncletopia | Frankfurt | 5 | All Maps | STV","players":[{"user_id":259,"name":"Devious","steam_id":76561198035576811,"connected_time":180000000000,"state":"active","ping":52},{"user_id":214,"name":"℮","steam_id":76561198138645673,"connected_time":2312000000000,"state":"active","ping":60},{"user_id":256,"name":"Eggman From sonic adventure 2","steam_id":76561199043933182,"connected_time":540000000000,"state":"active","ping":152},{"user_id":224,"name":"TheOxideGamer","steam_id":76561199445897326,"connected_time":2158000000000,"state":"active","ping":66},{"user_id":249,"name":"RobbinKung","steam_id":76561198137772906,"connected_time":1349000000000,"state":"active","ping":60},{"user_id":232,"name":"DevilNeverCry200","steam_id":76561198203040245,"connected_time":1897000000000,"state":"active","ping":69},{"user_id":260,"name":"Preksy","steam_id":76561199179193076,"connected_time":166000000000,"state":"active","ping":61},{"user_id":251,"name":"Swiss_Nostalgia","steam_id":76561199159896259,"connected_time":1245000000000,"state":"active","ping":59},{"user_id":257,"name":"heddwch","steam_id":76561198076097983,"connected_time":503000000000,"state":"active","ping":78},{"user_id":253,"name":"S@wKa","steam_id":76561198200160028,"connected_time":1147000000000,"state":"active","ping":75},{"user_id":203,"name":"Günther","steam_id":76561198333417038,"connected_time":2860000000000,"state":"active","ping":74},{"user_id":233,"name":"Shade","steam_id":76561198087923808,"connected_time":1845000000000,"state":"active","ping":51},{"user_id":261,"name":"Cepakas","steam_id":76561198878369698,"connected_time":11000000000,"state":"spawning","ping":59},{"user_id":237,"name":"xDis4ster","steam_id":76561198198577778,"connected_time":1823000000000,"state":"active","ping":120},{"user_id":255,"name":"8 Ball","steam_id":76561197960988736,"connected_time":841000000000,"state":"active","ping":62},{"user_id":238,"name":"0pelkenobi","steam_id":76561199155185736,"connected_time":1817000000000,"state":"active","ping":68},{"user_id":225,"name":"ANGHENFILOD","steam_id":76561199492622823,"connected_time":2141000000000,"state":"active","ping":56},{"user_id":212,"name":"PlasticVoid","steam_id":76561197997870306,"connected_time":2340000000000,"state":"active","ping":46},{"user_id":243,"name":"Shift","steam_id":76561198028296732,"connected_time":1640000000000,"state":"active","ping":51},{"user_id":174,"name":"Bruschetta","steam_id":76561198251927162,"connected_time":5140000000000,"state":"active","ping":55}]},{"server_id":311,"name":"Uncletopia | Frankfurt | 6 | All Maps","name_short":"frk-6","host":"frk-1.de.uncletopia.com","port":27065,"enabled":true,"region":"eu","cc":"de","latitude":50.110924,"longitude":8.682127,"reserved":0,"last_update":"0001-01-01T00:00:00Z","name_a2s":"Uncletopia | Frankfurt | 6 | All Maps","protocol":17,"map":"koth_highpass","folder":"tf","game":"Team Fortress","app_id":440,"player_count":14,"max_players":24,"Bots":0,"server_type":"Dedicated","server_os":"Linux","password":true,"vac":true,"version":"7961495","steam_id":85568392924504278,"keywords":["cp","nocrits","nodmgspread","uncletopia"],"game_id":440,"stv_port":27066,"stv_name":"Uncletopia | Frankfurt | 6 | All Maps | STV","players":[{"user_id":498,"name":"banditu","steam_id":76561198891999531,"connected_time":812000000000,"state":"active","ping":68},{"user_id":505,"name":"Ebling Mis","steam_id":76561198977948250,"connected_time":421000000000,"state":"active","ping":60},{"user_id":500,"name":"MeBandae","steam_id":76561198910770432,"connected_time":685000000000,"state":"active","ping":73},{"user_id":501,"name":"wodiw21","steam_id":76561199092252177,"connected_time":650000000000,"state":"active","ping":65},{"user_id":476,"name":"Nigel256","steam_id":76561198055283295,"connected_time":2656000000000,"state":"active","ping":43},{"user_id":492,"name":"Egor Pomidor","steam_id":76561199175688390,"connected_time":1476000000000,"state":"active","ping":69},{"user_id":502,"name":"eredeen","steam_id":76561198305875681,"connected_time":599000000000,"state":"active","ping":103},{"user_id":503,"name":"orangegoat72","steam_id":76561198928595949,"connected_time":522000000000,"state":"active","ping":68},{"user_id":504,"name":"MHE_HOPM","steam_id":76561199073846518,"connected_time":484000000000,"state":"active","ping":57},{"user_id":439,"name":"Gamer Potato","steam_id":76561199160156334,"connected_time":4896000000000,"state":"active","ping":45},{"user_id":506,"name":"İslam'ın Zinciri - Sylas","steam_id":76561198419812739,"connected_time":326000000000,"state":"active","ping":81},{"user_id":508,"name":"ZYZZ","steam_id":76561198452584920,"connected_time":169000000000,"state":"active","ping":62},{"user_id":509,"name":"sleep addict","steam_id":76561198100694096,"connected_time":160000000000,"state":"active","ping":137},{"user_id":485,"name":"Jiwi","steam_id":76561198007791101,"connected_time":2093000000000,"state":"active","ping":66}]},{"server_id":23,"name":"Uncletopia | Frankfurt | 7 | Stopwatch","name_short":"frk-7","host":"frk-1.de.uncletopia.com","port":27075,"enabled":true,"region":"eu","cc":"de","latitude":50.110924,"longitude":8.682127,"reserved":0,"last_update":"0001-01-01T00:00:00Z","name_a2s":"Uncletopia | Frankfurt | 7 | Stopwatch","protocol":17,"map":"workshop/pl_badwater_pro_v12.ugc2142942074","folder":"tf","game":"Team Fortress","app_id":440,"player_count":3,"max_players":24,"Bots":0,"server_type":"Dedicated","server_os":"Linux","password":true,"vac":true,"version":"7961495","steam_id":85568392924742827,"keywords":["nocrits","nodmgspread","payload","uncletopia"],"game_id":440,"stv_port":27076,"stv_name":"Uncletopia | Frankfurt | 7 | Stopwatch | STV","players":[{"user_id":19,"name":"Ļą Δantə","steam_id":76561198078344149,"connected_time":824000000000,"state":"active","ping":103},{"user_id":20,"name":"Badkitty","steam_id":76561199245159804,"connected_time":819000000000,"state":"active","ping":105},{"user_id":22,"name":"das boot","steam_id":76561198953844914,"connected_time":61000000000,"state":"active","ping":55}]},{"server_id":24,"name":"Uncletopia | Frankfurt | 8 | Community","name_short":"frk-8","host":"frk-1.de.uncletopia.com","port":27085,"enabled":true,"region":"eu","cc":"de","latitude":50.110924,"longitude":8.682127,"reserved":0,"last_update":"0001-01-01T00:00:00Z","name_a2s":"Uncletopia | Frankfurt | 8 | Community","protocol":17,"map":"workshop/cp_croissant_final.ugc458840209","folder":"tf","game":"Team Fortress","app_id":440,"player_count":0,"max_players":24,"Bots":0,"server_type":"Dedicated","server_os":"Linux","password":true,"vac":true,"version":"7961495","steam_id":85568392924742828,"keywords":["cp","nocrits","nodmgspread","uncletopia"],"game_id":440,"stv_port":27086,"stv_name":"Uncletopia | Frankfurt | 8 | Community | STV","players":null},{"server_id":202,"name":"Uncletopia | Hong Kong | 1 | All Maps","name_short":"hgk-1","host":"hgk-1.hk.uncletopia.com","port":27015,"enabled":true,"region":"asia","cc":"hk","latitude":22.302711,"longitude":114.177216,"reserved":0,"last_update":"0001-01-01T00:00:00Z","name_a2s":"Uncletopia | Hong Kong | 1 | All Maps","protocol":17,"map":"koth_lakeside_final","folder":"tf","game":"Team Fortress","app_id":440,"player_count":6,"max_players":24,"Bots":0,"server_type":"Dedicated","server_os":"Linux","password":true,"vac":true,"version":"7961495","steam_id":85568392924494504,"keywords":["cp","nocrits","nodmgspread","uncletopia"],"game_id":440,"stv_port":27016,"stv_name":"Uncletopia | Hong Kong | 1 | All Maps | STV","players":[{"user_id":454,"name":"lorey","steam_id":76561199137927625,"connected_time":211000000000,"state":"active","ping":90},{"user_id":445,"name":"archimedes_the_crow","steam_id":76561199201085996,"connected_time":2307000000000,"state":"active","ping":255},{"user_id":367,"name":"Impetus","steam_id":76561198213031155,"connected_time":10187000000000,"state":"active","ping":91},{"user_id":391,"name":"StewBツ","steam_id":76561198131423270,"connected_time":7525000000000,"state":"active","ping":59},{"user_id":423,"name":"sans the skeleton","steam_id":76561199262750178,"connected_time":5066000000000,"state":"active","ping":115},{"user_id":392,"name":"le goon","steam_id":76561198797699056,"connected_time":7429000000000,"state":"active","ping":92}]},{"server_id":1,"name":"Uncletopia | Los Angeles | 1 | All Maps","name_short":"lax-1","host":"lax-1.us.uncletopia.com","port":27015,"enabled":true,"region":"us-west","cc":"us","latitude":33.94279,"longitude":-118.41004,"reserved":0,"last_update":"0001-01-01T00:00:00Z","name_a2s":"Uncletopia | Los Angeles | 1 | All Maps","protocol":17,"map":"koth_lakeside_final","folder":"tf","game":"Team Fortress","app_id":440,"player_count":0,"max_players":24,"Bots":0,"server_type":"Dedicated","server_os":"Linux","password":true,"vac":true,"version":"7961495","steam_id":85568392924469991,"keywords":["cp","nocrits","nodmgspread","uncletopia"],"game_id":440,"stv_port":27016,"stv_name":"Uncletopia | Los Angeles | 1 | All Maps | STV","players":null},{"server_id":112,"name":"Uncletopia | Los Angeles | 2 | All Maps","name_short":"lax-2","host":"lax-1.us.uncletopia.com","port":27025,"enabled":true,"region":"us-west","cc":"us","latitude":33.94279,"longitude":-118.41004,"reserved":0,"last_update":"0001-01-01T00:00:00Z","name_a2s":"Uncletopia | Los Angeles | 2 | All Maps","protocol":17,"map":"koth_lazarus","folder":"tf","game":"Team Fortress","app_id":440,"player_count":0,"max_players":24,"Bots":0,"server_type":"Dedicated","server_os":"Linux","password":true,"vac":true,"version":"7961495","steam_id":85568392924469992,"keywords":["cp","nocrits","nodmgspread","uncletopia"],"game_id":440,"stv_port":27026,"stv_name":"Uncletopia | Los Angeles | 2 | All Maps | STV","players":null},{"server_id":324,"name":"Uncletopia | Los Angeles | 3 | All Maps","name_short":"lax-3","host":"lax-1.us.uncletopia.com","port":27035,"enabled":true,"region":"us-west","cc":"us","latitude":33.94279,"longitude":-118.41004,"reserved":0,"last_update":"0001-01-01T00:00:00Z","name_a2s":"Uncletopia | Los Angeles | 3 | All Maps","protocol":17,"map":"pl_frontier_final","folder":"tf","game":"Team Fortress","app_id":440,"player_count":0,"max_players":24,"Bots":0,"server_type":"Dedicated","server_os":"Linux","password":true,"vac":true,"version":"7961495","steam_id":85568392924510198,"keywords":["nocrits","nodmgspread","payload","uncletopia"],"game_id":440,"stv_port":27036,"stv_name":"Uncletopia | Los Angeles | 3 | All Maps | STV","players":null},{"server_id":25,"name":"Uncletopia | Los Angeles | 4 | Stopwatch","name_short":"lax-4","host":"lax-1.us.uncletopia.com","port":27045,"enabled":true,"region":"us-west","cc":"us","latitude":33.94279,"longitude":-118.41004,"reserved":0,"last_update":"0001-01-01T00:00:00Z","name_a2s":"Uncletopia | Los Angeles | 4 | Stopwatch","protocol":17,"map":"pl_upward","folder":"tf","game":"Team Fortress","app_id":440,"player_count":0,"max_players":24,"Bots":0,"server_type":"Dedicated","server_os":"Linux","password":true,"vac":true,"version":"7961495","steam_id":85568392924510199,"keywords":["nocrits","nodmgspread","payload","uncletopia"],"game_id":440,"stv_port":27046,"stv_name":"Uncletopia | Los Angeles | 4 | Stopwatch | STV","players":null},{"server_id":11,"name":"Uncletopia | London | 1 | All Maps","name_short":"lon-1","host":"lon-1.uk.uncletopia.com","port":27015,"enabled":true,"region":"eu","cc":"gb","latitude":51.509865,"longitude":-0.118092,"reserved":0,"last_update":"0001-01-01T00:00:00Z","name_a2s":"Uncletopia | London | 1 | All Maps","protocol":17,"map":"koth_cascade","folder":"tf","game":"Team Fortress","app_id":440,"player_count":24,"max_players":24,"Bots":0,"server_type":"Dedicated","server_os":"Linux","password":true,"vac":true,"version":"7961495","steam_id":85568392924367362,"keywords":["cp","nocrits","nodmgspread","uncletopia"],"game_id":440,"stv_port":27016,"stv_name":"Uncletopia | London | 1 | All Maps | STV","players":[{"user_id":383,"name":"gr3821","steam_id":76561198091531010,"connected_time":211000000000,"state":"active","ping":44},{"user_id":362,"name":"Kahvi","steam_id":76561198723244199,"connected_time":1467000000000,"state":"active","ping":86},{"user_id":384,"name":"Fish","steam_id":76561198152128484,"connected_time":182000000000,"state":"active","ping":51},{"user_id":385,"name":"fector","steam_id":76561199204249586,"connected_time":152000000000,"state":"active","ping":129},{"user_id":374,"name":"Miku.Hatsune.2007","steam_id":76561198199687607,"connected_time":484000000000,"state":"active","ping":65},{"user_id":368,"name":"lawn","steam_id":76561198001243486,"connected_time":821000000000,"state":"active","ping":45},{"user_id":375,"name":"Warrior555MainsGanon","steam_id":76561198388627786,"connected_time":443000000000,"state":"active","ping":64},{"user_id":390,"name":"giclure :;","steam_id":76561197986362828,"connected_time":45000000000,"state":"active","ping":66},{"user_id":386,"name":"Lyra","steam_id":76561198043601838,"connected_time":116000000000,"state":"active","ping":65},{"user_id":349,"name":"mertefe","steam_id":76561199237126613,"connected_time":3012000000000,"state":"active","ping":97},{"user_id":363,"name":"Liko","steam_id":76561197994660517,"connected_time":1421000000000,"state":"active","ping":84},{"user_id":335,"name":"$H4D0W W1Z4RD M0N3Y G4NG","steam_id":76561199195985387,"connected_time":3947000000000,"state":"active","ping":97},{"user_id":387,"name":"Ryan Gosling (Literally me)","steam_id":76561198438150893,"connected_time":109000000000,"state":"active","ping":89},{"user_id":379,"name":"멈출 수 없는","steam_id":76561198349648942,"connected_time":314000000000,"state":"active","ping":83},{"user_id":290,"name":"whimsy.","steam_id":76561198878171763,"connected_time":7794000000000,"state":"active","ping":54},{"user_id":365,"name":"akakez","steam_id":76561198095432821,"connected_time":966000000000,"state":"active","ping":114},{"user_id":381,"name":"Sleeping at 4am help","steam_id":76561198173218318,"connected_time":257000000000,"state":"active","ping":45},{"user_id":355,"name":"pip","steam_id":76561198089560908,"connected_time":1996000000000,"state":"active","ping":105},{"user_id":388,"name":"Scotaborg","steam_id":76561198080764719,"connected_time":109000000000,"state":"active","ping":71},{"user_id":382,"name":"Theodore Argesh","steam_id":76561198122028307,"connected_time":214000000000,"state":"active","ping":53},{"user_id":361,"name":"shooer!","steam_id":76561198110531281,"connected_time":1550000000000,"state":"active","ping":58},{"user_id":389,"name":"meirfa","steam_id":76561198157193506,"connected_time":92000000000,"state":"active","ping":135},{"user_id":327,"name":"sareena","steam_id":76561198810194062,"connected_time":4599000000000,"state":"active","ping":74}]},{"server_id":114,"name":"Uncletopia | London | 2 | All Maps","name_short":"lon-2","host":"lon-1.uk.uncletopia.com","port":27025,"enabled":true,"region":"eu","cc":"gb","latitude":51.509865,"longitude":-0.118092,"reserved":0,"last_update":"0001-01-01T00:00:00Z","name_a2s":"Uncletopia | London | 2 | All Maps","protocol":17,"map":"pl_swiftwater_final1","folder":"tf","game":"Team Fortress","app_id":440,"player_count":23,"max_players":24,"Bots":0,"server_type":"Dedicated","server_os":"Linux","password":true,"vac":true,"version":"7961495","steam_id":85568392924470941,"keywords":["nocrits","nodmgspread","payload","uncletopia"],"game_id":440,"stv_port":27026,"stv_name":"Uncletopia | London | 2 | All Maps | STV","players":[{"user_id":324,"name":"Woman (Real)","steam_id":76561199151823932,"connected_time":48000000000,"state":"active","ping":83},{"user_id":307,"name":"ShadowRaider","steam_id":76561198321110421,"connected_time":1505000000000,"state":"active","ping":66},{"user_id":292,"name":"Some bub","steam_id":76561199077211138,"connected_time":2898000000000,"state":"active","ping":23},{"user_id":193,"name":"Edsuedi","steam_id":76561198074722832,"connected_time":7847000000000,"state":"active","ping":53},{"user_id":297,"name":"GMsU | Rebikas","steam_id":76561198077053764,"connected_time":2450000000000,"state":"active","ping":51},{"user_id":319,"name":"garfield gaming","steam_id":76561199060384919,"connected_time":523000000000,"state":"active","ping":35},{"user_id":308,"name":"GMsU | Acoul","steam_id":76561198229222992,"connected_time":1252000000000,"state":"active","ping":51},{"user_id":323,"name":"oultimosuicida","steam_id":76561198051429942,"connected_time":79000000000,"state":"active","ping":73},{"user_id":210,"name":"static","steam_id":76561198836825741,"connected_time":6484000000000,"state":"active","ping":45},{"user_id":314,"name":"generic alias","steam_id":76561198271607226,"connected_time":830000000000,"state":"active","ping":89},{"user_id":267,"name":"ramunelis (ricardo edition)","steam_id":76561198103589961,"connected_time":4307000000000,"state":"active","ping":79},{"user_id":174,"name":"Kamelåså","steam_id":76561198149072785,"connected_time":9107000000000,"state":"active","ping":60},{"user_id":305,"name":"Purple Soup :D","steam_id":76561198985100366,"connected_time":1612000000000,"state":"active","ping":83},{"user_id":311,"name":"GMsU | AuxiliusM","steam_id":76561198071903356,"connected_time":876000000000,"state":"active","ping":56},{"user_id":294,"name":"Milk02","steam_id":76561199484753251,"connected_time":2822000000000,"state":"active","ping":120},{"user_id":325,"name":"herbal tea","steam_id":76561197980736364,"connected_time":9000000000,"state":"active","ping":163},{"user_id":299,"name":"Farmercy","steam_id":76561198000038039,"connected_time":1986000000000,"state":"active","ping":61},{"user_id":312,"name":"Oriuke","steam_id":76561197992166123,"connected_time":871000000000,"state":"active","ping":52},{"user_id":316,"name":"tafelpoot","steam_id":76561198080036024,"connected_time":763000000000,"state":"active","ping":50},{"user_id":317,"name":"GMsU | Smiley","steam_id":76561198121494414,"connected_time":731000000000,"state":"active","ping":101},{"user_id":304,"name":"NALA","steam_id":76561198039806469,"connected_time":1653000000000,"state":"active","ping":79},{"user_id":310,"name":"Pimpin' \u0026 Blimpin'","steam_id":76561198326776107,"connected_time":1104000000000,"state":"active","ping":85},{"user_id":321,"name":"heykikidom","steam_id":76561198267574417,"connected_time":285000000000,"state":"active","ping":107}]},{"server_id":320,"name":"Uncletopia | London | 3 | All Maps","name_short":"lon-3","host":"lon-1.uk.uncletopia.com","port":27035,"enabled":true,"region":"eu","cc":"gb","latitude":51.509865,"longitude":-0.118092,"reserved":0,"last_update":"0001-01-01T00:00:00Z","name_a2s":"Uncletopia | London | 3 | All Maps","protocol":17,"map":"cp_gorge","folder":"tf","game":"Team Fortress","app_id":440,"player_count":12,"max_players":24,"Bots":0,"server_type":"Dedicated","server_os":"Linux","password":true,"vac":true,"version":"7961495","steam_id":85568392924510192,"keywords":["cp","nocrits","nodmgspread","uncletopia"],"game_id":440,"stv_port":27036,"stv_name":"Uncletopia | London | 3 | All Maps | STV","players":[{"user_id":30,"name":"I-I","steam_id":76561198267969436,"connected_time":1538000000000,"state":"active","ping":60},{"user_id":26,"name":"didi_gaga","steam_id":76561198797688627,"connected_time":1971000000000,"state":"active","ping":91},{"user_id":29,"name":"glue eating champion","steam_id":76561198100963738,"connected_time":1560000000000,"state":"active","ping":45},{"user_id":31,"name":"NESS","steam_id":76561197995225318,"connected_time":1459000000000,"state":"active","ping":42},{"user_id":36,"name":"dools18","steam_id":76561198880768062,"connected_time":1240000000000,"state":"active","ping":54},{"user_id":38,"name":"Whät","steam_id":76561197999285844,"connected_time":1149000000000,"state":"active","ping":70},{"user_id":40,"name":"HEY lets fight 1vs1 idiot hater","steam_id":76561198396428987,"connected_time":1134000000000,"state":"active","ping":79},{"user_id":42,"name":"Cg Studios","steam_id":76561198286908002,"connected_time":1068000000000,"state":"active","ping":45},{"user_id":48,"name":"gaggle","steam_id":76561197988226281,"connected_time":783000000000,"state":"active","ping":38},{"user_id":53,"name":"Dishhhh","steam_id":76561197992816831,"connected_time":562000000000,"state":"active","ping":73},{"user_id":57,"name":"nug","steam_id":76561198055396568,"connected_time":475000000000,"state":"active","ping":51},{"user_id":59,"name":"Axio","steam_id":76561198046826031,"connected_time":450000000000,"state":"active","ping":60}]},{"server_id":321,"name":"Uncletopia | London | 4 | All Maps","name_short":"lon-4","host":"lon-1.uk.uncletopia.com","port":27045,"enabled":true,"region":"eu","cc":"gb","latitude":51.509865,"longitude":-0.118092,"reserved":0,"last_update":"0001-01-01T00:00:00Z","name_a2s":"Uncletopia | London | 4 | All Maps","protocol":17,"map":"koth_cascade","folder":"tf","game":"Team Fortress","app_id":440,"player_count":19,"max_players":24,"Bots":0,"server_type":"Dedicated","server_os":"Linux","password":true,"vac":true,"version":"7961495","steam_id":85568392924510193,"keywords":["cp","nocrits","nodmgspread","uncletopia"],"game_id":440,"stv_port":27046,"stv_name":"Uncletopia | London | 4 | All Maps | STV","players":[{"user_id":39,"name":"K.V. #RemoveRandomCrits","steam_id":76561197994832993,"connected_time":4842000000000,"state":"active","ping":81},{"user_id":103,"name":"Staring at the bananabyss","steam_id":76561198002451113,"connected_time":104000000000,"state":"active","ping":90},{"user_id":80,"name":"Akira","steam_id":76561198323636432,"connected_time":2675000000000,"state":"active","ping":56},{"user_id":41,"name":"unded","steam_id":76561198122952830,"connected_time":4825000000000,"state":"active","ping":91},{"user_id":90,"name":"Freshxy","steam_id":76561198250232194,"connected_time":1731000000000,"state":"active","ping":56},{"user_id":104,"name":"Mr Fruitypebbles","steam_id":76561198133823242,"connected_time":67000000000,"state":"active","ping":51},{"user_id":105,"name":"Andreus","steam_id":76561199403926001,"connected_time":40000000000,"state":"spawning","ping":84},{"user_id":106,"name":"Flank","steam_id":76561198098731156,"connected_time":23000000000,"state":"active","ping":67},{"user_id":102,"name":"literallyjasonx","steam_id":76561198835895387,"connected_time":535000000000,"state":"active","ping":78},{"user_id":55,"name":"ottergauze","steam_id":76561198050523315,"connected_time":3618000000000,"state":"active","ping":48},{"user_id":52,"name":"African Animosity","steam_id":76561198094483253,"connected_time":3696000000000,"state":"active","ping":41},{"user_id":96,"name":"BELADIT","steam_id":76561198011911501,"connected_time":1263000000000,"state":"active","ping":75},{"user_id":56,"name":"Xavi","steam_id":76561198337783795,"connected_time":3610000000000,"state":"active","ping":113},{"user_id":99,"name":"S.Scary","steam_id":76561198248602386,"connected_time":1144000000000,"state":"active","ping":74},{"user_id":69,"name":"Regal Dreamer","steam_id":76561197997588945,"connected_time":3366000000000,"state":"active","ping":82},{"user_id":101,"name":"Civil Melon","steam_id":76561198988309618,"connected_time":647000000000,"state":"active","ping":82},{"user_id":63,"name":"maakgis","steam_id":76561198851703804,"connected_time":3558000000000,"state":"active","ping":131},{"user_id":88,"name":"Juno","steam_id":76561198073839911,"connected_time":1769000000000,"state":"active","ping":60},{"user_id":67,"name":"big lady","steam_id":76561197971716998,"connected_time":3422000000000,"state":"active","ping":52}]},{"server_id":21,"name":"Uncletopia | London | 5 | All Maps","name_short":"lon-5","host":"lon-1.uk.uncletopia.com","port":27055,"enabled":true,"region":"eu","cc":"gb","latitude":51.509865,"longitude":-0.118092,"reserved":0,"last_update":"0001-01-01T00:00:00Z","name_a2s":"Uncletopia | London | 5 | All Maps","protocol":17,"map":"koth_suijin","folder":"tf","game":"Team Fortress","app_id":440,"player_count":0,"max_players":24,"Bots":0,"server_type":"Dedicated","server_os":"Linux","password":true,"vac":true,"version":"7961495","steam_id":85568392924742829,"keywords":["cp","nocrits","nodmgspread","uncletopia"],"game_id":440,"stv_port":27056,"stv_name":"Uncletopia | London | 5 | All Maps | STV","players":null},{"server_id":22,"name":"Uncletopia | London | 6 | All Maps","name_short":"lon-6","host":"lon-1.uk.uncletopia.com","port":27065,"enabled":true,"region":"eu","cc":"gb","latitude":51.509865,"longitude":-0.118092,"reserved":0,"last_update":"0001-01-01T00:00:00Z","name_a2s":"Uncletopia | London | 6 | All Maps","protocol":17,"map":"koth_viaduct","folder":"tf","game":"Team Fortress","app_id":440,"player_count":3,"max_players":24,"Bots":0,"server_type":"Dedicated","server_os":"Linux","password":true,"vac":true,"version":"7961495","steam_id":85568392924742830,"keywords":["cp","nocrits","nodmgspread","uncletopia"],"game_id":440,"stv_port":27066,"stv_name":"Uncletopia | London | 6 | All Maps | STV","players":[{"user_id":8,"name":"blue robot with a shotgun","steam_id":76561198038597831,"connected_time":231000000000,"state":"active","ping":87},{"user_id":9,"name":"stsst09","steam_id":76561199012451512,"connected_time":194000000000,"state":"active","ping":83},{"user_id":10,"name":"wqmuus","steam_id":76561199141369391,"connected_time":168000000000,"state":"active","ping":88}]},{"server_id":40,"name":"Uncletopia | London | 7 | Stopwatch","name_short":"lon-7","host":"lon-1.uk.uncletopia.com","port":27075,"enabled":true,"region":"eu","cc":"gb","latitude":51.509865,"longitude":-0.118092,"reserved":0,"last_update":"0001-01-01T00:00:00Z","name_a2s":"Uncletopia | London | 7 | Stopwatch","protocol":17,"map":"pl_swiftwater_final1","folder":"tf","game":"Team Fortress","app_id":440,"player_count":0,"max_players":24,"Bots":0,"server_type":"Dedicated","server_os":"Linux","password":true,"vac":true,"version":"7961495","steam_id":85568392924964314,"keywords":["nocrits","nodmgspread","payload","uncletopia"],"game_id":440,"stv_port":27076,"stv_name":"Uncletopia | London | 7 | Stopwatch | STV","players":null},{"server_id":41,"name":"Uncletopia | London | 8 | Community","name_short":"lon-8","host":"lon-1.uk.uncletopia.com","port":27085,"enabled":true,"region":"eu","cc":"gb","latitude":51.509865,"longitude":-0.118092,"reserved":0,"last_update":"0001-01-01T00:00:00Z","name_a2s":"Uncletopia | London | 8 | Community","protocol":17,"map":"workshop/cp_propaganda_b18.ugc1603743849","folder":"tf","game":"Team Fortress","app_id":440,"player_count":0,"max_players":24,"Bots":0,"server_type":"Dedicated","server_os":"Linux","password":true,"vac":true,"version":"7961495","steam_id":85568392924964315,"keywords":["cp","nocrits","nodmgspread","uncletopia"],"game_id":440,"stv_port":27086,"stv_name":"Uncletopia | London | 8 | Community | STV","players":null},{"server_id":300,"name":"Uncletopia | Montréal | 1 | One Thousand Uncles","name_short":"mtl-1","host":"mtl-1.ca.uncletopia.com","port":27015,"enabled":true,"region":"us-east","cc":"ca","latitude":45.50889,"longitude":-73.56167,"reserved":0,"last_update":"0001-01-01T00:00:00Z","name_a2s":"Uncletopia | Montréal | 1 | One Thousand Uncles","protocol":17,"map":"pl_barnblitz","folder":"tf","game":"Team Fortress","app_id":440,"player_count":0,"max_players":32,"Bots":0,"server_type":"Dedicated","server_os":"Linux","password":true,"vac":true,"version":"7961495","steam_id":85568392924500087,"keywords":["alltalk","danepve","increased_maxplayers","norespawntime","payload","uncletopia"],"game_id":440,"stv_port":0,"stv_name":"","players":null},{"server_id":301,"name":"Uncletopia | Montréal | 2 | One Thousand Uncles","name_short":"mtl-2","host":"mtl-1.ca.uncletopia.com","port":27025,"enabled":true,"region":"us-east","cc":"ca","latitude":45.50889,"longitude":-73.56167,"reserved":0,"last_update":"0001-01-01T00:00:00Z","name_a2s":"Uncletopia | Montréal | 2 | One Thousand Uncles","protocol":17,"map":"pl_pier","folder":"tf","game":"Team Fortress","app_id":440,"player_count":0,"max_players":32,"Bots":0,"server_type":"Dedicated","server_os":"Linux","password":true,"vac":true,"version":"7961495","steam_id":85568392924500088,"keywords":["alltalk","danepve","increased_maxplayers","norespawntime","payload","uncletopia"],"game_id":440,"stv_port":0,"stv_name":"","players":null},{"server_id":302,"name":"Uncletopia | Montréal | 3 | One Thousand Uncles","name_short":"mtl-3","host":"mtl-1.ca.uncletopia.com","port":27035,"enabled":true,"region":"us-east","cc":"ca","latitude":45.50889,"longitude":-73.56167,"reserved":0,"last_update":"0001-01-01T00:00:00Z","name_a2s":"Uncletopia | Montréal | 3 | One Thousand Uncles","protocol":17,"map":"pl_upward","folder":"tf","game":"Team Fortress","app_id":440,"player_count":0,"max_players":32,"Bots":0,"server_type":"Dedicated","server_os":"Linux","password":true,"vac":true,"version":"7961495","steam_id":85568392924500089,"keywords":["alltalk","danepve","increased_maxplayers","norespawntime","payload","uncletopia"],"game_id":440,"stv_port":0,"stv_name":"","players":null},{"server_id":13,"name":"Uncletopia | New York City | 1 | All Maps","name_short":"nyc-1","host":"nyc-1.us.uncletopia.com","port":27015,"enabled":true,"region":"us-east","cc":"us","latitude":40.73061,"longitude":-73.93524,"reserved":0,"last_update":"0001-01-01T00:00:00Z","name_a2s":"Uncletopia | New York City | 1 | All Maps","protocol":17,"map":"pl_frontier_final","folder":"tf","game":"Team Fortress","app_id":440,"player_count":0,"max_players":24,"Bots":0,"server_type":"Dedicated","server_os":"Linux","password":true,"vac":true,"version":"7961495","steam_id":85568392924469993,"keywords":["nocrits","nodmgspread","payload","uncletopia"],"game_id":440,"stv_port":27016,"stv_name":"Uncletopia | New York City | 1 | All Maps | STV","players":null},{"server_id":14,"name":"Uncletopia | New York City | 2 | All Maps","name_short":"nyc-2","host":"nyc-1.us.uncletopia.com","port":27025,"enabled":true,"region":"us-east","cc":"us","latitude":40.73061,"longitude":-73.93524,"reserved":0,"last_update":"0001-01-01T00:00:00Z","name_a2s":"Uncletopia | New York City | 2 | All Maps","protocol":17,"map":"koth_suijin","folder":"tf","game":"Team Fortress","app_id":440,"player_count":0,"max_players":24,"Bots":0,"server_type":"Dedicated","server_os":"Linux","password":true,"vac":true,"version":"7961495","steam_id":85568392924469994,"keywords":["cp","nocrits","nodmgspread","uncletopia"],"game_id":440,"stv_port":27026,"stv_name":"Uncletopia | New York City | 2 | All Maps | STV","players":null},{"server_id":15,"name":"Uncletopia | New York City | 3 | Stopwatch","name_short":"nyc-3","host":"nyc-1.us.uncletopia.com","port":27035,"enabled":true,"region":"us-east","cc":"us","latitude":40.73061,"longitude":-73.93524,"reserved":0,"last_update":"0001-01-01T00:00:00Z","name_a2s":"Uncletopia | New York City | 3 | Stopwatch","protocol":17,"map":"workshop/cp_reckoner_rc6.ugc674719999","folder":"tf","game":"Team Fortress","app_id":440,"player_count":0,"max_players":24,"Bots":0,"server_type":"Dedicated","server_os":"Linux","password":true,"vac":true,"version":"7961495","steam_id":85568392924742820,"keywords":["cp","nocrits","nodmgspread","uncletopia"],"game_id":440,"stv_port":27036,"stv_name":"Uncletopia | New York City | 3 | Stopwatch | STV","players":null},{"server_id":16,"name":"Uncletopia | New York City | 4 | Community","name_short":"nyc-4","host":"nyc-1.us.uncletopia.com","port":27045,"enabled":true,"region":"us-east","cc":"us","latitude":40.73061,"longitude":-73.93524,"reserved":0,"last_update":"0001-01-01T00:00:00Z","name_a2s":"Uncletopia | New York City | 4 | Community","protocol":17,"map":"workshop/cp_coilblaze_rc7.ugc1272700588","folder":"tf","game":"Team Fortress","app_id":440,"player_count":21,"max_players":24,"Bots":0,"server_type":"Dedicated","server_os":"Linux","password":true,"vac":true,"version":"7961495","steam_id":85568392924742821,"keywords":["cp","nocrits","nodmgspread","uncletopia"],"game_id":440,"stv_port":27046,"stv_name":"Uncletopia | New York City | 4 | Community | STV","players":[{"user_id":3,"name":"ballspider","steam_id":76561198084578847,"connected_time":9978000000000,"state":"spawning","ping":95},{"user_id":4,"name":"El Topadora","steam_id":76561198068683174,"connected_time":9963000000000,"state":"spawning","ping":188},{"user_id":83,"name":"Drewgs","steam_id":76561198012531221,"connected_time":1875000000000,"state":"spawning","ping":68},{"user_id":91,"name":"Lord Scrubling","steam_id":76561198263744445,"connected_time":1344000000000,"state":"spawning","ping":125},{"user_id":7,"name":"duke of penis","steam_id":76561198313148513,"connected_time":9597000000000,"state":"spawning","ping":69},{"user_id":96,"name":"the superhero","steam_id":76561198301021031,"connected_time":797000000000,"state":"spawning","ping":96},{"user_id":86,"name":"0","steam_id":76561198077882008,"connected_time":1570000000000,"state":"connecting","ping":47},{"user_id":21,"name":"CatGirlPipe","steam_id":76561198042485924,"connected_time":7414000000000,"state":"spawning","ping":98},{"user_id":94,"name":"doop","steam_id":76561198370487545,"connected_time":1088000000000,"state":"spawning","ping":82},{"user_id":55,"name":"hooley","steam_id":76561198041923067,"connected_time":4412000000000,"state":"spawning","ping":51},{"user_id":87,"name":"chikin.sauce","steam_id":76561198042464635,"connected_time":1557000000000,"state":"spawning","ping":126},{"user_id":63,"name":"Jexdra","steam_id":76561198154501381,"connected_time":3987000000000,"state":"spawning","ping":52},{"user_id":51,"name":"Foolie","steam_id":76561198291741747,"connected_time":4637000000000,"state":"spawning","ping":68},{"user_id":84,"name":"↑Slimbro","steam_id":76561198088926489,"connected_time":1629000000000,"state":"spawning","ping":46},{"user_id":65,"name":"He rolls his own","steam_id":76561198058162684,"connected_time":3897000000000,"state":"spawning","ping":59},{"user_id":88,"name":"sfm soldier if he was grotesque","steam_id":76561198353962640,"connected_time":1460000000000,"state":"spawning","ping":85},{"user_id":95,"name":"John Fortnite","steam_id":76561198076608253,"connected_time":927000000000,"state":"spawning","ping":58},{"user_id":92,"name":"Sammie-Jaye","steam_id":76561198128319767,"connected_time":1248000000000,"state":"spawning","ping":152},{"user_id":40,"name":"Zeek","steam_id":76561197987204351,"connected_time":6061000000000,"state":"spawning","ping":70},{"user_id":97,"name":"Shuko","steam_id":76561197995563378,"connected_time":774000000000,"state":"spawning","ping":53},{"user_id":98,"name":"ECCO","steam_id":76561198002821513,"connected_time":466000000000,"state":"spawning","ping":87}]},{"server_id":142,"name":"Uncletopia | São Paulo | 1 | All Maps","name_short":"sao-1","host":"sao-1.br.uncletopia.com","port":27015,"enabled":true,"region":"sa","cc":"br","latitude":-23.533773,"longitude":-46.62529,"reserved":0,"last_update":"0001-01-01T00:00:00Z","name_a2s":"Uncletopia | São Paulo | 1 | All Maps","protocol":17,"map":"pl_borneo","folder":"tf","game":"Team Fortress","app_id":440,"player_count":0,"max_players":24,"Bots":0,"server_type":"Dedicated","server_os":"Linux","password":true,"vac":true,"version":"7961495","steam_id":85568392924469996,"keywords":["nocrits","nodmgspread","payload","uncletopia"],"game_id":440,"stv_port":27016,"stv_name":"Uncletopia | São Paulo | 1 | All Maps | STV","players":null},{"server_id":143,"name":"Uncletopia | São Paulo | 2 | Community","name_short":"sao-2","host":"sao-2.br.uncletopia.com","port":27015,"enabled":true,"region":"sa","cc":"br","latitude":-23.533773,"longitude":-46.62529,"reserved":0,"last_update":"0001-01-01T00:00:00Z","name_a2s":"Uncletopia | São Paulo | 2 | Community","protocol":17,"map":"workshop/koth_slaughter_rc1.ugc1712845210","folder":"tf","game":"Team Fortress","app_id":440,"player_count":0,"max_players":24,"Bots":0,"server_type":"Dedicated","server_os":"Linux","password":true,"vac":true,"version":"7961495","steam_id":85568392924485349,"keywords":["cp","nocrits","nodmgspread","uncletopia"],"game_id":440,"stv_port":27016,"stv_name":"Uncletopia | São Paulo | 2 | Community | STV","players":null},{"server_id":7,"name":"Uncletopia | Seattle | 1 | All Maps","name_short":"sea-1","host":"sea-1.us.uncletopia.com","port":27015,"enabled":true,"region":"us-west","cc":"us","latitude":47.608013,"longitude":-122.33517,"reserved":0,"last_update":"0001-01-01T00:00:00Z","name_a2s":"Uncletopia | Seattle | 1 | All Maps","protocol":17,"map":"pl_snowycoast","folder":"tf","game":"Team Fortress","app_id":440,"player_count":24,"max_players":24,"Bots":0,"server_type":"Dedicated","server_os":"Linux","password":true,"vac":true,"version":"7961495","steam_id":85568392924469997,"keywords":["nocrits","nodmgspread","payload","uncletopia"],"game_id":440,"stv_port":27016,"stv_name":"Uncletopia | Seattle | 1 | All Maps | STV","players":[{"user_id":50,"name":"Professional Gwen Simp","steam_id":76561198118931392,"connected_time":1694000000000,"state":"active","ping":68},{"user_id":44,"name":"DaddyGalaxy","steam_id":76561198139697796,"connected_time":2391000000000,"state":"active","ping":77},{"user_id":80,"name":"Rudolph","steam_id":76561198020092832,"connected_time":778000000000,"state":"active","ping":134},{"user_id":60,"name":"ｐｒｏｆｅ ｉｓａ","steam_id":76561198106966849,"connected_time":1362000000000,"state":"active","ping":120},{"user_id":72,"name":"xXMidgetKicker6942069Xx","steam_id":76561198275339170,"connected_time":1037000000000,"state":"active","ping":92},{"user_id":47,"name":"★CaseyGlows★","steam_id":76561198113616168,"connected_time":2109000000000,"state":"active","ping":70},{"user_id":51,"name":"Manna","steam_id":76561198172298563,"connected_time":1692000000000,"state":"active","ping":113},{"user_id":52,"name":"Imitation Caucasian","steam_id":76561198320536166,"connected_time":1653000000000,"state":"active","ping":94},{"user_id":81,"name":"o o o o o o o o o","steam_id":76561197993757506,"connected_time":705000000000,"state":"active","ping":68},{"user_id":78,"name":"lorient","steam_id":76561198150831438,"connected_time":942000000000,"state":"active","ping":83},{"user_id":58,"name":"AWGER","steam_id":76561198284683624,"connected_time":1477000000000,"state":"active","ping":74},{"user_id":84,"name":"ItsAChadKing","steam_id":76561199499464350,"connected_time":134000000000,"state":"active","ping":87},{"user_id":73,"name":"AgentEpsilon","steam_id":76561198043705715,"connected_time":1019000000000,"state":"active","ping":122},{"user_id":62,"name":"NEBULA3LEM123","steam_id":76561198095433728,"connected_time":1199000000000,"state":"active","ping":81},{"user_id":63,"name":"Airstrike Addict","steam_id":76561198252150178,"connected_time":1188000000000,"state":"active","ping":107},{"user_id":85,"name":"new","steam_id":76561199070901945,"connected_time":10000000000,"state":"spawning","ping":525},{"user_id":65,"name":"Grimprr","steam_id":76561198275816797,"connected_time":1145000000000,"state":"active","ping":120},{"user_id":66,"name":"👊CrockettMann👊","steam_id":76561198286581911,"connected_time":1138000000000,"state":"active","ping":65},{"user_id":67,"name":"splitzx2","steam_id":76561198972447926,"connected_time":1131000000000,"state":"active","ping":126},{"user_id":79,"name":"Penis Man","steam_id":76561198947885613,"connected_time":930000000000,"state":"active","ping":74},{"user_id":69,"name":"KlassicLoL","steam_id":76561198081815303,"connected_time":1084000000000,"state":"active","ping":75},{"user_id":83,"name":"Cheesecurd","steam_id":76561199198254897,"connected_time":314000000000,"state":"active","ping":123},{"user_id":75,"name":"NEЯO","steam_id":76561197965450216,"connected_time":1013000000000,"state":"active","ping":58},{"user_id":82,"name":"da pwo","steam_id":76561198963115673,"connected_time":650000000000,"state":"active","ping":101}]},{"server_id":119,"name":"Uncletopia | Seattle | 2 | All Maps","name_short":"sea-2","host":"sea-1.us.uncletopia.com","port":27025,"enabled":true,"region":"us-west","cc":"us","latitude":47.608013,"longitude":-122.33517,"reserved":0,"last_update":"0001-01-01T00:00:00Z","name_a2s":"Uncletopia | Seattle | 2 | All Maps","protocol":17,"map":"cp_mountainlab","folder":"tf","game":"Team Fortress","app_id":440,"player_count":0,"max_players":24,"Bots":0,"server_type":"Dedicated","server_os":"Linux","password":true,"vac":true,"version":"7961495","steam_id":85568392924469998,"keywords":["cp","nocrits","nodmgspread","uncletopia"],"game_id":440,"stv_port":27026,"stv_name":"Uncletopia | Seattle | 2 | All Maps | STV","players":null},{"server_id":406,"name":"Uncletopia | Seattle | 3 | Stopwatch","name_short":"sea-3","host":"sea-1.us.uncletopia.com","port":27035,"enabled":true,"region":"us-west","cc":"us","latitude":47.608013,"longitude":-122.33517,"reserved":0,"last_update":"0001-01-01T00:00:00Z","name_a2s":"Uncletopia | Seattle | 3 | Stopwatch","protocol":17,"map":"cp_gullywash_final1","folder":"tf","game":"Team Fortress","app_id":440,"player_count":0,"max_players":24,"Bots":0,"server_type":"Dedicated","server_os":"Linux","password":true,"vac":true,"version":"7961495","steam_id":85568392924515217,"keywords":["cp","nocrits","nodmgspread","uncletopia"],"game_id":440,"stv_port":27036,"stv_name":"Uncletopia | Seattle | 3 | Stopwatch | STV","players":null},{"server_id":17,"name":"Uncletopia | San Francisco | 1 | All Maps","name_short":"sfo-1","host":"sfo-1.us.uncletopia.com","port":27015,"enabled":true,"region":"us-west","cc":"us","latitude":37.77397,"longitude":-122.4313,"reserved":0,"last_update":"0001-01-01T00:00:00Z","name_a2s":"Uncletopia | San Francisco | 1 | All Maps","protocol":17,"map":"cp_gullywash_final1","folder":"tf","game":"Team Fortress","app_id":440,"player_count":0,"max_players":24,"Bots":0,"server_type":"Dedicated","server_os":"Linux","password":true,"vac":true,"version":"7961495","steam_id":85568392924469999,"keywords":["cp","nocrits","nodmgspread","uncletopia"],"game_id":440,"stv_port":27016,"stv_name":"Uncletopia | San Francisco | 1 | All Maps | STV","players":null},{"server_id":18,"name":"Uncletopia | San Francisco | 2 | All Maps","name_short":"sfo-2","host":"sfo-1.us.uncletopia.com","port":27025,"enabled":true,"region":"us-west","cc":"us","latitude":37.77397,"longitude":-122.4313,"reserved":0,"last_update":"0001-01-01T00:00:00Z","name_a2s":"Uncletopia | San Francisco | 2 | All Maps","protocol":17,"map":"pl_hoodoo_final","folder":"tf","game":"Team Fortress","app_id":440,"player_count":0,"max_players":24,"Bots":0,"server_type":"Dedicated","server_os":"Linux","password":true,"vac":true,"version":"7961495","steam_id":85568392924470000,"keywords":["nocrits","nodmgspread","payload","uncletopia"],"game_id":440,"stv_port":27026,"stv_name":"Uncletopia | San Francisco | 2 | All Maps | STV","players":null},{"server_id":19,"name":"Uncletopia | San Francisco | 3 | Stopwatch","name_short":"sfo-3","host":"sfo-1.us.uncletopia.com","port":27035,"enabled":true,"region":"us-west","cc":"us","latitude":37.77397,"longitude":-122.4313,"reserved":0,"last_update":"0001-01-01T00:00:00Z","name_a2s":"Uncletopia | San Francisco | 3 | Stopwatch","protocol":17,"map":"workshop/koth_clearcut_b15.ugc2107050255","folder":"tf","game":"Team Fortress","app_id":440,"player_count":0,"max_players":24,"Bots":0,"server_type":"Dedicated","server_os":"Linux","password":true,"vac":true,"version":"7961495","steam_id":85568392924742824,"keywords":["cp","nocrits","nodmgspread","uncletopia"],"game_id":440,"stv_port":27036,"stv_name":"Uncletopia | San Francisco | 3 | Stopwatch | STV","players":null},{"server_id":20,"name":"Uncletopia | San Francisco | 4 | Community","name_short":"sfo-4","host":"sfo-1.us.uncletopia.com","port":27045,"enabled":true,"region":"us-west","cc":"us","latitude":37.77397,"longitude":-122.4313,"reserved":0,"last_update":"0001-01-01T00:00:00Z","name_a2s":"Uncletopia | San Francisco | 4 | Community","protocol":17,"map":"workshop/cp_reckoner_rc6.ugc674719999","folder":"tf","game":"Team Fortress","app_id":440,"player_count":0,"max_players":24,"Bots":0,"server_type":"Dedicated","server_os":"Linux","password":true,"vac":true,"version":"7961495","steam_id":85568392924742826,"keywords":["cp","nocrits","nodmgspread","uncletopia"],"game_id":440,"stv_port":27046,"stv_name":"Uncletopia | San Francisco | 4 | Community | STV","players":null},{"server_id":141,"name":"Uncletopia | Sydney | 1 | All Maps","name_short":"syd-1","host":"syd-1.au.uncletopia.com","port":27015,"enabled":true,"region":"au","cc":"au","latitude":-33.865143,"longitude":151.2099,"reserved":0,"last_update":"0001-01-01T00:00:00Z","name_a2s":"Uncletopia | Sydney | 1 | All Maps","protocol":17,"map":"koth_highpass","folder":"tf","game":"Team Fortress","app_id":440,"player_count":0,"max_players":24,"Bots":0,"server_type":"Dedicated","server_os":"Linux","password":true,"vac":true,"version":"7961495","steam_id":85568392924470001,"keywords":["cp","nocrits","nodmgspread","uncletopia"],"game_id":440,"stv_port":27016,"stv_name":"Uncletopia | Sydney | 1 | All Maps | STV","players":null},{"server_id":123,"name":"Uncletopia | Sydney | 2 | All Maps","name_short":"syd-2","host":"syd-1.au.uncletopia.com","port":27025,"enabled":true,"region":"au","cc":"au","latitude":-33.865143,"longitude":151.2099,"reserved":0,"last_update":"0001-01-01T00:00:00Z","name_a2s":"Uncletopia | Sydney | 2 | All Maps","protocol":17,"map":"pl_barnblitz","folder":"tf","game":"Team Fortress","app_id":440,"player_count":0,"max_players":24,"Bots":0,"server_type":"Dedicated","server_os":"Linux","password":true,"vac":true,"version":"7961495","steam_id":85568392924470002,"keywords":["nocrits","nodmgspread","payload","uncletopia"],"game_id":440,"stv_port":27026,"stv_name":"Uncletopia | Sydney | 2 | All Maps | STV","players":null},{"server_id":395,"name":"Uncletopia | Sydney | 3 | All Maps","name_short":"syd-3","host":"syd-1.au.uncletopia.com","port":27035,"enabled":true,"region":"au","cc":"au","latitude":-33.865143,"longitude":151.2099,"reserved":0,"last_update":"0001-01-01T00:00:00Z","name_a2s":"Uncletopia | Sydney | 3 | All Maps","protocol":17,"map":"cp_snakewater_final1","folder":"tf","game":"Team Fortress","app_id":440,"player_count":0,"max_players":24,"Bots":0,"server_type":"Dedicated","server_os":"Linux","password":true,"vac":true,"version":"7961495","steam_id":85568392925194467,"keywords":["cp","nocrits","nodmgspread","uncletopia"],"game_id":440,"stv_port":27036,"stv_name":"Uncletopia | Sydney | 3 | All Maps | STV","players":null},{"server_id":396,"name":"Uncletopia | Sydney | 4 | All Maps","name_short":"syd-4","host":"syd-1.au.uncletopia.com","port":27045,"enabled":true,"region":"au","cc":"au","latitude":-33.865143,"longitude":151.2099,"reserved":0,"last_update":"0001-01-01T00:00:00Z","name_a2s":"Uncletopia | Sydney | 4 | All Maps","protocol":17,"map":"koth_highpass","folder":"tf","game":"Team Fortress","app_id":440,"player_count":0,"max_players":24,"Bots":0,"server_type":"Dedicated","server_os":"Linux","password":true,"vac":true,"version":"7961495","steam_id":85568392925397958,"keywords":["cp","nocrits","nodmgspread","uncletopia"],"game_id":440,"stv_port":27046,"stv_name":"Uncletopia | Sydney | 4 | All Maps | STV","players":null},{"server_id":58,"name":"Uncletopia | Sydney | 5 | Stopwatch","name_short":"syd-5","host":"syd-1.au.uncletopia.com","port":27055,"enabled":true,"region":"au","cc":"au","latitude":-33.865143,"longitude":151.2099,"reserved":0,"last_update":"0001-01-01T00:00:00Z","name_a2s":"Uncletopia | Sydney | 5 | Stopwatch","protocol":17,"map":"koth_lakeside_final","folder":"tf","game":"Team Fortress","app_id":440,"player_count":0,"max_players":24,"Bots":0,"server_type":"Dedicated","server_os":"Linux","password":true,"vac":true,"version":"7961495","steam_id":85568392925397959,"keywords":["cp","nocrits","nodmgspread","uncletopia"],"game_id":440,"stv_port":27056,"stv_name":"Uncletopia | Sydney | 5 | Stopwatch | STV","players":null},{"server_id":59,"name":"Uncletopia | Sydney | 6 | Community","name_short":"syd-6","host":"syd-1.au.uncletopia.com","port":27065,"enabled":true,"region":"au","cc":"au","latitude":-33.865143,"longitude":151.2099,"reserved":0,"last_update":"0001-01-01T00:00:00Z","name_a2s":"Uncletopia | Sydney | 6 | Community","protocol":17,"map":"workshop/koth_soot_final1.ugc2969540689","folder":"tf","game":"Team Fortress","app_id":440,"player_count":0,"max_players":24,"Bots":0,"server_type":"Dedicated","server_os":"Linux","password":true,"vac":true,"version":"7961495","steam_id":85568392925397960,"keywords":["cp","nocrits","nodmgspread","uncletopia"],"game_id":440,"stv_port":27066,"stv_name":"Uncletopia | Sydney | 6 | Community | STV","players":null},{"server_id":49,"name":"Uncletopia | Warsaw | 1 | One Thousand Uncles","name_short":"waw-1","host":"waw-1.pl.uncletopia.com","port":27015,"enabled":true,"region":"eu","cc":"pl","latitude":52.2297,"longitude":21.017532,"reserved":0,"last_update":"0001-01-01T00:00:00Z","name_a2s":"Uncletopia | Warsaw | 1 | One Thousand Uncles","protocol":17,"map":"pl_thundermountain","folder":"tf","game":"Team Fortress","app_id":440,"player_count":26,"max_players":32,"Bots":20,"server_type":"Dedicated","server_os":"Linux","password":true,"vac":true,"version":"7961495","steam_id":85568392925397850,"keywords":["alltalk","bots","danepve","increased_maxplayers","norespawntime","payload","uncletopia"],"game_id":440,"stv_port":0,"stv_name":"","players":[{"user_id":352,"name":"KipxSateee","steam_id":76561198149158137,"connected_time":416000000000,"state":"active","ping":83},{"user_id":349,"name":"Doods","steam_id":76561199172809660,"connected_time":876000000000,"state":"active","ping":106},{"user_id":346,"name":"Kotlet schabowy","steam_id":76561198048983509,"connected_time":1833000000000,"state":"active","ping":56},{"user_id":350,"name":"Hungeryan","steam_id":76561198887299930,"connected_time":570000000000,"state":"active","ping":75},{"user_id":353,"name":"H_Bakheet","steam_id":76561198058735601,"connected_time":385000000000,"state":"active","ping":110},{"user_id":354,"name":"SKÚTER","steam_id":76561199262157623,"connected_time":0,"state":"connecting","ping":0}]},{"server_id":50,"name":"Uncletopia | Warsaw | 2 | One Thousand Uncles","name_short":"waw-2","host":"waw-1.pl.uncletopia.com","port":27025,"enabled":true,"region":"eu","cc":"pl","latitude":52.2297,"longitude":21.017532,"reserved":0,"last_update":"0001-01-01T00:00:00Z","name_a2s":"Uncletopia | Warsaw | 2 | One Thousand Uncles","protocol":17,"map":"pl_thundermountain","folder":"tf","game":"Team Fortress","app_id":440,"player_count":22,"max_players":32,"Bots":20,"server_type":"Dedicated","server_os":"Linux","password":true,"vac":true,"version":"7961495","steam_id":85568392925397851,"keywords":["alltalk","bots","danepve","increased_maxplayers","norespawntime","payload","uncletopia"],"game_id":440,"stv_port":0,"stv_name":"","players":[{"user_id":219,"name":"RayTrain","steam_id":76561198874299515,"connected_time":3961000000000,"state":"active","ping":94},{"user_id":248,"name":"Moondrop","steam_id":76561199421181719,"connected_time":2438000000000,"state":"active","ping":68}]},{"server_id":51,"name":"Uncletopia | Warsaw | 3 | All Maps","name_short":"waw-3","host":"waw-1.pl.uncletopia.com","port":27035,"enabled":true,"region":"eu","cc":"pl","latitude":52.2297,"longitude":21.017532,"reserved":0,"last_update":"0001-01-01T00:00:00Z","name_a2s":"Uncletopia | Warsaw | 3 | All Maps","protocol":17,"map":"koth_highpass","folder":"tf","game":"Team Fortress","app_id":440,"player_count":0,"max_players":24,"Bots":0,"server_type":"Dedicated","server_os":"Linux","password":true,"vac":true,"version":"7961495","steam_id":85568392925397852,"keywords":["cp","nocrits","nodmgspread","uncletopia"],"game_id":440,"stv_port":27036,"stv_name":"Uncletopia | Warsaw | 3 | All Maps | STV","players":null},{"server_id":52,"name":"Uncletopia | Warsaw | 4 | All Maps","name_short":"waw-4","host":"waw-1.pl.uncletopia.com","port":27045,"enabled":true,"region":"eu","cc":"pl","latitude":52.2297,"longitude":21.017532,"reserved":0,"last_update":"0001-01-01T00:00:00Z","name_a2s":"Uncletopia | Warsaw | 4 | All Maps","protocol":17,"map":"ctf_turbine","folder":"tf","game":"Team Fortress","app_id":440,"player_count":0,"max_players":24,"Bots":0,"server_type":"Dedicated","server_os":"Linux","password":true,"vac":true,"version":"7961495","steam_id":85568392925397853,"keywords":["ctf","nocrits","nodmgspread","uncletopia"],"game_id":440,"stv_port":27046,"stv_name":"Uncletopia | Warsaw | 4 | All Maps | STV","players":null},{"server_id":53,"name":"Uncletopia | Warsaw | 5 | Stopwatch","name_short":"waw-5","host":"waw-1.pl.uncletopia.com","port":27055,"enabled":true,"region":"eu","cc":"pl","latitude":52.2297,"longitude":21.017532,"reserved":0,"last_update":"0001-01-01T00:00:00Z","name_a2s":"Uncletopia | Warsaw | 5 | Stopwatch","protocol":17,"map":"cp_metalworks","folder":"tf","game":"Team Fortress","app_id":440,"player_count":0,"max_players":24,"Bots":0,"server_type":"Dedicated","server_os":"Linux","password":true,"vac":true,"version":"7961495","steam_id":85568392925397854,"keywords":["cp","nocrits","nodmgspread","uncletopia"],"game_id":440,"stv_port":27056,"stv_name":"Uncletopia | Warsaw | 5 | Stopwatch | STV","players":null},{"server_id":54,"name":"Uncletopia | Warsaw | 6 | Community","name_short":"waw-6","host":"waw-1.pl.uncletopia.com","port":27065,"enabled":true,"region":"eu","cc":"pl","latitude":52.2297,"longitude":21.017532,"reserved":0,"last_update":"0001-01-01T00:00:00Z","name_a2s":"Uncletopia | Warsaw | 6 | Community","protocol":17,"map":"workshop/pl_highwood_b19.ugc1769496557","folder":"tf","game":"Team Fortress","app_id":440,"player_count":0,"max_players":24,"Bots":0,"server_type":"Dedicated","server_os":"Linux","password":true,"vac":true,"version":"7961495","steam_id":85568392925397856,"keywords":["nocrits","nodmgspread","payload","uncletopia"],"game_id":440,"stv_port":27066,"stv_name":"Uncletopia | Warsaw | 6 | Community | STV","players":null}]}