{"status":true,"message":"","result":[{"server_id":9,"name":"Uncletopia | Atlanta | 1 | All Maps","name_short":"atl-1","host":"atl-1.us.uncletopia.com","port":27015,"enabled":true,"region":"us-east","cc":"us","latitude":33.753746,"longitude":-84.38633,"reserved":0,"last_update":"0001-01-01T00:00:00Z","name_a2s":"Uncletopia | Atlanta | 1 | All Maps","protocol":17,"map":"pl_badwater","folder":"tf","game":"Team Fortress","app_id":440,"player_count":24,"max_players":24,"Bots":0,"server_type":"Dedicated","server_os":"Linux","password":true,"vac":true,"version":"7961495","steam_id":85568392924469982,"keywords":["nocrits","nodmgspread","payload","uncletopia"],"game_id":440,"stv_port":27016,"stv_name":"Uncletopia | Atlanta | 1 | All Maps | STV","players":null},{"server_id":104,"name":"Uncletopia | Atlanta | 2 | All Maps","name_short":"atl-2","host":"atl-1.us.uncletopia.com","port":27025,"enabled":true,"region":"us-east","cc":"us","latitude":33.753746,"longitude":-84.38633,"reserved":0,"last_update":"0001-01-01T00:00:00Z","name_a2s":"Uncletopia | Atlanta | 2 | All Maps","protocol":17,"map":"pl_snowycoast","folder":"tf","game":"Team Fortress","app_id":440,"player_count":24,"max_players":24,"Bots":0,"server_type":"Dedicated","server_os":"Linux","password":true,"vac":true,"version":"7961495","steam_id":85568392924469983,"keywords":["nocrits","nodmgspread","payload","uncletopia"],"game_id":440,"stv_port":27026,"stv_name":"Uncletopia | Atlanta | 2 | All Maps | STV","players":null},{"server_id":400,"name":"Uncletopia | Atlanta | 3 | Stopwatch","name_short":"atl-3","host":"atl-1.us.uncletopia.com","port":27035,"enabled":true,"region":"us-east","cc":"us","latitude":33.753746,"longitude":-84.38633,"reserved":0,"last_update":"0001-01-01T00:00:00Z","name_a2s":"Uncletopia | Atlanta | 3 | Stopwatch","protocol":17,"map":"pl_vigil_rc10","folder":"tf","game":"Team Fortress","app_id":440,"player_count":0,"max_players":24,"Bots":0,"server_type":"Dedicated","server_os":"Linux","password":true,"vac":true,"version":"7961495","steam_id":85568392924515187,"keywords":["nocrits","nodmgspread","payload","uncletopia"],"game_id":440,"stv_port":27036,"stv_name":"Uncletopia | Atlanta | 3 | Stopwatch | STV","players":null},{"server_id":401,"name":"Uncletopia | Atlanta | 4 | Community","name_short":"atl-4","host":"atl-1.us.uncletopia.com","port":27045,"enabled":true,"region":"us-east","cc":"us","latitude":33.753746,"longitude":-84.38633,"reserved":0,"last_update":"0001-01-01T00:00:00Z","name_a2s":"Uncletopia | Atlanta | 4 | Community","protocol":17,"map":"pl_eruption_b9a","folder":"tf","game":"Team Fortress","app_id":440,"player_count":0,"max_players":24,"Bots":0,"server_type":"Dedicated","server_os":"Linux","password":true,"vac":true,"version":"7961495","steam_id":85568392924515188,"keywords":["nocrits","nodmgspread","payload","uncletopia"],"game_id":440,"stv_port":27046,"stv_name":"Uncletopia | Atlanta | 4 | Community | STV","players":null},{"server_id":2,"name":"Uncletopia | Chicago | 1 | All Maps","name_short":"chi-1","host":"chi-1.us.uncletopia.com","port":27015,"enabled":true,"region":"us-central","cc":"us","latitude":41.881832,"longitude":-87.62318,"reserved":0,"last_update":"0001-01-01T00:00:00Z","name_a2s":"Uncletopia | Chicago | 1 | All Maps","protocol":17,"map":"pl_borneo","folder":"tf","game":"Team Fortress","app_id":440,"player_count":24,"max_players":24,"Bots":0,"server_type":"Dedicated","server_os":"Linux","password":true,"vac":true,"version":"7961495","steam_id":85568392924469984,"keywords":["nocrits","nodmgspread","payload","uncletopia"],"game_id":440,"stv_port":27016,"stv_name":"Uncletopia | Chicago | 1 | All Maps | STV","players":[{"user_id":803,"name":"Raccoon Wizard","steam_id":76561198072562591,"connected_time":848000000000,"state":"active","ping":84},{"user_id":807,"name":"Fat Kid In a Dragonball T-Shirt","steam_id":76561198182589975,"connected_time":412000000000,"state":"active","ping":82},{"user_id":789,"name":"d4 f4rt f4ce kill4","steam_id":76561198046130544,"connected_time":1448000000000,"state":"active","ping":61},{"user_id":790,"name":"crunch","steam_id":76561198058209703,"connected_time":1434000000000,"state":"active","ping":54},{"user_id":740,"name":"WheelockWarlock","steam_id":76561198171456553,"connected_time":6583000000000,"state":"active","ping":88},{"user_id":814,"name":"RagingRoosevelt","steam_id":76561197985483153,"connected_time":142000000000,"state":"active","ping":107},{"user_id":808,"name":"Walrusto","steam_id":76561198829644616,"connected_time":393000000000,"state":"active","ping":77},{"user_id":794,"name":"feed chakra","steam_id":76561198105065307,"connected_time":1298000000000,"state":"active","ping":48},{"user_id":809,"name":"nomis","steam_id":76561198115367704,"connected_time":383000000000,"state":"active","ping":78},{"user_id":812,"name":"Major_Pippy","steam_id":76561198004482878,"connected_time":178000000000,"state":"active","ping":101},{"user_id":813,"name":"TeCon","steam_id":76561198049127236,"connected_time":176000000000,"state":"active","ping":113},{"user_id":816,"name":"Combez","steam_id":76561198215028184,"connected_time":32000000000,"state":"active","ping":68},{"user_id":815,"name":"raymond","steam_id":76561198272609196,"connected_time":53000000000,"state":"active","ping":56},{"user_id":796,"name":"snowa","steam_id":76561198109783729,"connected_time":1265000000000,"state":"active","ping":49},{"user_id":805,"name":"Doctor Emerald(Bison enjoyer)","steam_id":76561199123003872,"connected_time":433000000000,"state":"active","ping":95},{"user_id":798,"name":"crayonnipple","steam_id":76561198070253331,"connected_time":1222000000000,"state":"active","ping":70},{"user_id":777,"name":"Jango","steam_id":76561198084589742,"connected_time":3213000000000,"state":"active","ping":80},{"user_id":799,"name":"Deni Jems","steam_id":76561198147707286,"connected_time":1189000000000,"state":"active","ping":73},{"user_id":788,"name":"dunk","steam_id":76561198132476501,"connected_time":1538000000000,"state":"active","ping":44},{"user_id":804,"name":"Pepilepsi","steam_id":76561198000809372,"connected_time":840000000000,"state":"active","ping":58},{"user_id":810,"name":"ryqset","steam_id":76561198349299874,"connected_time":377000000000,"state":"active","ping":89},{"user_id":774,"name":"Rtx Fred ●","steam_id":76561198999217575,"connected_time":3354000000000,"state":"active","ping":70},{"user_id":802,"name":"ColdTooth","steam_id":76561197994963901,"connected_time":1038000000000,"state":"active","ping":75},{"user_id":786,"name":"Spy Gaming","steam_id":76561198453295613,"connected_time":1733000000000,"state":"active","ping":118}]},{"server_id":106,"name":"Uncletopia | Chicago | 2 | All Maps","name_short":"chi-2","host":"chi-1.us.uncletopia.com","port":27025,"enabled":true,"region":"us-central","cc":"us","latitude":41.881832,"longitude":-87.62318,"reserved":0,"last_update":"0001-01-01T00:00:00Z","name_a2s":"Uncletopia | Chicago | 2 | All Maps","protocol":17,"map":"pl_enclosure_final","folder":"tf","game":"Team Fortress","app_id":440,"player_count":22,"max_players":24,"Bots":0,"server_type":"Dedicated","server_os":"Linux","password":true,"vac":true,"version":"7961495","steam_id":85568392924469985,"keywords":["nocrits","nodmgspread","payload","uncletopia"],"game_id":440,"stv_port":27026,"stv_name":"Uncletopia | Chicago | 2 | All Maps | STV","players":[{"user_id":572,"name":"c00kie","steam_id":76561198418178297,"connected_time":4567000000000,"state":"active","ping":44},{"user_id":627,"name":"DistantJragon","steam_id":76561198117563641,"connected_time":908000000000,"state":"active","ping":55},{"user_id":616,"name":"Smooky","steam_id":76561198191435451,"connected_time":1262000000000,"state":"active","ping":99},{"user_id":611,"name":"Fewny","steam_id":76561198225977000,"connected_time":1388000000000,"state":"active","ping":76},{"user_id":598,"name":"Cyndaquil Fan","steam_id":76561198799205521,"connected_time":2474000000000,"state":"active","ping":77},{"user_id":612,"name":"El Güey","steam_id":76561197970450546,"connected_time":1364000000000,"state":"active","ping":122},{"user_id":633,"name":"liveleak pussy","steam_id":76561198272645467,"connected_time":506000000000,"state":"active","ping":99},{"user_id":615,"name":"Nagao Kagetora","steam_id":76561198798176670,"connected_time":1307000000000,"state":"active","ping":55},{"user_id":607,"name":"_Ati","steam_id":76561198339777801,"connected_time":1926000000000,"state":"active","ping":110},{"user_id":567,"name":"Kent C Straight","steam_id":76561198056190259,"connected_time":4823000000000,"state":"active","ping":61},{"user_id":571,"name":"Susan Wetwinky","steam_id":76561198119483989,"connected_time":4651000000000,"state":"active","ping":76},{"user_id":619,"name":"4 life","steam_id":76561198175961598,"connected_time":1190000000000,"state":"active","ping":116},{"user_id":632,"name":"rosable ☆","steam_id":76561199164371592,"connected_time":649000000000,"state":"active","ping":66},{"user_id":624,"name":"CheesyPoofs","steam_id":76561197998650617,"connected_time":968000000000,"state":"active","ping":92},{"user_id":638,"name":"loser","steam_id":76561198259380127,"connected_time":158000000000,"state":"active","ping":57},{"user_id":570,"name":"puppy :3","steam_id":76561198011196264,"connected_time":4770000000000,"state":"active","ping":58},{"user_id":608,"name":"Tattletails","steam_id":76561198055690341,"connected_time":1707000000000,"state":"active","ping":162},{"user_id":637,"name":"Thequirka","steam_id":76561198968058652,"connected_time":395000000000,"state":"active","ping":108},{"user_id":566,"name":"UNCLE RUCKUS","steam_id":76561199380604147,"connected_time":5054000000000,"state":"active","ping":50},{"user_id":589,"name":"WhiteRabbit","steam_id":76561198027579538,"connected_time":3127000000000,"state":"active","ping":67},{"user_id":596,"name":"Riggatoni","steam_id":76561198203745763,"connected_time":2676000000000,"state":"active","ping":77},{"user_id":590,"name":"Trundle","steam_id":76561198005548044,"connected_time":3124000000000,"state":"active","ping":64}]},{"server_id":402,"name":"Uncletopia | Chicago | 3 | All Maps","name_short":"chi-3","host":"chi-1.us.uncletopia.com","port":27035,"enabled":true,"region":"us-central","cc":"us","latitude":41.881832,"longitude":-87.62318,"reserved":0,"last_update":"0001-01-01T00:00:00Z","name_a2s":"Uncletopia | Chicago | 3 | All Maps","protocol":17,"map":"pl_pier","folder":"tf","game":"Team Fortress","app_id":440,"player_count":24,"max_players":24,"Bots":0,"server_type":"Dedicated","server_os":"Linux","password":true,"vac":true,"version":"7961495","steam_id":85568392924515191,"keywords":["nocrits","nodmgspread","payload","uncletopia"],"game_id":440,"stv_port":27036,"stv_name":"Uncletopia | Chicago | 3 | All Maps | STV","players":[{"user_id":449,"name":"MjrMovnTARGET","steam_id":76561199125908849,"connected_time":2355000000000,"state":"active","ping":100},{"user_id":460,"name":"Gore","steam_id":76561198302438271,"connected_time":1279000000000,"state":"active","ping":85},{"user_id":447,"name":"Doubie","steam_id":76561198104492019,"connected_time":2563000000000,"state":"active","ping":81},{"user_id":435,"name":"Six Piece Chicken McNobody","steam_id":76561198129848222,"connected_time":2916000000000,"state":"active","ping":74},{"user_id":474,"name":"TheSnipersHat","steam_id":76561198057684066,"connected_time":4000000000,"state":"spawning","ping":179},{"user_id":436,"name":"localize","steam_id":76561198135559825,"connected_time":2893000000000,"state":"active","ping":61},{"user_id":459,"name":"Glue Gulper","steam_id":76561198158014525,"connected_time":1407000000000,"state":"active","ping":61},{"user_id":437,"name":"LVL","steam_id":76561198334403617,"connected_time":2888000000000,"state":"active","ping":56},{"user_id":464,"name":"Vega","steam_id":76561198141126883,"connected_time":926000000000,"state":"active","ping":95},{"user_id":450,"name":"FluorescentDome","steam_id":76561198046897504,"connected_time":2346000000000,"state":"active","ping":60},{"user_id":399,"name":"do not heal me","steam_id":76561198030017316,"connected_time":6395000000000,"state":"active","ping":83},{"user_id":412,"name":"badboy6996","steam_id":76561197969386201,"connected_time":5753000000000,"state":"active","ping":56},{"user_id":443,"name":"liaaammm","steam_id":76561198124069244,"connected_time":2739000000000,"state":"active","ping":60},{"user_id":472,"name":"♥ alixei! ♥","steam_id":76561198014557455,"connected_time":160000000000,"state":"active","ping":59},{"user_id":468,"name":"Poyo Boyo","steam_id":76561198010201227,"connected_time":365000000000,"state":"active","ping":73},{"user_id":463,"name":"Red Metal","steam_id":76561198362722560,"connected_time":1003000000000,"state":"active","ping":90},{"user_id":405,"name":"HOW2TAKEASHIT@ABITCHCRIB","steam_id":76561198144766439,"connected_time":6173000000000,"state":"active","ping":52},{"user_id":465,"name":"HundchenTanque","steam_id":76561198122692754,"connected_time":903000000000,"state":"active","ping":55},{"user_id":470,"name":"Eblizard","steam_id":76561198111481965,"connected_time":301000000000,"state":"active","ping":71},{"user_id":467,"name":"yomommasabitch","steam_id":76561198323217150,"connected_time":760000000000,"state":"active","ping":61},{"user_id":457,"name":"oppenheimer style","steam_id":76561198026664629,"connected_time":1683000000000,"state":"active","ping":59},{"user_id":440,"name":"Team Fartpiss Poo","steam_id":76561199163591880,"connected_time":2839000000000,"state":"active","ping":101},{"user_id":441,"name":"wintermint","steam_id":76561198013735714,"connected_time":2838000000000,"state":"active","ping":73},{"user_id":473,"name":"millie","steam_id":76561198068934445,"connected_time":138000000000,"state":"active","ping":74}]},{"server_id":403,"name":"Uncletopia | Chicago | 4 | All Maps","name_short":"chi-4","host":"chi-1.us.uncletopia.com","port":27045,"enabled":true,"region":"us-central","cc":"us","latitude":41.881832,"longitude":-87.62318,"reserved":0,"last_update":"0001-01-01T00:00:00Z","name_a2s":"Uncletopia | Chicago | 4 | All Maps","protocol":17,"map":"pl_barnblitz","folder":"tf","game":"Team Fortress","app_id":440,"player_count":24,"max_players":24,"Bots":0,"server_type":"Dedicated","server_os":"Linux","password":true,"vac":true,"version":"7961495","steam_id":85568392924515193,"keywords":["nocrits","nodmgspread","payload","uncletopia"],"game_id":440,"stv_port":27046,"stv_name":"Uncletopia | Chicago | 4 | All Maps | STV","players":[{"user_id":295,"name":"Ojen","steam_id":76561197998414482,"connected_time":787000000000,"state":"active","ping":62},{"user_id":298,"name":"chanoc","steam_id":76561198026734746,"connected_time":271000000000,"state":"active","ping":97},{"user_id":287,"name":"duneblaster0","steam_id":76561198040364680,"connected_time":1171000000000,"state":"active","ping":45},{"user_id":299,"name":"Synonymancer","steam_id":76561198135492252,"connected_time":244000000000,"state":"active","ping":125},{"user_id":296,"name":"angel","steam_id":76561198991768686,"connected_time":604000000000,"state":"active","ping":112},{"user_id":262,"name":"Cat doin laundry","steam_id":76561198063895852,"connected_time":3440000000000,"state":"active","ping":65},{"user_id":265,"name":"shadow wizard money gang","steam_id":76561198042298511,"connected_time":3394000000000,"state":"active","ping":45},{"user_id":245,"name":"King","steam_id":76561198039763676,"connected_time":5008000000000,"state":"active","ping":60},{"user_id":300,"name":"roast pig with apple in mouth","steam_id":76561198051353647,"connected_time":229000000000,"state":"active","ping":60},{"user_id":267,"name":"lobb","steam_id":76561198346041205,"connected_time":3381000000000,"state":"active","ping":114},{"user_id":268,"name":"Sam","steam_id":76561198069948353,"connected_time":3376000000000,"state":"active","ping":76},{"user_id":293,"name":"Sanamsam1","steam_id":76561198051890899,"connected_time":937000000000,"state":"active","ping":65},{"user_id":301,"name":"zinqi","steam_id":76561198376838848,"connected_time":227000000000,"state":"active","ping":83},{"user_id":282,"name":"Comic","steam_id":76561198391882145,"connected_time":2389000000000,"state":"active","ping":36},{"user_id":272,"name":"The Great and Mighty Kiku","steam_id":76561198057590164,"connected_time":3359000000000,"state":"active","ping":84},{"user_id":290,"name":"banana","steam_id":76561199159928133,"connected_time":1069000000000,"state":"active","ping":72},{"user_id":271,"name":"Charmy","steam_id":76561198069969998,"connected_time":3369000000000,"state":"active","ping":83},{"user_id":273,"name":"OddSlaush","steam_id":76561198043898488,"connected_time":3357000000000,"state":"active","ping":107},{"user_id":279,"name":"i^Marmot","steam_id":76561197972379514,"connected_time":2737000000000,"state":"active","ping":82},{"user_id":216,"name":"qt pa 2t","steam_id":76561198066867150,"connected_time":7773000000000,"state":"active","ping":62},{"user_id":277,"name":"Skeleton Hotel","steam_id":76561198041704727,"connected_time":3147000000000,"state":"active","ping":59},{"user_id":297,"name":"WesyUWU (The mini crit pig)","steam_id":76561198069188177,"connected_time":448000000000,"state":"active","ping":79},{"user_id":275,"name":"cheese burger","steam_id":76561199100034198,"connected_time":3197000000000,"state":"active","ping":72},{"user_id":276,"name":"boffo","steam_id":76561198096978718,"connected_time":3190000000000,"state":"active","ping":88}]},{"server_id":36,"name":"Uncletopia | Chicago | 5 | All Maps","name_short":"chi-5","host":"chi-2.us.uncletopia.com","port":27015,"enabled":true,"region":"us-central","cc":"us","latitude":41.881832,"longitude":-87.62318,"reserved":0,"last_update":"0001-01-01T00:00:00Z","name_a2s":"Uncletopia | Chicago | 5 | All Maps","protocol":17,"map":"pl_pier","folder":"tf","game":"Team Fortress","app_id":440,"player_count":24,"max_players":24,"Bots":0,"server_type":"Dedicated","server_os":"Linux","password":true,"vac":true,"version":"7961495","steam_id":85568392924866362,"keywords":["nocrits","nodmgspread","payload","uncletopia"],"game_id":440,"stv_port":27016,"stv_name":"Uncletopia | Chicago | 5 | All Maps | STV","players":[{"user_id":471,"name":"Tanuki with a Bazooka","steam_id":76561198027487285,"connected_time":3066000000000,"state":"active","ping":79},{"user_id":445,"name":"[NAME-REDACTED]","steam_id":76561198035682975,"connected_time":4777000000000,"state":"active","ping":69},{"user_id":472,"name":"Warmerfall","steam_id":76561198812218923,"connected_time":3010000000000,"state":"active","ping":88},{"user_id":452,"name":"Horrific Necktie","steam_id":76561197999439391,"connected_time":3988000000000,"state":"active","ping":77},{"user_id":498,"name":"A Shiny Meat Bicycle","steam_id":76561198358757709,"connected_time":1007000000000,"state":"active","ping":96},{"user_id":474,"name":"DenDa","steam_id":76561198321944154,"connected_time":2971000000000,"state":"active","ping":46},{"user_id":491,"name":"At","steam_id":76561198381841894,"connected_time":1989000000000,"state":"active","ping":55},{"user_id":497,"name":"Scut","steam_id":76561198973734291,"connected_time":1034000000000,"state":"active","ping":97},{"user_id":499,"name":"Isaac Clarke","steam_id":76561198317662346,"connected_time":997000000000,"state":"active","ping":79},{"user_id":489,"name":"Lord Cutler Beckett","steam_id":76561198091356047,"connected_time":2011000000000,"state":"active","ping":57},{"user_id":476,"name":"Tom the Necromancer","steam_id":76561198048895288,"connected_time":2963000000000,"state":"active","ping":55},{"user_id":500,"name":"Wang of Wall St","steam_id":76561198047460598,"connected_time":979000000000,"state":"active","ping":86},{"user_id":493,"name":"Female Gamer","steam_id":76561199366482682,"connected_time":1797000000000,"state":"active","ping":112},{"user_id":479,"name":"Candy Sparkles","steam_id":76561198126871264,"connected_time":2814000000000,"state":"active","ping":88},{"user_id":490,"name":"wise","steam_id":76561198030066204,"connected_time":2004000000000,"state":"active","ping":53},{"user_id":494,"name":"Viren","steam_id":76561198012636897,"connected_time":1684000000000,"state":"active","ping":68},{"user_id":492,"name":"spaceboots","steam_id":76561197977322319,"connected_time":1966000000000,"state":"active","ping":68},{"user_id":458,"name":"yoodle doodle","steam_id":76561198054897884,"connected_time":3847000000000,"state":"active","ping":79},{"user_id":488,"name":"Hope","steam_id":76561199201900779,"connected_time":2042000000000,"state":"active","ping":83},{"user_id":484,"name":"Deep Curly","steam_id":76561197981290558,"connected_time":2392000000000,"state":"active","ping":73},{"user_id":460,"name":"Queen Frau the Round","steam_id":76561197999942134,"connected_time":3827000000000,"state":"active","ping":47},{"user_id":501,"name":"truck freak","steam_id":76561198062712676,"connected_time":974000000000,"state":"active","ping":100},{"user_id":496,"name":"Rudy","steam_id":76561198013456828,"connected_time":1086000000000,"state":"active","ping":71},{"user_id":463,"name":"Scorpie Doodle","steam_id":76561198021845763,"connected_time":3792000000000,"state":"active","ping":54}]},{"server_id":37,"name":"Uncletopia | Chicago | 6 | All Maps","name_short":"chi-6","host":"chi-2.us.uncletopia.com","port":27025,"enabled":true,"region":"us-central","cc":"us","latitude":41.881832,"longitude":-87.62318,"reserved":0,"last_update":"0001-01-01T00:00:00Z","name_a2s":"Uncletopia | Chicago | 6 | All Maps","protocol":17,"map":"pl_borneo","folder":"tf","game":"Team Fortress","app_id":440,"player_count":24,"max_players":24,"Bots":0,"server_type":"Dedicated","server_os":"Linux","password":true,"vac":true,"version":"7961495","steam_id":85568392924866363,"keywords":["nocrits","nodmgspread","payload","uncletopia"],"game_id":440,"stv_port":27026,"stv_name":"Uncletopia | Chicago | 6 | All Maps | STV","players":[{"user_id":330,"name":"ʚїɞ","steam_id":76561198449527009,"connected_time":543000000000,"state":"active","ping":89},{"user_id":301,"name":"Pain Elemental","steam_id":76561198433044023,"connected_time":1826000000000,"state":"active","ping":52},{"user_id":339,"name":"ᵇᵒᵗᵗˡᵉ","steam_id":76561198348353820,"connected_time":378000000000,"state":"active","ping":60},{"user_id":331,"name":"freak","steam_id":76561198035350959,"connected_time":538000000000,"state":"active","ping":44},{"user_id":326,"name":"3pac","steam_id":76561198068393322,"connected_time":874000000000,"state":"active","ping":69},{"user_id":334,"name":"frank","steam_id":76561198137777483,"connected_time":524000000000,"state":"active","ping":71},{"user_id":323,"name":"ultralisk52","steam_id":76561198051666604,"connected_time":1115000000000,"state":"active","ping":61},{"user_id":311,"name":"Big Unck","steam_id":76561198024658073,"connected_time":1491000000000,"state":"active","ping":71},{"user_id":342,"name":"JellyParrot","steam_id":76561199190990163,"connected_time":15000000000,"state":"active","ping":77},{"user_id":302,"name":"IanTheAwsm","steam_id":76561198093031738,"connected_time":1745000000000,"state":"active","ping":61},{"user_id":303,"name":"monsterkill4567","steam_id":76561198272986367,"connected_time":1732000000000,"state":"active","ping":111},{"user_id":327,"name":"TheSausageSwiper","steam_id":76561198972869845,"connected_time":870000000000,"state":"active","ping":87},{"user_id":341,"name":"faxxy","steam_id":76561198079621240,"connected_time":152000000000,"state":"active","ping":63},{"user_id":325,"name":"womthedom","steam_id":76561198088768287,"connected_time":1029000000000,"state":"active","ping":44},{"user_id":305,"name":"riSygneD","steam_id":76561198331618687,"connected_time":1599000000000,"state":"active","ping":98},{"user_id":328,"name":"the krut","steam_id":76561198084300505,"connected_time":833000000000,"state":"active","ping":76},{"user_id":322,"name":"Smuggs","steam_id":76561197999456003,"connected_time":1230000000000,"state":"active","ping":134},{"user_id":310,"name":"Wilfred Carr","steam_id":76561198039149060,"connected_time":1511000000000,"state":"active","ping":68},{"user_id":335,"name":"ignoble","steam_id":76561198040084437,"connected_time":520000000000,"state":"active","ping":46},{"user_id":259,"name":"mersaults","steam_id":76561198079927127,"connected_time":5254000000000,"state":"active","ping":45},{"user_id":336,"name":"snobis","steam_id":76561198084927866,"connected_time":516000000000,"state":"active","ping":54},{"user_id":337,"name":"Els (F2P)","steam_id":76561199129761684,"connected_time":514000000000,"state":"active","ping":88},{"user_id":340,"name":"breathing meat donut","steam_id":76561198123566649,"connected_time":312000000000,"state":"active","ping":79}]},{"server_id":38,"name":"Uncletopia | Chicago | 7 | Stopwatch","name_short":"chi-7","host":"chi-2.us.uncletopia.com","port":27035,"enabled":true,"region":"us-central","cc":"us","latitude":41.881832,"longitude":-87.62318,"reserved":0,"last_update":"0001-01-01T00:00:00Z","name_a2s":"Uncletopia | Chicago | 7 | Stopwatch","protocol":17,"map":"cp_process_final","folder":"tf","game":"Team Fortress","app_id":440,"player_count":0,"max_players":24,"Bots":0,"server_type":"Dedicated","server_os":"Linux","password":true,"vac":true,"version":"7961495","steam_id":85568392924866364,"keywords":["cp","nocrits","nodmgspread","uncletopia"],"game_id":440,"stv_port":27036,"stv_name":"Uncletopia | Chicago | 7 | Stopwatch | STV","players":null},{"server_id":39,"name":"Uncletopia | Chicago | 8 | Community","name_short":"chi-8","host":"chi-2.us.uncletopia.com","port":27045,"enabled":true,"region":"us-central","cc":"us","latitude":41.881832,"longitude":-87.62318,"reserved":0,"last_update":"0001-01-01T00:00:00Z","name_a2s":"Uncletopia | Chicago | 8 | Community","protocol":17,"map":"workshop/koth_trenchfoot_b1a.ugc731436616","folder":"tf","game":"Team Fortress","app_id":440,"player_count":0,"max_players":24,"Bots":0,"server_type":"Dedicated","server_os":"Linux","password":true,"vac":true,"version":"7961495","steam_id":85568392924866365,"keywords":["cp","nocrits","nodmgspread","uncletopia"],"game_id":440,"stv_port":27046,"stv_name":"Uncletopia | Chicago | 8 | Community | STV","players":null},{"server_id":8,"name":"Uncletopia | Dallas | 1 | All Maps","name_short":"dal-1","host":"dal-1.us.uncletopia.com","port":27015,"enabled":true,"region":"us-central","cc":"us","latitude":32.779167,"longitude":-96.80889,"reserved":0,"last_update":"0001-01-01T00:00:00Z","name_a2s":"Uncletopia | Dallas | 1 | All Maps","protocol":17,"map":"cp_gorge","folder":"tf","game":"Team Fortress","app_id":440,"player_count":24,"max_players":24,"Bots":0,"server_type":"Dedicated","server_os":"Linux","password":true,"vac":true,"version":"7961495","steam_id":85568392924469986,"keywords":["cp","nocrits","nodmgspread","uncletopia"],"game_id":440,"stv_port":27016,"stv_name":"Uncletopia | Dallas | 1 | All Maps | STV","players":[{"user_id":491,"name":"Golurk with some bitches","steam_id":76561198085888959,"connected_time":1824000000000,"state":"active","ping":49},{"user_id":474,"name":"brewkey","steam_id":76561198057896324,"connected_time":2677000000000,"state":"active","ping":48},{"user_id":518,"name":"Stardustry","steam_id":76561198090010107,"connected_time":469000000000,"state":"active","ping":100},{"user_id":510,"name":"Legally Braindead","steam_id":76561198377574031,"connected_time":1099000000000,"state":"active","ping":91},{"user_id":521,"name":"flippercurve","steam_id":76561199238295034,"connected_time":233000000000,"state":"active","ping":71},{"user_id":484,"name":"tsz","steam_id":76561199246231090,"connected_time":1883000000000,"state":"active","ping":82},{"user_id":506,"name":"Bogey","steam_id":76561198096227944,"connected_time":1265000000000,"state":"active","ping":41},{"user_id":504,"name":"Lore","steam_id":76561198098407538,"connected_time":1462000000000,"state":"active","ping":73},{"user_id":488,"name":"Levi","steam_id":76561198089832776,"connected_time":1847000000000,"state":"active","ping":55},{"user_id":512,"name":"Scrampled Aigs","steam_id":76561198014526583,"connected_time":1068000000000,"state":"active","ping":82},{"user_id":502,"name":"Name","steam_id":76561199111748012,"connected_time":1525000000000,"state":"active","ping":80},{"user_id":480,"name":"floofy","steam_id":76561198389769098,"connected_time":2437000000000,"state":"active","ping":83},{"user_id":483,"name":"Silvermace","steam_id":76561198090696843,"connected_time":2056000000000,"state":"active","ping":61},{"user_id":505,"name":"FI LO","steam_id":76561198976530881,"connected_time":1439000000000,"state":"active","ping":74},{"user_id":494,"name":"Squids023","steam_id":76561199013031576,"connected_time":1765000000000,"state":"active","ping":107},{"user_id":468,"name":"LampMan","steam_id":76561198079857527,"connected_time":3124000000000,"state":"active","ping":60},{"user_id":522,"name":"noahjwarner09","steam_id":76561199444479988,"connected_time":130000000000,"state":"active","ping":102},{"user_id":498,"name":"aqua","steam_id":76561199407709552,"connected_time":1686000000000,"state":"active","ping":84},{"user_id":478,"name":"Grand Champion of Cyrodiil","steam_id":76561198029072412,"connected_time":2546000000000,"state":"active","ping":61},{"user_id":519,"name":"Thomas","steam_id":76561198064273772,"connected_time":462000000000,"state":"active","ping":82},{"user_id":481,"name":"u4me","steam_id":76561198001669743,"connected_time":2435000000000,"state":"active","ping":86},{"user_id":446,"name":"Roken","steam_id":76561198037836282,"connected_time":3850000000000,"state":"active","ping":97},{"user_id":501,"name":"intek","steam_id":76561198052705291,"connected_time":1564000000000,"state":"active","ping":97},{"user_id":516,"name":"Rearranging furniture","steam_id":76561199054971009,"connected_time":743000000000,"state":"active","ping":53}]},{"server_id":108,"name":"Uncletopia | Dallas | 2 | All Maps","name_short":"dal-2","host":"dal-1.us.uncletopia.com","port":27025,"enabled":true,"region":"us-central","cc":"us","latitude":32.779167,"longitude":-96.80889,"reserved":0,"last_update":"0001-01-01T00:00:00Z","name_a2s":"Uncletopia | Dallas | 2 | All Maps","protocol":17,"map":"pl_borneo","folder":"tf","game":"Team Fortress","app_id":440,"player_count":23,"max_players":24,"Bots":0,"server_type":"Dedicated","server_os":"Linux","password":true,"vac":true,"version":"7961495","steam_id":85568392924469988,"keywords":["nocrits","nodmgspread","payload","uncletopia"],"game_id":440,"stv_port":27026,"stv_name":"Uncletopia | Dallas | 2 | All Maps | STV","players":[{"user_id":765,"name":"ShadowWasUhOh","steam_id":76561198400361935,"connected_time":22000000000,"state":"active","ping":78},{"user_id":732,"name":"PocketTieAMPLFY","steam_id":76561199080485881,"connected_time":1876000000000,"state":"active","ping":117},{"user_id":753,"name":"Lycan","steam_id":76561198151499868,"connected_time":1199000000000,"state":"active","ping":62},{"user_id":748,"name":"♦♣Quadric♥♠","steam_id":76561198061003853,"connected_time":1275000000000,"state":"active","ping":88},{"user_id":747,"name":"Ozzyhalen","steam_id":76561198025207814,"connected_time":1383000000000,"state":"active","ping":71},{"user_id":708,"name":"Engideer","steam_id":76561198145733164,"connected_time":3057000000000,"state":"active","ping":44},{"user_id":712,"name":"bald man on a plane to turkey","steam_id":76561198060296782,"connected_time":2716000000000,"state":"active","ping":93},{"user_id":727,"name":"Hermit_","steam_id":76561198013807290,"connected_time":2163000000000,"state":"active","ping":56},{"user_id":679,"name":"BlancaLamb","steam_id":76561198025646073,"connected_time":5226000000000,"state":"active","ping":76},{"user_id":759,"name":"DELTRON ZERO","steam_id":76561198081123470,"connected_time":144000000000,"state":"active","ping":49},{"user_id":728,"name":"EvilPigglet","steam_id":76561197987243470,"connected_time":2106000000000,"state":"active","ping":75},{"user_id":758,"name":"Cat","steam_id":76561198132362099,"connected_time":604000000000,"state":"active","ping":100},{"user_id":764,"name":"LEAN \u003c3","steam_id":76561198185286203,"connected_time":45000000000,"state":"active","ping":87},{"user_id":749,"name":"ChErrY","steam_id":76561198045614766,"connected_time":1263000000000,"state":"active","ping":116},{"user_id":754,"name":"Manic","steam_id":76561198128149670,"connected_time":1199000000000,"state":"active","ping":47},{"user_id":745,"name":"[ØWQJØ]chubacaalatake","steam_id":76561198136201697,"connected_time":1477000000000,"state":"active","ping":123},{"user_id":736,"name":"2L84U","steam_id":76561198079176017,"connected_time":1853000000000,"state":"active","ping":107},{"user_id":755,"name":"sebas-01-hv","steam_id":76561198123191202,"connected_time":1193000000000,"state":"active","ping":147},{"user_id":761,"name":"paint","steam_id":76561199006886644,"connected_time":115000000000,"state":"active","ping":92},{"user_id":762,"name":"Jams and Bread","steam_id":76561199240243522,"connected_time":110000000000,"state":"active","ping":104},{"user_id":724,"name":"k1tty","steam_id":76561198869348268,"connected_time":2413000000000,"state":"active","ping":75},{"user_id":584,"name":"Anon","steam_id":76561198109740776,"connected_time":13703000000000,"state":"active","ping":100},{"user_id":723,"name":"mr.edderkopper","steam_id":76561198152614478,"connected_time":2469000000000,"state":"active","ping":66}]},{"server_id":404,"name":"Uncletopia | Dallas | 3 | All Maps","name_short":"dal-3","host":"dal-1.us.uncletopia.com","port":27035,"enabled":true,"region":"us-central","cc":"us","latitude":32.779167,"longitude":-96.80889,"reserved":0,"last_update":"0001-01-01T00:00:00Z","name_a2s":"Uncletopia | Dallas | 3 | All Maps","protocol":17,"map":"pl_frontier_final","folder":"tf","game":"Team Fortress","app_id":440,"player_count":24,"max_players":24,"Bots":0,"server_type":"Dedicated","server_os":"Linux","password":true,"vac":true,"version":"7961495","steam_id":85568392924515219,"keywords":["nocrits","nodmgspread","payload","uncletopia"],"game_id":440,"stv_port":27036,"stv_name":"Uncletopia | Dallas | 3 | All Maps | STV","players":[{"user_id":315,"name":"M1C4A3L","steam_id":76561198009980085,"connected_time":7000000000,"state":"spawning","ping":49},{"user_id":285,"name":"Mythical Lag","steam_id":76561198347031281,"connected_time":1822000000000,"state":"active","ping":46},{"user_id":314,"name":"askuwd","steam_id":76561198087637901,"connected_time":255000000000,"state":"active","ping":47},{"user_id":230,"name":"Nightmare","steam_id":76561198409907417,"connected_time":4853000000000,"state":"active","ping":88},{"user_id":294,"name":"Fargo","steam_id":76561198044703931,"connected_time":966000000000,"state":"active","ping":60},{"user_id":297,"name":"Vazquez Perez","steam_id":76561199185750989,"connected_time":875000000000,"state":"active","ping":113},{"user_id":286,"name":"ElectronX","steam_id":76561198116034988,"connected_time":1753000000000,"state":"active","ping":141},{"user_id":298,"name":"Chilis 2 for 20","steam_id":76561198121544531,"connected_time":778000000000,"state":"active","ping":73},{"user_id":307,"name":"Skeleblood","steam_id":76561198153323281,"connected_time":563000000000,"state":"active","ping":76},{"user_id":215,"name":"Ket","steam_id":76561198241951244,"connected_time":5419000000000,"state":"active","ping":63},{"user_id":274,"name":"LargeBigboy","steam_id":76561198089293265,"connected_time":2008000000000,"state":"active","ping":69},{"user_id":240,"name":"Big Inch","steam_id":76561198052513500,"connected_time":4373000000000,"state":"active","ping":64},{"user_id":299,"name":"Phantom_4202","steam_id":76561198230325044,"connected_time":736000000000,"state":"active","ping":90},{"user_id":306,"name":"Claaws","steam_id":76561198159589471,"connected_time":619000000000,"state":"active","ping":117},{"user_id":292,"name":"rAnch","steam_id":76561198024562587,"connected_time":1129000000000,"state":"active","ping":31},{"user_id":301,"name":"dopadream","steam_id":76561198068383694,"connected_time":705000000000,"state":"active","ping":53},{"user_id":275,"name":"CatLike Pigeon","steam_id":76561198171716030,"connected_time":2006000000000,"state":"active","ping":95},{"user_id":302,"name":"SpamTheAlien","steam_id":76561199122290968,"connected_time":701000000000,"state":"active","ping":122},{"user_id":250,"name":"caliecat","steam_id":76561198075902571,"connected_time":3273000000000,"state":"active","ping":84},{"user_id":303,"name":"bwrbird","steam_id":76561198146167411,"connected_time":699000000000,"state":"active","ping":71},{"user_id":290,"name":"crookedspinalcord","steam_id":76561198833269144,"connected_time":1329000000000,"state":"active","ping":84},{"user_id":304,"name":"Jolly Wolly","steam_id":76561198087571347,"connected_time":687000000000,"state":"active","ping":87},{"user_id":305,"name":"Duk","steam_id":76561198450692568,"connected_time":676000000000,"state":"active","ping":83},{"user_id":311,"name":"Light-Work","steam_id":76561198084263001,"connected_time":394000000000,"state":"active","ping":57}]},{"server_id":405,"name":"Uncletopia | Dallas | 4 | Community","name_short":"dal-4","host":"dal-1.us.uncletopia.com","port":27045,"enabled":true,"region":"us-central","cc":"us","latitude":32.779167,"longitude":-96.80889,"reserved":0,"last_update":"0001-01-01T00:00:00Z","name_a2s":"Uncletopia | Dallas | 4 | Community","protocol":17,"map":"workshop/koth_trenchfoot_b1a.ugc731436616","folder":"tf","game":"Team Fortress","app_id":440,"player_count":0,"max_players":24,"Bots":0,"server_type":"Dedicated","server_os":"Linux","password":true,"vac":true,"version":"7961495","steam_id":85568392924515220,"keywords":["cp","nocrits","nodmgspread","uncletopia"],"game_id":440,"stv_port":27046,"stv_name":"Uncletopia | Dallas | 4 | Community | STV","players":null},{"server_id":5,"name":"Uncletopia | Frankfurt | 1 | All Maps","name_short":"frk-1","host":"frk-1.de.uncletopia.com","port":27015,"enabled":true,"region":"eu","cc":"de","latitude":50.110924,"longitude":8.682127,"reserved":0,"last_update":"0001-01-01T00:00:00Z","name_a2s":"Uncletopia | Frankfurt | 1 | All Maps","protocol":17,"map":"koth_highpass","folder":"tf","game":"Team Fortress","app_id":440,"player_count":0,"max_players":24,"Bots":0,"server_type":"Dedicated","server_os":"Linux","password":true,"vac":true,"version":"7961495","steam_id":85568392924469989,"keywords":["cp","nocrits","nodmgspread","uncletopia"],"game_id":440,"stv_port":27016,"stv_name":"Uncletopia | Frankfurt | 1 | All Maps | STV","players":null},{"server_id":110,"name":"Uncletopia | Frankfurt | 2 | All Maps","name_short":"frk-2","host":"frk-1.de.uncletopia.com","port":27025,"enabled":true,"region":"eu","cc":"de","latitude":50.110924,"longitude":8.682127,"reserved":0,"last_update":"0001-01-01T00:00:00Z","name_a2s":"Uncletopia | Frankfurt | 2 | All Maps","protocol":17,"map":"cp_dustbowl","folder":"tf","game":"Team Fortress","app_id":440,"player_count":0,"max_players":24,"Bots":0,"server_type":"Dedicated","server_os":"Linux","password":true,"vac":true,"version":"7961495","steam_id":85568392924469990,"keywords":["cp","nocrits","nodmgspread","uncletopia"],"game_id":440,"stv_port":27026,"stv_name":"Uncletopia | Frankfurt | 2 | All Maps | STV","players":null},{"server_id":308,"name":"Uncletopia | Frankfurt | 3 | All Maps","name_short":"frk-3","host":"frk-1.de.uncletopia.com","port":27035,"enabled":true,"region":"eu","cc":"de","latitude":50.110924,"longitude":8.682127,"reserved":0,"last_update":"0001-01-01T00:00:00Z","name_a2s":"Uncletopia | Frankfurt | 3 | All Maps","protocol":17,"map":"pl_barnblitz","folder":"tf","game":"Team Fortress","app_id":440,"player_count":0,"max_players":24,"Bots":0,"server_type":"Dedicated","server_os":"Linux","password":true,"vac":true,"version":"7961495","steam_id":85568392924504274,"keywords":["nocrits","nodmgspread","payload","uncletopia"],"game_id":440,"stv_port":27036,"stv_name":"Uncletopia | Frankfurt | 3 | All Maps | STV","players":null},{"server_id":309,"name":"Uncletopia | Frankfurt | 4 | All Maps","name_short":"frk-4","host":"frk-1.de.uncletopia.com","port":27045,"enabled":true,"region":"eu","cc":"de","latitude":50.110924,"longitude":8.682127,"reserved":0,"last_update":"0001-01-01T00:00:00Z","name_a2s":"Uncletopia | Frankfurt | 4 | All Maps","protocol":17,"map":"koth_highpass","folder":"tf","game":"Team Fortress","app_id":440,"player_count":0,"max_players":24,"Bots":0,"server_type":"Dedicated","server_os":"Linux","password":true,"vac":true,"version":"7961495","steam_id":85568392924504275,"keywords":["cp","nocrits","nodmgspread","uncletopia"],"game_id":440,"stv_port":27046,"stv_name":"Uncletopia | Frankfurt | 4 | All Maps | STV","players":null},{"server_id":310,"name":"Uncletopia | Frankfurt | 5 | All Maps","name_short":"frk-5","host":"frk-1.de.uncletopia.com","port":27055,"enabled":true,"region":"eu","cc":"de","latitude":50.110924,"longitude":8.682127,"reserved":0,"last_update":"0001-01-01T00:00:00Z","name_a2s":"Uncletopia | Frankfurt | 5 | All Maps","protocol":17,"map":"pl_badwater","folder":"tf","game":"Team Fortress","app_id":440,"player_count":0,"max_players":24,"Bots":0,"server_type":"Dedicated","server_os":"Linux","password":true,"vac":true,"version":"7961495","steam_id":85568392924504277,"keywords":["nocrits","nodmgspread","payload","uncletopia"],"game_id":440,"stv_port":27056,"stv_name":"Uncletopia | Frankfurt | 5 | All Maps | STV","players":null},{"server_id":311,"name":"Uncletopia | Frankfurt | 6 | All Maps","name_short":"frk-6","host":"frk-1.de.uncletopia.com","port":27065,"enabled":true,"region":"eu","cc":"de","latitude":50.110924,"longitude":8.682127,"reserved":0,"last_update":"0001-01-01T00:00:00Z","name_a2s":"Uncletopia | Frankfurt | 6 | All Maps","protocol":17,"map":"cp_altitude","folder":"tf","game":"Team Fortress","app_id":440,"player_count":0,"max_players":24,"Bots":0,"server_type":"Dedicated","server_os":"Linux","password":true,"vac":true,"version":"7961495","steam_id":85568392924504278,"keywords":["cp","nocrits","nodmgspread","uncletopia"],"game_id":440,"stv_port":27066,"stv_name":"Uncletopia | Frankfurt | 6 | All Maps | STV","players":null},{"server_id":23,"name":"Uncletopia | Frankfurt | 7 | Stopwatch","name_short":"frk-7","host":"frk-1.de.uncletopia.com","port":27075,"enabled":true,"region":"eu","cc":"de","latitude":50.110924,"longitude":8.682127,"reserved":0,"last_update":"0001-01-01T00:00:00Z","name_a2s":"Uncletopia | Frankfurt | 7 | Stopwatch","protocol":17,"map":"pl_frontier_final","folder":"tf","game":"Team Fortress","app_id":440,"player_count":0,"max_players":24,"Bots":0,"server_type":"Dedicated","server_os":"Linux","password":true,"vac":true,"version":"7961495","steam_id":85568392924742827,"keywords":["nocrits","nodmgspread","payload","uncletopia"],"game_id":440,"stv_port":27076,"stv_name":"Uncletopia | Frankfurt | 7 | Stopwatch | STV","players":null},{"server_id":24,"name":"Uncletopia | Frankfurt | 8 | Community","name_short":"frk-8","host":"frk-1.de.uncletopia.com","port":27085,"enabled":true,"region":"eu","cc":"de","latitude":50.110924,"longitude":8.682127,"reserved":0,"last_update":"0001-01-01T00:00:00Z","name_a2s":"Uncletopia | Frankfurt | 8 | Community","protocol":17,"map":"cp_mountainlab","folder":"tf","game":"Team Fortress","app_id":440,"player_count":0,"max_players":24,"Bots":0,"server_type":"Dedicated","server_os":"Linux","password":true,"vac":true,"version":"7961495","steam_id":85568392924742828,"keywords":["cp","nocrits","nodmgspread","uncletopia"],"game_id":440,"stv_port":27086,"stv_name":"Uncletopia | Frankfurt | 8 | Community | STV","players":null},{"server_id":202,"name":"Uncletopia | Hong Kong | 1 | All Maps","name_short":"hgk-1","host":"hgk-1.hk.uncletopia.com","port":27015,"enabled":true,"region":"asia","cc":"hk","latitude":22.302711,"longitude":114.177216,"reserved":0,"last_update":"0001-01-01T00:00:00Z","name_a2s":"Uncletopia | Hong Kong | 1 | All Maps","protocol":17,"map":"pl_badwater","folder":"tf","game":"Team Fortress","app_id":440,"player_count":0,"max_players":24,"Bots":0,"server_type":"Dedicated","server_os":"Linux","password":true,"vac":true,"version":"7961495","steam_id":85568392924494504,"keywords":["nocrits","nodmgspread","payload","uncletopia"],"game_id":440,"stv_port":27016,"stv_name":"Uncletopia | Hong Kong | 1 | All Maps | STV","players":null},{"server_id":1,"name":"Uncletopia | Los Angeles | 1 | All Maps","name_short":"lax-1","host":"lax-1.us.uncletopia.com","port":27015,"enabled":true,"region":"us-west","cc":"us","latitude":33.94279,"longitude":-118.41004,"reserved":0,"last_update":"0001-01-01T00:00:00Z","name_a2s":"Uncletopia | Los Angeles | 1 | All Maps","protocol":17,"map":"pl_pier","folder":"tf","game":"Team Fortress","app_id":440,"player_count":24,"max_players":24,"Bots":0,"server_type":"Dedicated","server_os":"Linux","password":true,"vac":true,"version":"7961495","steam_id":85568392924469991,"keywords":["nocrits","nodmgspread","payload","uncletopia"],"game_id":440,"stv_port":27016,"stv_name":"Uncletopia | Los Angeles | 1 | All Maps | STV","players":[{"user_id":320,"name":"mudd","steam_id":76561198114968340,"connected_time":2807000000000,"state":"active","ping":71},{"user_id":301,"name":"Chinaski","steam_id":76561198092218594,"connected_time":4473000000000,"state":"active","ping":70},{"user_id":344,"name":"nat","steam_id":76561198179923093,"connected_time":120000000000,"state":"active","ping":45},{"user_id":340,"name":"Ravioli","steam_id":76561198312453183,"connected_time":694000000000,"state":"active","ping":84},{"user_id":295,"name":"squart guy","steam_id":76561199411560141,"connected_time":4960000000000,"state":"active","ping":75},{"user_id":329,"name":"The_Pacific_gamer","steam_id":76561198089491446,"connected_time":1493000000000,"state":"active","ping":79},{"user_id":296,"name":"Obersteuermann","steam_id":76561198044468707,"connected_time":4951000000000,"state":"active","ping":72},{"user_id":275,"name":"Tim","steam_id":76561198126844549,"connected_time":5874000000000,"state":"active","ping":45},{"user_id":326,"name":"cringy","steam_id":76561198323000455,"connected_time":1790000000000,"state":"active","ping":61},{"user_id":324,"name":"Juice","steam_id":76561198085001331,"connected_time":2328000000000,"state":"active","ping":62},{"user_id":341,"name":"Keamy","steam_id":76561199471434875,"connected_time":691000000000,"state":"active","ping":61},{"user_id":323,"name":"sola venereum","steam_id":76561198368179166,"connected_time":2499000000000,"state":"active","ping":62},{"user_id":332,"name":"Borgor Boi","steam_id":76561199061388107,"connected_time":1389000000000,"state":"active","ping":72},{"user_id":325,"name":"Peppino","steam_id":76561199139504199,"connected_time":1962000000000,"state":"active","ping":61},{"user_id":258,"name":"rad killl raccoon","steam_id":76561198980975595,"connected_time":7278000000000,"state":"active","ping":94},{"user_id":327,"name":"vioxynteris","steam_id":76561198161428666,"connected_time":1570000000000,"state":"active","ping":30},{"user_id":342,"name":"fire","steam_id":76561198044354279,"connected_time":672000000000,"state":"active","ping":45},{"user_id":338,"name":"Ice cream sandwich","steam_id":76561198172748357,"connected_time":1081000000000,"state":"active","ping":54},{"user_id":334,"name":"canakblasteran","steam_id":76561199472518822,"connected_time":1382000000000,"state":"active","ping":66},{"user_id":343,"name":"HAT-WEARING™ Maggot Gamer Cat","steam_id":76561197973992705,"connected_time":133000000000,"state":"active","ping":64},{"user_id":337,"name":"Living_Zombie","steam_id":76561198204503240,"connected_time":1249000000000,"state":"active","ping":115},{"user_id":322,"name":"Eggs","steam_id":76561198060148916,"connected_time":2802000000000,"state":"active","ping":50},{"user_id":300,"name":"BrockSpread","steam_id":76561198145924402,"connected_time":4592000000000,"state":"active","ping":93},{"user_id":339,"name":"h20verdrive","steam_id":76561198115957085,"connected_time":939000000000,"state":"active","ping":48}]},{"server_id":112,"name":"Uncletopia | Los Angeles | 2 | All Maps","name_short":"lax-2","host":"lax-1.us.uncletopia.com","port":27025,"enabled":true,"region":"us-west","cc":"us","latitude":33.94279,"longitude":-118.41004,"reserved":0,"last_update":"0001-01-01T00:00:00Z","name_a2s":"Uncletopia | Los Angeles | 2 | All Maps","protocol":17,"map":"pl_goldrush","folder":"tf","game":"Team Fortress","app_id":440,"player_count":24,"max_players":24,"Bots":0,"server_type":"Dedicated","server_os":"Linux","password":true,"vac":true,"version":"7961495","steam_id":85568392924469992,"keywords":["nocrits","nodmgspread","payload","uncletopia"],"game_id":440,"stv_port":27026,"stv_name":"Uncletopia | Los Angeles | 2 | All Maps | STV","players":[{"user_id":561,"name":"TüCold","steam_id":76561198111278197,"connected_time":334000000000,"state":"active","ping":61},{"user_id":557,"name":"Gary Budussy","steam_id":76561197969793969,"connected_time":791000000000,"state":"active","ping":95},{"user_id":555,"name":"whathashit69","steam_id":76561199013105760,"connected_time":938000000000,"state":"active","ping":104},{"user_id":546,"name":"poopy joe","steam_id":76561198007742906,"connected_time":1860000000000,"state":"active","ping":41},{"user_id":563,"name":"okay sized language model","steam_id":76561198071110753,"connected_time":275000000000,"state":"active","ping":33},{"user_id":523,"name":"Idiotden","steam_id":76561199340950135,"connected_time":2915000000000,"state":"active","ping":48},{"user_id":520,"name":"lol","steam_id":76561198026491738,"connected_time":3071000000000,"state":"active","ping":61},{"user_id":521,"name":"xD","steam_id":76561198149683030,"connected_time":3051000000000,"state":"active","ping":70},{"user_id":540,"name":"Soulja Boy","steam_id":76561198066091050,"connected_time":2080000000000,"state":"active","ping":78},{"user_id":551,"name":"erutoumo","steam_id":76561198093146919,"connected_time":1430000000000,"state":"active","ping":75},{"user_id":529,"name":"cielael","steam_id":76561198043971956,"connected_time":2840000000000,"state":"active","ping":48},{"user_id":502,"name":"Lord","steam_id":76561198303081758,"connected_time":4361000000000,"state":"active","ping":42},{"user_id":538,"name":"anakin ballstomper","steam_id":76561198184814466,"connected_time":2114000000000,"state":"active","ping":74},{"user_id":554,"name":"Xexat","steam_id":76561198041668498,"connected_time":1019000000000,"state":"active","ping":57},{"user_id":564,"name":"Jubtice","steam_id":76561198995538396,"connected_time":205000000000,"state":"active","ping":61},{"user_id":492,"name":"AAAAAAAAAAAAAAAAAAAAAAAAAAAAAAA","steam_id":76561198125467937,"connected_time":4980000000000,"state":"active","ping":77},{"user_id":494,"name":"Jazpy","steam_id":76561198036872545,"connected_time":4843000000000,"state":"active","ping":76},{"user_id":524,"name":"Ralph Kramden (Slim Charles)","steam_id":76561197981687895,"connected_time":2910000000000,"state":"active","ping":61},{"user_id":504,"name":"fresh prince of citadel","steam_id":76561198420237035,"connected_time":4357000000000,"state":"active","ping":74},{"user_id":565,"name":"Quon Grene for Vice Prez","steam_id":76561198127545817,"connected_time":117000000000,"state":"active","ping":69},{"user_id":547,"name":"Brain damage squirrel","steam_id":76561198846344452,"connected_time":1838000000000,"state":"active","ping":53},{"user_id":548,"name":"Titan Exodos","steam_id":76561198063852935,"connected_time":1834000000000,"state":"active","ping":90},{"user_id":532,"name":"DeratedDesign","steam_id":76561199078779967,"connected_time":2673000000000,"state":"active","ping":149},{"user_id":545,"name":"enveloped powertrip","steam_id":76561198011675372,"connected_time":1966000000000,"state":"active","ping":90}]},{"server_id":324,"name":"Uncletopia | Los Angeles | 3 | All Maps","name_short":"lax-3","host":"lax-1.us.uncletopia.com","port":27035,"enabled":true,"region":"us-west","cc":"us","latitude":33.94279,"longitude":-118.41004,"reserved":0,"last_update":"0001-01-01T00:00:00Z","name_a2s":"Uncletopia | Los Angeles | 3 | All Maps","protocol":17,"map":"koth_viaduct","folder":"tf","game":"Team Fortress","app_id":440,"player_count":0,"max_players":24,"Bots":0,"server_type":"Dedicated","server_os":"Linux","password":true,"vac":true,"version":"7961495","steam_id":85568392924510198,"keywords":["cp","nocrits","nodmgspread","uncletopia"],"game_id":440,"stv_port":27036,"stv_name":"Uncletopia | Los Angeles | 3 | All Maps | STV","players":null},{"server_id":25,"name":"Uncletopia | Los Angeles | 4 | Stopwatch","name_short":"lax-4","host":"lax-1.us.uncletopia.com","port":27045,"enabled":true,"region":"us-west","cc":"us","latitude":33.94279,"longitude":-118.41004,"reserved":0,"last_update":"0001-01-01T00:00:00Z","name_a2s":"Uncletopia | Los Angeles | 4 | Stopwatch","protocol":17,"map":"workshop/pl_badwater_pro_v12.ugc2142942074","folder":"tf","game":"Team Fortress","app_id":440,"player_count":0,"max_players":24,"Bots":0,"server_type":"Dedicated","server_os":"Linux","password":true,"vac":true,"version":"7961495","steam_id":85568392924510199,"keywords":["nocrits","nodmgspread","payload","uncletopia"],"game_id":440,"stv_port":27046,"stv_name":"Uncletopia | Los Angeles | 4 | Stopwatch | STV","players":null},{"server_id":11,"name":"Uncletopia | London | 1 | All Maps","name_short":"lon-1","host":"lon-1.uk.uncletopia.com","port":27015,"enabled":true,"region":"eu","cc":"gb","latitude":51.509865,"longitude":-0.118092,"reserved":0,"last_update":"0001-01-01T00:00:00Z","name_a2s":"Uncletopia | London | 1 | All Maps","protocol":17,"map":"koth_lakeside_final","folder":"tf","game":"Team Fortress","app_id":440,"player_count":0,"max_players":24,"Bots":0,"server_type":"Dedicated","server_os":"Linux","password":true,"vac":true,"version":"7961495","steam_id":85568392924367362,"keywords":["cp","nocrits","nodmgspread","uncletopia"],"game_id":440,"stv_port":27016,"stv_name":"Uncletopia | London | 1 | All Maps | STV","players":null},{"server_id":114,"name":"Uncletopia | London | 2 | All Maps","name_short":"lon-2","host":"lon-1.uk.uncletopia.com","port":27025,"enabled":true,"region":"eu","cc":"gb","latitude":51.509865,"longitude":-0.118092,"reserved":0,"last_update":"0001-01-01T00:00:00Z","name_a2s":"Uncletopia | London | 2 | All Maps","protocol":17,"map":"koth_viaduct","folder":"tf","game":"Team Fortress","app_id":440,"player_count":0,"max_players":24,"Bots":0,"server_type":"Dedicated","server_os":"Linux","password":true,"vac":true,"version":"7961495","steam_id":85568392924470941,"keywords":["cp","nocrits","nodmgspread","uncletopia"],"game_id":440,"stv_port":27026,"stv_name":"Uncletopia | London | 2 | All Maps | STV","players":null},{"server_id":320,"name":"Uncletopia | London | 3 | All Maps","name_short":"lon-3","host":"lon-1.uk.uncletopia.com","port":27035,"enabled":true,"region":"eu","cc":"gb","latitude":51.509865,"longitude":-0.118092,"reserved":0,"last_update":"0001-01-01T00:00:00Z","name_a2s":"Uncletopia | London | 3 | All Maps","protocol":17,"map":"pl_barnblitz","folder":"tf","game":"Team Fortress","app_id":440,"player_count":0,"max_players":24,"Bots":0,"server_type":"Dedicated","server_os":"Linux","password":true,"vac":true,"version":"7961495","steam_id":85568392924510192,"keywords":["nocrits","nodmgspread","payload","uncletopia"],"game_id":440,"stv_port":27036,"stv_name":"Uncletopia | London | 3 | All Maps | STV","players":null},{"server_id":321,"name":"Uncletopia | London | 4 | All Maps","name_short":"lon-4","host":"lon-1.uk.uncletopia.com","port":27045,"enabled":true,"region":"eu","cc":"gb","latitude":51.509865,"longitude":-0.118092,"reserved":0,"last_update":"0001-01-01T00:00:00Z","name_a2s":"Uncletopia | London | 4 | All Maps","protocol":17,"map":"koth_cascade","folder":"tf","game":"Team Fortress","app_id":440,"player_count":0,"max_players":24,"Bots":0,"server_type":"Dedicated","server_os":"Linux","password":true,"vac":true,"version":"7961495","steam_id":85568392924510193,"keywords":["cp","nocrits","nodmgspread","uncletopia"],"game_id":440,"stv_port":27046,"stv_name":"Uncletopia | London | 4 | All Maps | STV","players":null},{"server_id":21,"name":"Uncletopia | London | 5 | All Maps","name_short":"lon-5","host":"lon-1.uk.uncletopia.com","port":27055,"enabled":true,"region":"eu","cc":"gb","latitude":51.509865,"longitude":-0.118092,"reserved":0,"last_update":"0001-01-01T00:00:00Z","name_a2s":"Uncletopia | London | 5 | All Maps","protocol":17,"map":"pl_swiftwater_final1","folder":"tf","game":"Team Fortress","app_id":440,"player_count":0,"max_players":24,"Bots":0,"server_type":"Dedicated","server_os":"Linux","password":true,"vac":true,"version":"7961495","steam_id":85568392924742829,"keywords":["nocrits","nodmgspread","payload","uncletopia"],"game_id":440,"stv_port":27056,"stv_name":"Uncletopia | London | 5 | All Maps | STV","players":null},{"server_id":22,"name":"Uncletopia | London | 6 | All Maps","name_short":"lon-6","host":"lon-1.uk.uncletopia.com","port":27065,"enabled":true,"region":"eu","cc":"gb","latitude":51.509865,"longitude":-0.118092,"reserved":0,"last_update":"0001-01-01T00:00:00Z","name_a2s":"Uncletopia | London | 6 | All Maps","protocol":17,"map":"pl_borneo","folder":"tf","game":"Team Fortress","app_id":440,"player_count":0,"max_players":24,"Bots":0,"server_type":"Dedicated","server_os":"Linux","password":true,"vac":true,"version":"7961495","steam_id":85568392924742830,"keywords":["nocrits","nodmgspread","payload","uncletopia"],"game_id":440,"stv_port":27066,"stv_name":"Uncletopia | London | 6 | All Maps | STV","players":null},{"server_id":40,"name":"Uncletopia | London | 7 | Stopwatch","name_short":"lon-7","host":"lon-1.uk.uncletopia.com","port":27075,"enabled":true,"region":"eu","cc":"gb","latitude":51.509865,"longitude":-0.118092,"reserved":0,"last_update":"0001-01-01T00:00:00Z","name_a2s":"Uncletopia | London | 7 | Stopwatch","protocol":17,"map":"workshop/koth_ramjam_rc1.ugc459778887","folder":"tf","game":"Team Fortress","app_id":440,"player_count":0,"max_players":24,"Bots":0,"server_type":"Dedicated","server_os":"Linux","password":true,"vac":true,"version":"7961495","steam_id":85568392924964314,"keywords":["cp","nocrits","nodmgspread","uncletopia"],"game_id":440,"stv_port":27076,"stv_name":"Uncletopia | London | 7 | Stopwatch | STV","players":null},{"server_id":41,"name":"Uncletopia | London | 8 | Community","name_short":"lon-8","host":"lon-1.uk.uncletopia.com","port":27085,"enabled":true,"region":"eu","cc":"gb","latitude":51.509865,"longitude":-0.118092,"reserved":0,"last_update":"0001-01-01T00:00:00Z","name_a2s":"Uncletopia | London | 8 | Community","protocol":17,"map":"workshop/cp_caldera_rc2.ugc2834196889","folder":"tf","game":"Team Fortress","app_id":440,"player_count":0,"max_players":24,"Bots":0,"server_type":"Dedicated","server_os":"Linux","password":true,"vac":true,"version":"7961495","steam_id":85568392924964315,"keywords":["cp","nocrits","nodmgspread","uncletopia"],"game_id":440,"stv_port":27086,"stv_name":"Uncletopia | London | 8 | Community | STV","players":null},{"server_id":300,"name":"Uncletopia | Montréal | 1 | All Maps","name_short":"mtl-1","host":"mtl-1.ca.uncletopia.com","port":27015,"enabled":true,"region":"us-east","cc":"ca","latitude":45.50889,"longitude":-73.56167,"reserved":0,"last_update":"0001-01-01T00:00:00Z","name_a2s":"","protocol":0,"map":"","folder":"","game":"","app_id":0,"player_count":0,"max_players":0,"Bots":0,"server_type":"","server_os":"","password":false,"vac":false,"version":"","steam_id":0,"keywords":null,"game_id":0,"stv_port":0,"stv_name":"","players":null},{"server_id":301,"name":"Uncletopia | Montréal | 2 | All Maps","name_short":"mtl-2","host":"mtl-1.ca.uncletopia.com","port":27025,"enabled":true,"region":"us-east","cc":"ca","latitude":45.50889,"longitude":-73.56167,"reserved":0,"last_update":"0001-01-01T00:00:00Z","name_a2s":"","protocol":0,"map":"","folder":"","game":"","app_id":0,"player_count":0,"max_players":0,"Bots":0,"server_type":"","server_os":"","password":false,"vac":false,"version":"","steam_id":0,"keywords":null,"game_id":0,"stv_port":0,"stv_name":"","players":null},{"server_id":302,"name":"Uncletopia | Montréal | 3 | All Maps","name_short":"mtl-3","host":"mtl-1.ca.uncletopia.com","port":27035,"enabled":true,"region":"us-east","cc":"ca","latitude":45.50889,"longitude":-73.56167,"reserved":0,"last_update":"0001-01-01T00:00:00Z","name_a2s":"","protocol":0,"map":"","folder":"","game":"","app_id":0,"player_count":0,"max_players":0,"Bots":0,"server_type":"","server_os":"","password":false,"vac":false,"version":"","steam_id":0,"keywords":null,"game_id":0,"stv_port":0,"stv_name":"","players":null},{"server_id":303,"name":"Uncletopia | Montréal | 4 | No Payload","name_short":"mtl-4","host":"mtl-1.ca.uncletopia.com","port":27045,"enabled":true,"region":"us-east","cc":"ca","latitude":45.50889,"longitude":-73.56167,"reserved":0,"last_update":"0001-01-01T00:00:00Z","name_a2s":"","protocol":0,"map":"","folder":"","game":"","app_id":0,"player_count":0,"max_players":0,"Bots":0,"server_type":"","server_os":"","password":false,"vac":false,"version":"","steam_id":0,"keywords":null,"game_id":0,"stv_port":0,"stv_name":"","players":null},{"server_id":13,"name":"Uncletopia | New York City | 1 | All Maps","name_short":"nyc-1","host":"nyc-1.us.uncletopia.com","port":27015,"enabled":true,"region":"us-east","cc":"us","latitude":40.73061,"longitude":-73.93524,"reserved":0,"last_update":"0001-01-01T00:00:00Z","name_a2s":"Uncletopia | New York City | 1 | All Maps","protocol":17,"map":"pl_borneo","folder":"tf","game":"Team Fortress","app_id":440,"player_count":20,"max_players":24,"Bots":0,"server_type":"Dedicated","server_os":"Linux","password":true,"vac":true,"version":"7961495","steam_id":85568392924469993,"keywords":["nocrits","nodmgspread","payload","uncletopia"],"game_id":440,"stv_port":27016,"stv_name":"Uncletopia | New York City | 1 | All Maps | STV","players":[{"user_id":401,"name":"googa","steam_id":76561198133130452,"connected_time":12305000000000,"state":"active","ping":45},{"user_id":536,"name":"Zoop","steam_id":76561197995874520,"connected_time":1006000000000,"state":"active","ping":78},{"user_id":537,"name":"FannyPackMustache","steam_id":76561198001150995,"connected_time":995000000000,"state":"active","ping":76},{"user_id":522,"name":"Trucks N' Cocaine","steam_id":76561198117286868,"connected_time":2178000000000,"state":"active","ping":164},{"user_id":517,"name":"Machine Girl - SAD CLAPS","steam_id":76561198294013916,"connected_time":2359000000000,"state":"active","ping":44},{"user_id":542,"name":"MrLonelySlayer","steam_id":76561198061793470,"connected_time":416000000000,"state":"active","ping":54},{"user_id":551,"name":"Dwayne Da Wok Jinsun","steam_id":76561198044506855,"connected_time":41000000000,"state":"active","ping":70},{"user_id":549,"name":"K. O. E.","steam_id":76561198025188490,"connected_time":158000000000,"state":"active","ping":72},{"user_id":543,"name":"Si1entSn1pa","steam_id":76561198170095479,"connected_time":414000000000,"state":"active","ping":88},{"user_id":507,"name":"Maxyyt","steam_id":76561198062309005,"connected_time":2738000000000,"state":"active","ping":57},{"user_id":545,"name":"Chestnnut","steam_id":76561198077782729,"connected_time":361000000000,"state":"active","ping":83},{"user_id":442,"name":"Bert.","steam_id":76561198140666346,"connected_time":8932000000000,"state":"active","ping":47},{"user_id":526,"name":"не бери в голову","steam_id":76561198066716670,"connected_time":2074000000000,"state":"active","ping":66},{"user_id":539,"name":"Relare","steam_id":76561198004059718,"connected_time":900000000000,"state":"active","ping":72},{"user_id":512,"name":"Doofenshmirtz Evil Inc.","steam_id":76561198439793697,"connected_time":2512000000000,"state":"active","ping":88},{"user_id":527,"name":"GrahamisGood","steam_id":76561198988396980,"connected_time":1928000000000,"state":"active","ping":52},{"user_id":477,"name":"SnickerNoodle","steam_id":76561198064359644,"connected_time":6909000000000,"state":"active","ping":53},{"user_id":514,"name":"enzowolf10","steam_id":76561198028696728,"connected_time":2482000000000,"state":"active","ping":43},{"user_id":547,"name":"good zid maad city","steam_id":76561198098770013,"connected_time":342000000000,"state":"active","ping":114},{"user_id":540,"name":"ndvr","steam_id":76561199379200102,"connected_time":860000000000,"state":"active","ping":49}]},{"server_id":14,"name":"Uncletopia | New York City | 2 | All Maps","name_short":"nyc-2","host":"nyc-1.us.uncletopia.com","port":27025,"enabled":true,"region":"us-east","cc":"us","latitude":40.73061,"longitude":-73.93524,"reserved":0,"last_update":"0001-01-01T00:00:00Z","name_a2s":"Uncletopia | New York City | 2 | All Maps","protocol":17,"map":"pl_badwater","folder":"tf","game":"Team Fortress","app_id":440,"player_count":4,"max_players":24,"Bots":0,"server_type":"Dedicated","server_os":"Linux","password":true,"vac":true,"version":"7961495","steam_id":85568392924469994,"keywords":["nocrits","nodmgspread","payload","uncletopia"],"game_id":440,"stv_port":27026,"stv_name":"Uncletopia | New York City | 2 | All Maps | STV","players":[{"user_id":693,"name":"Santamen","steam_id":76561198119478199,"connected_time":812000000000,"state":"active","ping":43},{"user_id":699,"name":"kogasira","steam_id":76561198094152516,"connected_time":55000000000,"state":"active","ping":44},{"user_id":687,"name":"bleach65","steam_id":76561198115270571,"connected_time":1734000000000,"state":"active","ping":72},{"user_id":698,"name":"Sloppy Hoes","steam_id":76561198114922735,"connected_time":71000000000,"state":"spawning","ping":64}]},{"server_id":15,"name":"Uncletopia | New York City | 3 | Stopwatch","name_short":"nyc-3","host":"nyc-1.us.uncletopia.com","port":27035,"enabled":true,"region":"us-east","cc":"us","latitude":40.73061,"longitude":-73.93524,"reserved":0,"last_update":"0001-01-01T00:00:00Z","name_a2s":"Uncletopia | New York City | 3 | Stopwatch","protocol":17,"map":"cp_metalworks","folder":"tf","game":"Team Fortress","app_id":440,"player_count":0,"max_players":24,"Bots":0,"server_type":"Dedicated","server_os":"Linux","password":true,"vac":true,"version":"7961495","steam_id":85568392924742820,"keywords":["cp","nocrits","nodmgspread","uncletopia"],"game_id":440,"stv_port":27036,"stv_name":"Uncletopia | New York City | 3 | Stopwatch | STV","players":null},{"server_id":16,"name":"Uncletopia | New York City | 4 | Community","name_short":"nyc-4","host":"nyc-1.us.uncletopia.com","port":27045,"enabled":true,"region":"us-east","cc":"us","latitude":40.73061,"longitude":-73.93524,"reserved":0,"last_update":"0001-01-01T00:00:00Z","name_a2s":"Uncletopia | New York City | 4 | Community","protocol":17,"map":"workshop/cp_reckoner_rc6.ugc674719999","folder":"tf","game":"Team Fortress","app_id":440,"player_count":0,"max_players":24,"Bots":0,"server_type":"Dedicated","server_os":"Linux","password":true,"vac":true,"version":"7961495","steam_id":85568392924742821,"keywords":["cp","nocrits","nodmgspread","uncletopia"],"game_id":440,"stv_port":27046,"stv_name":"Uncletopia | New York City | 4 | Community | STV","players":null},{"server_id":142,"name":"Uncletopia | São Paulo | 1 | All Maps","name_short":"sao-1","host":"sao-1.br.uncletopia.com","port":27015,"enabled":true,"region":"sa","cc":"br","latitude":-23.533773,"longitude":-46.62529,"reserved":0,"last_update":"0001-01-01T00:00:00Z","name_a2s":"Uncletopia | São Paulo | 1 | All Maps","protocol":17,"map":"koth_cascade","folder":"tf","game":"Team Fortress","app_id":440,"player_count":0,"max_players":24,"Bots":0,"server_type":"Dedicated","server_os":"Linux","password":true,"vac":true,"version":"7961495","steam_id":85568392924469996,"keywords":["cp","nocrits","nodmgspread","uncletopia"],"game_id":440,"stv_port":27016,"stv_name":"Uncletopia | São Paulo | 1 | All Maps | STV","players":null},{"server_id":143,"name":"Uncletopia | São Paulo | 2 | Community","name_short":"sao-2","host":"sao-2.br.uncletopia.com","port":27015,"enabled":true,"region":"sa","cc":"br","latitude":-23.533773,"longitude":-46.62529,"reserved":0,"last_update":"0001-01-01T00:00:00Z","name_a2s":"Uncletopia | São Paulo | 2 | Community","protocol":17,"map":"workshop/koth_ramjam_rc1.ugc459778887","folder":"tf","game":"Team Fortress","app_id":440,"player_count":0,"max_players":24,"Bots":0,"server_type":"Dedicated","server_os":"Linux","password":true,"vac":true,"version":"7961495","steam_id":85568392924485349,"keywords":["cp","nocrits","nodmgspread","uncletopia"],"game_id":440,"stv_port":27016,"stv_name":"Uncletopia | São Paulo | 2 | Community | STV","players":null},{"server_id":7,"name":"Uncletopia | Seattle | 1 | All Maps","name_short":"sea-1","host":"sea-1.us.uncletopia.com","port":27015,"enabled":true,"region":"us-west","cc":"us","latitude":47.608013,"longitude":-122.33517,"reserved":0,"last_update":"0001-01-01T00:00:00Z","name_a2s":"Uncletopia | Seattle | 1 | All Maps","protocol":17,"map":"koth_highpass","folder":"tf","game":"Team Fortress","app_id":440,"player_count":25,"max_players":24,"Bots":0,"server_type":"Dedicated","server_os":"Linux","password":true,"vac":true,"version":"7961495","steam_id":85568392924469997,"keywords":["cp","nocrits","nodmgspread","uncletopia"],"game_id":440,"stv_port":27016,"stv_name":"Uncletopia | Seattle | 1 | All Maps | STV","players":[{"user_id":741,"name":"Bocchi The Rock Johnson","steam_id":76561198216017952,"connected_time":1540000000000,"state":"active","ping":64},{"user_id":738,"name":"https://fr.wikipedia.org/","steam_id":76561198051834684,"connected_time":1691000000000,"state":"active","ping":60},{"user_id":747,"name":"SOS Brigade Member","steam_id":76561198331134294,"connected_time":761000000000,"state":"active","ping":90},{"user_id":750,"name":"acid","steam_id":76561198044180341,"connected_time":482000000000,"state":"active","ping":76},{"user_id":712,"name":"REAL Wizard","steam_id":76561198097178599,"connected_time":4197000000000,"state":"active","ping":56},{"user_id":751,"name":"fart thief","steam_id":76561198046073848,"connected_time":443000000000,"state":"active","ping":47},{"user_id":740,"name":"sleepy","steam_id":76561198288663776,"connected_time":1673000000000,"state":"active","ping":52},{"user_id":696,"name":"Ayayayayayahuasca","steam_id":76561199002906056,"connected_time":5960000000000,"state":"active","ping":46},{"user_id":737,"name":"Ducks","steam_id":76561198130038345,"connected_time":1702000000000,"state":"active","ping":70},{"user_id":727,"name":"Flops","steam_id":76561197961030141,"connected_time":2789000000000,"state":"active","ping":50},{"user_id":736,"name":"tr","steam_id":76561198046944222,"connected_time":1723000000000,"state":"active","ping":45},{"user_id":732,"name":"Sniff","steam_id":76561198010270922,"connected_time":2309000000000,"state":"active","ping":57},{"user_id":744,"name":"lavender","steam_id":76561199069518286,"connected_time":1007000000000,"state":"active","ping":74},{"user_id":753,"name":"thunderous prophet","steam_id":76561198131166135,"connected_time":163000000000,"state":"active","ping":38},{"user_id":742,"name":"Smile","steam_id":76561198110008786,"connected_time":1392000000000,"state":"active","ping":59},{"user_id":749,"name":"onionman0106","steam_id":76561199067766868,"connected_time":538000000000,"state":"active","ping":43},{"user_id":728,"name":"squash","steam_id":76561198150281353,"connected_time":2761000000000,"state":"active","ping":58},{"user_id":722,"name":"William P. Ennis","steam_id":76561198073464877,"connected_time":3744000000000,"state":"active","ping":104},{"user_id":748,"name":"dust | she/it","steam_id":76561198045218909,"connected_time":568000000000,"state":"active","ping":42},{"user_id":743,"name":"jole","steam_id":76561198037292232,"connected_time":1329000000000,"state":"active","ping":134},{"user_id":640,"name":"Level 99 Mudcrab","steam_id":76561198077452771,"connected_time":8061000000000,"state":"active","ping":89},{"user_id":491,"name":"NEBULA","steam_id":76561198086878595,"connected_time":9954000000000,"state":"active","ping":75},{"user_id":754,"name":"jorts","steam_id":76561199041179985,"connected_time":119000000000,"state":"active","ping":56},{"user_id":746,"name":"KinglyGhost","steam_id":76561198072254064,"connected_time":863000000000,"state":"active","ping":60}]},{"server_id":119,"name":"Uncletopia | Seattle | 2 | All Maps","name_short":"sea-2","host":"sea-1.us.uncletopia.com","port":27025,"enabled":true,"region":"us-west","cc":"us","latitude":47.608013,"longitude":-122.33517,"reserved":0,"last_update":"0001-01-01T00:00:00Z","name_a2s":"Uncletopia | Seattle | 2 | All Maps","protocol":17,"map":"koth_nucleus","folder":"tf","game":"Team Fortress","app_id":440,"player_count":24,"max_players":24,"Bots":0,"server_type":"Dedicated","server_os":"Linux","password":true,"vac":true,"version":"7961495","steam_id":85568392924469998,"keywords":["cp","nocrits","nodmgspread","uncletopia"],"game_id":440,"stv_port":27026,"stv_name":"Uncletopia | Seattle | 2 | All Maps | STV","players":[{"user_id":334,"name":"BlazedBunny","steam_id":76561198243610560,"connected_time":883000000000,"state":"active","ping":72},{"user_id":267,"name":"mizurush","steam_id":76561198039595304,"connected_time":9249000000000,"state":"active","ping":128},{"user_id":309,"name":"ToddStool","steam_id":76561198338144919,"connected_time":3516000000000,"state":"active","ping":71},{"user_id":262,"name":"mooney","steam_id":76561199110622484,"connected_time":9802000000000,"state":"active","ping":64},{"user_id":244,"name":"slushy :))","steam_id":76561198135281802,"connected_time":11109000000000,"state":"active","ping":30},{"user_id":339,"name":"PainInTheRuss","steam_id":76561197977960543,"connected_time":659000000000,"state":"active","ping":59},{"user_id":341,"name":"johnman gooberguy","steam_id":76561199014859764,"connected_time":469000000000,"state":"active","ping":79},{"user_id":333,"name":"EpicTommyGun","steam_id":76561198301497385,"connected_time":1525000000000,"state":"active","ping":132},{"user_id":300,"name":"PsyKe","steam_id":76561198055486345,"connected_time":4255000000000,"state":"active","ping":88},{"user_id":323,"name":"dewey.","steam_id":76561198138325039,"connected_time":2543000000000,"state":"active","ping":135},{"user_id":336,"name":"Roon","steam_id":76561198381478636,"connected_time":842000000000,"state":"active","ping":88},{"user_id":317,"name":"wiwu","steam_id":76561198180189799,"connected_time":3211000000000,"state":"active","ping":43},{"user_id":273,"name":"The King of Piss World","steam_id":76561198082806956,"connected_time":8204000000000,"state":"active","ping":152},{"user_id":322,"name":"Otis the Winter Dog","steam_id":76561198023301866,"connected_time":2682000000000,"state":"active","ping":93},{"user_id":324,"name":"Atomic_Rooster","steam_id":76561197992862398,"connected_time":2305000000000,"state":"active","ping":71},{"user_id":342,"name":"S Q U I S H E  T H A T  C A T","steam_id":76561198293865429,"connected_time":275000000000,"state":"active","ping":32},{"user_id":246,"name":"mub","steam_id":76561197961943948,"connected_time":10560000000000,"state":"active","ping":48},{"user_id":319,"name":"Inflight","steam_id":76561198920049475,"connected_time":2842000000000,"state":"active","ping":114},{"user_id":277,"name":"dougrocks421","steam_id":76561198165063918,"connected_time":7654000000000,"state":"active","ping":35},{"user_id":304,"name":"STAROID","steam_id":76561198069740897,"connected_time":3937000000000,"state":"active","ping":86},{"user_id":337,"name":"BLU Orbama","steam_id":76561198047002366,"connected_time":807000000000,"state":"active","ping":45},{"user_id":305,"name":"General Fisticuffs","steam_id":76561198255721392,"connected_time":3890000000000,"state":"active","ping":131},{"user_id":340,"name":"father esteban","steam_id":76561197989058876,"connected_time":612000000000,"state":"active","ping":89},{"user_id":338,"name":"Integral","steam_id":76561198158225481,"connected_time":805000000000,"state":"active","ping":84}]},{"server_id":406,"name":"Uncletopia | Seattle | 3 | Stopwatch","name_short":"sea-3","host":"sea-1.us.uncletopia.com","port":27035,"enabled":true,"region":"us-west","cc":"us","latitude":47.608013,"longitude":-122.33517,"reserved":0,"last_update":"0001-01-01T00:00:00Z","name_a2s":"Uncletopia | Seattle | 3 | Stopwatch","protocol":17,"map":"workshop/koth_ashville_final.ugc2130459942","folder":"tf","game":"Team Fortress","app_id":440,"player_count":0,"max_players":24,"Bots":0,"server_type":"Dedicated","server_os":"Linux","password":true,"vac":true,"version":"7961495","steam_id":85568392924515217,"keywords":["cp","nocrits","nodmgspread","uncletopia"],"game_id":440,"stv_port":27036,"stv_name":"Uncletopia | Seattle | 3 | Stopwatch | STV","players":null},{"server_id":17,"name":"Uncletopia | San Francisco | 1 | All Maps","name_short":"sfo-1","host":"sfo-1.us.uncletopia.com","port":27015,"enabled":true,"region":"us-west","cc":"us","latitude":37.77397,"longitude":-122.4313,"reserved":0,"last_update":"0001-01-01T00:00:00Z","name_a2s":"Uncletopia | San Francisco | 1 | All Maps","protocol":17,"map":"pl_badwater","folder":"tf","game":"Team Fortress","app_id":440,"player_count":21,"max_players":24,"Bots":0,"server_type":"Dedicated","server_os":"Linux","password":true,"vac":true,"version":"7961495","steam_id":85568392924469999,"keywords":["nocrits","nodmgspread","payload","uncletopia"],"game_id":440,"stv_port":27016,"stv_name":"Uncletopia | San Francisco | 1 | All Maps | STV","players":[{"user_id":333,"name":"Meekz","steam_id":76561198012562373,"connected_time":2889000000000,"state":"active","ping":58},{"user_id":357,"name":"SanitysEdge","steam_id":76561198130732813,"connected_time":838000000000,"state":"active","ping":47},{"user_id":350,"name":"A_BOMB_007","steam_id":76561198121384944,"connected_time":980000000000,"state":"active","ping":62},{"user_id":365,"name":"level 7 firemancer","steam_id":76561198209571677,"connected_time":119000000000,"state":"active","ping":98},{"user_id":354,"name":"merlin","steam_id":76561198334511480,"connected_time":874000000000,"state":"active","ping":76},{"user_id":355,"name":"O","steam_id":76561198450073779,"connected_time":871000000000,"state":"active","ping":137},{"user_id":309,"name":"Higuma","steam_id":76561198375229012,"connected_time":4996000000000,"state":"active","ping":57},{"user_id":366,"name":"Weed Dealer","steam_id":76561198418604400,"connected_time":17000000000,"state":"active","ping":65},{"user_id":362,"name":"Infinite_Time","steam_id":76561198298699368,"connected_time":350000000000,"state":"active","ping":54},{"user_id":258,"name":"paypur -rng","steam_id":76561198214370515,"connected_time":8577000000000,"state":"active","ping":112},{"user_id":364,"name":"hardfork","steam_id":76561197960958019,"connected_time":322000000000,"state":"active","ping":60},{"user_id":337,"name":"Lumberjane37 (She/Her)","steam_id":76561198014841793,"connected_time":2267000000000,"state":"active","ping":66},{"user_id":320,"name":"Clorox Chugger 69","steam_id":76561198049508548,"connected_time":4531000000000,"state":"active","ping":69},{"user_id":344,"name":"Soda","steam_id":76561198219209367,"connected_time":1546000000000,"state":"active","ping":51},{"user_id":367,"name":"A UsedNom","steam_id":76561198402832756,"connected_time":15000000000,"state":"active","ping":38},{"user_id":339,"name":"welder mask","steam_id":76561198207881077,"connected_time":2121000000000,"state":"active","ping":104},{"user_id":346,"name":"Final_MarioXD","steam_id":76561199184862419,"connected_time":1521000000000,"state":"active","ping":112},{"user_id":334,"name":"The Smell of Jazz","steam_id":76561198005860388,"connected_time":2813000000000,"state":"active","ping":55},{"user_id":356,"name":"Creature","steam_id":76561198194585781,"connected_time":850000000000,"state":"active","ping":59},{"user_id":351,"name":"b","steam_id":76561198156336213,"connected_time":950000000000,"state":"active","ping":45},{"user_id":360,"name":"Very_Dyslexic","steam_id":76561198255310705,"connected_time":708000000000,"state":"active","ping":63}]},{"server_id":18,"name":"Uncletopia | San Francisco | 2 | All Maps","name_short":"sfo-2","host":"sfo-1.us.uncletopia.com","port":27025,"enabled":true,"region":"us-west","cc":"us","latitude":37.77397,"longitude":-122.4313,"reserved":0,"last_update":"0001-01-01T00:00:00Z","name_a2s":"Uncletopia | San Francisco | 2 | All Maps","protocol":17,"map":"pl_thundermountain","folder":"tf","game":"Team Fortress","app_id":440,"player_count":23,"max_players":24,"Bots":0,"server_type":"Dedicated","server_os":"Linux","password":true,"vac":true,"version":"7961495","steam_id":85568392924470000,"keywords":["nocrits","nodmgspread","payload","uncletopia"],"game_id":440,"stv_port":27026,"stv_name":"Uncletopia | San Francisco | 2 | All Maps | STV","players":[{"user_id":532,"name":"ratthew","steam_id":76561198418172095,"connected_time":7823000000000,"state":"active","ping":83},{"user_id":624,"name":"Swag6","steam_id":76561198064110837,"connected_time":849000000000,"state":"active","ping":46},{"user_id":602,"name":"Im Groot","steam_id":76561198294943420,"connected_time":3385000000000,"state":"active","ping":84},{"user_id":560,"name":"Fgtfv567","steam_id":76561198071022525,"connected_time":6770000000000,"state":"active","ping":44},{"user_id":625,"name":"Ahzain","steam_id":76561198035894333,"connected_time":661000000000,"state":"active","ping":98},{"user_id":580,"name":"Tesman James","steam_id":76561199093793428,"connected_time":4845000000000,"state":"active","ping":108},{"user_id":615,"name":"(0.0)","steam_id":76561198217747041,"connected_time":1988000000000,"state":"active","ping":53},{"user_id":603,"name":"eBay","steam_id":76561198061214569,"connected_time":3379000000000,"state":"active","ping":83},{"user_id":617,"name":"hypeoftim","steam_id":76561199195639694,"connected_time":1324000000000,"state":"active","ping":75},{"user_id":618,"name":"Igrium","steam_id":76561198119549811,"connected_time":1317000000000,"state":"active","ping":57},{"user_id":484,"name":"Swag5","steam_id":76561198065311356,"connected_time":11862000000000,"state":"active","ping":45},{"user_id":620,"name":"Kawi","steam_id":76561198099696751,"connected_time":1231000000000,"state":"active","ping":75},{"user_id":586,"name":"Drive-By-Fish-Guy","steam_id":76561198105513652,"connected_time":4612000000000,"state":"active","ping":65},{"user_id":626,"name":"Imabox","steam_id":76561199206177858,"connected_time":95000000000,"state":"active","ping":65},{"user_id":623,"name":"Dooper","steam_id":76561198154514320,"connected_time":910000000000,"state":"active","ping":70},{"user_id":540,"name":"Blanke","steam_id":76561198064100364,"connected_time":7635000000000,"state":"active","ping":105},{"user_id":612,"name":"guy who stares at GOOD players","steam_id":76561198065662025,"connected_time":2248000000000,"state":"active","ping":52},{"user_id":621,"name":"Optimore","steam_id":76561198047662990,"connected_time":1217000000000,"state":"active","ping":47},{"user_id":627,"name":"warren","steam_id":76561198136331136,"connected_time":78000000000,"state":"active","ping":110},{"user_id":600,"name":"WillieMakit","steam_id":76561197985391684,"connected_time":3415000000000,"state":"active","ping":75},{"user_id":610,"name":"Karg","steam_id":76561198091387866,"connected_time":2374000000000,"state":"active","ping":61},{"user_id":629,"name":"meat","steam_id":76561198209153291,"connected_time":38000000000,"state":"spawning","ping":97},{"user_id":630,"name":"Natsuki the Scunt","steam_id":76561199175922684,"connected_time":30000000000,"state":"active","ping":105}]},{"server_id":19,"name":"Uncletopia | San Francisco | 3 | Stopwatch","name_short":"sfo-3","host":"sfo-1.us.uncletopia.com","port":27035,"enabled":true,"region":"us-west","cc":"us","latitude":37.77397,"longitude":-122.4313,"reserved":0,"last_update":"0001-01-01T00:00:00Z","name_a2s":"Uncletopia | San Francisco | 3 | Stopwatch","protocol":17,"map":"workshop/pl_barnblitz_pro7.ugc582280235","folder":"tf","game":"Team Fortress","app_id":440,"player_count":1,"max_players":24,"Bots":0,"server_type":"Dedicated","server_os":"Linux","password":true,"vac":true,"version":"7961495","steam_id":85568392924742824,"keywords":["nocrits","nodmgspread","payload","uncletopia"],"game_id":440,"stv_port":27036,"stv_name":"Uncletopia | San Francisco | 3 | Stopwatch | STV","players":[{"user_id":5,"name":"Sad Tony","steam_id":76561198053849851,"connected_time":231000000000,"state":"active","ping":41}]},{"server_id":20,"name":"Uncletopia | San Francisco | 4 | Community","name_short":"sfo-4","host":"sfo-1.us.uncletopia.com","port":27045,"enabled":true,"region":"us-west","cc":"us","latitude":37.77397,"longitude":-122.4313,"reserved":0,"last_update":"0001-01-01T00:00:00Z","name_a2s":"Uncletopia | San Francisco | 4 | Community","protocol":17,"map":"workshop/cp_logjam_rc12.ugc454812035","folder":"tf","game":"Team Fortress","app_id":440,"player_count":0,"max_players":24,"Bots":0,"server_type":"Dedicated","server_os":"Linux","password":true,"vac":true,"version":"7961495","steam_id":85568392924742826,"keywords":["cp","nocrits","nodmgspread","uncletopia"],"game_id":440,"stv_port":27046,"stv_name":"Uncletopia | San Francisco | 4 | Community | STV","players":null},{"server_id":141,"name":"Uncletopia | Sydney | 1 | All Maps","name_short":"syd-1","host":"syd-1.au.uncletopia.com","port":27015,"enabled":true,"region":"au","cc":"au","latitude":-33.865143,"longitude":151.2099,"reserved":0,"last_update":"0001-01-01T00:00:00Z","name_a2s":"Uncletopia | Sydney | 1 | All Maps","protocol":17,"map":"pl_frontier_final","folder":"tf","game":"Team Fortress","app_id":440,"player_count":24,"max_players":24,"Bots":0,"server_type":"Dedicated","server_os":"Linux","password":true,"vac":true,"version":"7961495","steam_id":85568392924470001,"keywords":["nocrits","nodmgspread","payload","uncletopia"],"game_id":440,"stv_port":27016,"stv_name":"Uncletopia | Sydney | 1 | All Maps | STV","players":[{"user_id":100,"name":"flayed corpse","steam_id":76561198048064049,"connected_time":2873000000000,"state":"active","ping":86},{"user_id":127,"name":"♥ ca7x3","steam_id":76561198181194862,"connected_time":201000000000,"state":"active","ping":64},{"user_id":102,"name":"horrid webbon ᘛ⁐̤ᕐᐷ","steam_id":76561198061998379,"connected_time":2800000000000,"state":"active","ping":48},{"user_id":78,"name":"Nutri-Grain Scream Team","steam_id":76561198000568803,"connected_time":4682000000000,"state":"active","ping":45},{"user_id":110,"name":"...","steam_id":76561198309750355,"connected_time":2028000000000,"state":"active","ping":57},{"user_id":83,"name":"lavanderpumpernickle(Del Davis)","steam_id":76561199093611800,"connected_time":4541000000000,"state":"active","ping":61},{"user_id":103,"name":"Saturn-Based Hooliganism","steam_id":76561198072845816,"connected_time":2720000000000,"state":"active","ping":57},{"user_id":92,"name":"horblongmoid splorgoingus","steam_id":76561198063481761,"connected_time":3890000000000,"state":"active","ping":44},{"user_id":41,"name":"make like a tree and Keith","steam_id":76561198301282416,"connected_time":7385000000000,"state":"active","ping":54},{"user_id":108,"name":"Calsaintski","steam_id":76561199081848498,"connected_time":2159000000000,"state":"active","ping":64},{"user_id":121,"name":"Bigrichard","steam_id":76561198032092945,"connected_time":1079000000000,"state":"active","ping":80},{"user_id":118,"name":"SIRROM12 (SIRR)","steam_id":76561198116738329,"connected_time":1331000000000,"state":"active","ping":70},{"user_id":90,"name":"Tiblyat","steam_id":76561198093077688,"connected_time":4024000000000,"state":"active","ping":71},{"user_id":124,"name":"krandlez` (Any/All)","steam_id":76561198044839726,"connected_time":523000000000,"state":"active","ping":42},{"user_id":117,"name":"Selling Anti-Matter for $543","steam_id":76561198070708382,"connected_time":1414000000000,"state":"active","ping":45},{"user_id":122,"name":"TimTam","steam_id":76561198158862578,"connected_time":958000000000,"state":"active","ping":69},{"user_id":61,"name":"alqwnq","steam_id":76561198133867907,"connected_time":5783000000000,"state":"active","ping":66},{"user_id":109,"name":"zise","steam_id":76561198079210881,"connected_time":2052000000000,"state":"active","ping":57},{"user_id":123,"name":"Phibs","steam_id":76561199323730865,"connected_time":688000000000,"state":"active","ping":43},{"user_id":68,"name":"buggybones jones","steam_id":76561198025099660,"connected_time":5246000000000,"state":"active","ping":41},{"user_id":106,"name":"cosmic girl","steam_id":76561198151087184,"connected_time":2370000000000,"state":"active","ping":45},{"user_id":128,"name":"Frank","steam_id":76561198142635376,"connected_time":201000000000,"state":"active","ping":48},{"user_id":101,"name":"JP","steam_id":76561198026221737,"connected_time":2816000000000,"state":"active","ping":60},{"user_id":120,"name":"Jeshī","steam_id":76561198105982416,"connected_time":1142000000000,"state":"active","ping":53}]},{"server_id":123,"name":"Uncletopia | Sydney | 2 | All Maps","name_short":"syd-2","host":"syd-1.au.uncletopia.com","port":27025,"enabled":true,"region":"au","cc":"au","latitude":-33.865143,"longitude":151.2099,"reserved":0,"last_update":"0001-01-01T00:00:00Z","name_a2s":"Uncletopia | Sydney | 2 | All Maps","protocol":17,"map":"koth_lakeside_final","folder":"tf","game":"Team Fortress","app_id":440,"player_count":0,"max_players":24,"Bots":0,"server_type":"Dedicated","server_os":"Linux","password":true,"vac":true,"version":"7961495","steam_id":85568392924470002,"keywords":["cp","nocrits","nodmgspread","uncletopia"],"game_id":440,"stv_port":27026,"stv_name":"Uncletopia | Sydney | 2 | All Maps | STV","players":null},{"server_id":395,"name":"Uncletopia | Sydney | 3 | All Maps","name_short":"syd-3","host":"syd-1.au.uncletopia.com","port":27035,"enabled":true,"region":"au","cc":"au","latitude":-33.865143,"longitude":151.2099,"reserved":0,"last_update":"0001-01-01T00:00:00Z","name_a2s":"Uncletopia | Sydney | 3 | All Maps","protocol":17,"map":"koth_lakeside_final","folder":"tf","game":"Team Fortress","app_id":440,"player_count":0,"max_players":24,"Bots":0,"server_type":"Dedicated","server_os":"Linux","password":true,"vac":true,"version":"7961495","steam_id":85568392925194467,"keywords":["cp","nocrits","nodmgspread","uncletopia"],"game_id":440,"stv_port":27036,"stv_name":"Uncletopia | Sydney | 3 | All Maps | STV","players":null},{"server_id":396,"name":"Uncletopia | Sydney | 4 | All Maps","name_short":"syd-4","host":"syd-1.au.uncletopia.com","port":27045,"enabled":true,"region":"au","cc":"au","latitude":-33.865143,"longitude":151.2099,"reserved":0,"last_update":"0001-01-01T00:00:00Z","name_a2s":"Uncletopia | Sydney | 4 | All Maps","protocol":17,"map":"koth_lakeside_final","folder":"tf","game":"Team Fortress","app_id":440,"player_count":0,"max_players":24,"Bots":0,"server_type":"Dedicated","server_os":"Linux","password":true,"vac":true,"version":"7961495","steam_id":85568392925397958,"keywords":["cp","nocrits","nodmgspread","uncletopia"],"game_id":440,"stv_port":27046,"stv_name":"Uncletopia | Sydney | 4 | All Maps | STV","players":null},{"server_id":58,"name":"Uncletopia | Sydney | 5 | Stopwatch","name_short":"syd-5","host":"syd-1.au.uncletopia.com","port":27055,"enabled":true,"region":"au","cc":"au","latitude":-33.865143,"longitude":151.2099,"reserved":0,"last_update":"0001-01-01T00:00:00Z","name_a2s":"Uncletopia | Sydney | 5 | Stopwatch","protocol":17,"map":"workshop/koth_ramjam_rc1.ugc459778887","folder":"tf","game":"Team Fortress","app_id":440,"player_count":0,"max_players":24,"Bots":0,"server_type":"Dedicated","server_os":"Linux","password":true,"vac":true,"version":"7961495","steam_id":85568392925397959,"keywords":["cp","nocrits","nodmgspread","uncletopia"],"game_id":440,"stv_port":27056,"stv_name":"Uncletopia | Sydney | 5 | Stopwatch | STV","players":null},{"server_id":59,"name":"Uncletopia | Sydney | 6 | Community","name_short":"syd-6","host":"syd-1.au.uncletopia.com","port":27065,"enabled":true,"region":"au","cc":"au","latitude":-33.865143,"longitude":151.2099,"reserved":0,"last_update":"0001-01-01T00:00:00Z","name_a2s":"Uncletopia | Sydney | 6 | Community","protocol":17,"map":"workshop/rd_asteroid_redux_b1.ugc2154902912","folder":"tf","game":"Team Fortress","app_id":440,"player_count":0,"max_players":24,"Bots":0,"server_type":"Dedicated","server_os":"Linux","password":true,"vac":true,"version":"7961495","steam_id":85568392925397960,"keywords":["beta","nocrits","nodmgspread","rd","uncletopia"],"game_id":440,"stv_port":27066,"stv_name":"Uncletopia | Sydney | 6 | Community | STV","players":null},{"server_id":49,"name":"Uncletopia | Warsaw | 1 | All Maps","name_short":"waw-1","host":"waw-1.pl.uncletopia.com","port":27015,"enabled":true,"region":"eu","cc":"pl","latitude":52.2297,"longitude":21.017532,"reserved":0,"last_update":"0001-01-01T00:00:00Z","name_a2s":"Uncletopia | Warsaw | 1 | All Maps","protocol":17,"map":"koth_lakeside_final","folder":"tf","game":"Team Fortress","app_id":440,"player_count":0,"max_players":24,"Bots":0,"server_type":"Dedicated","server_os":"Linux","password":true,"vac":true,"version":"7961495","steam_id":85568392925397850,"keywords":["cp","nocrits","nodmgspread","uncletopia"],"game_id":440,"stv_port":27016,"stv_name":"Uncletopia | Warsaw | 1 | All Maps | STV","players":null},{"server_id":50,"name":"Uncletopia | Warsaw | 2 | All Maps","name_short":"waw-2","host":"waw-1.pl.uncletopia.com","port":27025,"enabled":true,"region":"eu","cc":"pl","latitude":52.2297,"longitude":21.017532,"reserved":0,"last_update":"0001-01-01T00:00:00Z","name_a2s":"Uncletopia | Warsaw | 2 | All Maps","protocol":17,"map":"pl_borneo","folder":"tf","game":"Team Fortress","app_id":440,"player_count":0,"max_players":24,"Bots":0,"server_type":"Dedicated","server_os":"Linux","password":true,"vac":true,"version":"7961495","steam_id":85568392925397851,"keywords":["nocrits","nodmgspread","payload","uncletopia"],"game_id":440,"stv_port":27026,"stv_name":"Uncletopia | Warsaw | 2 | All Maps | STV","players":null},{"server_id":51,"name":"Uncletopia | Warsaw | 3 | All Maps","name_short":"waw-3","host":"waw-1.pl.uncletopia.com","port":27035,"enabled":true,"region":"eu","cc":"pl","latitude":52.2297,"longitude":21.017532,"reserved":0,"last_update":"0001-01-01T00:00:00Z","name_a2s":"Uncletopia | Warsaw | 3 | All Maps","protocol":17,"map":"pl_barnblitz","folder":"tf","game":"Team Fortress","app_id":440,"player_count":0,"max_players":24,"Bots":0,"server_type":"Dedicated","server_os":"Linux","password":true,"vac":true,"version":"7961495","steam_id":85568392925397852,"keywords":["nocrits","nodmgspread","payload","uncletopia"],"game_id":440,"stv_port":27036,"stv_name":"Uncletopia | Warsaw | 3 | All Maps | STV","players":null},{"server_id":52,"name":"Uncletopia | Warsaw | 4 | All Maps","name_short":"waw-4","host":"waw-1.pl.uncletopia.com","port":27045,"enabled":true,"region":"eu","cc":"pl","latitude":52.2297,"longitude":21.017532,"reserved":0,"last_update":"0001-01-01T00:00:00Z","name_a2s":"Uncletopia | Warsaw | 4 | All Maps","protocol":17,"map":"pl_borneo","folder":"tf","game":"Team Fortress","app_id":440,"player_count":0,"max_players":24,"Bots":0,"server_type":"Dedicated","server_os":"Linux","password":true,"vac":true,"version":"7961495","steam_id":85568392925397853,"keywords":["nocrits","nodmgspread","payload","uncletopia"],"game_id":440,"stv_port":27046,"stv_name":"Uncletopia | Warsaw | 4 | All Maps | STV","players":null},{"server_id":53,"name":"Uncletopia | Warsaw | 5 | Stopwatch","name_short":"waw-5","host":"waw-1.pl.uncletopia.com","port":27055,"enabled":true,"region":"eu","cc":"pl","latitude":52.2297,"longitude":21.017532,"reserved":0,"last_update":"0001-01-01T00:00:00Z","name_a2s":"Uncletopia | Warsaw | 5 | Stopwatch","protocol":17,"map":"pl_barnblitz","folder":"tf","game":"Team Fortress","app_id":440,"player_count":0,"max_players":24,"Bots":0,"server_type":"Dedicated","server_os":"Linux","password":true,"vac":true,"version":"7961495","steam_id":85568392925397854,"keywords":["nocrits","nodmgspread","payload","uncletopia"],"game_id":440,"stv_port":27056,"stv_name":"Uncletopia | Warsaw | 5 | Stopwatch | STV","players":null},{"server_id":54,"name":"Uncletopia | Warsaw | 6 | Community","name_short":"waw-6","host":"waw-1.pl.uncletopia.com","port":27065,"enabled":true,"region":"eu","cc":"pl","latitude":52.2297,"longitude":21.017532,"reserved":0,"last_update":"0001-01-01T00:00:00Z","name_a2s":"Uncletopia | Warsaw | 6 | Community","protocol":17,"map":"cp_altitude","folder":"tf","game":"Team Fortress","app_id":440,"player_count":0,"max_players":24,"Bots":0,"server_type":"Dedicated","server_os":"Linux","password":true,"vac":true,"version":"7961495","steam_id":85568392925397856,"keywords":["cp","nocrits","nodmgspread","uncletopia"],"game_id":440,"stv_port":27066,"stv_name":"Uncletopia | Warsaw | 6 | Community | STV","players":null}]}