{"status":true,"message":"","result":[{"server_id":9,"name":"Uncletopia | Atlanta | 1 | All Maps","name_short":"atl-1","host":"atl-1.us.uncletopia.com","port":27015,"enabled":true,"region":"us-east","cc":"us","latitude":33.753746,"longitude":-84.38633,"reserved":0,"last_update":"0001-01-01T00:00:00Z","name_a2s":"Uncletopia | Atlanta | 1 | All Maps","protocol":17,"map":"pl_borneo","folder":"tf","game":"Team Fortress","app_id":440,"player_count":7,"max_players":24,"Bots":0,"server_type":"Dedicated","server_os":"Linux","password":true,"vac":true,"version":"7932396","steam_id":85568392924469982,"keywords":["nocrits","nodmgspread","payload","uncletopia"],"game_id":440,"stv_port":27016,"stv_name":"Uncletopia | Atlanta | 1 | All Maps | STV","players":[{"user_id":696,"name":"AssortedMeats","steam_id":76561198133097313,"connected_time":1059000000000,"state":"active","ping":100},{"user_id":697,"name":"EpicGamer48484","steam_id":76561199230935031,"connected_time":607000000000,"state":"active","ping":77},{"user_id":665,"name":"Kracken","steam_id":76561198843862421,"connected_time":2851000000000,"state":"active","ping":85},{"user_id":699,"name":"Peka","steam_id":76561198998694574,"connected_time":310000000000,"state":"active","ping":256},{"user_id":689,"name":"shadowarrior","steam_id":76561198231304076,"connected_time":1542000000000,"state":"active","ping":80},{"user_id":662,"name":"Soupman_Official","steam_id":76561198314308732,"connected_time":3087000000000,"state":"active","ping":80},{"user_id":575,"name":"LProduct","steam_id":76561199442139670,"connected_time":5654000000000,"state":"active","ping":137}]},{"server_id":104,"name":"Uncletopia | Atlanta | 2 | All Maps","name_short":"atl-2","host":"atl-1.us.uncletopia.com","port":27025,"enabled":true,"region":"us-east","cc":"us","latitude":33.753746,"longitude":-84.38633,"reserved":0,"last_update":"0001-01-01T00:00:00Z","name_a2s":"Uncletopia | Atlanta | 2 | All Maps","protocol":17,"map":"cp_process_final","folder":"tf","game":"Team Fortress","app_id":440,"player_count":0,"max_players":24,"Bots":0,"server_type":"Dedicated","server_os":"Linux","password":true,"vac":true,"version":"7932396","steam_id":85568392924469983,"keywords":["cp","nocrits","nodmgspread","uncletopia"],"game_id":440,"stv_port":27026,"stv_name":"Uncletopia | Atlanta | 2 | All Maps | STV","players":null},{"server_id":400,"name":"Uncletopia | Atlanta | 3 | Community","name_short":"atl-3","host":"atl-1.us.uncletopia.com","port":27035,"enabled":true,"region":"us-east","cc":"us","latitude":33.753746,"longitude":-84.38633,"reserved":0,"last_update":"0001-01-01T00:00:00Z","name_a2s":"Uncletopia | Atlanta | 3 | Community","protocol":17,"map":"workshop/pl_cashworks_final1.ugc2904065412","folder":"tf","game":"Team Fortress","app_id":440,"player_count":0,"max_players":24,"Bots":0,"server_type":"Dedicated","server_os":"Linux","password":true,"vac":true,"version":"7932396","steam_id":85568392924515187,"keywords":["nocrits","nodmgspread","payload","uncletopia"],"game_id":440,"stv_port":27036,"stv_name":"Uncletopia | Atlanta | 3 | Community | STV","players":null},{"server_id":401,"name":"Uncletopia | Atlanta | 4 | No Payload","name_short":"atl-4","host":"atl-1.us.uncletopia.com","port":27045,"enabled":true,"region":"us-east","cc":"us","latitude":33.753746,"longitude":-84.38633,"reserved":0,"last_update":"0001-01-01T00:00:00Z","name_a2s":"","protocol":0,"map":"","folder":"","game":"","app_id":0,"player_count":0,"max_players":0,"Bots":0,"server_type":"","server_os":"","password":false,"vac":false,"version":"","steam_id":0,"keywords":null,"game_id":0,"stv_port":0,"stv_name":"","players":null},{"server_id":2,"name":"Uncletopia | Chicago | 1 | All Maps","name_short":"chi-1","host":"chi-1.us.uncletopia.com","port":27015,"enabled":true,"region":"us-central","cc":"us","latitude":41.881832,"longitude":-87.62318,"reserved":0,"last_update":"0001-01-01T00:00:00Z","name_a2s":"Uncletopia | Chicago | 1 | All Maps","protocol":17,"map":"pl_badwater","folder":"tf","game":"Team Fortress","app_id":440,"player_count":24,"max_players":24,"Bots":0,"server_type":"Dedicated","server_os":"Linux","password":true,"vac":true,"version":"7932396","steam_id":85568392924469984,"keywords":["nocrits","nodmgspread","payload","uncletopia"],"game_id":440,"stv_port":27016,"stv_name":"Uncletopia | Chicago | 1 | All Maps | STV","players":[{"user_id":435,"name":"Birb","steam_id":76561198041046100,"connected_time":1005000000000,"state":"active","ping":86},{"user_id":444,"name":"yavin IV","steam_id":76561198061135335,"connected_time":824000000000,"state":"active","ping":62},{"user_id":436,"name":"Moonkey","steam_id":76561199013741389,"connected_time":986000000000,"state":"active","ping":56},{"user_id":441,"name":"Snowshoe","steam_id":76561198037744635,"connected_time":857000000000,"state":"active","ping":84},{"user_id":447,"name":"Spaghetti","steam_id":76561199133082806,"connected_time":669000000000,"state":"active","ping":108},{"user_id":373,"name":"Doctor Emerald(real)","steam_id":76561199123003872,"connected_time":7055000000000,"state":"active","ping":98},{"user_id":402,"name":"VidzCMC","steam_id":76561198848142973,"connected_time":3359000000000,"state":"active","ping":50},{"user_id":409,"name":"smoking on bhutanese shadow pac","steam_id":76561198095313463,"connected_time":2852000000000,"state":"active","ping":76},{"user_id":449,"name":"Manlymedic45","steam_id":76561199379376478,"connected_time":322000000000,"state":"active","ping":87},{"user_id":445,"name":"Epifiny","steam_id":76561198027958086,"connected_time":822000000000,"state":"active","ping":72},{"user_id":433,"name":"loser","steam_id":76561198259380127,"connected_time":1115000000000,"state":"active","ping":60},{"user_id":450,"name":"eish","steam_id":76561198089463603,"connected_time":319000000000,"state":"active","ping":131},{"user_id":413,"name":"mikegilkey2","steam_id":76561198118561757,"connected_time":2720000000000,"state":"active","ping":96},{"user_id":451,"name":"Pneumo.","steam_id":76561197987911883,"connected_time":291000000000,"state":"active","ping":134},{"user_id":366,"name":"Obelix","steam_id":76561198274715109,"connected_time":7353000000000,"state":"active","ping":59},{"user_id":452,"name":"jellycave","steam_id":76561198089824111,"connected_time":290000000000,"state":"active","ping":97},{"user_id":424,"name":"DinoGoof","steam_id":76561198998427283,"connected_time":1926000000000,"state":"active","ping":73},{"user_id":386,"name":"DarkHero","steam_id":76561198197125710,"connected_time":5226000000000,"state":"active","ping":68},{"user_id":455,"name":"come to butthead","steam_id":76561198020322241,"connected_time":1000000000,"state":"spawning","ping":51},{"user_id":448,"name":"ChozoChorizo","steam_id":76561198272609196,"connected_time":666000000000,"state":"active","ping":61},{"user_id":454,"name":"Kero","steam_id":76561198343231436,"connected_time":153000000000,"state":"active","ping":62},{"user_id":434,"name":"IRS Spec Ops","steam_id":76561198129148160,"connected_time":1046000000000,"state":"active","ping":70},{"user_id":417,"name":"we're so back","steam_id":76561198058485742,"connected_time":2649000000000,"state":"active","ping":67},{"user_id":430,"name":"Skinny pete","steam_id":76561198801608576,"connected_time":1769000000000,"state":"active","ping":76}]},{"server_id":106,"name":"Uncletopia | Chicago | 2 | All Maps","name_short":"chi-2","host":"chi-1.us.uncletopia.com","port":27025,"enabled":true,"region":"us-central","cc":"us","latitude":41.881832,"longitude":-87.62318,"reserved":0,"last_update":"0001-01-01T00:00:00Z","name_a2s":"Uncletopia | Chicago | 2 | All Maps","protocol":17,"map":"pl_barnblitz","folder":"tf","game":"Team Fortress","app_id":440,"player_count":24,"max_players":24,"Bots":0,"server_type":"Dedicated","server_os":"Linux","password":true,"vac":true,"version":"7932396","steam_id":85568392924469985,"keywords":["nocrits","nodmgspread","payload","uncletopia"],"game_id":440,"stv_port":27026,"stv_name":"Uncletopia | Chicago | 2 | All Maps | STV","players":[{"user_id":396,"name":"Soju","steam_id":76561198044130442,"connected_time":4664000000000,"state":"active","ping":77},{"user_id":459,"name":"frank","steam_id":76561198137777483,"connected_time":299000000000,"state":"active","ping":68},{"user_id":350,"name":"Grand","steam_id":76561198290143399,"connected_time":9333000000000,"state":"active","ping":63},{"user_id":456,"name":"MyTeamIsAzz","steam_id":76561198241921220,"connected_time":743000000000,"state":"active","ping":95},{"user_id":445,"name":"aleksei","steam_id":76561199061380038,"connected_time":1082000000000,"state":"active","ping":74},{"user_id":443,"name":"BroBama","steam_id":76561198203732587,"connected_time":1852000000000,"state":"active","ping":76},{"user_id":458,"name":"god's drunkest driver","steam_id":76561198069407799,"connected_time":441000000000,"state":"active","ping":75},{"user_id":394,"name":"Bodhi","steam_id":76561198103230995,"connected_time":4848000000000,"state":"active","ping":84},{"user_id":439,"name":"Jelqing Table","steam_id":76561198051373750,"connected_time":1971000000000,"state":"active","ping":72},{"user_id":422,"name":"Sophie","steam_id":76561198170408057,"connected_time":3242000000000,"state":"active","ping":60},{"user_id":452,"name":"slowdance","steam_id":76561198097427947,"connected_time":864000000000,"state":"active","ping":145},{"user_id":437,"name":"Alecto","steam_id":76561198042476864,"connected_time":2143000000000,"state":"active","ping":51},{"user_id":447,"name":"FaZe N word","steam_id":76561199079213911,"connected_time":1001000000000,"state":"active","ping":104},{"user_id":448,"name":"Frogninja","steam_id":76561198051418374,"connected_time":994000000000,"state":"active","ping":100},{"user_id":453,"name":"storyboard","steam_id":76561199088496817,"connected_time":820000000000,"state":"active","ping":88},{"user_id":454,"name":"zacharylynch0","steam_id":76561198328295107,"connected_time":793000000000,"state":"active","ping":89},{"user_id":427,"name":"Box{Fear is for the weak}","steam_id":76561198259097323,"connected_time":3186000000000,"state":"active","ping":71},{"user_id":358,"name":"Dot.","steam_id":76561198149463984,"connected_time":8615000000000,"state":"active","ping":48},{"user_id":424,"name":"0","steam_id":76561198046055673,"connected_time":3234000000000,"state":"active","ping":75},{"user_id":455,"name":"The Horselords and Animal Gods","steam_id":76561197975094050,"connected_time":791000000000,"state":"active","ping":109},{"user_id":429,"name":"msay","steam_id":76561198170888029,"connected_time":3155000000000,"state":"active","ping":98},{"user_id":377,"name":"DFR oak","steam_id":76561198092135570,"connected_time":7270000000000,"state":"active","ping":67},{"user_id":430,"name":"sophia","steam_id":76561197971448104,"connected_time":3154000000000,"state":"active","ping":68},{"user_id":348,"name":"Truffles","steam_id":76561198095868800,"connected_time":9509000000000,"state":"active","ping":85}]},{"server_id":402,"name":"Uncletopia | Chicago | 3 | All Maps","name_short":"chi-3","host":"chi-1.us.uncletopia.com","port":27035,"enabled":true,"region":"us-central","cc":"us","latitude":41.881832,"longitude":-87.62318,"reserved":0,"last_update":"0001-01-01T00:00:00Z","name_a2s":"Uncletopia | Chicago | 3 | All Maps","protocol":17,"map":"koth_highpass","folder":"tf","game":"Team Fortress","app_id":440,"player_count":24,"max_players":24,"Bots":0,"server_type":"Dedicated","server_os":"Linux","password":true,"vac":true,"version":"7932396","steam_id":85568392924515191,"keywords":["cp","nocrits","nodmgspread","uncletopia"],"game_id":440,"stv_port":27036,"stv_name":"Uncletopia | Chicago | 3 | All Maps | STV","players":[{"user_id":936,"name":"Horrizan","steam_id":76561197965028480,"connected_time":1060000000000,"state":"active","ping":74},{"user_id":925,"name":"Dinner","steam_id":76561198067294811,"connected_time":2328000000000,"state":"active","ping":62},{"user_id":909,"name":"Spike Bones","steam_id":76561198234926120,"connected_time":2618000000000,"state":"active","ping":95},{"user_id":937,"name":":3 beelthazus","steam_id":76561198127783432,"connected_time":938000000000,"state":"active","ping":73},{"user_id":938,"name":"RagingRoosevelt","steam_id":76561197985483153,"connected_time":911000000000,"state":"active","ping":101},{"user_id":881,"name":"Six Piece Chicken McNobody","steam_id":76561198129848222,"connected_time":4834000000000,"state":"active","ping":67},{"user_id":939,"name":"cliftoce","steam_id":76561197998912007,"connected_time":908000000000,"state":"active","ping":89},{"user_id":940,"name":"Major_Pippy","steam_id":76561198004482878,"connected_time":884000000000,"state":"active","ping":101},{"user_id":929,"name":"tripbwai","steam_id":76561198109904512,"connected_time":1458000000000,"state":"active","ping":52},{"user_id":933,"name":"StarManMatt","steam_id":76561198125513574,"connected_time":1161000000000,"state":"active","ping":92},{"user_id":935,"name":"Luh Gëeky","steam_id":76561198053621664,"connected_time":1077000000000,"state":"active","ping":55},{"user_id":942,"name":"HanakoToast","steam_id":76561198045233131,"connected_time":734000000000,"state":"active","ping":106},{"user_id":950,"name":"FilthyPog","steam_id":76561198420711412,"connected_time":47000000000,"state":"active","ping":87},{"user_id":932,"name":"FALRayne","steam_id":76561198113348816,"connected_time":1281000000000,"state":"active","ping":54},{"user_id":915,"name":"Zen56","steam_id":76561198074554894,"connected_time":2434000000000,"state":"active","ping":88},{"user_id":944,"name":"-BRH- Tangled up in Bluegrass","steam_id":76561197987181139,"connected_time":695000000000,"state":"active","ping":71},{"user_id":903,"name":"Senna","steam_id":76561198115830949,"connected_time":2923000000000,"state":"active","ping":87},{"user_id":948,"name":"t2","steam_id":76561198143214992,"connected_time":223000000000,"state":"active","ping":64},{"user_id":918,"name":"Kevbot","steam_id":76561198028055669,"connected_time":2402000000000,"state":"active","ping":68},{"user_id":945,"name":"FireQuiz","steam_id":76561198107357249,"connected_time":689000000000,"state":"active","ping":106},{"user_id":949,"name":"TF2C | fac -AA-","steam_id":76561198009818412,"connected_time":93000000000,"state":"active","ping":73},{"user_id":928,"name":"illious","steam_id":76561198169925494,"connected_time":2188000000000,"state":"active","ping":72},{"user_id":921,"name":"Agent Mania","steam_id":76561198029741272,"connected_time":2353000000000,"state":"active","ping":105},{"user_id":926,"name":"Ping","steam_id":76561198072947773,"connected_time":2322000000000,"state":"active","ping":59}]},{"server_id":403,"name":"Uncletopia | Chicago | 4 | All Maps","name_short":"chi-4","host":"chi-1.us.uncletopia.com","port":27045,"enabled":true,"region":"us-central","cc":"us","latitude":41.881832,"longitude":-87.62318,"reserved":0,"last_update":"0001-01-01T00:00:00Z","name_a2s":"Uncletopia | Chicago | 4 | All Maps","protocol":17,"map":"pl_borneo","folder":"tf","game":"Team Fortress","app_id":440,"player_count":24,"max_players":24,"Bots":0,"server_type":"Dedicated","server_os":"Linux","password":true,"vac":true,"version":"7932396","steam_id":85568392924515193,"keywords":["nocrits","nodmgspread","payload","uncletopia"],"game_id":440,"stv_port":27046,"stv_name":"Uncletopia | Chicago | 4 | All Maps | STV","players":[{"user_id":567,"name":"200VTEC","steam_id":76561198232617936,"connected_time":3607000000000,"state":"active","ping":59},{"user_id":574,"name":"Poe Wuppafoe","steam_id":76561198211674749,"connected_time":2867000000000,"state":"active","ping":72},{"user_id":507,"name":"l4d2 marshall","steam_id":76561198042570322,"connected_time":7018000000000,"state":"active","ping":59},{"user_id":538,"name":"DoomsdaySnail","steam_id":76561198131444200,"connected_time":5292000000000,"state":"active","ping":68},{"user_id":568,"name":"user00xman","steam_id":76561198037518646,"connected_time":3528000000000,"state":"active","ping":61},{"user_id":539,"name":"Zephyr","steam_id":76561198129785553,"connected_time":5283000000000,"state":"active","ping":67},{"user_id":600,"name":"STILLZ","steam_id":76561198131892406,"connected_time":179000000000,"state":"active","ping":82},{"user_id":581,"name":"Lumi","steam_id":76561198089978036,"connected_time":2028000000000,"state":"active","ping":70},{"user_id":440,"name":"Pizza","steam_id":76561198118748364,"connected_time":8178000000000,"state":"active","ping":75},{"user_id":588,"name":"anyakitten","steam_id":76561197994492154,"connected_time":1695000000000,"state":"active","ping":172},{"user_id":596,"name":"fuck","steam_id":76561198181043841,"connected_time":303000000000,"state":"active","ping":53},{"user_id":525,"name":"Makina","steam_id":76561198057475567,"connected_time":6595000000000,"state":"active","ping":69},{"user_id":597,"name":"jimmy dean 2","steam_id":76561198354077256,"connected_time":239000000000,"state":"active","ping":45},{"user_id":595,"name":"shrub","steam_id":76561198108020681,"connected_time":825000000000,"state":"active","ping":53},{"user_id":477,"name":"Kng","steam_id":76561198993248203,"connected_time":7335000000000,"state":"active","ping":78},{"user_id":543,"name":"Danmar33","steam_id":76561198056453091,"connected_time":5198000000000,"state":"active","ping":45},{"user_id":598,"name":"dog","steam_id":76561198309211974,"connected_time":229000000000,"state":"active","ping":67},{"user_id":591,"name":"NAHIDA","steam_id":76561198349648942,"connected_time":1030000000000,"state":"active","ping":165},{"user_id":557,"name":"Meme Foreskin II","steam_id":76561198028157625,"connected_time":4086000000000,"state":"active","ping":90},{"user_id":572,"name":"rawgust","steam_id":76561198004523887,"connected_time":3192000000000,"state":"active","ping":118},{"user_id":576,"name":"richarven","steam_id":76561198189429665,"connected_time":2808000000000,"state":"active","ping":74},{"user_id":563,"name":"6t26j","steam_id":76561198278282836,"connected_time":3849000000000,"state":"active","ping":58},{"user_id":564,"name":"lxzvrdwxzvrd","steam_id":76561198111975583,"connected_time":3845000000000,"state":"active","ping":79},{"user_id":603,"name":"purpla","steam_id":76561198119549161,"connected_time":64000000000,"state":"active","ping":78}]},{"server_id":36,"name":"Uncletopia | Chicago | 5 | All Maps","name_short":"chi-5","host":"chi-2.us.uncletopia.com","port":27015,"enabled":true,"region":"us-central","cc":"us","latitude":41.881832,"longitude":-87.62318,"reserved":0,"last_update":"0001-01-01T00:00:00Z","name_a2s":"Uncletopia | Chicago | 5 | All Maps","protocol":17,"map":"pl_badwater","folder":"tf","game":"Team Fortress","app_id":440,"player_count":24,"max_players":24,"Bots":0,"server_type":"Dedicated","server_os":"Linux","password":true,"vac":true,"version":"7932396","steam_id":85568392924866362,"keywords":["nocrits","nodmgspread","payload","uncletopia"],"game_id":440,"stv_port":27016,"stv_name":"Uncletopia | Chicago | 5 | All Maps | STV","players":[{"user_id":512,"name":"basil","steam_id":76561198075758026,"connected_time":763000000000,"state":"active","ping":81},{"user_id":494,"name":"Zerg_Man","steam_id":76561199060404359,"connected_time":1870000000000,"state":"active","ping":88},{"user_id":506,"name":"gupotato pat","steam_id":76561198025489194,"connected_time":1181000000000,"state":"active","ping":80},{"user_id":501,"name":"n99k","steam_id":76561198203732449,"connected_time":1572000000000,"state":"active","ping":75},{"user_id":516,"name":"TheSnipersHat","steam_id":76561198057684066,"connected_time":451000000000,"state":"active","ping":56},{"user_id":526,"name":"meow","steam_id":76561198319992602,"connected_time":18000000000,"state":"active","ping":78},{"user_id":480,"name":"ShawnLmao","steam_id":76561198350691501,"connected_time":3307000000000,"state":"active","ping":84},{"user_id":519,"name":"ryqset","steam_id":76561198349299874,"connected_time":183000000000,"state":"active","ping":91},{"user_id":505,"name":"Fightin Cow","steam_id":76561198080941486,"connected_time":1306000000000,"state":"active","ping":80},{"user_id":481,"name":"hashmap","steam_id":76561198043794014,"connected_time":3278000000000,"state":"active","ping":47},{"user_id":478,"name":"Tri-Dot","steam_id":76561199075186597,"connected_time":3336000000000,"state":"active","ping":72},{"user_id":474,"name":"DededeMain | trade.tf","steam_id":76561198310951632,"connected_time":3637000000000,"state":"active","ping":73},{"user_id":508,"name":"Paradox","steam_id":76561198284164847,"connected_time":1147000000000,"state":"active","ping":72},{"user_id":498,"name":"NewerCoke","steam_id":76561198042911847,"connected_time":1684000000000,"state":"active","ping":85},{"user_id":521,"name":"RanchDress1ng","steam_id":76561198111258192,"connected_time":100000000000,"state":"active","ping":69},{"user_id":517,"name":"Dullahan","steam_id":76561198119668908,"connected_time":448000000000,"state":"active","ping":103},{"user_id":522,"name":"Useless","steam_id":76561198117206414,"connected_time":69000000000,"state":"active","ping":134},{"user_id":482,"name":"Sweetyfluff","steam_id":76561198045397871,"connected_time":3236000000000,"state":"active","ping":70},{"user_id":525,"name":"OneMisguidedSlyGuy","steam_id":76561198372243261,"connected_time":48000000000,"state":"active","ping":93},{"user_id":483,"name":"VX Ghost","steam_id":76561198072541436,"connected_time":3229000000000,"state":"active","ping":48},{"user_id":503,"name":"regular_consuelo","steam_id":76561198327831852,"connected_time":1448000000000,"state":"active","ping":87},{"user_id":524,"name":"Anderred","steam_id":76561198149983847,"connected_time":58000000000,"state":"active","ping":85},{"user_id":496,"name":"Ultimate Gohan","steam_id":76561198065614782,"connected_time":1849000000000,"state":"active","ping":66},{"user_id":515,"name":"Axel Beoulve","steam_id":76561198126511231,"connected_time":537000000000,"state":"active","ping":121}]},{"server_id":37,"name":"Uncletopia | Chicago | 6 | All Maps","name_short":"chi-6","host":"chi-2.us.uncletopia.com","port":27025,"enabled":true,"region":"us-central","cc":"us","latitude":41.881832,"longitude":-87.62318,"reserved":0,"last_update":"0001-01-01T00:00:00Z","name_a2s":"Uncletopia | Chicago | 6 | All Maps","protocol":17,"map":"pl_frontier_final","folder":"tf","game":"Team Fortress","app_id":440,"player_count":18,"max_players":24,"Bots":0,"server_type":"Dedicated","server_os":"Linux","password":true,"vac":true,"version":"7932396","steam_id":85568392924866363,"keywords":["nocrits","nodmgspread","payload","uncletopia"],"game_id":440,"stv_port":27026,"stv_name":"Uncletopia | Chicago | 6 | All Maps | STV","players":[{"user_id":260,"name":"Stranger in a Strange Land","steam_id":76561198049843671,"connected_time":612000000000,"state":"active","ping":61},{"user_id":269,"name":"dweeb","steam_id":76561198255473632,"connected_time":158000000000,"state":"active","ping":61},{"user_id":248,"name":"watchfull","steam_id":76561198433266742,"connected_time":1092000000000,"state":"active","ping":101},{"user_id":262,"name":"tiernan330","steam_id":76561198271912722,"connected_time":582000000000,"state":"active","ping":66},{"user_id":263,"name":"Yapple Dapple","steam_id":76561198082422815,"connected_time":577000000000,"state":"active","ping":80},{"user_id":267,"name":"pirate pete","steam_id":76561198151048590,"connected_time":421000000000,"state":"active","ping":64},{"user_id":234,"name":"SomeRandomMail","steam_id":76561199002913110,"connected_time":1537000000000,"state":"active","ping":93},{"user_id":265,"name":"Eloi","steam_id":76561198081193565,"connected_time":545000000000,"state":"active","ping":78},{"user_id":268,"name":"AnonymousCritter","steam_id":76561198864475187,"connected_time":313000000000,"state":"active","ping":50},{"user_id":270,"name":"WOW","steam_id":76561199200182401,"connected_time":100000000000,"state":"active","ping":79},{"user_id":149,"name":"money talks, wealth whispers","steam_id":76561198149666258,"connected_time":8077000000000,"state":"active","ping":56},{"user_id":271,"name":"cilo","steam_id":76561198046163502,"connected_time":4000000000,"state":"spawning","ping":60},{"user_id":238,"name":"Mint Jelly","steam_id":76561197991286751,"connected_time":1398000000000,"state":"active","ping":48},{"user_id":225,"name":"playguy carter","steam_id":76561198080679337,"connected_time":2486000000000,"state":"active","ping":49},{"user_id":249,"name":"Auburn","steam_id":76561198199541493,"connected_time":1082000000000,"state":"active","ping":106},{"user_id":253,"name":"Spicy Jumbo Big Daddy","steam_id":76561198076364318,"connected_time":1032000000000,"state":"active","ping":53},{"user_id":254,"name":"W00t","steam_id":76561198017118256,"connected_time":1025000000000,"state":"active","ping":44},{"user_id":154,"name":"Killroy NQP ❤","steam_id":76561198006983771,"connected_time":7993000000000,"state":"active","ping":74}]},{"server_id":38,"name":"Uncletopia | Chicago | 7 | Stopwatch Beta","name_short":"chi-7","host":"chi-2.us.uncletopia.com","port":27035,"enabled":true,"region":"us-central","cc":"us","latitude":41.881832,"longitude":-87.62318,"reserved":0,"last_update":"0001-01-01T00:00:00Z","name_a2s":"Uncletopia | Chicago | 7 | Stopwatch Beta","protocol":17,"map":"workshop/pl_badwater_pro_v12.ugc2142942074","folder":"tf","game":"Team Fortress","app_id":440,"player_count":0,"max_players":24,"Bots":0,"server_type":"Dedicated","server_os":"Linux","password":true,"vac":true,"version":"7932396","steam_id":85568392924866364,"keywords":["nocrits","nodmgspread","payload","uncletopia"],"game_id":440,"stv_port":27036,"stv_name":"Uncletopia | Chicago | 7 | Stopwatch Beta | STV","players":null},{"server_id":39,"name":"Uncletopia | Chicago | 8 | Community","name_short":"chi-8","host":"chi-2.us.uncletopia.com","port":27045,"enabled":true,"region":"us-central","cc":"us","latitude":41.881832,"longitude":-87.62318,"reserved":0,"last_update":"0001-01-01T00:00:00Z","name_a2s":"Uncletopia | Chicago | 8 | Community","protocol":17,"map":"workshop/koth_trenchfoot_b1a.ugc731436616","folder":"tf","game":"Team Fortress","app_id":440,"player_count":0,"max_players":24,"Bots":0,"server_type":"Dedicated","server_os":"Linux","password":true,"vac":true,"version":"7932396","steam_id":85568392924866365,"keywords":["cp","nocrits","nodmgspread","uncletopia"],"game_id":440,"stv_port":27046,"stv_name":"Uncletopia | Chicago | 8 | Community | STV","players":null},{"server_id":8,"name":"Uncletopia | Dallas | 1 | All Maps","name_short":"dal-1","host":"dal-1.us.uncletopia.com","port":27015,"enabled":true,"region":"us-central","cc":"us","latitude":32.779167,"longitude":-96.80889,"reserved":0,"last_update":"0001-01-01T00:00:00Z","name_a2s":"Uncletopia | Dallas | 1 | All Maps","protocol":17,"map":"cp_snakewater_final1","folder":"tf","game":"Team Fortress","app_id":440,"player_count":24,"max_players":24,"Bots":0,"server_type":"Dedicated","server_os":"Linux","password":true,"vac":true,"version":"7932396","steam_id":85568392924469986,"keywords":["cp","nocrits","nodmgspread","uncletopia"],"game_id":440,"stv_port":27016,"stv_name":"Uncletopia | Dallas | 1 | All Maps | STV","players":[{"user_id":812,"name":"???","steam_id":76561198200155343,"connected_time":2336000000000,"state":"active","ping":38},{"user_id":785,"name":"E P H E M E R A L","steam_id":76561198128614882,"connected_time":3587000000000,"state":"active","ping":77},{"user_id":820,"name":"ky jelly packing","steam_id":76561198240906222,"connected_time":1349000000000,"state":"active","ping":98},{"user_id":804,"name":"Bean Marrow","steam_id":76561198116650223,"connected_time":2599000000000,"state":"active","ping":72},{"user_id":731,"name":"plink","steam_id":76561198057829889,"connected_time":8029000000000,"state":"active","ping":82},{"user_id":824,"name":"pl_deepthroatgulch_finalrc2","steam_id":76561198046802071,"connected_time":628000000000,"state":"active","ping":54},{"user_id":821,"name":"Rilshrink","steam_id":76561198202586792,"connected_time":1334000000000,"state":"active","ping":52},{"user_id":768,"name":"Unreliable Narrator","steam_id":76561198021303959,"connected_time":4581000000000,"state":"active","ping":79},{"user_id":793,"name":"Filliam","steam_id":76561198124028151,"connected_time":3422000000000,"state":"active","ping":75},{"user_id":818,"name":"real class man, no class","steam_id":76561198087666917,"connected_time":1360000000000,"state":"active","ping":62},{"user_id":799,"name":"ZirØhh","steam_id":76561198202286460,"connected_time":3242000000000,"state":"active","ping":60},{"user_id":807,"name":"Zerman","steam_id":76561198094846729,"connected_time":2576000000000,"state":"active","ping":85},{"user_id":811,"name":"Bullwinkle J. Moose","steam_id":76561198075977196,"connected_time":2386000000000,"state":"active","ping":54},{"user_id":813,"name":"Burt Macklin","steam_id":76561198038080028,"connected_time":2249000000000,"state":"active","ping":88},{"user_id":775,"name":"aphip","steam_id":76561198084621244,"connected_time":4102000000000,"state":"active","ping":80},{"user_id":794,"name":"dealinwithit","steam_id":76561198127424835,"connected_time":3420000000000,"state":"active","ping":90},{"user_id":823,"name":"the smiling zombie","steam_id":76561199246231090,"connected_time":1015000000000,"state":"active","ping":79},{"user_id":822,"name":"Gglilboy","steam_id":76561198097556319,"connected_time":1093000000000,"state":"active","ping":140},{"user_id":809,"name":"Heal","steam_id":76561198798229240,"connected_time":2567000000000,"state":"active","ping":80},{"user_id":825,"name":"Antifa Supersoldier","steam_id":76561198141816516,"connected_time":218000000000,"state":"active","ping":45},{"user_id":817,"name":"Clubs","steam_id":76561198271133942,"connected_time":1407000000000,"state":"active","ping":61},{"user_id":819,"name":"ccs324","steam_id":76561198127666412,"connected_time":1356000000000,"state":"active","ping":81},{"user_id":787,"name":"♦♣Quadric♥♠","steam_id":76561198061003853,"connected_time":3568000000000,"state":"active","ping":88},{"user_id":815,"name":"Fernando","steam_id":76561198443038047,"connected_time":2057000000000,"state":"active","ping":62}]},{"server_id":108,"name":"Uncletopia | Dallas | 2 | All Maps","name_short":"dal-2","host":"dal-1.us.uncletopia.com","port":27025,"enabled":true,"region":"us-central","cc":"us","latitude":32.779167,"longitude":-96.80889,"reserved":0,"last_update":"0001-01-01T00:00:00Z","name_a2s":"Uncletopia | Dallas | 2 | All Maps","protocol":17,"map":"pl_thundermountain","folder":"tf","game":"Team Fortress","app_id":440,"player_count":24,"max_players":24,"Bots":0,"server_type":"Dedicated","server_os":"Linux","password":true,"vac":true,"version":"7932396","steam_id":85568392924469988,"keywords":["nocrits","nodmgspread","payload","uncletopia"],"game_id":440,"stv_port":27026,"stv_name":"Uncletopia | Dallas | 2 | All Maps | STV","players":[{"user_id":726,"name":"SizableChap","steam_id":76561199148162904,"connected_time":781000000000,"state":"active","ping":68},{"user_id":727,"name":"shitass | troutsupply.net","steam_id":76561198210572481,"connected_time":769000000000,"state":"active","ping":60},{"user_id":728,"name":"saber","steam_id":76561198059041027,"connected_time":746000000000,"state":"active","ping":111},{"user_id":707,"name":"Octovaitor","steam_id":76561198004658451,"connected_time":2239000000000,"state":"active","ping":77},{"user_id":708,"name":"Arrluk","steam_id":76561198396679452,"connected_time":2232000000000,"state":"active","ping":71},{"user_id":683,"name":"None of that $9.99 bullshit","steam_id":76561198116169903,"connected_time":3104000000000,"state":"active","ping":83},{"user_id":710,"name":"Khaiden","steam_id":76561198104454754,"connected_time":2192000000000,"state":"active","ping":183},{"user_id":697,"name":"Abu Shoosh","steam_id":76561198094990358,"connected_time":2682000000000,"state":"active","ping":75},{"user_id":733,"name":"Satan-2","steam_id":76561199231742764,"connected_time":246000000000,"state":"active","ping":98},{"user_id":734,"name":"Manic","steam_id":76561198128149670,"connected_time":167000000000,"state":"active","ping":45},{"user_id":688,"name":"Mossy","steam_id":76561198156401277,"connected_time":2986000000000,"state":"active","ping":77},{"user_id":679,"name":"Maid Knight","steam_id":76561198214370515,"connected_time":3432000000000,"state":"active","ping":74},{"user_id":616,"name":"Bag","steam_id":76561198012395490,"connected_time":6635000000000,"state":"active","ping":59},{"user_id":729,"name":"Dr. Kokkinbahlz","steam_id":76561198166245239,"connected_time":738000000000,"state":"active","ping":45},{"user_id":689,"name":"LatinRhythms - 4 ref","steam_id":76561198025110751,"connected_time":2970000000000,"state":"active","ping":142},{"user_id":732,"name":"LtK","steam_id":76561197993180943,"connected_time":461000000000,"state":"active","ping":41},{"user_id":731,"name":"Zell Da Sheepy","steam_id":76561198978753666,"connected_time":659000000000,"state":"active","ping":85},{"user_id":713,"name":"peebs","steam_id":76561198261319753,"connected_time":2067000000000,"state":"active","ping":52},{"user_id":714,"name":"lingulata","steam_id":76561198076208960,"connected_time":2065000000000,"state":"active","ping":85},{"user_id":703,"name":"skizze","steam_id":76561198044964749,"connected_time":2566000000000,"state":"active","ping":75},{"user_id":694,"name":"Mail Delivery","steam_id":76561198290046318,"connected_time":2785000000000,"state":"active","ping":60},{"user_id":715,"name":"tesagi","steam_id":76561198026664629,"connected_time":2059000000000,"state":"active","ping":68},{"user_id":722,"name":"McDonald","steam_id":76561199028533497,"connected_time":1506000000000,"state":"active","ping":81},{"user_id":735,"name":"Palamedes Sextus","steam_id":76561198096306325,"connected_time":12000000000,"state":"active","ping":109}]},{"server_id":5,"name":"Uncletopia | Frankfurt | 1 | All Maps","name_short":"frk-1","host":"frk-1.de.uncletopia.com","port":27015,"enabled":true,"region":"eu","cc":"de","latitude":50.110924,"longitude":8.682127,"reserved":0,"last_update":"0001-01-01T00:00:00Z","name_a2s":"Uncletopia | Frankfurt | 1 | All Maps","protocol":17,"map":"pl_badwater","folder":"tf","game":"Team Fortress","app_id":440,"player_count":0,"max_players":24,"Bots":0,"server_type":"Dedicated","server_os":"Linux","password":true,"vac":true,"version":"7932396","steam_id":85568392924469989,"keywords":["nocrits","nodmgspread","payload","uncletopia"],"game_id":440,"stv_port":27016,"stv_name":"Uncletopia | Frankfurt | 1 | All Maps | STV","players":null},{"server_id":110,"name":"Uncletopia | Frankfurt | 2 | All Maps","name_short":"frk-2","host":"frk-1.de.uncletopia.com","port":27025,"enabled":true,"region":"eu","cc":"de","latitude":50.110924,"longitude":8.682127,"reserved":0,"last_update":"0001-01-01T00:00:00Z","name_a2s":"Uncletopia | Frankfurt | 2 | All Maps","protocol":17,"map":"pl_borneo","folder":"tf","game":"Team Fortress","app_id":440,"player_count":0,"max_players":24,"Bots":0,"server_type":"Dedicated","server_os":"Linux","password":true,"vac":true,"version":"7932396","steam_id":85568392924469990,"keywords":["nocrits","nodmgspread","payload","uncletopia"],"game_id":440,"stv_port":27026,"stv_name":"Uncletopia | Frankfurt | 2 | All Maps | STV","players":null},{"server_id":308,"name":"Uncletopia | Frankfurt | 3 | All Maps","name_short":"frk-3","host":"frk-1.de.uncletopia.com","port":27035,"enabled":true,"region":"eu","cc":"de","latitude":50.110924,"longitude":8.682127,"reserved":0,"last_update":"0001-01-01T00:00:00Z","name_a2s":"Uncletopia | Frankfurt | 3 | All Maps","protocol":17,"map":"pl_badwater","folder":"tf","game":"Team Fortress","app_id":440,"player_count":0,"max_players":24,"Bots":0,"server_type":"Dedicated","server_os":"Linux","password":true,"vac":true,"version":"7932396","steam_id":85568392924504274,"keywords":["nocrits","nodmgspread","payload","uncletopia"],"game_id":440,"stv_port":27036,"stv_name":"Uncletopia | Frankfurt | 3 | All Maps | STV","players":null},{"server_id":309,"name":"Uncletopia | Frankfurt | 4 | All Maps","name_short":"frk-4","host":"frk-1.de.uncletopia.com","port":27045,"enabled":true,"region":"eu","cc":"de","latitude":50.110924,"longitude":8.682127,"reserved":0,"last_update":"0001-01-01T00:00:00Z","name_a2s":"Uncletopia | Frankfurt | 4 | All Maps","protocol":17,"map":"pl_upward","folder":"tf","game":"Team Fortress","app_id":440,"player_count":0,"max_players":24,"Bots":0,"server_type":"Dedicated","server_os":"Linux","password":true,"vac":true,"version":"7932396","steam_id":85568392924504275,"keywords":["nocrits","nodmgspread","payload","uncletopia"],"game_id":440,"stv_port":27046,"stv_name":"Uncletopia | Frankfurt | 4 | All Maps | STV","players":null},{"server_id":310,"name":"Uncletopia | Frankfurt | 5 | All Maps","name_short":"frk-5","host":"frk-1.de.uncletopia.com","port":27055,"enabled":true,"region":"eu","cc":"de","latitude":50.110924,"longitude":8.682127,"reserved":0,"last_update":"0001-01-01T00:00:00Z","name_a2s":"Uncletopia | Frankfurt | 5 | All Maps","protocol":17,"map":"pl_badwater","folder":"tf","game":"Team Fortress","app_id":440,"player_count":0,"max_players":24,"Bots":0,"server_type":"Dedicated","server_os":"Linux","password":true,"vac":true,"version":"7932396","steam_id":85568392924504277,"keywords":["nocrits","nodmgspread","payload","uncletopia"],"game_id":440,"stv_port":27056,"stv_name":"Uncletopia | Frankfurt | 5 | All Maps | STV","players":null},{"server_id":311,"name":"Uncletopia | Frankfurt | 6 | All Maps","name_short":"frk-6","host":"frk-1.de.uncletopia.com","port":27065,"enabled":true,"region":"eu","cc":"de","latitude":50.110924,"longitude":8.682127,"reserved":0,"last_update":"0001-01-01T00:00:00Z","name_a2s":"Uncletopia | Frankfurt | 6 | All Maps","protocol":17,"map":"koth_viaduct","folder":"tf","game":"Team Fortress","app_id":440,"player_count":0,"max_players":24,"Bots":0,"server_type":"Dedicated","server_os":"Linux","password":true,"vac":true,"version":"7932396","steam_id":85568392924504278,"keywords":["cp","nocrits","nodmgspread","uncletopia"],"game_id":440,"stv_port":27066,"stv_name":"Uncletopia | Frankfurt | 6 | All Maps | STV","players":null},{"server_id":23,"name":"Uncletopia | Frankfurt | 7 | Stopwatch Beta","name_short":"frk-7","host":"frk-1.de.uncletopia.com","port":27075,"enabled":true,"region":"eu","cc":"de","latitude":50.110924,"longitude":8.682127,"reserved":0,"last_update":"0001-01-01T00:00:00Z","name_a2s":"Uncletopia | Frankfurt | 7 | Stopwatch Beta","protocol":17,"map":"pl_snowycoast","folder":"tf","game":"Team Fortress","app_id":440,"player_count":0,"max_players":24,"Bots":0,"server_type":"Dedicated","server_os":"Linux","password":true,"vac":true,"version":"7932396","steam_id":85568392924742827,"keywords":["nocrits","nodmgspread","payload","uncletopia"],"game_id":440,"stv_port":27076,"stv_name":"Uncletopia | Frankfurt | 7 | Stopwatch Beta | STV","players":null},{"server_id":24,"name":"Uncletopia | Frankfurt | 8 | Community","name_short":"frk-8","host":"frk-1.de.uncletopia.com","port":27085,"enabled":true,"region":"eu","cc":"de","latitude":50.110924,"longitude":8.682127,"reserved":0,"last_update":"0001-01-01T00:00:00Z","name_a2s":"Uncletopia | Frankfurt | 8 | Community","protocol":17,"map":"pl_barnblitz","folder":"tf","game":"Team Fortress","app_id":440,"player_count":0,"max_players":24,"Bots":0,"server_type":"Dedicated","server_os":"Linux","password":true,"vac":true,"version":"7932396","steam_id":85568392924742828,"keywords":["nocrits","nodmgspread","payload","uncletopia"],"game_id":440,"stv_port":27086,"stv_name":"Uncletopia | Frankfurt | 8 | Community | STV","players":null},{"server_id":202,"name":"Uncletopia | Hong Kong | 1 | All Maps","name_short":"hgk-1","host":"hgk-1.hk.uncletopia.com","port":27015,"enabled":true,"region":"asia","cc":"hk","latitude":22.302711,"longitude":114.177216,"reserved":0,"last_update":"0001-01-01T00:00:00Z","name_a2s":"Uncletopia | Hong Kong | 1 | All Maps","protocol":17,"map":"koth_viaduct","folder":"tf","game":"Team Fortress","app_id":440,"player_count":8,"max_players":24,"Bots":0,"server_type":"Dedicated","server_os":"Linux","password":true,"vac":true,"version":"7932396","steam_id":85568392924494504,"keywords":["cp","nocrits","nodmgspread","uncletopia"],"game_id":440,"stv_port":27016,"stv_name":"Uncletopia | Hong Kong | 1 | All Maps | STV","players":[{"user_id":42,"name":"when the vlandan","steam_id":76561198849104908,"connected_time":564000000000,"state":"active","ping":301},{"user_id":43,"name":"Xx_EpicTrickstabber_xX","steam_id":76561199024960087,"connected_time":559000000000,"state":"active","ping":60},{"user_id":46,"name":"jarell","steam_id":76561198271534653,"connected_time":303000000000,"state":"active","ping":115},{"user_id":20,"name":"SugarCoat","steam_id":76561199230196794,"connected_time":6126000000000,"state":"active","ping":118},{"user_id":32,"name":"hi","steam_id":76561198079387090,"connected_time":2006000000000,"state":"active","ping":60},{"user_id":45,"name":"善良の墨","steam_id":76561199102754539,"connected_time":522000000000,"state":"active","ping":88},{"user_id":34,"name":"geoffreyhadikartio","steam_id":76561199485772460,"connected_time":1849000000000,"state":"active","ping":91},{"user_id":41,"name":"gero's boytoy","steam_id":76561199226227211,"connected_time":923000000000,"state":"active","ping":81}]},{"server_id":1,"name":"Uncletopia | Los Angeles | 1 | All Maps","name_short":"lax-1","host":"lax-1.us.uncletopia.com","port":27015,"enabled":true,"region":"us-west","cc":"us","latitude":33.94279,"longitude":-118.41004,"reserved":0,"last_update":"0001-01-01T00:00:00Z","name_a2s":"Uncletopia | Los Angeles | 1 | All Maps","protocol":17,"map":"pl_upward","folder":"tf","game":"Team Fortress","app_id":440,"player_count":24,"max_players":24,"Bots":0,"server_type":"Dedicated","server_os":"Linux","password":true,"vac":true,"version":"7932396","steam_id":85568392924469991,"keywords":["nocrits","nodmgspread","payload","uncletopia"],"game_id":440,"stv_port":27016,"stv_name":"Uncletopia | Los Angeles | 1 | All Maps | STV","players":[{"user_id":319,"name":"SorcererMinty","steam_id":76561199185659553,"connected_time":2213000000000,"state":"active","ping":114},{"user_id":339,"name":"TheWhiskeyMan","steam_id":76561198125180961,"connected_time":594000000000,"state":"active","ping":55},{"user_id":335,"name":"grandma mode","steam_id":76561198155824631,"connected_time":957000000000,"state":"active","ping":57},{"user_id":342,"name":"Loogus","steam_id":76561198811561721,"connected_time":568000000000,"state":"active","ping":59},{"user_id":307,"name":"Actually Reb","steam_id":76561198087307468,"connected_time":2632000000000,"state":"active","ping":71},{"user_id":300,"name":"erm what the scallop???","steam_id":76561198338610196,"connected_time":3432000000000,"state":"active","ping":68},{"user_id":349,"name":"SHruts","steam_id":76561198184171347,"connected_time":139000000000,"state":"active","ping":97},{"user_id":330,"name":"Benis Gonzalez","steam_id":76561198799391259,"connected_time":1349000000000,"state":"active","ping":64},{"user_id":298,"name":"MonkeyNobody","steam_id":76561199451266605,"connected_time":3516000000000,"state":"active","ping":52},{"user_id":217,"name":"._.","steam_id":76561198300316801,"connected_time":8532000000000,"state":"active","ping":104},{"user_id":318,"name":"..flop","steam_id":76561197989058876,"connected_time":2262000000000,"state":"active","ping":73},{"user_id":313,"name":"garbo","steam_id":76561198149280150,"connected_time":2339000000000,"state":"active","ping":45},{"user_id":309,"name":"Starkiller","steam_id":76561198101643120,"connected_time":2601000000000,"state":"active","ping":82},{"user_id":290,"name":"californjoe","steam_id":76561197965047795,"connected_time":3678000000000,"state":"active","ping":53},{"user_id":345,"name":"Bodhisattva","steam_id":76561198085228896,"connected_time":398000000000,"state":"active","ping":52},{"user_id":333,"name":"Lord_Omega","steam_id":76561199217028005,"connected_time":1114000000000,"state":"active","ping":93},{"user_id":304,"name":"FAKE uncletopia server","steam_id":76561198065662025,"connected_time":3002000000000,"state":"active","ping":108},{"user_id":350,"name":"HammerHead","steam_id":76561197975668646,"connected_time":125000000000,"state":"active","ping":67},{"user_id":315,"name":"Kurtle","steam_id":76561199099898602,"connected_time":2304000000000,"state":"active","ping":71},{"user_id":351,"name":"human trafficking","steam_id":76561198309823950,"connected_time":77000000000,"state":"active","ping":74},{"user_id":344,"name":"Saya","steam_id":76561199476886074,"connected_time":507000000000,"state":"active","ping":104},{"user_id":334,"name":"Sheets","steam_id":76561198182088207,"connected_time":1053000000000,"state":"active","ping":92},{"user_id":279,"name":"Sgt. Satire","steam_id":76561198104193483,"connected_time":4768000000000,"state":"active","ping":70},{"user_id":348,"name":"Nobody","steam_id":76561198160544586,"connected_time":286000000000,"state":"active","ping":122}]},{"server_id":112,"name":"Uncletopia | Los Angeles | 2 | All Maps","name_short":"lax-2","host":"lax-1.us.uncletopia.com","port":27025,"enabled":true,"region":"us-west","cc":"us","latitude":33.94279,"longitude":-118.41004,"reserved":0,"last_update":"0001-01-01T00:00:00Z","name_a2s":"Uncletopia | Los Angeles | 2 | All Maps","protocol":17,"map":"cp_dustbowl","folder":"tf","game":"Team Fortress","app_id":440,"player_count":22,"max_players":24,"Bots":0,"server_type":"Dedicated","server_os":"Linux","password":true,"vac":true,"version":"7932396","steam_id":85568392924469992,"keywords":["cp","nocrits","nodmgspread","uncletopia"],"game_id":440,"stv_port":27026,"stv_name":"Uncletopia | Los Angeles | 2 | All Maps | STV","players":[{"user_id":271,"name":"Potato Knishes","steam_id":76561198063539547,"connected_time":544000000000,"state":"active","ping":84},{"user_id":244,"name":"xbox record that","steam_id":76561198150117455,"connected_time":2236000000000,"state":"active","ping":53},{"user_id":209,"name":"Fluffy","steam_id":76561198213561811,"connected_time":4333000000000,"state":"active","ping":36},{"user_id":261,"name":"tiredfisherman69","steam_id":76561199228963816,"connected_time":1339000000000,"state":"active","ping":68},{"user_id":270,"name":"arekk","steam_id":76561198053964742,"connected_time":559000000000,"state":"active","ping":75},{"user_id":272,"name":"BrightOrangeMango","steam_id":76561198023144607,"connected_time":470000000000,"state":"active","ping":64},{"user_id":273,"name":"deej","steam_id":76561198127030699,"connected_time":406000000000,"state":"active","ping":43},{"user_id":234,"name":"♂ boss of this gym ♂","steam_id":76561198027102212,"connected_time":3038000000000,"state":"active","ping":97},{"user_id":231,"name":"CockDick69","steam_id":76561198051882744,"connected_time":3248000000000,"state":"active","ping":113},{"user_id":263,"name":"SanitysEdge","steam_id":76561198130732813,"connected_time":1312000000000,"state":"active","ping":48},{"user_id":254,"name":"Dr.LeatherPsycho","steam_id":76561198800480998,"connected_time":1754000000000,"state":"active","ping":111},{"user_id":266,"name":"Bunny of Epicness","steam_id":76561198003897012,"connected_time":1253000000000,"state":"active","ping":82},{"user_id":258,"name":"TheXayol","steam_id":76561199177408516,"connected_time":1559000000000,"state":"active","ping":87},{"user_id":173,"name":"vioxynteris","steam_id":76561198161428666,"connected_time":5942000000000,"state":"active","ping":32},{"user_id":275,"name":"OnCominStorm","steam_id":76561198107224081,"connected_time":94000000000,"state":"active","ping":91},{"user_id":255,"name":"sussycheese","steam_id":76561198384139570,"connected_time":1752000000000,"state":"active","ping":50},{"user_id":180,"name":"Sleempreem","steam_id":76561198131987251,"connected_time":5504000000000,"state":"active","ping":35},{"user_id":274,"name":"DavidTheBurrito","steam_id":76561198231940844,"connected_time":223000000000,"state":"active","ping":45},{"user_id":227,"name":"Lex","steam_id":76561198069948353,"connected_time":3386000000000,"state":"active","ping":99},{"user_id":249,"name":"Daddy Topps","steam_id":76561198203594332,"connected_time":1972000000000,"state":"active","ping":73},{"user_id":85,"name":"FlashofAsh","steam_id":76561198400422981,"connected_time":11161000000000,"state":"active","ping":71},{"user_id":256,"name":"-L","steam_id":76561198046074220,"connected_time":1742000000000,"state":"active","ping":36}]},{"server_id":324,"name":"Uncletopia | Los Angeles | 3 | All Maps","name_short":"lax-3","host":"lax-1.us.uncletopia.com","port":27035,"enabled":true,"region":"us-west","cc":"us","latitude":33.94279,"longitude":-118.41004,"reserved":0,"last_update":"0001-01-01T00:00:00Z","name_a2s":"Uncletopia | Los Angeles | 3 | All Maps","protocol":17,"map":"cp_process_final","folder":"tf","game":"Team Fortress","app_id":440,"player_count":24,"max_players":24,"Bots":0,"server_type":"Dedicated","server_os":"Linux","password":true,"vac":true,"version":"7932396","steam_id":85568392924510198,"keywords":["cp","nocrits","nodmgspread","uncletopia"],"game_id":440,"stv_port":27036,"stv_name":"Uncletopia | Los Angeles | 3 | All Maps | STV","players":[{"user_id":543,"name":"Drake from State Farm","steam_id":76561199069029812,"connected_time":4499000000000,"state":"active","ping":64},{"user_id":591,"name":"BoxMan","steam_id":76561198316541559,"connected_time":75000000000,"state":"active","ping":92},{"user_id":594,"name":"dg4L","steam_id":76561198357132470,"connected_time":56000000000,"state":"active","ping":60},{"user_id":587,"name":"MaDeuce","steam_id":76561198110732835,"connected_time":1018000000000,"state":"active","ping":102},{"user_id":564,"name":"zanefoxgames","steam_id":76561198801872568,"connected_time":2433000000000,"state":"active","ping":73},{"user_id":577,"name":"AndresOnion","steam_id":76561198011031064,"connected_time":1454000000000,"state":"active","ping":106},{"user_id":558,"name":"Deryn Sharp","steam_id":76561198047017346,"connected_time":2834000000000,"state":"active","ping":56},{"user_id":566,"name":"Sayori","steam_id":76561198957479336,"connected_time":2298000000000,"state":"active","ping":92},{"user_id":523,"name":"elephant thumb","steam_id":76561198118859752,"connected_time":6151000000000,"state":"active","ping":46},{"user_id":585,"name":"redkingbright","steam_id":76561198297514625,"connected_time":1212000000000,"state":"active","ping":69},{"user_id":559,"name":"SNλRTLE","steam_id":76561198321853655,"connected_time":2798000000000,"state":"active","ping":73},{"user_id":595,"name":"Velvety","steam_id":76561198081922813,"connected_time":49000000000,"state":"active","ping":45},{"user_id":568,"name":"body of a pig","steam_id":76561198128363064,"connected_time":2282000000000,"state":"active","ping":113},{"user_id":592,"name":"Dragoninventor (He/Him)","steam_id":76561198956224948,"connected_time":74000000000,"state":"active","ping":76},{"user_id":533,"name":"Tom Crúaich","steam_id":76561197999439911,"connected_time":5777000000000,"state":"active","ping":91},{"user_id":552,"name":"saggysage","steam_id":76561198249808678,"connected_time":3758000000000,"state":"active","ping":105},{"user_id":590,"name":"beblonski","steam_id":76561198067053408,"connected_time":816000000000,"state":"active","ping":51},{"user_id":593,"name":"Big Oil","steam_id":76561199238964574,"connected_time":71000000000,"state":"active","ping":57},{"user_id":588,"name":"Mcdiddle","steam_id":76561198025390097,"connected_time":968000000000,"state":"active","ping":133},{"user_id":569,"name":"moe","steam_id":76561198929586245,"connected_time":2278000000000,"state":"active","ping":49},{"user_id":589,"name":"skeleton the stairphobic","steam_id":76561198315213115,"connected_time":883000000000,"state":"active","ping":62},{"user_id":570,"name":"Ken","steam_id":76561198190992453,"connected_time":2263000000000,"state":"active","ping":56},{"user_id":573,"name":"Doctor X (Michiko Daemon)","steam_id":76561199106264424,"connected_time":2232000000000,"state":"active","ping":101},{"user_id":532,"name":"R5-D4","steam_id":76561198025196439,"connected_time":5847000000000,"state":"active","ping":76}]},{"server_id":25,"name":"Uncletopia | Los Angeles | 4 | Stopwatch Beta","name_short":"lax-4","host":"lax-1.us.uncletopia.com","port":27045,"enabled":true,"region":"us-west","cc":"us","latitude":33.94279,"longitude":-118.41004,"reserved":0,"last_update":"0001-01-01T00:00:00Z","name_a2s":"Uncletopia | Los Angeles | 4 | Stopwatch Beta","protocol":17,"map":"pl_borneo","folder":"tf","game":"Team Fortress","app_id":440,"player_count":0,"max_players":24,"Bots":0,"server_type":"Dedicated","server_os":"Linux","password":true,"vac":true,"version":"7932396","steam_id":85568392924510199,"keywords":["nocrits","nodmgspread","payload","uncletopia"],"game_id":440,"stv_port":27046,"stv_name":"Uncletopia | Los Angeles | 4 | Stopwatch Beta | STV","players":null},{"server_id":11,"name":"Uncletopia | London | 1 | All Maps","name_short":"lon-1","host":"lon-1.uk.uncletopia.com","port":27015,"enabled":true,"region":"eu","cc":"gb","latitude":51.509865,"longitude":-0.118092,"reserved":0,"last_update":"0001-01-01T00:00:00Z","name_a2s":"Uncletopia | London | 1 | All Maps","protocol":17,"map":"pl_snowycoast","folder":"tf","game":"Team Fortress","app_id":440,"player_count":14,"max_players":24,"Bots":0,"server_type":"Dedicated","server_os":"Linux","password":true,"vac":true,"version":"7932396","steam_id":85568392924367362,"keywords":["nocrits","nodmgspread","payload","uncletopia"],"game_id":440,"stv_port":27016,"stv_name":"Uncletopia | London | 1 | All Maps | STV","players":[{"user_id":1200,"name":"Neimon","steam_id":76561198343485710,"connected_time":703000000000,"state":"active","ping":123},{"user_id":1154,"name":"Ｓａｓｓｙ","steam_id":76561198844060342,"connected_time":3934000000000,"state":"active","ping":43},{"user_id":1201,"name":"Gimmick","steam_id":76561197979603871,"connected_time":595000000000,"state":"active","ping":60},{"user_id":1205,"name":"63756d","steam_id":76561198808699024,"connected_time":122000000000,"state":"active","ping":69},{"user_id":1172,"name":"thespartanjon","steam_id":76561198045286648,"connected_time":2608000000000,"state":"active","ping":52},{"user_id":1156,"name":"Perpetual Pub Push","steam_id":76561198256714846,"connected_time":3754000000000,"state":"active","ping":31},{"user_id":1203,"name":"seigfried","steam_id":76561198047260133,"connected_time":442000000000,"state":"active","ping":79},{"user_id":1170,"name":"string theory","steam_id":76561198818037965,"connected_time":2754000000000,"state":"active","ping":94},{"user_id":1199,"name":"UpsyDizzy","steam_id":76561198029843142,"connected_time":851000000000,"state":"active","ping":49},{"user_id":1204,"name":"eat ass and go fast","steam_id":76561198412700635,"connected_time":423000000000,"state":"active","ping":72},{"user_id":1197,"name":"Huncraft 12","steam_id":76561198304495095,"connected_time":905000000000,"state":"active","ping":84},{"user_id":1195,"name":"fembitch","steam_id":76561199213913521,"connected_time":1397000000000,"state":"active","ping":57},{"user_id":1148,"name":"Xx_EpicGaymer_xX","steam_id":76561198846784757,"connected_time":4468000000000,"state":"active","ping":55},{"user_id":1198,"name":"the indomitable human spirit","steam_id":76561198718760200,"connected_time":901000000000,"state":"active","ping":45}]},{"server_id":114,"name":"Uncletopia | London | 2 | All Maps","name_short":"lon-2","host":"lon-1.uk.uncletopia.com","port":27025,"enabled":true,"region":"eu","cc":"gb","latitude":51.509865,"longitude":-0.118092,"reserved":0,"last_update":"0001-01-01T00:00:00Z","name_a2s":"Uncletopia | London | 2 | All Maps","protocol":17,"map":"pl_swiftwater_final1","folder":"tf","game":"Team Fortress","app_id":440,"player_count":0,"max_players":24,"Bots":0,"server_type":"Dedicated","server_os":"Linux","password":true,"vac":true,"version":"7932396","steam_id":85568392924470941,"keywords":["nocrits","nodmgspread","payload","uncletopia"],"game_id":440,"stv_port":27026,"stv_name":"Uncletopia | London | 2 | All Maps | STV","players":null},{"server_id":320,"name":"Uncletopia | London | 3 | All Maps","name_short":"lon-3","host":"lon-1.uk.uncletopia.com","port":27035,"enabled":true,"region":"eu","cc":"gb","latitude":51.509865,"longitude":-0.118092,"reserved":0,"last_update":"0001-01-01T00:00:00Z","name_a2s":"Uncletopia | London | 3 | All Maps","protocol":17,"map":"koth_highpass","folder":"tf","game":"Team Fortress","app_id":440,"player_count":0,"max_players":24,"Bots":0,"server_type":"Dedicated","server_os":"Linux","password":true,"vac":true,"version":"7932396","steam_id":85568392924510192,"keywords":["cp","nocrits","nodmgspread","uncletopia"],"game_id":440,"stv_port":27036,"stv_name":"Uncletopia | London | 3 | All Maps | STV","players":null},{"server_id":321,"name":"Uncletopia | London | 4 | All Maps","name_short":"lon-4","host":"lon-1.uk.uncletopia.com","port":27045,"enabled":true,"region":"eu","cc":"gb","latitude":51.509865,"longitude":-0.118092,"reserved":0,"last_update":"0001-01-01T00:00:00Z","name_a2s":"Uncletopia | London | 4 | All Maps","protocol":17,"map":"pl_frontier_final","folder":"tf","game":"Team Fortress","app_id":440,"player_count":0,"max_players":24,"Bots":0,"server_type":"Dedicated","server_os":"Linux","password":true,"vac":true,"version":"7932396","steam_id":85568392924510193,"keywords":["nocrits","nodmgspread","payload","uncletopia"],"game_id":440,"stv_port":27046,"stv_name":"Uncletopia | London | 4 | All Maps | STV","players":null},{"server_id":21,"name":"Uncletopia | London | 5 | All Maps","name_short":"lon-5","host":"lon-1.uk.uncletopia.com","port":27055,"enabled":true,"region":"eu","cc":"gb","latitude":51.509865,"longitude":-0.118092,"reserved":0,"last_update":"0001-01-01T00:00:00Z","name_a2s":"Uncletopia | London | 5 | All Maps","protocol":17,"map":"koth_lakeside_final","folder":"tf","game":"Team Fortress","app_id":440,"player_count":0,"max_players":24,"Bots":0,"server_type":"Dedicated","server_os":"Linux","password":true,"vac":true,"version":"7932396","steam_id":85568392924742829,"keywords":["cp","nocrits","nodmgspread","uncletopia"],"game_id":440,"stv_port":27056,"stv_name":"Uncletopia | London | 5 | All Maps | STV","players":null},{"server_id":22,"name":"Uncletopia | London | 6 | All Maps","name_short":"lon-6","host":"lon-1.uk.uncletopia.com","port":27065,"enabled":true,"region":"eu","cc":"gb","latitude":51.509865,"longitude":-0.118092,"reserved":0,"last_update":"0001-01-01T00:00:00Z","name_a2s":"Uncletopia | London | 6 | All Maps","protocol":17,"map":"koth_lakeside_final","folder":"tf","game":"Team Fortress","app_id":440,"player_count":0,"max_players":24,"Bots":0,"server_type":"Dedicated","server_os":"Linux","password":true,"vac":true,"version":"7932396","steam_id":85568392924742830,"keywords":["cp","nocrits","nodmgspread","uncletopia"],"game_id":440,"stv_port":27066,"stv_name":"Uncletopia | London | 6 | All Maps | STV","players":null},{"server_id":40,"name":"Uncletopia | London | 7 | No Payload","name_short":"lon-7","host":"lon-1.uk.uncletopia.com","port":27075,"enabled":true,"region":"eu","cc":"gb","latitude":51.509865,"longitude":-0.118092,"reserved":0,"last_update":"0001-01-01T00:00:00Z","name_a2s":"Uncletopia | London | 7 | No Payload","protocol":17,"map":"koth_brazil","folder":"tf","game":"Team Fortress","app_id":440,"player_count":0,"max_players":24,"Bots":0,"server_type":"Dedicated","server_os":"Linux","password":true,"vac":true,"version":"7932396","steam_id":85568392924964314,"keywords":["cp","nocrits","nodmgspread","uncletopia"],"game_id":440,"stv_port":27076,"stv_name":"Uncletopia | London | 7 | No Payload | STV","players":null},{"server_id":41,"name":"Uncletopia | London | 8 | Community","name_short":"lon-8","host":"lon-1.uk.uncletopia.com","port":27085,"enabled":true,"region":"eu","cc":"gb","latitude":51.509865,"longitude":-0.118092,"reserved":0,"last_update":"0001-01-01T00:00:00Z","name_a2s":"Uncletopia | London | 8 | Community","protocol":17,"map":"workshop/cp_snowbase_b18.ugc2081770490","folder":"tf","game":"Team Fortress","app_id":440,"player_count":0,"max_players":24,"Bots":0,"server_type":"Dedicated","server_os":"Linux","password":true,"vac":true,"version":"7932396","steam_id":85568392924964315,"keywords":["cp","nocrits","nodmgspread","uncletopia"],"game_id":440,"stv_port":27086,"stv_name":"Uncletopia | London | 8 | Community | STV","players":null},{"server_id":300,"name":"Uncletopia | Montréal | 1 | All Maps","name_short":"mtl-1","host":"mtl-1.ca.uncletopia.com","port":27015,"enabled":true,"region":"us-east","cc":"ca","latitude":45.50889,"longitude":-73.56167,"reserved":0,"last_update":"0001-01-01T00:00:00Z","name_a2s":"Uncletopia | Montréal | 1 | All Maps","protocol":17,"map":"cp_dustbowl","folder":"tf","game":"Team Fortress","app_id":440,"player_count":0,"max_players":24,"Bots":0,"server_type":"Dedicated","server_os":"Linux","password":true,"vac":true,"version":"7932396","steam_id":85568392924500087,"keywords":["cp","nocrits","nodmgspread","uncletopia"],"game_id":440,"stv_port":27016,"stv_name":"Uncletopia | Montréal | 1 | All Maps | STV","players":null},{"server_id":301,"name":"Uncletopia | Montréal | 2 | All Maps","name_short":"mtl-2","host":"mtl-1.ca.uncletopia.com","port":27025,"enabled":true,"region":"us-east","cc":"ca","latitude":45.50889,"longitude":-73.56167,"reserved":0,"last_update":"0001-01-01T00:00:00Z","name_a2s":"Uncletopia | Montréal | 2 | All Maps","protocol":17,"map":"pl_snowycoast","folder":"tf","game":"Team Fortress","app_id":440,"player_count":0,"max_players":24,"Bots":0,"server_type":"Dedicated","server_os":"Linux","password":true,"vac":true,"version":"7932396","steam_id":85568392924500088,"keywords":["nocrits","nodmgspread","payload","uncletopia"],"game_id":440,"stv_port":27026,"stv_name":"Uncletopia | Montréal | 2 | All Maps | STV","players":null},{"server_id":302,"name":"Uncletopia | Montréal | 3 | All Maps","name_short":"mtl-3","host":"mtl-1.ca.uncletopia.com","port":27035,"enabled":true,"region":"us-east","cc":"ca","latitude":45.50889,"longitude":-73.56167,"reserved":0,"last_update":"0001-01-01T00:00:00Z","name_a2s":"Uncletopia | Montréal | 3 | All Maps","protocol":17,"map":"pl_barnblitz","folder":"tf","game":"Team Fortress","app_id":440,"player_count":0,"max_players":24,"Bots":0,"server_type":"Dedicated","server_os":"Linux","password":true,"vac":true,"version":"7932396","steam_id":85568392924500089,"keywords":["nocrits","nodmgspread","payload","uncletopia"],"game_id":440,"stv_port":27036,"stv_name":"Uncletopia | Montréal | 3 | All Maps | STV","players":null},{"server_id":303,"name":"Uncletopia | Montréal | 4 | No Payload","name_short":"mtl-4","host":"mtl-1.ca.uncletopia.com","port":27045,"enabled":true,"region":"us-east","cc":"ca","latitude":45.50889,"longitude":-73.56167,"reserved":0,"last_update":"0001-01-01T00:00:00Z","name_a2s":"Uncletopia | Montréal | 4 | No Payload","protocol":17,"map":"cp_snakewater_final1","folder":"tf","game":"Team Fortress","app_id":440,"player_count":0,"max_players":24,"Bots":0,"server_type":"Dedicated","server_os":"Linux","password":true,"vac":true,"version":"7932396","steam_id":85568392924500090,"keywords":["cp","nocrits","nodmgspread","uncletopia"],"game_id":440,"stv_port":27046,"stv_name":"Uncletopia | Montréal | 4 | No Payload | STV","players":null},{"server_id":13,"name":"Uncletopia | New York City | 1 | All Maps","name_short":"nyc-1","host":"nyc-1.us.uncletopia.com","port":27015,"enabled":true,"region":"us-east","cc":"us","latitude":40.73061,"longitude":-73.93524,"reserved":0,"last_update":"0001-01-01T00:00:00Z","name_a2s":"Uncletopia | New York City | 1 | All Maps","protocol":17,"map":"koth_nucleus","folder":"tf","game":"Team Fortress","app_id":440,"player_count":24,"max_players":24,"Bots":0,"server_type":"Dedicated","server_os":"Linux","password":true,"vac":true,"version":"7932396","steam_id":85568392924469993,"keywords":["cp","nocrits","nodmgspread","uncletopia"],"game_id":440,"stv_port":27016,"stv_name":"Uncletopia | New York City | 1 | All Maps | STV","players":[{"user_id":384,"name":"Periculosum PhD in Funny","steam_id":76561198123370914,"connected_time":3231000000000,"state":"active","ping":87},{"user_id":393,"name":"SomethingUnusual","steam_id":76561198217824760,"connected_time":2277000000000,"state":"active","ping":123},{"user_id":394,"name":"King STAZE","steam_id":76561198190731506,"connected_time":2204000000000,"state":"active","ping":118},{"user_id":386,"name":"squidgamer89","steam_id":76561198368108050,"connected_time":2946000000000,"state":"active","ping":30},{"user_id":399,"name":"monkeycake","steam_id":76561198272061915,"connected_time":1974000000000,"state":"active","ping":65},{"user_id":398,"name":"I'm a stone","steam_id":76561198414300607,"connected_time":1981000000000,"state":"active","ping":116},{"user_id":400,"name":"Duchess","steam_id":76561198042490743,"connected_time":1893000000000,"state":"active","ping":45},{"user_id":389,"name":"isla","steam_id":76561198139759348,"connected_time":2893000000000,"state":"active","ping":44},{"user_id":401,"name":"qq","steam_id":76561198060942750,"connected_time":1803000000000,"state":"active","ping":86},{"user_id":402,"name":"dismal","steam_id":76561198084763105,"connected_time":1794000000000,"state":"active","ping":80},{"user_id":412,"name":"LambKraut","steam_id":76561198061695514,"connected_time":683000000000,"state":"active","ping":55},{"user_id":404,"name":"the pest","steam_id":76561198826298849,"connected_time":1675000000000,"state":"active","ping":91},{"user_id":413,"name":"The Juice","steam_id":76561198065307144,"connected_time":640000000000,"state":"active","ping":62},{"user_id":414,"name":"MountainDerBoss","steam_id":76561199147205485,"connected_time":611000000000,"state":"active","ping":83},{"user_id":415,"name":"Mr. Durian","steam_id":76561198093813212,"connected_time":591000000000,"state":"active","ping":70},{"user_id":426,"name":"Kidzbopsicle","steam_id":76561198047660691,"connected_time":118000000000,"state":"active","ping":33},{"user_id":417,"name":"LORD CANTI","steam_id":76561198254479725,"connected_time":545000000000,"state":"active","ping":61},{"user_id":411,"name":"Speeder Mingus","steam_id":76561198106841910,"connected_time":1191000000000,"state":"active","ping":84},{"user_id":425,"name":"light finder","steam_id":76561198368646092,"connected_time":411000000000,"state":"active","ping":47},{"user_id":419,"name":"eryn 🗺","steam_id":76561198004433070,"connected_time":503000000000,"state":"active","ping":90},{"user_id":420,"name":"Bewen","steam_id":76561198325334261,"connected_time":487000000000,"state":"active","ping":47},{"user_id":421,"name":"HeavenHearst","steam_id":76561198066083947,"connected_time":464000000000,"state":"active","ping":53},{"user_id":423,"name":"MayheM","steam_id":76561198104506954,"connected_time":434000000000,"state":"active","ping":88},{"user_id":427,"name":"Lore","steam_id":76561198098407538,"connected_time":44000000000,"state":"active","ping":60}]},{"server_id":14,"name":"Uncletopia | New York City | 2 | All Maps","name_short":"nyc-2","host":"nyc-1.us.uncletopia.com","port":27025,"enabled":true,"region":"us-east","cc":"us","latitude":40.73061,"longitude":-73.93524,"reserved":0,"last_update":"0001-01-01T00:00:00Z","name_a2s":"Uncletopia | New York City | 2 | All Maps","protocol":17,"map":"pl_swiftwater_final1","folder":"tf","game":"Team Fortress","app_id":440,"player_count":0,"max_players":24,"Bots":0,"server_type":"Dedicated","server_os":"Linux","password":true,"vac":true,"version":"7932396","steam_id":85568392924469994,"keywords":["nocrits","nodmgspread","payload","uncletopia"],"game_id":440,"stv_port":27026,"stv_name":"Uncletopia | New York City | 2 | All Maps | STV","players":null},{"server_id":15,"name":"Uncletopia | New York City | 3 | Stopwatch Beta","name_short":"nyc-3","host":"nyc-1.us.uncletopia.com","port":27035,"enabled":true,"region":"us-east","cc":"us","latitude":40.73061,"longitude":-73.93524,"reserved":0,"last_update":"0001-01-01T00:00:00Z","name_a2s":"Uncletopia | New York City | 3 | Stopwatch Beta","protocol":17,"map":"workshop/koth_ramjam_rc1.ugc459778887","folder":"tf","game":"Team Fortress","app_id":440,"player_count":0,"max_players":24,"Bots":0,"server_type":"Dedicated","server_os":"Linux","password":true,"vac":true,"version":"7932396","steam_id":85568392924742820,"keywords":["cp","nocrits","nodmgspread","uncletopia"],"game_id":440,"stv_port":27036,"stv_name":"Uncletopia | New York City | 3 | Stopwatch Beta | STV","players":null},{"server_id":16,"name":"Uncletopia | New York City | 4 | Community","name_short":"nyc-4","host":"nyc-1.us.uncletopia.com","port":27045,"enabled":true,"region":"us-east","cc":"us","latitude":40.73061,"longitude":-73.93524,"reserved":0,"last_update":"0001-01-01T00:00:00Z","name_a2s":"Uncletopia | New York City | 4 | Community","protocol":17,"map":"workshop/pl_cashworks_final1.ugc2904065412","folder":"tf","game":"Team Fortress","app_id":440,"player_count":9,"max_players":24,"Bots":0,"server_type":"Dedicated","server_os":"Linux","password":true,"vac":true,"version":"7932396","steam_id":85568392924742821,"keywords":["nocrits","nodmgspread","payload","uncletopia"],"game_id":440,"stv_port":27046,"stv_name":"Uncletopia | New York City | 4 | Community | STV","players":[{"user_id":489,"name":"Dalek","steam_id":76561198154841459,"connected_time":774000000000,"state":"active","ping":97},{"user_id":455,"name":"awesomeajb08","steam_id":76561199056316311,"connected_time":4164000000000,"state":"active","ping":87},{"user_id":491,"name":"jakeslayer234","steam_id":76561199388287579,"connected_time":258000000000,"state":"active","ping":272},{"user_id":458,"name":"SonarPocket","steam_id":76561198168885050,"connected_time":3659000000000,"state":"active","ping":33},{"user_id":408,"name":"HundchenTanque","steam_id":76561198122692754,"connected_time":7023000000000,"state":"active","ping":33},{"user_id":493,"name":"aldegator","steam_id":76561198448457301,"connected_time":115000000000,"state":"active","ping":121},{"user_id":411,"name":"meat.","steam_id":76561198256154493,"connected_time":6760000000000,"state":"active","ping":70},{"user_id":484,"name":"banan team fortes","steam_id":76561199073621650,"connected_time":1504000000000,"state":"active","ping":114},{"user_id":420,"name":"Low Poly Jerma","steam_id":76561198042689943,"connected_time":6459000000000,"state":"active","ping":62}]},{"server_id":142,"name":"Uncletopia | São Paulo | 1 | All Maps","name_short":"sao-1","host":"sao-1.br.uncletopia.com","port":27015,"enabled":true,"region":"sa","cc":"br","latitude":-23.533773,"longitude":-46.62529,"reserved":0,"last_update":"0001-01-01T00:00:00Z","name_a2s":"Uncletopia | São Paulo | 1 | All Maps","protocol":17,"map":"cp_snakewater_final1","folder":"tf","game":"Team Fortress","app_id":440,"player_count":0,"max_players":24,"Bots":0,"server_type":"Dedicated","server_os":"Linux","password":true,"vac":true,"version":"7932396","steam_id":85568392924469996,"keywords":["cp","nocrits","nodmgspread","uncletopia"],"game_id":440,"stv_port":27016,"stv_name":"Uncletopia | São Paulo | 1 | All Maps | STV","players":null},{"server_id":143,"name":"Uncletopia | São Paulo | 2 | All Maps","name_short":"sao-2","host":"sao-2.br.uncletopia.com","port":27015,"enabled":true,"region":"sa","cc":"br","latitude":-23.533773,"longitude":-46.62529,"reserved":0,"last_update":"0001-01-01T00:00:00Z","name_a2s":"Uncletopia | São Paulo | 2 | All Maps","protocol":17,"map":"koth_harvest_final","folder":"tf","game":"Team Fortress","app_id":440,"player_count":0,"max_players":24,"Bots":0,"server_type":"Dedicated","server_os":"Linux","password":true,"vac":true,"version":"7932396","steam_id":85568392924485349,"keywords":["cp","nocrits","nodmgspread","uncletopia"],"game_id":440,"stv_port":27016,"stv_name":"Uncletopia | São Paulo | 2 | All Maps | STV","players":null},{"server_id":7,"name":"Uncletopia | Seattle | 1 | All Maps","name_short":"sea-1","host":"sea-1.us.uncletopia.com","port":27015,"enabled":true,"region":"us-west","cc":"us","latitude":47.608013,"longitude":-122.33517,"reserved":0,"last_update":"0001-01-01T00:00:00Z","name_a2s":"Uncletopia | Seattle | 1 | All Maps","protocol":17,"map":"cp_powerhouse","folder":"tf","game":"Team Fortress","app_id":440,"player_count":24,"max_players":24,"Bots":0,"server_type":"Dedicated","server_os":"Linux","password":true,"vac":true,"version":"7932396","steam_id":85568392924469997,"keywords":["cp","nocrits","nodmgspread","uncletopia"],"game_id":440,"stv_port":27016,"stv_name":"Uncletopia | Seattle | 1 | All Maps | STV","players":[{"user_id":452,"name":"NEBULA","steam_id":76561198086878595,"connected_time":2141000000000,"state":"active","ping":65},{"user_id":447,"name":"spenca","steam_id":76561198025371154,"connected_time":3149000000000,"state":"active","ping":60},{"user_id":394,"name":"gravewater","steam_id":76561198043558709,"connected_time":8624000000000,"state":"active","ping":45},{"user_id":421,"name":"Doctor™","steam_id":76561198134309750,"connected_time":6037000000000,"state":"active","ping":103},{"user_id":472,"name":"Mr. Boombox","steam_id":76561198070609120,"connected_time":508000000000,"state":"active","ping":101},{"user_id":448,"name":"Integral","steam_id":76561198158225481,"connected_time":3145000000000,"state":"active","ping":93},{"user_id":473,"name":"Can of Oranges","steam_id":76561199121813529,"connected_time":399000000000,"state":"active","ping":54},{"user_id":449,"name":"Lord Hater","steam_id":76561199158148782,"connected_time":3082000000000,"state":"active","ping":57},{"user_id":450,"name":"Glorious Leader Kim Jim the III","steam_id":76561198149714906,"connected_time":2984000000000,"state":"active","ping":60},{"user_id":424,"name":"SnailYT","steam_id":76561198332040385,"connected_time":5014000000000,"state":"active","ping":65},{"user_id":371,"name":"a cat plushie","steam_id":76561198080046542,"connected_time":12875000000000,"state":"active","ping":46},{"user_id":416,"name":"Sniff","steam_id":76561198010270922,"connected_time":6491000000000,"state":"active","ping":42},{"user_id":460,"name":"Ducks","steam_id":76561198130038345,"connected_time":2074000000000,"state":"active","ping":60},{"user_id":470,"name":"jorts","steam_id":76561199041179985,"connected_time":1103000000000,"state":"active","ping":54},{"user_id":445,"name":"hart","steam_id":76561198046073848,"connected_time":3169000000000,"state":"active","ping":46},{"user_id":474,"name":"kathryn lapucelle","steam_id":76561198816127465,"connected_time":387000000000,"state":"active","ping":127},{"user_id":475,"name":"SCUD missile up your ass","steam_id":76561198066452726,"connected_time":351000000000,"state":"active","ping":75},{"user_id":349,"name":"amantes dominatio","steam_id":76561198042913843,"connected_time":14346000000000,"state":"active","ping":61},{"user_id":463,"name":"Trueno","steam_id":76561199080515661,"connected_time":1375000000000,"state":"active","ping":71},{"user_id":467,"name":"delight","steam_id":76561197980280272,"connected_time":1349000000000,"state":"active","ping":45},{"user_id":468,"name":"Peppy","steam_id":76561198866629645,"connected_time":1344000000000,"state":"active","ping":59},{"user_id":432,"name":"MegumiTame","steam_id":76561198450280686,"connected_time":4337000000000,"state":"active","ping":58},{"user_id":456,"name":"♥haunti","steam_id":76561199235580556,"connected_time":2128000000000,"state":"active","ping":48},{"user_id":469,"name":"rorywashere /ᐠ - ˕ -マ Ⳋ","steam_id":76561198065825165,"connected_time":1276000000000,"state":"active","ping":105}]},{"server_id":119,"name":"Uncletopia | Seattle | 2 | All Maps","name_short":"sea-2","host":"sea-1.us.uncletopia.com","port":27025,"enabled":true,"region":"us-west","cc":"us","latitude":47.608013,"longitude":-122.33517,"reserved":0,"last_update":"0001-01-01T00:00:00Z","name_a2s":"Uncletopia | Seattle | 2 | All Maps","protocol":17,"map":"koth_nucleus","folder":"tf","game":"Team Fortress","app_id":440,"player_count":24,"max_players":24,"Bots":0,"server_type":"Dedicated","server_os":"Linux","password":true,"vac":true,"version":"7932396","steam_id":85568392924469998,"keywords":["cp","nocrits","nodmgspread","uncletopia"],"game_id":440,"stv_port":27026,"stv_name":"Uncletopia | Seattle | 2 | All Maps | STV","players":[{"user_id":318,"name":"Degreaser pyros are not real pe","steam_id":76561199093733603,"connected_time":1150000000000,"state":"active","ping":93},{"user_id":297,"name":"2Fort Cactus","steam_id":76561199273395913,"connected_time":3583000000000,"state":"active","ping":58},{"user_id":329,"name":"ArchmageF","steam_id":76561197992246851,"connected_time":314000000000,"state":"active","ping":47},{"user_id":299,"name":"mooney","steam_id":76561199110622484,"connected_time":3272000000000,"state":"active","ping":62},{"user_id":331,"name":"Flowey","steam_id":76561198442304406,"connected_time":131000000000,"state":"active","ping":45},{"user_id":265,"name":"my wife didn't like her present","steam_id":76561198380018244,"connected_time":6972000000000,"state":"active","ping":64},{"user_id":328,"name":"hosewater","steam_id":76561198023383126,"connected_time":484000000000,"state":"active","ping":48},{"user_id":316,"name":"duddlee","steam_id":76561198030052564,"connected_time":1502000000000,"state":"active","ping":53},{"user_id":319,"name":"nut man","steam_id":76561198254501474,"connected_time":1140000000000,"state":"active","ping":111},{"user_id":281,"name":"dougrocks421","steam_id":76561198165063918,"connected_time":4747000000000,"state":"active","ping":37},{"user_id":256,"name":"A UsedNom","steam_id":76561198402832756,"connected_time":7634000000000,"state":"active","ping":56},{"user_id":332,"name":"DesertFroggo","steam_id":76561198015607829,"connected_time":66000000000,"state":"active","ping":76},{"user_id":326,"name":"Cosmic Torgue","steam_id":76561198828724945,"connected_time":1079000000000,"state":"active","ping":126},{"user_id":330,"name":"Wheaties","steam_id":76561198060909578,"connected_time":303000000000,"state":"active","ping":58},{"user_id":294,"name":"Branta","steam_id":76561199103842843,"connected_time":3609000000000,"state":"active","ping":46},{"user_id":288,"name":"TROY","steam_id":76561197983852176,"connected_time":4131000000000,"state":"active","ping":75},{"user_id":327,"name":"Ymiir","steam_id":76561198118284271,"connected_time":754000000000,"state":"active","ping":86},{"user_id":291,"name":"Tom Skirrett","steam_id":76561198014600788,"connected_time":3763000000000,"state":"active","ping":65},{"user_id":317,"name":"Keamy","steam_id":76561199471434875,"connected_time":1362000000000,"state":"active","ping":36},{"user_id":323,"name":"Provalone","steam_id":76561198060731432,"connected_time":1106000000000,"state":"active","ping":111},{"user_id":324,"name":"电网织得再密也织不住\ufffd","steam_id":76561198806013166,"connected_time":1101000000000,"state":"active","ping":64},{"user_id":325,"name":"chilis baby back ribs","steam_id":76561198813516435,"connected_time":1092000000000,"state":"active","ping":74},{"user_id":205,"name":"aisu","steam_id":76561198043768507,"connected_time":11845000000000,"state":"active","ping":87},{"user_id":292,"name":"i hate my husbands gift","steam_id":76561198271964253,"connected_time":3762000000000,"state":"active","ping":62}]},{"server_id":406,"name":"Uncletopia | Seattle | 3 | Stopwatch Beta","name_short":"sea-3","host":"sea-1.us.uncletopia.com","port":27035,"enabled":true,"region":"us-west","cc":"us","latitude":47.608013,"longitude":-122.33517,"reserved":0,"last_update":"0001-01-01T00:00:00Z","name_a2s":"Uncletopia | Seattle | 3 | Stopwatch Beta","protocol":17,"map":"workshop/koth_bagel_rc6.ugc2514036946","folder":"tf","game":"Team Fortress","app_id":440,"player_count":0,"max_players":24,"Bots":0,"server_type":"Dedicated","server_os":"Linux","password":true,"vac":true,"version":"7932396","steam_id":85568392924515217,"keywords":["cp","nocrits","nodmgspread","uncletopia"],"game_id":440,"stv_port":27036,"stv_name":"Uncletopia | Seattle | 3 | Stopwatch Beta | STV","players":null},{"server_id":17,"name":"Uncletopia | San Francisco | 1 | All Maps","name_short":"sfo-1","host":"sfo-1.us.uncletopia.com","port":27015,"enabled":true,"region":"us-west","cc":"us","latitude":37.77397,"longitude":-122.4313,"reserved":0,"last_update":"0001-01-01T00:00:00Z","name_a2s":"Uncletopia | San Francisco | 1 | All Maps","protocol":17,"map":"cp_mountainlab","folder":"tf","game":"Team Fortress","app_id":440,"player_count":24,"max_players":24,"Bots":0,"server_type":"Dedicated","server_os":"Linux","password":true,"vac":true,"version":"7932396","steam_id":85568392924469999,"keywords":["cp","nocrits","nodmgspread","uncletopia"],"game_id":440,"stv_port":27016,"stv_name":"Uncletopia | San Francisco | 1 | All Maps | STV","players":[{"user_id":332,"name":"H.","steam_id":76561198074951179,"connected_time":3390000000000,"state":"active","ping":60},{"user_id":377,"name":"Sidekick","steam_id":76561198392740835,"connected_time":8000000000,"state":"spawning","ping":44},{"user_id":370,"name":"Dive(z)","steam_id":76561198140843225,"connected_time":463000000000,"state":"active","ping":83},{"user_id":367,"name":"CPTforever","steam_id":76561198237767198,"connected_time":499000000000,"state":"active","ping":45},{"user_id":373,"name":"Demonic Cipher","steam_id":76561198066082088,"connected_time":372000000000,"state":"active","ping":105},{"user_id":352,"name":"Vicpop","steam_id":76561197970531290,"connected_time":1542000000000,"state":"active","ping":78},{"user_id":362,"name":"Rusty","steam_id":76561198055585129,"connected_time":918000000000,"state":"active","ping":60},{"user_id":313,"name":"Vonaducci","steam_id":76561198079344729,"connected_time":4373000000000,"state":"active","ping":72},{"user_id":310,"name":"Minimrow","steam_id":76561199467410485,"connected_time":4446000000000,"state":"active","ping":79},{"user_id":376,"name":"El Gato Paranoico","steam_id":76561198116567116,"connected_time":315000000000,"state":"active","ping":105},{"user_id":355,"name":"fro","steam_id":76561198098124142,"connected_time":1414000000000,"state":"active","ping":46},{"user_id":359,"name":"Stevokenivo","steam_id":76561198083369950,"connected_time":1136000000000,"state":"active","ping":92},{"user_id":371,"name":"miscellaneous","steam_id":76561199436642954,"connected_time":458000000000,"state":"active","ping":79},{"user_id":335,"name":"Moonman327","steam_id":76561197992616059,"connected_time":3366000000000,"state":"active","ping":104},{"user_id":364,"name":"ImmuneToPeas","steam_id":76561198342411594,"connected_time":564000000000,"state":"active","ping":71},{"user_id":292,"name":"I'm a easy kill","steam_id":76561199092023746,"connected_time":5968000000000,"state":"active","ping":70},{"user_id":372,"name":"Fajita Master","steam_id":76561198329150962,"connected_time":427000000000,"state":"active","ping":96},{"user_id":358,"name":"Buffalo Gold","steam_id":76561198119693806,"connected_time":1204000000000,"state":"active","ping":165},{"user_id":374,"name":"noellehound","steam_id":76561198108844158,"connected_time":350000000000,"state":"active","ping":66},{"user_id":365,"name":"Ratchet55","steam_id":76561198208655521,"connected_time":560000000000,"state":"active","ping":59},{"user_id":375,"name":"westward (was/were)","steam_id":76561198805512350,"connected_time":341000000000,"state":"active","ping":76},{"user_id":325,"name":"Old_Hendrek_VII","steam_id":76561198997763068,"connected_time":4105000000000,"state":"active","ping":77},{"user_id":155,"name":"smith","steam_id":76561199391478575,"connected_time":17119000000000,"state":"active","ping":84},{"user_id":357,"name":"Paul Gaming","steam_id":76561198065538229,"connected_time":1256000000000,"state":"active","ping":62}]},{"server_id":18,"name":"Uncletopia | San Francisco | 2 | All Maps","name_short":"sfo-2","host":"sfo-1.us.uncletopia.com","port":27025,"enabled":true,"region":"us-west","cc":"us","latitude":37.77397,"longitude":-122.4313,"reserved":0,"last_update":"0001-01-01T00:00:00Z","name_a2s":"Uncletopia | San Francisco | 2 | All Maps","protocol":17,"map":"pl_swiftwater_final1","folder":"tf","game":"Team Fortress","app_id":440,"player_count":24,"max_players":24,"Bots":0,"server_type":"Dedicated","server_os":"Linux","password":true,"vac":true,"version":"7932396","steam_id":85568392924470000,"keywords":["nocrits","nodmgspread","payload","uncletopia"],"game_id":440,"stv_port":27026,"stv_name":"Uncletopia | San Francisco | 2 | All Maps | STV","players":[{"user_id":221,"name":"ibu","steam_id":76561197968084065,"connected_time":3589000000000,"state":"active","ping":71},{"user_id":238,"name":"Livin' Like Larry","steam_id":76561198313360974,"connected_time":854000000000,"state":"active","ping":39},{"user_id":142,"name":"Edwon","steam_id":76561198319902846,"connected_time":9602000000000,"state":"active","ping":60},{"user_id":197,"name":"DarkForce8","steam_id":76561198853892261,"connected_time":5614000000000,"state":"active","ping":71},{"user_id":227,"name":"Cat doin laundry","steam_id":76561198063895852,"connected_time":3164000000000,"state":"active","ping":85},{"user_id":87,"name":"Hindmost","steam_id":76561199081837220,"connected_time":12722000000000,"state":"active","ping":122},{"user_id":198,"name":"rad killl raccoon","steam_id":76561198980975595,"connected_time":5593000000000,"state":"active","ping":87},{"user_id":222,"name":"ForAPessimistImPrettyOptimistic","steam_id":76561198170128009,"connected_time":3588000000000,"state":"active","ping":59},{"user_id":175,"name":"G. Howard Dee","steam_id":76561198058382812,"connected_time":7214000000000,"state":"active","ping":59},{"user_id":200,"name":"Anarchy","steam_id":76561199062545363,"connected_time":5557000000000,"state":"active","ping":134},{"user_id":237,"name":"Raphael","steam_id":76561198101425586,"connected_time":1126000000000,"state":"active","ping":70},{"user_id":172,"name":"wlfgng","steam_id":76561198316639499,"connected_time":7274000000000,"state":"active","ping":38},{"user_id":242,"name":"Marcy (She/Her)","steam_id":76561198097413073,"connected_time":451000000000,"state":"active","ping":69},{"user_id":220,"name":"OddSlaush","steam_id":76561198043898488,"connected_time":3626000000000,"state":"active","ping":50},{"user_id":215,"name":"Optimore","steam_id":76561198047662990,"connected_time":4016000000000,"state":"active","ping":51},{"user_id":143,"name":"phon","steam_id":76561198140659236,"connected_time":9598000000000,"state":"active","ping":46},{"user_id":240,"name":"MEGA NEGBERT","steam_id":76561198325613425,"connected_time":657000000000,"state":"active","ping":85},{"user_id":233,"name":"selvhat","steam_id":76561198114225509,"connected_time":2265000000000,"state":"active","ping":82},{"user_id":245,"name":"charley","steam_id":76561198828238339,"connected_time":23000000000,"state":"active","ping":69},{"user_id":208,"name":"qt pa 2t","steam_id":76561198066867150,"connected_time":4907000000000,"state":"active","ping":112},{"user_id":239,"name":"Sadodere Grimace","steam_id":76561198008332028,"connected_time":685000000000,"state":"active","ping":66},{"user_id":223,"name":"viciousbeatmaker","steam_id":76561198086876652,"connected_time":3582000000000,"state":"active","ping":63},{"user_id":230,"name":"UnusualTofu","steam_id":76561198060103750,"connected_time":3045000000000,"state":"active","ping":60},{"user_id":243,"name":"SneekiCheekiQbone","steam_id":76561198045077980,"connected_time":372000000000,"state":"active","ping":53}]},{"server_id":19,"name":"Uncletopia | San Francisco | 3 | Stopwatch Beta","name_short":"sfo-3","host":"sfo-1.us.uncletopia.com","port":27035,"enabled":true,"region":"us-west","cc":"us","latitude":37.77397,"longitude":-122.4313,"reserved":0,"last_update":"0001-01-01T00:00:00Z","name_a2s":"Uncletopia | San Francisco | 3 | Stopwatch Beta","protocol":17,"map":"workshop/pl_badwater_pro_v12.ugc2142942074","folder":"tf","game":"Team Fortress","app_id":440,"player_count":0,"max_players":24,"Bots":0,"server_type":"Dedicated","server_os":"Linux","password":true,"vac":true,"version":"7932396","steam_id":85568392924742824,"keywords":["nocrits","nodmgspread","payload","uncletopia"],"game_id":440,"stv_port":27036,"stv_name":"Uncletopia | San Francisco | 3 | Stopwatch Beta | STV","players":null},{"server_id":20,"name":"Uncletopia | San Francisco | 4 | Community","name_short":"sfo-4","host":"sfo-1.us.uncletopia.com","port":27045,"enabled":true,"region":"us-west","cc":"us","latitude":37.77397,"longitude":-122.4313,"reserved":0,"last_update":"0001-01-01T00:00:00Z","name_a2s":"Uncletopia | San Francisco | 4 | Community","protocol":17,"map":"workshop/cp_croissant_final.ugc458840209","folder":"tf","game":"Team Fortress","app_id":440,"player_count":17,"max_players":24,"Bots":0,"server_type":"Dedicated","server_os":"Linux","password":true,"vac":true,"version":"7932396","steam_id":85568392924742826,"keywords":["cp","nocrits","nodmgspread","uncletopia"],"game_id":440,"stv_port":27046,"stv_name":"Uncletopia | San Francisco | 4 | Community | STV","players":[{"user_id":41,"name":"Grizzakk","steam_id":76561198115821923,"connected_time":2599000000000,"state":"active","ping":71},{"user_id":42,"name":"G.bo","steam_id":76561198085176270,"connected_time":2574000000000,"state":"active","ping":48},{"user_id":72,"name":"1998 chevy cavalier","steam_id":76561198143132686,"connected_time":3000000000,"state":"spawning","ping":80},{"user_id":13,"name":"johnman gooberguy","steam_id":76561199014859764,"connected_time":6581000000000,"state":"active","ping":59},{"user_id":14,"name":"SvicidalBug","steam_id":76561198221390504,"connected_time":6482000000000,"state":"active","ping":87},{"user_id":26,"name":"titty","steam_id":76561199034119199,"connected_time":4910000000000,"state":"active","ping":56},{"user_id":52,"name":"The_Pacific_gamer","steam_id":76561198089491446,"connected_time":863000000000,"state":"active","ping":67},{"user_id":62,"name":"SleeplessCollin","steam_id":76561198968140914,"connected_time":567000000000,"state":"active","ping":60},{"user_id":66,"name":"Eros","steam_id":76561198071413833,"connected_time":157000000000,"state":"active","ping":76},{"user_id":25,"name":"frog with knife","steam_id":76561198171203882,"connected_time":5354000000000,"state":"active","ping":119},{"user_id":63,"name":"Cringys","steam_id":76561199029812838,"connected_time":506000000000,"state":"active","ping":67},{"user_id":40,"name":"Zom_Named_Zam","steam_id":76561198328066203,"connected_time":2957000000000,"state":"active","ping":67},{"user_id":60,"name":"reiidaya","steam_id":76561198325306660,"connected_time":633000000000,"state":"active","ping":69},{"user_id":61,"name":"Milk","steam_id":76561198083766036,"connected_time":615000000000,"state":"active","ping":79},{"user_id":65,"name":"Λlex","steam_id":76561198024967421,"connected_time":189000000000,"state":"active","ping":33},{"user_id":69,"name":"Odd Life","steam_id":76561198244979998,"connected_time":128000000000,"state":"active","ping":52},{"user_id":70,"name":"Ice cream sandwich","steam_id":76561198172748357,"connected_time":93000000000,"state":"active","ping":46}]},{"server_id":141,"name":"Uncletopia | Sydney | 1 | All Maps","name_short":"syd-1","host":"syd-1.au.uncletopia.com","port":27015,"enabled":true,"region":"au","cc":"au","latitude":-33.865143,"longitude":151.2099,"reserved":0,"last_update":"0001-01-01T00:00:00Z","name_a2s":"Uncletopia | Sydney | 1 | All Maps","protocol":17,"map":"pl_badwater","folder":"tf","game":"Team Fortress","app_id":440,"player_count":0,"max_players":24,"Bots":0,"server_type":"Dedicated","server_os":"Linux","password":true,"vac":true,"version":"7932396","steam_id":85568392924470001,"keywords":["nocrits","nodmgspread","payload","uncletopia"],"game_id":440,"stv_port":27016,"stv_name":"Uncletopia | Sydney | 1 | All Maps | STV","players":null},{"server_id":123,"name":"Uncletopia | Sydney | 2 | All Maps","name_short":"syd-2","host":"syd-1.au.uncletopia.com","port":27025,"enabled":true,"region":"au","cc":"au","latitude":-33.865143,"longitude":151.2099,"reserved":0,"last_update":"0001-01-01T00:00:00Z","name_a2s":"Uncletopia | Sydney | 2 | All Maps","protocol":17,"map":"pl_pier","folder":"tf","game":"Team Fortress","app_id":440,"player_count":24,"max_players":24,"Bots":0,"server_type":"Dedicated","server_os":"Linux","password":true,"vac":true,"version":"7932396","steam_id":85568392924470002,"keywords":["nocrits","nodmgspread","payload","uncletopia"],"game_id":440,"stv_port":27026,"stv_name":"Uncletopia | Sydney | 2 | All Maps | STV","players":[{"user_id":65,"name":"_MAFKEES","steam_id":76561198233733104,"connected_time":1300000000000,"state":"active","ping":67},{"user_id":23,"name":"Muffin","steam_id":76561198075391119,"connected_time":3564000000000,"state":"active","ping":47},{"user_id":24,"name":"homes inc","steam_id":76561198170188198,"connected_time":3272000000000,"state":"active","ping":57},{"user_id":25,"name":"voxii","steam_id":76561198099698281,"connected_time":2925000000000,"state":"active","ping":68},{"user_id":55,"name":"maburaho1","steam_id":76561198211416633,"connected_time":1778000000000,"state":"active","ping":76},{"user_id":21,"name":"infernoraz","steam_id":76561198117582261,"connected_time":4315000000000,"state":"active","ping":55},{"user_id":50,"name":"mind eraser","steam_id":76561198145136439,"connected_time":1980000000000,"state":"active","ping":56},{"user_id":74,"name":"you've left me be Wilbur'd","steam_id":76561198301282416,"connected_time":932000000000,"state":"active","ping":40},{"user_id":70,"name":"Stayfucking1.5metresaway","steam_id":76561198070569251,"connected_time":984000000000,"state":"active","ping":68},{"user_id":58,"name":"full english onna toob","steam_id":76561198048064049,"connected_time":1617000000000,"state":"active","ping":81},{"user_id":34,"name":"Jeshī","steam_id":76561198105982416,"connected_time":2619000000000,"state":"active","ping":51},{"user_id":35,"name":"Ᵽ𐌄Ť𐌄Ұ","steam_id":76561199140764838,"connected_time":2600000000000,"state":"active","ping":72},{"user_id":79,"name":"pocket scout (jarry)","steam_id":76561198061532381,"connected_time":394000000000,"state":"active","ping":55},{"user_id":59,"name":"Tasman","steam_id":76561198041224384,"connected_time":1611000000000,"state":"active","ping":38},{"user_id":71,"name":"Yeat","steam_id":76561198202555552,"connected_time":981000000000,"state":"active","ping":44},{"user_id":39,"name":"theory haver","steam_id":76561198133867907,"connected_time":2427000000000,"state":"active","ping":72},{"user_id":46,"name":"FishKing","steam_id":76561198059674541,"connected_time":2174000000000,"state":"active","ping":70},{"user_id":80,"name":"ourmet","steam_id":76561198043910249,"connected_time":241000000000,"state":"active","ping":68},{"user_id":67,"name":"sav","steam_id":76561198058760041,"connected_time":1197000000000,"state":"active","ping":75},{"user_id":68,"name":"Centrelink","steam_id":76561198988128327,"connected_time":1098000000000,"state":"active","ping":45},{"user_id":73,"name":"lavanderpumpernickle","steam_id":76561199093611800,"connected_time":957000000000,"state":"active","ping":69},{"user_id":75,"name":"Warren","steam_id":76561198120350917,"connected_time":813000000000,"state":"active","ping":43},{"user_id":76,"name":"Eater","steam_id":76561198100050147,"connected_time":703000000000,"state":"active","ping":110},{"user_id":77,"name":"magnum opus","steam_id":76561197980015398,"connected_time":669000000000,"state":"active","ping":45}]},{"server_id":395,"name":"Uncletopia | Sydney | 3 | All Maps","name_short":"syd-3","host":"syd-1.au.uncletopia.com","port":27035,"enabled":true,"region":"au","cc":"au","latitude":-33.865143,"longitude":151.2099,"reserved":0,"last_update":"0001-01-01T00:00:00Z","name_a2s":"Uncletopia | Sydney | 3 | All Maps","protocol":17,"map":"cp_dustbowl","folder":"tf","game":"Team Fortress","app_id":440,"player_count":0,"max_players":24,"Bots":0,"server_type":"Dedicated","server_os":"Linux","password":true,"vac":true,"version":"7932396","steam_id":85568392925194467,"keywords":["cp","nocrits","nodmgspread","uncletopia"],"game_id":440,"stv_port":27036,"stv_name":"Uncletopia | Sydney | 3 | All Maps | STV","players":null},{"server_id":396,"name":"Uncletopia | Sydney | 4 | All Maps","name_short":"syd-4","host":"syd-1.au.uncletopia.com","port":27045,"enabled":true,"region":"au","cc":"au","latitude":-33.865143,"longitude":151.2099,"reserved":0,"last_update":"0001-01-01T00:00:00Z","name_a2s":"Uncletopia | Sydney | 4 | All Maps","protocol":17,"map":"pl_pier","folder":"tf","game":"Team Fortress","app_id":440,"player_count":0,"max_players":24,"Bots":0,"server_type":"Dedicated","server_os":"Linux","password":true,"vac":true,"version":"7932396","steam_id":85568392925397958,"keywords":["nocrits","nodmgspread","payload","uncletopia"],"game_id":440,"stv_port":27046,"stv_name":"Uncletopia | Sydney | 4 | All Maps | STV","players":null},{"server_id":58,"name":"Uncletopia | Sydney | 5 | Stopwatch Beta","name_short":"syd-5","host":"syd-1.au.uncletopia.com","port":27055,"enabled":true,"region":"au","cc":"au","latitude":-33.865143,"longitude":151.2099,"reserved":0,"last_update":"0001-01-01T00:00:00Z","name_a2s":"Uncletopia | Sydney | 5 | Stopwatch Beta","protocol":17,"map":"pl_borneo","folder":"tf","game":"Team Fortress","app_id":440,"player_count":0,"max_players":24,"Bots":0,"server_type":"Dedicated","server_os":"Linux","password":true,"vac":true,"version":"7932396","steam_id":85568392925397959,"keywords":["nocrits","nodmgspread","payload","uncletopia"],"game_id":440,"stv_port":27056,"stv_name":"Uncletopia | Sydney | 5 | Stopwatch Beta | STV","players":null},{"server_id":59,"name":"Uncletopia | Sydney | 6 | Community","name_short":"syd-6","host":"syd-1.au.uncletopia.com","port":27065,"enabled":true,"region":"au","cc":"au","latitude":-33.865143,"longitude":151.2099,"reserved":0,"last_update":"0001-01-01T00:00:00Z","name_a2s":"Uncletopia | Sydney | 6 | Community","protocol":17,"map":"workshop/pl_vigil_rc9.ugc1266210012","folder":"tf","game":"Team Fortress","app_id":440,"player_count":0,"max_players":24,"Bots":0,"server_type":"Dedicated","server_os":"Linux","password":true,"vac":true,"version":"7932396","steam_id":85568392925397960,"keywords":["nocrits","nodmgspread","payload","uncletopia"],"game_id":440,"stv_port":27066,"stv_name":"Uncletopia | Sydney | 6 | Community | STV","players":null},{"server_id":49,"name":"Uncletopia | Warsaw | 1 | All Maps","name_short":"waw-1","host":"waw-1.pl.uncletopia.com","port":27015,"enabled":true,"region":"eu","cc":"pl","latitude":52.2297,"longitude":21.017532,"reserved":0,"last_update":"0001-01-01T00:00:00Z","name_a2s":"","protocol":0,"map":"","folder":"","game":"","app_id":0,"player_count":0,"max_players":0,"Bots":0,"server_type":"","server_os":"","password":false,"vac":false,"version":"","steam_id":0,"keywords":null,"game_id":0,"stv_port":0,"stv_name":"","players":null},{"server_id":50,"name":"Uncletopia | Warsaw | 2 | All Maps","name_short":"waw-2","host":"waw-1.pl.uncletopia.com","port":27025,"enabled":true,"region":"eu","cc":"pl","latitude":52.2297,"longitude":21.017532,"reserved":0,"last_update":"0001-01-01T00:00:00Z","name_a2s":"Uncletopia | Warsaw | 2 | All Maps","protocol":17,"map":"cp_sunshine","folder":"tf","game":"Team Fortress","app_id":440,"player_count":0,"max_players":24,"Bots":0,"server_type":"Dedicated","server_os":"Linux","password":true,"vac":true,"version":"7932396","steam_id":85568392925397851,"keywords":["cp","nocrits","nodmgspread","uncletopia"],"game_id":440,"stv_port":27026,"stv_name":"Uncletopia | Warsaw | 2 | All Maps | STV","players":null},{"server_id":51,"name":"Uncletopia | Warsaw | 3 | All Maps","name_short":"waw-3","host":"waw-1.pl.uncletopia.com","port":27035,"enabled":true,"region":"eu","cc":"pl","latitude":52.2297,"longitude":21.017532,"reserved":0,"last_update":"0001-01-01T00:00:00Z","name_a2s":"Uncletopia | Warsaw | 3 | All Maps","protocol":17,"map":"koth_lakeside_final","folder":"tf","game":"Team Fortress","app_id":440,"player_count":0,"max_players":24,"Bots":0,"server_type":"Dedicated","server_os":"Linux","password":true,"vac":true,"version":"7932396","steam_id":85568392925397852,"keywords":["cp","nocrits","nodmgspread","uncletopia"],"game_id":440,"stv_port":27036,"stv_name":"Uncletopia | Warsaw | 3 | All Maps | STV","players":null},{"server_id":52,"name":"Uncletopia | Warsaw | 4 | All Maps","name_short":"waw-4","host":"waw-1.pl.uncletopia.com","port":27045,"enabled":true,"region":"eu","cc":"pl","latitude":52.2297,"longitude":21.017532,"reserved":0,"last_update":"0001-01-01T00:00:00Z","name_a2s":"Uncletopia | Warsaw | 4 | All Maps","protocol":17,"map":"pl_swiftwater_final1","folder":"tf","game":"Team Fortress","app_id":440,"player_count":0,"max_players":24,"Bots":0,"server_type":"Dedicated","server_os":"Linux","password":true,"vac":true,"version":"7932396","steam_id":85568392925397853,"keywords":["nocrits","nodmgspread","payload","uncletopia"],"game_id":440,"stv_port":27046,"stv_name":"Uncletopia | Warsaw | 4 | All Maps | STV","players":null},{"server_id":53,"name":"Uncletopia | Warsaw | 5 | Stopwatch Beta","name_short":"waw-5","host":"waw-1.pl.uncletopia.com","port":27055,"enabled":true,"region":"eu","cc":"pl","latitude":52.2297,"longitude":21.017532,"reserved":0,"last_update":"0001-01-01T00:00:00Z","name_a2s":"Uncletopia | Warsaw | 5 | Stopwatch Beta","protocol":17,"map":"koth_highpass","folder":"tf","game":"Team Fortress","app_id":440,"player_count":0,"max_players":24,"Bots":0,"server_type":"Dedicated","server_os":"Linux","password":true,"vac":true,"version":"7932396","steam_id":85568392925397854,"keywords":["cp","nocrits","nodmgspread","uncletopia"],"game_id":440,"stv_port":27056,"stv_name":"Uncletopia | Warsaw | 5 | Stopwatch Beta | STV","players":null},{"server_id":54,"name":"Uncletopia | Warsaw | 6 | Community","name_short":"waw-6","host":"waw-1.pl.uncletopia.com","port":27065,"enabled":true,"region":"eu","cc":"pl","latitude":52.2297,"longitude":21.017532,"reserved":0,"last_update":"0001-01-01T00:00:00Z","name_a2s":"Uncletopia | Warsaw | 6 | Community","protocol":17,"map":"pl_upward","folder":"tf","game":"Team Fortress","app_id":440,"player_count":0,"max_players":24,"Bots":0,"server_type":"Dedicated","server_os":"Linux","password":true,"vac":true,"version":"7932396","steam_id":85568392925397856,"keywords":["nocrits","nodmgspread","payload","uncletopia"],"game_id":440,"stv_port":27066,"stv_name":"Uncletopia | Warsaw | 6 | Community | STV","players":null}]}