{"status":true,"message":"","result":[{"server_id":9,"name":"Uncletopia | Atlanta | 1 | All Maps","name_short":"atl-1","host":"atl-1.us.uncletopia.com","port":27015,"enabled":true,"region":"us-east","cc":"us","latitude":33.753746,"longitude":-84.38633,"reserved":0,"last_update":"0001-01-01T00:00:00Z","name_a2s":"Uncletopia | Atlanta | 1 | All Maps","protocol":17,"map":"koth_lakeside_final","folder":"tf","game":"Team Fortress","app_id":440,"player_count":18,"max_players":24,"Bots":0,"server_type":"Dedicated","server_os":"Linux","password":true,"vac":true,"version":"7723704","steam_id":85568392924469982,"keywords":["cp","nocrits","nodmgspread","uncletopia"],"game_id":440,"stv_port":27016,"stv_name":"Uncletopia | Atlanta | 1 | All Maps | STV","players":[{"user_id":209,"name":"trashed","steam_id":76561197961095970,"connected_time":451000000000,"state":"active","ping":70},{"user_id":200,"name":"Arcadletus","steam_id":76561198976009938,"connected_time":1001000000000,"state":"active","ping":79},{"user_id":198,"name":"A used self heating flesh-light","steam_id":76561198069918221,"connected_time":1120000000000,"state":"active","ping":67},{"user_id":107,"name":"Abbashea","steam_id":76561199182136969,"connected_time":6836000000000,"state":"active","ping":104},{"user_id":217,"name":"KRELLAH","steam_id":76561198287045069,"connected_time":154000000000,"state":"active","ping":74},{"user_id":206,"name":"tinguspingus","steam_id":76561198147746558,"connected_time":716000000000,"state":"active","ping":64},{"user_id":212,"name":"ansoonii","steam_id":76561198092494136,"connected_time":296000000000,"state":"active","ping":69},{"user_id":202,"name":"-BRH- Tangled up in Bluegrass","steam_id":76561197987181139,"connected_time":939000000000,"state":"active","ping":80},{"user_id":194,"name":"eryn üó∫","steam_id":76561198004433070,"connected_time":1634000000000,"state":"active","ping":89},{"user_id":213,"name":"cyg","steam_id":76561198138012167,"connected_time":271000000000,"state":"active","ping":60},{"user_id":191,"name":"Juri Han","steam_id":76561198041678517,"connected_time":1960000000000,"state":"active","ping":114},{"user_id":214,"name":"Aegis","steam_id":76561198272052750,"connected_time":270000000000,"state":"active","ping":65},{"user_id":215,"name":"Godfinger","steam_id":76561198426346549,"connected_time":267000000000,"state":"active","ping":55},{"user_id":220,"name":"Bacon Stripper","steam_id":76561198012828731,"connected_time":109000000000,"state":"active","ping":64},{"user_id":184,"name":"tj3002rocks","steam_id":76561199017921546,"connected_time":2460000000000,"state":"active","ping":83},{"user_id":190,"name":"two vegan hot dogs","steam_id":76561198026589960,"connected_time":2054000000000,"state":"active","ping":75},{"user_id":187,"name":"ATL1 | on my hunting trip","steam_id":76561198315341646,"connected_time":2281000000000,"state":"active","ping":71},{"user_id":77,"name":"Uncle Shane","steam_id":76561198051236069,"connected_time":10015000000000,"state":"active","ping":152}]},{"server_id":400,"name":"Uncletopia | Atlanta | 3 | All Maps","name_short":"atl-3","host":"atl-1.us.uncletopia.com","port":27035,"enabled":true,"region":"us-east","cc":"us","latitude":33.753746,"longitude":-84.38633,"reserved":0,"last_update":"0001-01-01T00:00:00Z","name_a2s":"Uncletopia | Atlanta | 3 | All Maps","protocol":17,"map":"koth_viaduct","folder":"tf","game":"Team Fortress","app_id":440,"player_count":4,"max_players":24,"Bots":0,"server_type":"Dedicated","server_os":"Linux","password":true,"vac":true,"version":"7723704","steam_id":85568392924515187,"keywords":["cp","nocrits","nodmgspread","uncletopia"],"game_id":440,"stv_port":27036,"stv_name":"Uncletopia | Atlanta | 3 | All Maps | STV","players":[{"user_id":112,"name":"Space bar ¬©","steam_id":76561199405318831,"connected_time":1851000000000,"state":"active","ping":90},{"user_id":107,"name":"Throckmorton627","steam_id":76561199147734259,"connected_time":3582000000000,"state":"active","ping":67},{"user_id":113,"name":"squig_","steam_id":76561198043726592,"connected_time":594000000000,"state":"active","ping":60},{"user_id":114,"name":"Ziggy Q","steam_id":76561197995360978,"connected_time":18000000000,"state":"active","ping":58}]},{"server_id":401,"name":"Uncletopia | Atlanta | 4 | No Payload","name_short":"atl-4","host":"atl-1.us.uncletopia.com","port":27045,"enabled":true,"region":"us-east","cc":"us","latitude":33.753746,"longitude":-84.38633,"reserved":0,"last_update":"0001-01-01T00:00:00Z","name_a2s":"Uncletopia | Atlanta | 4 | No Payload","protocol":17,"map":"cp_dustbowl","folder":"tf","game":"Team Fortress","app_id":440,"player_count":0,"max_players":24,"Bots":0,"server_type":"Dedicated","server_os":"Linux","password":true,"vac":true,"version":"7723704","steam_id":85568392924515188,"keywords":["cp","nocrits","nodmgspread","uncletopia"],"game_id":440,"stv_port":27046,"stv_name":"Uncletopia | Atlanta | 4 | No Payload | STV","players":null},{"server_id":2,"name":"Uncletopia | Chicago | 1 | All Maps","name_short":"chi-1","host":"chi-1.us.uncletopia.com","port":27015,"enabled":true,"region":"us-central","cc":"us","latitude":41.881832,"longitude":-87.62318,"reserved":0,"last_update":"0001-01-01T00:00:00Z","name_a2s":"Uncletopia | Chicago | 1 | All Maps","protocol":17,"map":"pl_borneo","folder":"tf","game":"Team Fortress","app_id":440,"player_count":24,"max_players":24,"Bots":0,"server_type":"Dedicated","server_os":"Linux","password":true,"vac":true,"version":"7723704","steam_id":85568392924469984,"keywords":["nocrits","nodmgspread","payload","uncletopia"],"game_id":440,"stv_port":27016,"stv_name":"Uncletopia | Chicago | 1 | All Maps | STV","players":[{"user_id":216,"name":"gOLDEN","steam_id":76561198126162546,"connected_time":1692000000000,"state":"active","ping":79},{"user_id":227,"name":"Quentin","steam_id":76561198032941413,"connected_time":994000000000,"state":"active","ping":72},{"user_id":201,"name":"the porta potty meetup","steam_id":76561198263271697,"connected_time":2469000000000,"state":"active","ping":44},{"user_id":202,"name":"bulbasaur","steam_id":76561198060029029,"connected_time":2450000000000,"state":"active","ping":81},{"user_id":156,"name":"earthbound393","steam_id":76561199444276547,"connected_time":5798000000000,"state":"active","ping":151},{"user_id":224,"name":"simpsons capitalist","steam_id":76561198054731676,"connected_time":1243000000000,"state":"active","ping":68},{"user_id":222,"name":"Whorenet","steam_id":76561198090433209,"connected_time":1303000000000,"state":"active","ping":91},{"user_id":203,"name":"Chuck Finley","steam_id":76561198027411284,"connected_time":2445000000000,"state":"active","ping":73},{"user_id":191,"name":"Zubats |TAOZ|","steam_id":76561198041819445,"connected_time":3378000000000,"state":"active","ping":57},{"user_id":184,"name":"Blink","steam_id":76561197986181277,"connected_time":4269000000000,"state":"active","ping":60},{"user_id":225,"name":"KnightOfGames","steam_id":76561198080460659,"connected_time":1194000000000,"state":"active","ping":73},{"user_id":205,"name":"Psychosis","steam_id":76561198078659070,"connected_time":2422000000000,"state":"active","ping":78},{"user_id":207,"name":"Kaktus Finger","steam_id":76561198132808244,"connected_time":2394000000000,"state":"active","ping":70},{"user_id":167,"name":"azusa","steam_id":76561198049483469,"connected_time":5328000000000,"state":"active","ping":75},{"user_id":219,"name":"TallBadUserName","steam_id":76561198399685508,"connected_time":1415000000000,"state":"active","ping":84},{"user_id":187,"name":"earthtraveler413","steam_id":76561198865139926,"connected_time":3539000000000,"state":"active","ping":97},{"user_id":229,"name":"macroconsumer51","steam_id":76561198284388342,"connected_time":959000000000,"state":"active","ping":44},{"user_id":168,"name":"jajaja","steam_id":76561197980633611,"connected_time":5321000000000,"state":"active","ping":92},{"user_id":232,"name":"pie gaming","steam_id":76561198072592880,"connected_time":857000000000,"state":"active","ping":40},{"user_id":236,"name":"Ye (I Love Hitler) West","steam_id":76561198068830312,"connected_time":189000000000,"state":"active","ping":46},{"user_id":230,"name":"Authentic Tacos","steam_id":76561198092447766,"connected_time":935000000000,"state":"active","ping":79},{"user_id":210,"name":"Oak","steam_id":76561198092135570,"connected_time":2285000000000,"state":"active","ping":59},{"user_id":164,"name":"SlimGrady","steam_id":76561198451231329,"connected_time":5517000000000,"state":"active","ping":61},{"user_id":226,"name":"wtrgun","steam_id":76561198045874690,"connected_time":1166000000000,"state":"active","ping":65}]},{"server_id":106,"name":"Uncletopia | Chicago | 2 | All Maps","name_short":"chi-2","host":"chi-1.us.uncletopia.com","port":27025,"enabled":true,"region":"us-central","cc":"us","latitude":41.881832,"longitude":-87.62318,"reserved":0,"last_update":"0001-01-01T00:00:00Z","name_a2s":"Uncletopia | Chicago | 2 | All Maps","protocol":17,"map":"koth_highpass","folder":"tf","game":"Team Fortress","app_id":440,"player_count":0,"max_players":24,"Bots":0,"server_type":"Dedicated","server_os":"Linux","password":true,"vac":true,"version":"7723704","steam_id":85568392924469985,"keywords":["cp","nocrits","nodmgspread","uncletopia"],"game_id":440,"stv_port":27026,"stv_name":"Uncletopia | Chicago | 2 | All Maps | STV","players":null},{"server_id":402,"name":"Uncletopia | Chicago | 3 | All Maps","name_short":"chi-3","host":"chi-1.us.uncletopia.com","port":27035,"enabled":true,"region":"us-central","cc":"us","latitude":41.881832,"longitude":-87.62318,"reserved":0,"last_update":"0001-01-01T00:00:00Z","name_a2s":"Uncletopia | Chicago | 3 | All Maps","protocol":17,"map":"ctf_2fort","folder":"tf","game":"Team Fortress","app_id":440,"player_count":4,"max_players":24,"Bots":0,"server_type":"Dedicated","server_os":"Linux","password":true,"vac":true,"version":"7723704","steam_id":85568392924515191,"keywords":["ctf","nocrits","nodmgspread","uncletopia"],"game_id":440,"stv_port":27036,"stv_name":"Uncletopia | Chicago | 3 | All Maps | STV","players":[{"user_id":172,"name":"base4","steam_id":76561198042226166,"connected_time":794000000000,"state":"active","ping":74},{"user_id":142,"name":"Space Cops","steam_id":76561198032414253,"connected_time":3387000000000,"state":"active","ping":45},{"user_id":158,"name":"Hermit not Kermit","steam_id":76561198106182525,"connected_time":2536000000000,"state":"active","ping":94},{"user_id":157,"name":"Saristan","steam_id":76561198093346048,"connected_time":2612000000000,"state":"active","ping":64}]},{"server_id":403,"name":"Uncletopia | Chicago | 4 | All Maps","name_short":"chi-4","host":"chi-1.us.uncletopia.com","port":27045,"enabled":true,"region":"us-central","cc":"us","latitude":41.881832,"longitude":-87.62318,"reserved":0,"last_update":"0001-01-01T00:00:00Z","name_a2s":"Uncletopia | Chicago | 4 | All Maps","protocol":17,"map":"cp_5gorge","folder":"tf","game":"Team Fortress","app_id":440,"player_count":24,"max_players":24,"Bots":0,"server_type":"Dedicated","server_os":"Linux","password":true,"vac":true,"version":"7723704","steam_id":85568392924515193,"keywords":["cp","nocrits","nodmgspread","uncletopia"],"game_id":440,"stv_port":27046,"stv_name":"Uncletopia | Chicago | 4 | All Maps | STV","players":[{"user_id":155,"name":"General Scout","steam_id":76561198072395300,"connected_time":1033000000000,"state":"active","ping":92},{"user_id":137,"name":"motherfucker 2.0","steam_id":76561198141189209,"connected_time":1664000000000,"state":"active","ping":60},{"user_id":123,"name":"dabsol","steam_id":76561198272096751,"connected_time":2337000000000,"state":"active","ping":41},{"user_id":144,"name":"DellSlingerr","steam_id":76561199025496547,"connected_time":1240000000000,"state":"active","ping":176},{"user_id":102,"name":"MrPunda59","steam_id":76561199178520181,"connected_time":3193000000000,"state":"active","ping":65},{"user_id":156,"name":"Webi Wabo","steam_id":76561198799224408,"connected_time":1012000000000,"state":"active","ping":61},{"user_id":124,"name":"InfernoFlower64","steam_id":76561198181097391,"connected_time":2231000000000,"state":"active","ping":103},{"user_id":158,"name":"scooterre","steam_id":76561198055068182,"connected_time":636000000000,"state":"active","ping":50},{"user_id":116,"name":"Stev","steam_id":76561198061516631,"connected_time":2563000000000,"state":"active","ping":32},{"user_id":117,"name":"carnage519","steam_id":76561199231295945,"connected_time":2551000000000,"state":"active","ping":59},{"user_id":122,"name":"Lavender","steam_id":76561198142770666,"connected_time":2356000000000,"state":"active","ping":62},{"user_id":138,"name":"paruko gaming üéÄ","steam_id":76561198968603379,"connected_time":1653000000000,"state":"active","ping":56},{"user_id":146,"name":"Fantastic","steam_id":76561198079088978,"connected_time":1163000000000,"state":"active","ping":42},{"user_id":153,"name":"Yeshie the Dragon Layer","steam_id":76561198080214214,"connected_time":1096000000000,"state":"active","ping":41},{"user_id":139,"name":"Funky Buttlovin","steam_id":76561198002807702,"connected_time":1631000000000,"state":"active","ping":52},{"user_id":127,"name":"Antifa Alligator","steam_id":76561197988170816,"connected_time":2094000000000,"state":"active","ping":52},{"user_id":128,"name":"didn't ask","steam_id":76561198452509759,"connected_time":2083000000000,"state":"active","ping":48},{"user_id":159,"name":"mime girl","steam_id":76561198337705174,"connected_time":558000000000,"state":"active","ping":61},{"user_id":130,"name":"gretchling","steam_id":76561198046111695,"connected_time":2010000000000,"state":"active","ping":61},{"user_id":154,"name":"Antonio Molonio","steam_id":76561198038929334,"connected_time":1096000000000,"state":"active","ping":56},{"user_id":132,"name":"WarpDrive489","steam_id":76561198320395110,"connected_time":1968000000000,"state":"active","ping":73},{"user_id":140,"name":"sheep","steam_id":76561198172943006,"connected_time":1618000000000,"state":"active","ping":45},{"user_id":161,"name":"Slimbo","steam_id":76561198132096074,"connected_time":19000000000,"state":"active","ping":197},{"user_id":162,"name":"Anthoneeee","steam_id":76561199209220671,"connected_time":8000000000,"state":"spawning","ping":116}]},{"server_id":36,"name":"Uncletopia | Chicago | 5 | All Maps","name_short":"chi-5","host":"chi-2.us.uncletopia.com","port":27015,"enabled":true,"region":"us-central","cc":"us","latitude":41.881832,"longitude":-87.62318,"reserved":0,"last_update":"0001-01-01T00:00:00Z","name_a2s":"Uncletopia | Chicago | 5 | All Maps","protocol":17,"map":"koth_cascade","folder":"tf","game":"Team Fortress","app_id":440,"player_count":0,"max_players":24,"Bots":0,"server_type":"Dedicated","server_os":"Linux","password":true,"vac":true,"version":"7723704","steam_id":85568392924866362,"keywords":["cp","nocrits","nodmgspread","uncletopia"],"game_id":440,"stv_port":27016,"stv_name":"Uncletopia | Chicago | 5 | All Maps | STV","players":null},{"server_id":37,"name":"Uncletopia | Chicago | 6 | All Maps","name_short":"chi-6","host":"chi-2.us.uncletopia.com","port":27025,"enabled":true,"region":"us-central","cc":"us","latitude":41.881832,"longitude":-87.62318,"reserved":0,"last_update":"0001-01-01T00:00:00Z","name_a2s":"Uncletopia | Chicago | 6 | All Maps","protocol":17,"map":"koth_lakeside_final","folder":"tf","game":"Team Fortress","app_id":440,"player_count":0,"max_players":24,"Bots":0,"server_type":"Dedicated","server_os":"Linux","password":true,"vac":true,"version":"7723704","steam_id":85568392924866363,"keywords":["cp","nocrits","nodmgspread","uncletopia"],"game_id":440,"stv_port":27026,"stv_name":"Uncletopia | Chicago | 6 | All Maps | STV","players":null},{"server_id":38,"name":"Uncletopia | Chicago | 7 | Stopwatch (test)","name_short":"chi-7","host":"chi-2.us.uncletopia.com","port":27035,"enabled":true,"region":"us-central","cc":"us","latitude":41.881832,"longitude":-87.62318,"reserved":0,"last_update":"0001-01-01T00:00:00Z","name_a2s":"Uncletopia | Chicago | 7 | Stopwatch (test)","protocol":17,"map":"pl_upward","folder":"tf","game":"Team Fortress","app_id":440,"player_count":0,"max_players":24,"Bots":0,"server_type":"Dedicated","server_os":"Linux","password":true,"vac":true,"version":"7723704","steam_id":85568392924866364,"keywords":["nocrits","nodmgspread","payload","uncletopia"],"game_id":440,"stv_port":27036,"stv_name":"Uncletopia | Chicago | 7 | Stopwatch (test) | STV","players":null},{"server_id":39,"name":"Uncletopia | Chicago | 8 | Community","name_short":"chi-8","host":"chi-2.us.uncletopia.com","port":27045,"enabled":true,"region":"us-central","cc":"us","latitude":41.881832,"longitude":-87.62318,"reserved":0,"last_update":"0001-01-01T00:00:00Z","name_a2s":"Uncletopia | Chicago | 8 | Community","protocol":17,"map":"workshop/pl_eruption_b8c.ugc2865677281","folder":"tf","game":"Team Fortress","app_id":440,"player_count":0,"max_players":24,"Bots":0,"server_type":"Dedicated","server_os":"Linux","password":true,"vac":true,"version":"7723704","steam_id":85568392924866365,"keywords":["nocrits","nodmgspread","payload","uncletopia"],"game_id":440,"stv_port":27046,"stv_name":"Uncletopia | Chicago | 8 | Community | STV","players":null},{"server_id":8,"name":"Uncletopia | Dallas | 1 | All Maps","name_short":"dal-1","host":"dal-1.us.uncletopia.com","port":27015,"enabled":true,"region":"us-central","cc":"us","latitude":32.779167,"longitude":-96.80889,"reserved":0,"last_update":"0001-01-01T00:00:00Z","name_a2s":"Uncletopia | Dallas | 1 | All Maps","protocol":17,"map":"pl_borneo","folder":"tf","game":"Team Fortress","app_id":440,"player_count":12,"max_players":24,"Bots":0,"server_type":"Dedicated","server_os":"Linux","password":true,"vac":true,"version":"7723704","steam_id":85568392924469986,"keywords":["nocrits","nodmgspread","payload","uncletopia"],"game_id":440,"stv_port":27016,"stv_name":"Uncletopia | Dallas | 1 | All Maps | STV","players":[{"user_id":217,"name":"The Engie","steam_id":76561198029782412,"connected_time":2770000000000,"state":"active","ping":53},{"user_id":157,"name":"ian","steam_id":76561198119616750,"connected_time":6009000000000,"state":"active","ping":54},{"user_id":175,"name":"WeAreTheSpirits","steam_id":76561198191555728,"connected_time":4742000000000,"state":"active","ping":75},{"user_id":231,"name":"joey","steam_id":76561198081593895,"connected_time":1574000000000,"state":"active","ping":79},{"user_id":241,"name":"Redzur","steam_id":76561199384588086,"connected_time":460000000000,"state":"active","ping":77},{"user_id":242,"name":"Sussy Baka","steam_id":76561199384223330,"connected_time":398000000000,"state":"active","ping":208},{"user_id":243,"name":"Nicklouse","steam_id":76561198852629024,"connected_time":4000000000,"state":"spawning","ping":59},{"user_id":238,"name":"cringeass nae-nae girl","steam_id":76561198108753857,"connected_time":676000000000,"state":"active","ping":68},{"user_id":236,"name":"BoomieMcBoomPants","steam_id":76561198144516828,"connected_time":915000000000,"state":"active","ping":90},{"user_id":218,"name":"McNamJam","steam_id":76561198028128686,"connected_time":2601000000000,"state":"active","ping":87},{"user_id":179,"name":"Shit445","steam_id":76561198973155726,"connected_time":4687000000000,"state":"active","ping":93},{"user_id":232,"name":"Jacasola","steam_id":76561198055460402,"connected_time":1357000000000,"state":"active","ping":78}]},{"server_id":108,"name":"Uncletopia | Dallas | 2 | All Maps","name_short":"dal-2","host":"dal-1.us.uncletopia.com","port":27025,"enabled":true,"region":"us-central","cc":"us","latitude":32.779167,"longitude":-96.80889,"reserved":0,"last_update":"0001-01-01T00:00:00Z","name_a2s":"Uncletopia | Dallas | 2 | All Maps","protocol":17,"map":"pl_snowycoast","folder":"tf","game":"Team Fortress","app_id":440,"player_count":4,"max_players":24,"Bots":0,"server_type":"Dedicated","server_os":"Linux","password":true,"vac":true,"version":"7723704","steam_id":85568392924469988,"keywords":["nocrits","nodmgspread","payload","uncletopia"],"game_id":440,"stv_port":27026,"stv_name":"Uncletopia | Dallas | 2 | All Maps | STV","players":[{"user_id":165,"name":"CrackedSanity","steam_id":76561198279841251,"connected_time":1725000000000,"state":"active","ping":70},{"user_id":163,"name":"The Glizzanator","steam_id":76561198115355451,"connected_time":2115000000000,"state":"active","ping":61},{"user_id":164,"name":"darkness.danny3481","steam_id":76561198132808002,"connected_time":2036000000000,"state":"active","ping":68},{"user_id":169,"name":"Trollage","steam_id":76561198165396407,"connected_time":265000000000,"state":"active","ping":58}]},{"server_id":5,"name":"Uncletopia | Frankfurt | 1 | All Maps","name_short":"frk-1","host":"frk-1.de.uncletopia.com","port":27015,"enabled":true,"region":"eu","cc":"de","latitude":50.110924,"longitude":8.682127,"reserved":0,"last_update":"0001-01-01T00:00:00Z","name_a2s":"Uncletopia | Frankfurt | 1 | All Maps","protocol":17,"map":"cp_mountainlab","folder":"tf","game":"Team Fortress","app_id":440,"player_count":0,"max_players":24,"Bots":0,"server_type":"Dedicated","server_os":"Linux","password":true,"vac":true,"version":"7723704","steam_id":85568392924469989,"keywords":["cp","nocrits","nodmgspread","uncletopia"],"game_id":440,"stv_port":27016,"stv_name":"Uncletopia | Frankfurt | 1 | All Maps | STV","players":null},{"server_id":110,"name":"Uncletopia | Frankfurt | 2 | All Maps","name_short":"frk-2","host":"frk-1.de.uncletopia.com","port":27025,"enabled":true,"region":"eu","cc":"de","latitude":50.110924,"longitude":8.682127,"reserved":0,"last_update":"0001-01-01T00:00:00Z","name_a2s":"Uncletopia | Frankfurt | 2 | All Maps","protocol":17,"map":"pl_pier","folder":"tf","game":"Team Fortress","app_id":440,"player_count":0,"max_players":24,"Bots":0,"server_type":"Dedicated","server_os":"Linux","password":true,"vac":true,"version":"7723704","steam_id":85568392924469990,"keywords":["nocrits","nodmgspread","payload","uncletopia"],"game_id":440,"stv_port":27026,"stv_name":"Uncletopia | Frankfurt | 2 | All Maps | STV","players":null},{"server_id":308,"name":"Uncletopia | Frankfurt | 3 | All Maps","name_short":"frk-3","host":"frk-1.de.uncletopia.com","port":27035,"enabled":true,"region":"eu","cc":"de","latitude":50.110924,"longitude":8.682127,"reserved":0,"last_update":"0001-01-01T00:00:00Z","name_a2s":"Uncletopia | Frankfurt | 3 | All Maps","protocol":17,"map":"pl_swiftwater_final1","folder":"tf","game":"Team Fortress","app_id":440,"player_count":0,"max_players":24,"Bots":0,"server_type":"Dedicated","server_os":"Linux","password":true,"vac":true,"version":"7723704","steam_id":85568392924504274,"keywords":["nocrits","nodmgspread","payload","uncletopia"],"game_id":440,"stv_port":27036,"stv_name":"Uncletopia | Frankfurt | 3 | All Maps | STV","players":null},{"server_id":309,"name":"Uncletopia | Frankfurt | 4 | All Maps","name_short":"frk-4","host":"frk-1.de.uncletopia.com","port":27045,"enabled":true,"region":"eu","cc":"de","latitude":50.110924,"longitude":8.682127,"reserved":0,"last_update":"0001-01-01T00:00:00Z","name_a2s":"Uncletopia | Frankfurt | 4 | All Maps","protocol":17,"map":"cp_altitude","folder":"tf","game":"Team Fortress","app_id":440,"player_count":0,"max_players":24,"Bots":0,"server_type":"Dedicated","server_os":"Linux","password":true,"vac":true,"version":"7723704","steam_id":85568392924504275,"keywords":["cp","nocrits","nodmgspread","uncletopia"],"game_id":440,"stv_port":27046,"stv_name":"Uncletopia | Frankfurt | 4 | All Maps | STV","players":null},{"server_id":310,"name":"Uncletopia | Frankfurt | 5 | All Maps","name_short":"frk-5","host":"frk-1.de.uncletopia.com","port":27055,"enabled":true,"region":"eu","cc":"de","latitude":50.110924,"longitude":8.682127,"reserved":0,"last_update":"0001-01-01T00:00:00Z","name_a2s":"Uncletopia | Frankfurt | 5 | All Maps","protocol":17,"map":"cp_process_final","folder":"tf","game":"Team Fortress","app_id":440,"player_count":0,"max_players":24,"Bots":0,"server_type":"Dedicated","server_os":"Linux","password":true,"vac":true,"version":"7723704","steam_id":85568392924504277,"keywords":["cp","nocrits","nodmgspread","uncletopia"],"game_id":440,"stv_port":27056,"stv_name":"Uncletopia | Frankfurt | 5 | All Maps | STV","players":null},{"server_id":311,"name":"Uncletopia | Frankfurt | 6 | All Maps","name_short":"frk-6","host":"frk-1.de.uncletopia.com","port":27065,"enabled":true,"region":"eu","cc":"de","latitude":50.110924,"longitude":8.682127,"reserved":0,"last_update":"0001-01-01T00:00:00Z","name_a2s":"Uncletopia | Frankfurt | 6 | All Maps","protocol":17,"map":"cp_snakewater_final1","folder":"tf","game":"Team Fortress","app_id":440,"player_count":0,"max_players":24,"Bots":0,"server_type":"Dedicated","server_os":"Linux","password":true,"vac":true,"version":"7723704","steam_id":85568392924504278,"keywords":["cp","nocrits","nodmgspread","uncletopia"],"game_id":440,"stv_port":27066,"stv_name":"Uncletopia | Frankfurt | 6 | All Maps | STV","players":null},{"server_id":23,"name":"Uncletopia | Frankfurt | 7 | No Payload","name_short":"frk-7","host":"frk-1.de.uncletopia.com","port":27075,"enabled":true,"region":"eu","cc":"de","latitude":50.110924,"longitude":8.682127,"reserved":0,"last_update":"0001-01-01T00:00:00Z","name_a2s":"Uncletopia | Frankfurt | 7 | No Payload","protocol":17,"map":"pl_upward","folder":"tf","game":"Team Fortress","app_id":440,"player_count":0,"max_players":24,"Bots":0,"server_type":"Dedicated","server_os":"Linux","password":true,"vac":true,"version":"7723704","steam_id":85568392924742827,"keywords":["nocrits","nodmgspread","payload","uncletopia"],"game_id":440,"stv_port":27076,"stv_name":"Uncletopia | Frankfurt | 7 | No Payload | STV","players":null},{"server_id":24,"name":"Uncletopia | Frankfurt | 8 | Community","name_short":"frk-8","host":"frk-1.de.uncletopia.com","port":27085,"enabled":true,"region":"eu","cc":"de","latitude":50.110924,"longitude":8.682127,"reserved":0,"last_update":"0001-01-01T00:00:00Z","name_a2s":"Uncletopia | Frankfurt | 8 | Community","protocol":17,"map":"cp_altitude","folder":"tf","game":"Team Fortress","app_id":440,"player_count":0,"max_players":24,"Bots":0,"server_type":"Dedicated","server_os":"Linux","password":true,"vac":true,"version":"7723704","steam_id":85568392924742828,"keywords":["cp","nocrits","nodmgspread","uncletopia"],"game_id":440,"stv_port":27086,"stv_name":"Uncletopia | Frankfurt | 8 | Community | STV","players":null},{"server_id":202,"name":"Uncletopia | Hong Kong | 1 | All Maps","name_short":"hgk-1","host":"hgk-1.hk.uncletopia.com","port":27015,"enabled":true,"region":"asia","cc":"hk","latitude":22.302711,"longitude":114.177216,"reserved":0,"last_update":"0001-01-01T00:00:00Z","name_a2s":"Uncletopia | Hong Kong | 1 | All Maps","protocol":17,"map":"pl_pier","folder":"tf","game":"Team Fortress","app_id":440,"player_count":21,"max_players":24,"Bots":0,"server_type":"Dedicated","server_os":"Linux","password":true,"vac":true,"version":"7723704","steam_id":85568392924494504,"keywords":["nocrits","nodmgspread","payload","uncletopia"],"game_id":440,"stv_port":27016,"stv_name":"Uncletopia | Hong Kong | 1 | All Maps | STV","players":[{"user_id":161,"name":"Hola","steam_id":76561198047256008,"connected_time":1362000000000,"state":"active","ping":114},{"user_id":168,"name":"IZ*","steam_id":76561198834621927,"connected_time":667000000000,"state":"active","ping":84},{"user_id":93,"name":"Noyour","steam_id":76561198323259830,"connected_time":6423000000000,"state":"active","ping":112},{"user_id":116,"name":"it chrmis time","steam_id":76561198055553140,"connected_time":4215000000000,"state":"active","ping":76},{"user_id":159,"name":"dedjguy30","steam_id":76561198411791903,"connected_time":1475000000000,"state":"active","ping":78},{"user_id":173,"name":"nuts from berserk","steam_id":76561198360192254,"connected_time":48000000000,"state":"active","ping":55},{"user_id":135,"name":"cum inside me","steam_id":76561198113541041,"connected_time":3176000000000,"state":"active","ping":105},{"user_id":33,"name":"nick","steam_id":76561198400698408,"connected_time":9628000000000,"state":"active","ping":84},{"user_id":162,"name":"‚ô• 5pb ‚ô•","steam_id":76561198045694966,"connected_time":1280000000000,"state":"active","ping":70},{"user_id":170,"name":"Dizzy","steam_id":76561199121619743,"connected_time":480000000000,"state":"active","ping":85},{"user_id":75,"name":"+","steam_id":76561198121311286,"connected_time":7112000000000,"state":"active","ping":66},{"user_id":145,"name":"bakabazooka(merrychrismas)","steam_id":76561198061628689,"connected_time":2206000000000,"state":"active","ping":56},{"user_id":121,"name":"Ë†¢ËÑ∏È™ëÂ£´ËÑ∏‰∏çË†¢","steam_id":76561198422372840,"connected_time":3953000000000,"state":"active","ping":58},{"user_id":107,"name":"ogey","steam_id":76561198074339034,"connected_time":5454000000000,"state":"active","ping":78},{"user_id":125,"name":"mosqito","steam_id":76561198195487041,"connected_time":3847000000000,"state":"active","ping":86},{"user_id":95,"name":"Slave Buyer","steam_id":76561198877713016,"connected_time":6250000000000,"state":"active","ping":107},{"user_id":136,"name":"wish","steam_id":76561198096062185,"connected_time":3173000000000,"state":"active","ping":104},{"user_id":137,"name":"Soap","steam_id":76561198152588681,"connected_time":3166000000000,"state":"active","ping":81},{"user_id":143,"name":"screaming sniper","steam_id":76561199085568674,"connected_time":2230000000000,"state":"active","ping":72},{"user_id":165,"name":"Èõ™„Éé‰∏ãÈõ™‰πÉ„ÅÆoppai","steam_id":76561198008307645,"connected_time":973000000000,"state":"active","ping":76},{"user_id":112,"name":"MS PowerPoint","steam_id":76561198369523192,"connected_time":4359000000000,"state":"active","ping":64}]},{"server_id":1,"name":"Uncletopia | Los Angeles | 1 | All Maps","name_short":"lax-1","host":"lax-1.us.uncletopia.com","port":27015,"enabled":true,"region":"us-west","cc":"us","latitude":33.94279,"longitude":-118.41004,"reserved":0,"last_update":"0001-01-01T00:00:00Z","name_a2s":"Uncletopia | Los Angeles | 1 | All Maps","protocol":17,"map":"pl_frontier_final","folder":"tf","game":"Team Fortress","app_id":440,"player_count":24,"max_players":24,"Bots":0,"server_type":"Dedicated","server_os":"Linux","password":true,"vac":true,"version":"7723704","steam_id":85568392924469991,"keywords":["nocrits","nodmgspread","payload","uncletopia"],"game_id":440,"stv_port":27016,"stv_name":"Uncletopia | Los Angeles | 1 | All Maps | STV","players":[{"user_id":73,"name":"K-2","steam_id":76561198322606535,"connected_time":7632000000000,"state":"active","ping":62},{"user_id":140,"name":"For Whom The Taco Bell Tolls","steam_id":76561198418288939,"connected_time":1047000000000,"state":"active","ping":54},{"user_id":135,"name":"Filliam","steam_id":76561198124028151,"connected_time":1633000000000,"state":"active","ping":101},{"user_id":136,"name":"SwineFlu","steam_id":76561197989014109,"connected_time":1597000000000,"state":"active","ping":85},{"user_id":119,"name":"EmmLoaf","steam_id":76561198022097954,"connected_time":2855000000000,"state":"active","ping":57},{"user_id":106,"name":"Star","steam_id":76561198422395239,"connected_time":4710000000000,"state":"active","ping":49},{"user_id":84,"name":"gamer_hater","steam_id":76561198973306314,"connected_time":5966000000000,"state":"active","ping":51},{"user_id":137,"name":"dzcreeper","steam_id":76561198072250723,"connected_time":1409000000000,"state":"active","ping":76},{"user_id":116,"name":"Jesus","steam_id":76561198018890911,"connected_time":2928000000000,"state":"active","ping":66},{"user_id":142,"name":"deku :3","steam_id":76561198143214992,"connected_time":767000000000,"state":"active","ping":114},{"user_id":145,"name":"Not Slavoj ≈Ωi≈æek","steam_id":76561198004619616,"connected_time":258000000000,"state":"active","ping":52},{"user_id":134,"name":"Dwayne \"The Crack Rock\" Johnson","steam_id":76561198073699764,"connected_time":2034000000000,"state":"active","ping":57},{"user_id":103,"name":"Azurath","steam_id":76561198171689795,"connected_time":4878000000000,"state":"active","ping":66},{"user_id":86,"name":"ToughGuy311","steam_id":76561198131458027,"connected_time":5957000000000,"state":"active","ping":115},{"user_id":144,"name":"goopsnatch","steam_id":76561198143877682,"connected_time":264000000000,"state":"active","ping":64},{"user_id":126,"name":"FROYO b4nny","steam_id":76561197970669109,"connected_time":2510000000000,"state":"active","ping":52},{"user_id":139,"name":"sweaterfan","steam_id":76561199389567214,"connected_time":1063000000000,"state":"active","ping":101},{"user_id":95,"name":"SSBM Pelican","steam_id":76561198040697907,"connected_time":5519000000000,"state":"active","ping":78},{"user_id":105,"name":"Bubbamanme","steam_id":76561198119778504,"connected_time":4753000000000,"state":"active","ping":77},{"user_id":104,"name":"Naffers","steam_id":76561198195957335,"connected_time":4784000000000,"state":"active","ping":72},{"user_id":128,"name":"Nicotine","steam_id":76561198285892734,"connected_time":2499000000000,"state":"active","ping":117},{"user_id":131,"name":"astroph","steam_id":76561198145779053,"connected_time":2466000000000,"state":"active","ping":82},{"user_id":133,"name":"BrightOrangeMango","steam_id":76561198023144607,"connected_time":2306000000000,"state":"active","ping":60},{"user_id":132,"name":"invb","steam_id":76561197998263914,"connected_time":2466000000000,"state":"active","ping":91}]},{"server_id":112,"name":"Uncletopia | Los Angeles | 2 | All Maps","name_short":"lax-2","host":"lax-1.us.uncletopia.com","port":27025,"enabled":true,"region":"us-west","cc":"us","latitude":33.94279,"longitude":-118.41004,"reserved":0,"last_update":"0001-01-01T00:00:00Z","name_a2s":"Uncletopia | Los Angeles | 2 | All Maps","protocol":17,"map":"pl_snowycoast","folder":"tf","game":"Team Fortress","app_id":440,"player_count":0,"max_players":24,"Bots":0,"server_type":"Dedicated","server_os":"Linux","password":true,"vac":true,"version":"7723704","steam_id":85568392924469992,"keywords":["nocrits","nodmgspread","payload","uncletopia"],"game_id":440,"stv_port":27026,"stv_name":"Uncletopia | Los Angeles | 2 | All Maps | STV","players":null},{"server_id":324,"name":"Uncletopia | Los Angeles | 3 | All Maps","name_short":"lax-3","host":"lax-1.us.uncletopia.com","port":27035,"enabled":true,"region":"us-west","cc":"us","latitude":33.94279,"longitude":-118.41004,"reserved":0,"last_update":"0001-01-01T00:00:00Z","name_a2s":"Uncletopia | Los Angeles | 3 | All Maps","protocol":17,"map":"koth_highpass","folder":"tf","game":"Team Fortress","app_id":440,"player_count":0,"max_players":24,"Bots":0,"server_type":"Dedicated","server_os":"Linux","password":true,"vac":true,"version":"7723704","steam_id":85568392924510198,"keywords":["cp","nocrits","nodmgspread","uncletopia"],"game_id":440,"stv_port":27036,"stv_name":"Uncletopia | Los Angeles | 3 | All Maps | STV","players":null},{"server_id":25,"name":"Uncletopia | Los Angeles | 4 | No Payload","name_short":"lax-4","host":"lax-1.us.uncletopia.com","port":27045,"enabled":true,"region":"us-west","cc":"us","latitude":33.94279,"longitude":-118.41004,"reserved":0,"last_update":"0001-01-01T00:00:00Z","name_a2s":"Uncletopia | Los Angeles | 4 | No Payload","protocol":17,"map":"cp_standin_final","folder":"tf","game":"Team Fortress","app_id":440,"player_count":0,"max_players":24,"Bots":0,"server_type":"Dedicated","server_os":"Linux","password":true,"vac":true,"version":"7723704","steam_id":85568392924510199,"keywords":["cp","nocrits","nodmgspread","uncletopia"],"game_id":440,"stv_port":27046,"stv_name":"Uncletopia | Los Angeles | 4 | No Payload | STV","players":null},{"server_id":11,"name":"Uncletopia | London | 1 | All Maps","name_short":"lon-1","host":"lon-1.uk.uncletopia.com","port":27015,"enabled":true,"region":"eu","cc":"gb","latitude":51.509865,"longitude":-0.118092,"reserved":0,"last_update":"0001-01-01T00:00:00Z","name_a2s":"Uncletopia | London | 1 | All Maps","protocol":17,"map":"koth_viaduct","folder":"tf","game":"Team Fortress","app_id":440,"player_count":0,"max_players":24,"Bots":0,"server_type":"Dedicated","server_os":"Linux","password":true,"vac":true,"version":"7723704","steam_id":85568392924367362,"keywords":["cp","nocrits","nodmgspread","uncletopia"],"game_id":440,"stv_port":27016,"stv_name":"Uncletopia | London | 1 | All Maps | STV","players":null},{"server_id":114,"name":"Uncletopia | London | 2 | All Maps","name_short":"lon-2","host":"lon-1.uk.uncletopia.com","port":27025,"enabled":true,"region":"eu","cc":"gb","latitude":51.509865,"longitude":-0.118092,"reserved":0,"last_update":"0001-01-01T00:00:00Z","name_a2s":"Uncletopia | London | 2 | All Maps","protocol":17,"map":"koth_highpass","folder":"tf","game":"Team Fortress","app_id":440,"player_count":0,"max_players":24,"Bots":0,"server_type":"Dedicated","server_os":"Linux","password":true,"vac":true,"version":"7723704","steam_id":85568392924470941,"keywords":["cp","nocrits","nodmgspread","uncletopia"],"game_id":440,"stv_port":27026,"stv_name":"Uncletopia | London | 2 | All Maps | STV","players":null},{"server_id":320,"name":"Uncletopia | London | 3 | All Maps","name_short":"lon-3","host":"lon-1.uk.uncletopia.com","port":27035,"enabled":true,"region":"eu","cc":"gb","latitude":51.509865,"longitude":-0.118092,"reserved":0,"last_update":"0001-01-01T00:00:00Z","name_a2s":"Uncletopia | London | 3 | All Maps","protocol":17,"map":"pl_barnblitz","folder":"tf","game":"Team Fortress","app_id":440,"player_count":0,"max_players":24,"Bots":0,"server_type":"Dedicated","server_os":"Linux","password":true,"vac":true,"version":"7723704","steam_id":85568392924510192,"keywords":["nocrits","nodmgspread","payload","uncletopia"],"game_id":440,"stv_port":27036,"stv_name":"Uncletopia | London | 3 | All Maps | STV","players":null},{"server_id":321,"name":"Uncletopia | London | 4 | All Maps","name_short":"lon-4","host":"lon-1.uk.uncletopia.com","port":27045,"enabled":true,"region":"eu","cc":"gb","latitude":51.509865,"longitude":-0.118092,"reserved":0,"last_update":"0001-01-01T00:00:00Z","name_a2s":"Uncletopia | London | 4 | All Maps","protocol":17,"map":"koth_highpass","folder":"tf","game":"Team Fortress","app_id":440,"player_count":0,"max_players":24,"Bots":0,"server_type":"Dedicated","server_os":"Linux","password":true,"vac":true,"version":"7723704","steam_id":85568392924510193,"keywords":["cp","nocrits","nodmgspread","uncletopia"],"game_id":440,"stv_port":27046,"stv_name":"Uncletopia | London | 4 | All Maps | STV","players":null},{"server_id":21,"name":"Uncletopia | London | 5 | All Maps","name_short":"lon-5","host":"lon-1.uk.uncletopia.com","port":27055,"enabled":true,"region":"eu","cc":"gb","latitude":51.509865,"longitude":-0.118092,"reserved":0,"last_update":"0001-01-01T00:00:00Z","name_a2s":"Uncletopia | London | 5 | All Maps","protocol":17,"map":"koth_lakeside_final","folder":"tf","game":"Team Fortress","app_id":440,"player_count":0,"max_players":24,"Bots":0,"server_type":"Dedicated","server_os":"Linux","password":true,"vac":true,"version":"7723704","steam_id":85568392924742829,"keywords":["cp","nocrits","nodmgspread","uncletopia"],"game_id":440,"stv_port":27056,"stv_name":"Uncletopia | London | 5 | All Maps | STV","players":null},{"server_id":22,"name":"Uncletopia | London | 6 | All Maps","name_short":"lon-6","host":"lon-1.uk.uncletopia.com","port":27065,"enabled":true,"region":"eu","cc":"gb","latitude":51.509865,"longitude":-0.118092,"reserved":0,"last_update":"0001-01-01T00:00:00Z","name_a2s":"Uncletopia | London | 6 | All Maps","protocol":17,"map":"cp_altitude","folder":"tf","game":"Team Fortress","app_id":440,"player_count":0,"max_players":24,"Bots":0,"server_type":"Dedicated","server_os":"Linux","password":true,"vac":true,"version":"7723704","steam_id":85568392924742830,"keywords":["cp","nocrits","nodmgspread","uncletopia"],"game_id":440,"stv_port":27066,"stv_name":"Uncletopia | London | 6 | All Maps | STV","players":null},{"server_id":40,"name":"Uncletopia | London | 7 | No Payload","name_short":"lon-7","host":"lon-1.uk.uncletopia.com","port":27075,"enabled":true,"region":"eu","cc":"gb","latitude":51.509865,"longitude":-0.118092,"reserved":0,"last_update":"0001-01-01T00:00:00Z","name_a2s":"Uncletopia | London | 7 | No Payload","protocol":17,"map":"koth_cascade","folder":"tf","game":"Team Fortress","app_id":440,"player_count":0,"max_players":24,"Bots":0,"server_type":"Dedicated","server_os":"Linux","password":true,"vac":true,"version":"7723704","steam_id":85568392924964314,"keywords":["cp","nocrits","nodmgspread","uncletopia"],"game_id":440,"stv_port":27076,"stv_name":"Uncletopia | London | 7 | No Payload | STV","players":null},{"server_id":41,"name":"Uncletopia | London | 8 | Community","name_short":"lon-8","host":"lon-1.uk.uncletopia.com","port":27085,"enabled":true,"region":"eu","cc":"gb","latitude":51.509865,"longitude":-0.118092,"reserved":0,"last_update":"0001-01-01T00:00:00Z","name_a2s":"Uncletopia | London | 8 | Community","protocol":17,"map":"pl_snowycoast","folder":"tf","game":"Team Fortress","app_id":440,"player_count":0,"max_players":24,"Bots":0,"server_type":"Dedicated","server_os":"Linux","password":true,"vac":true,"version":"7723704","steam_id":85568392924964315,"keywords":["nocrits","nodmgspread","payload","uncletopia"],"game_id":440,"stv_port":27086,"stv_name":"Uncletopia | London | 8 | Community | STV","players":null},{"server_id":300,"name":"Uncletopia | Montr√©al | 1 | All Maps","name_short":"mtl-1","host":"mtl-1.ca.uncletopia.com","port":27015,"enabled":true,"region":"us-east","cc":"ca","latitude":45.50889,"longitude":-73.56167,"reserved":0,"last_update":"0001-01-01T00:00:00Z","name_a2s":"Uncletopia | Montr√©al | 1 | All Maps","protocol":17,"map":"pl_badwater","folder":"tf","game":"Team Fortress","app_id":440,"player_count":0,"max_players":24,"Bots":0,"server_type":"Dedicated","server_os":"Linux","password":true,"vac":true,"version":"7723704","steam_id":85568392924500087,"keywords":["nocrits","nodmgspread","payload","uncletopia"],"game_id":440,"stv_port":27016,"stv_name":"Uncletopia | Montr√©al | 1 | All Maps | STV","players":null},{"server_id":301,"name":"Uncletopia | Montr√©al | 2 | All Maps","name_short":"mtl-2","host":"mtl-1.ca.uncletopia.com","port":27025,"enabled":true,"region":"us-east","cc":"ca","latitude":45.50889,"longitude":-73.56167,"reserved":0,"last_update":"0001-01-01T00:00:00Z","name_a2s":"Uncletopia | Montr√©al | 2 | All Maps","protocol":17,"map":"cp_sunshine","folder":"tf","game":"Team Fortress","app_id":440,"player_count":0,"max_players":24,"Bots":0,"server_type":"Dedicated","server_os":"Linux","password":true,"vac":true,"version":"7723704","steam_id":85568392924500088,"keywords":["cp","nocrits","nodmgspread","uncletopia"],"game_id":440,"stv_port":27026,"stv_name":"Uncletopia | Montr√©al | 2 | All Maps | STV","players":null},{"server_id":302,"name":"Uncletopia | Montr√©al | 3 | All Maps","name_short":"mtl-3","host":"mtl-1.ca.uncletopia.com","port":27035,"enabled":true,"region":"us-east","cc":"ca","latitude":45.50889,"longitude":-73.56167,"reserved":0,"last_update":"0001-01-01T00:00:00Z","name_a2s":"Uncletopia | Montr√©al | 3 | All Maps","protocol":17,"map":"cp_dustbowl","folder":"tf","game":"Team Fortress","app_id":440,"player_count":0,"max_players":24,"Bots":0,"server_type":"Dedicated","server_os":"Linux","password":true,"vac":true,"version":"7723704","steam_id":85568392924500089,"keywords":["cp","nocrits","nodmgspread","uncletopia"],"game_id":440,"stv_port":27036,"stv_name":"Uncletopia | Montr√©al | 3 | All Maps | STV","players":null},{"server_id":303,"name":"Uncletopia | Montr√©al | 4 | No Payload","name_short":"mtl-4","host":"mtl-1.ca.uncletopia.com","port":27045,"enabled":true,"region":"us-east","cc":"ca","latitude":45.50889,"longitude":-73.56167,"reserved":0,"last_update":"0001-01-01T00:00:00Z","name_a2s":"Uncletopia | Montr√©al | 4 | No Payload","protocol":17,"map":"cp_process_final","folder":"tf","game":"Team Fortress","app_id":440,"player_count":0,"max_players":24,"Bots":0,"server_type":"Dedicated","server_os":"Linux","password":true,"vac":true,"version":"7723704","steam_id":85568392924500090,"keywords":["cp","nocrits","nodmgspread","uncletopia"],"game_id":440,"stv_port":27046,"stv_name":"Uncletopia | Montr√©al | 4 | No Payload | STV","players":null},{"server_id":13,"name":"Uncletopia | New York City | 1 | All Maps","name_short":"nyc-1","host":"nyc-1.us.uncletopia.com","port":27015,"enabled":true,"region":"us-east","cc":"us","latitude":40.73061,"longitude":-73.93524,"reserved":0,"last_update":"0001-01-01T00:00:00Z","name_a2s":"Uncletopia | New York City | 1 | All Maps","protocol":17,"map":"pl_barnblitz","folder":"tf","game":"Team Fortress","app_id":440,"player_count":24,"max_players":24,"Bots":0,"server_type":"Dedicated","server_os":"Linux","password":true,"vac":true,"version":"7723704","steam_id":85568392924469993,"keywords":["nocrits","nodmgspread","payload","uncletopia"],"game_id":440,"stv_port":27016,"stv_name":"Uncletopia | New York City | 1 | All Maps | STV","players":[{"user_id":141,"name":"Menachem","steam_id":76561198041226420,"connected_time":4407000000000,"state":"active","ping":69},{"user_id":167,"name":"help","steam_id":76561199230779168,"connected_time":2034000000000,"state":"active","ping":95},{"user_id":185,"name":"Tripp","steam_id":76561198411779080,"connected_time":753000000000,"state":"active","ping":95},{"user_id":143,"name":"A Puppy","steam_id":76561198828184456,"connected_time":3724000000000,"state":"active","ping":47},{"user_id":184,"name":"Medical Asshat","steam_id":76561198004584315,"connected_time":773000000000,"state":"active","ping":90},{"user_id":198,"name":"horsie ·É¶","steam_id":76561198323217150,"connected_time":316000000000,"state":"active","ping":81},{"user_id":163,"name":"Evolution","steam_id":76561198144767370,"connected_time":2240000000000,"state":"active","ping":67},{"user_id":169,"name":"best of gaslighting","steam_id":76561198410957728,"connected_time":1911000000000,"state":"active","ping":63},{"user_id":199,"name":"ailee","steam_id":76561198284326069,"connected_time":104000000000,"state":"active","ping":58},{"user_id":156,"name":"sans.","steam_id":76561197987966746,"connected_time":2763000000000,"state":"active","ping":48},{"user_id":168,"name":"best of worm related discussion","steam_id":76561198128164970,"connected_time":1923000000000,"state":"active","ping":129},{"user_id":170,"name":"anastasia","steam_id":76561197994492154,"connected_time":1889000000000,"state":"active","ping":147},{"user_id":195,"name":"Jade","steam_id":76561198058025189,"connected_time":347000000000,"state":"active","ping":59},{"user_id":171,"name":"JimmyJonJillakers","steam_id":76561198318651369,"connected_time":1873000000000,"state":"active","ping":56},{"user_id":189,"name":"Oakspace_","steam_id":76561198132487015,"connected_time":627000000000,"state":"active","ping":64},{"user_id":139,"name":"NIGHTGAMER7","steam_id":76561198079419562,"connected_time":4538000000000,"state":"active","ping":83},{"user_id":181,"name":"aversa","steam_id":76561198840460101,"connected_time":872000000000,"state":"active","ping":51},{"user_id":180,"name":"[UHG]barracks obimbo","steam_id":76561198009832041,"connected_time":1233000000000,"state":"active","ping":55},{"user_id":192,"name":"|AG| Level","steam_id":76561198063633592,"connected_time":552000000000,"state":"active","ping":65},{"user_id":157,"name":"gently used monster girl","steam_id":76561198041844815,"connected_time":2745000000000,"state":"active","ping":115},{"user_id":193,"name":"SEV3N 72","steam_id":76561198295298438,"connected_time":518000000000,"state":"active","ping":85},{"user_id":183,"name":"xenolith","steam_id":76561198041496496,"connected_time":794000000000,"state":"active","ping":61},{"user_id":197,"name":"Cahz","steam_id":76561198046517134,"connected_time":341000000000,"state":"active","ping":113}]},{"server_id":14,"name":"Uncletopia | New York City | 2 | All Maps","name_short":"nyc-2","host":"nyc-1.us.uncletopia.com","port":27025,"enabled":true,"region":"us-east","cc":"us","latitude":40.73061,"longitude":-73.93524,"reserved":0,"last_update":"0001-01-01T00:00:00Z","name_a2s":"Uncletopia | New York City | 2 | All Maps","protocol":17,"map":"pl_swiftwater_final1","folder":"tf","game":"Team Fortress","app_id":440,"player_count":0,"max_players":24,"Bots":0,"server_type":"Dedicated","server_os":"Linux","password":true,"vac":true,"version":"7723704","steam_id":85568392924469994,"keywords":["nocrits","nodmgspread","payload","uncletopia"],"game_id":440,"stv_port":27026,"stv_name":"Uncletopia | New York City | 2 | All Maps | STV","players":null},{"server_id":15,"name":"Uncletopia | New York City | 3 | All Maps","name_short":"nyc-3","host":"nyc-1.us.uncletopia.com","port":27035,"enabled":true,"region":"us-east","cc":"us","latitude":40.73061,"longitude":-73.93524,"reserved":0,"last_update":"0001-01-01T00:00:00Z","name_a2s":"Uncletopia | New York City | 3 | All Maps","protocol":17,"map":"koth_viaduct","folder":"tf","game":"Team Fortress","app_id":440,"player_count":0,"max_players":24,"Bots":0,"server_type":"Dedicated","server_os":"Linux","password":true,"vac":true,"version":"7723704","steam_id":85568392924742820,"keywords":["cp","nocrits","nodmgspread","uncletopia"],"game_id":440,"stv_port":27036,"stv_name":"Uncletopia | New York City | 3 | All Maps | STV","players":null},{"server_id":16,"name":"Uncletopia | New York City | 4 | Community","name_short":"nyc-4","host":"nyc-1.us.uncletopia.com","port":27045,"enabled":true,"region":"us-east","cc":"us","latitude":40.73061,"longitude":-73.93524,"reserved":0,"last_update":"0001-01-01T00:00:00Z","name_a2s":"Uncletopia | New York City | 4 | Community","protocol":17,"map":"cp_process_final","folder":"tf","game":"Team Fortress","app_id":440,"player_count":0,"max_players":24,"Bots":0,"server_type":"Dedicated","server_os":"Linux","password":true,"vac":true,"version":"7723704","steam_id":85568392924742821,"keywords":["cp","nocrits","nodmgspread","uncletopia"],"game_id":440,"stv_port":27046,"stv_name":"Uncletopia | New York City | 4 | Community | STV","players":null},{"server_id":142,"name":"Uncletopia | S√£o Paulo | 1 | All Maps","name_short":"sao-1","host":"sao-1.br.uncletopia.com","port":27015,"enabled":true,"region":"sa","cc":"br","latitude":-23.533773,"longitude":-46.62529,"reserved":0,"last_update":"0001-01-01T00:00:00Z","name_a2s":"Uncletopia | S√£o Paulo | 1 | All Maps","protocol":17,"map":"pl_upward","folder":"tf","game":"Team Fortress","app_id":440,"player_count":0,"max_players":24,"Bots":0,"server_type":"Dedicated","server_os":"Linux","password":true,"vac":true,"version":"7723704","steam_id":85568392924469996,"keywords":["nocrits","nodmgspread","payload","uncletopia"],"game_id":440,"stv_port":27016,"stv_name":"Uncletopia | S√£o Paulo | 1 | All Maps | STV","players":null},{"server_id":143,"name":"Uncletopia | S√£o Paulo | 2 | All Maps","name_short":"sao-2","host":"sao-2.br.uncletopia.com","port":27015,"enabled":true,"region":"sa","cc":"br","latitude":-23.533773,"longitude":-46.62529,"reserved":0,"last_update":"0001-01-01T00:00:00Z","name_a2s":"Uncletopia | S√£o Paulo | 2 | All Maps","protocol":17,"map":"cp_sunshine","folder":"tf","game":"Team Fortress","app_id":440,"player_count":0,"max_players":24,"Bots":0,"server_type":"Dedicated","server_os":"Linux","password":true,"vac":true,"version":"7723704","steam_id":85568392924485349,"keywords":["cp","nocrits","nodmgspread","uncletopia"],"game_id":440,"stv_port":27016,"stv_name":"Uncletopia | S√£o Paulo | 2 | All Maps | STV","players":null},{"server_id":7,"name":"Uncletopia | Seattle | 1 | All Maps","name_short":"sea-1","host":"sea-1.us.uncletopia.com","port":27015,"enabled":true,"region":"us-west","cc":"us","latitude":47.608013,"longitude":-122.33517,"reserved":0,"last_update":"0001-01-01T00:00:00Z","name_a2s":"Uncletopia | Seattle | 1 | All Maps","protocol":17,"map":"cp_altitude","folder":"tf","game":"Team Fortress","app_id":440,"player_count":22,"max_players":24,"Bots":0,"server_type":"Dedicated","server_os":"Linux","password":true,"vac":true,"version":"7723704","steam_id":85568392924469997,"keywords":["cp","nocrits","nodmgspread","uncletopia"],"game_id":440,"stv_port":27016,"stv_name":"Uncletopia | Seattle | 1 | All Maps | STV","players":[{"user_id":174,"name":"shane","steam_id":76561198060491451,"connected_time":2734000000000,"state":"active","ping":86},{"user_id":177,"name":"–≥—Ä—É—Å—Ç–Ω—ã–π","steam_id":76561198274550638,"connected_time":2695000000000,"state":"active","ping":105},{"user_id":169,"name":"Obtibotimus Prime","steam_id":76561198066091050,"connected_time":3015000000000,"state":"active","ping":46},{"user_id":188,"name":"4","steam_id":76561198009121060,"connected_time":408000000000,"state":"active","ping":45},{"user_id":170,"name":"twinkling pastry flops","steam_id":76561198340646012,"connected_time":2931000000000,"state":"active","ping":40},{"user_id":176,"name":"lol","steam_id":76561198026491738,"connected_time":2705000000000,"state":"active","ping":83},{"user_id":180,"name":"ChibiFerrari","steam_id":76561198825330201,"connected_time":1767000000000,"state":"active","ping":76},{"user_id":197,"name":"Sniff","steam_id":76561198010270922,"connected_time":0,"state":"spawning","ping":22},{"user_id":194,"name":"Cheezbeargur","steam_id":76561198164702899,"connected_time":107000000000,"state":"active","ping":62},{"user_id":196,"name":"Level 99 Mudcrab","steam_id":76561198077452771,"connected_time":27000000000,"state":"active","ping":53},{"user_id":142,"name":"lker","steam_id":76561197976975075,"connected_time":5058000000000,"state":"active","ping":117},{"user_id":181,"name":"Aardappel","steam_id":76561198030894676,"connected_time":1757000000000,"state":"active","ping":65},{"user_id":82,"name":"Ayayahuasca","steam_id":76561199002906056,"connected_time":9979000000000,"state":"active","ping":45},{"user_id":195,"name":"Dominic","steam_id":76561198231056136,"connected_time":28000000000,"state":"active","ping":106},{"user_id":173,"name":"thunderous prophet","steam_id":76561198131166135,"connected_time":2837000000000,"state":"active","ping":44},{"user_id":128,"name":"Seriously Bruh","steam_id":76561198070408485,"connected_time":6019000000000,"state":"active","ping":60},{"user_id":186,"name":"bbbbb","steam_id":76561198095480838,"connected_time":1041000000000,"state":"active","ping":47},{"user_id":157,"name":"SmallErection","steam_id":76561198071770147,"connected_time":3731000000000,"state":"active","ping":54},{"user_id":192,"name":"delight","steam_id":76561197980280272,"connected_time":121000000000,"state":"active","ping":46},{"user_id":182,"name":"POW got it","steam_id":76561198035698704,"connected_time":1737000000000,"state":"active","ping":74},{"user_id":189,"name":"Santa after 7 Glasses of Eggnog","steam_id":76561198137242573,"connected_time":223000000000,"state":"active","ping":49},{"user_id":163,"name":"jorts","steam_id":76561199041179985,"connected_time":3403000000000,"state":"active","ping":58}]},{"server_id":119,"name":"Uncletopia | Seattle | 2 | All Maps","name_short":"sea-2","host":"sea-1.us.uncletopia.com","port":27025,"enabled":true,"region":"us-west","cc":"us","latitude":47.608013,"longitude":-122.33517,"reserved":0,"last_update":"0001-01-01T00:00:00Z","name_a2s":"Uncletopia | Seattle | 2 | All Maps","protocol":17,"map":"pl_barnblitz","folder":"tf","game":"Team Fortress","app_id":440,"player_count":20,"max_players":24,"Bots":0,"server_type":"Dedicated","server_os":"Linux","password":true,"vac":true,"version":"7723704","steam_id":85568392924469998,"keywords":["nocrits","nodmgspread","payload","uncletopia"],"game_id":440,"stv_port":27026,"stv_name":"Uncletopia | Seattle | 2 | All Maps | STV","players":[{"user_id":172,"name":"Soap Man","steam_id":76561198000490235,"connected_time":220000000000,"state":"active","ping":66},{"user_id":160,"name":"T√ºCold","steam_id":76561198111278197,"connected_time":831000000000,"state":"active","ping":52},{"user_id":162,"name":"methanar/brandon","steam_id":76561198049489349,"connected_time":689000000000,"state":"active","ping":52},{"user_id":159,"name":"birch","steam_id":76561198054041094,"connected_time":910000000000,"state":"active","ping":60},{"user_id":180,"name":"\u003c3 (open commissions)","steam_id":76561199054588420,"connected_time":18000000000,"state":"active","ping":120},{"user_id":136,"name":"Taste Of Pancakes","steam_id":76561198158784641,"connected_time":3117000000000,"state":"active","ping":89},{"user_id":173,"name":"BlookyBlock","steam_id":76561198117009300,"connected_time":202000000000,"state":"active","ping":58},{"user_id":154,"name":"Hendershot and his One Man Army","steam_id":76561198345471582,"connected_time":1779000000000,"state":"active","ping":51},{"user_id":179,"name":"Dylan Pulido","steam_id":76561198272681544,"connected_time":47000000000,"state":"active","ping":62},{"user_id":165,"name":"Brass","steam_id":76561198275581643,"connected_time":639000000000,"state":"active","ping":53},{"user_id":126,"name":"Citizen‚Åµ","steam_id":76561198053856640,"connected_time":3849000000000,"state":"active","ping":119},{"user_id":167,"name":"1 Gallon of Bees","steam_id":76561198297585031,"connected_time":567000000000,"state":"active","ping":81},{"user_id":168,"name":"Taco Man","steam_id":76561198097049736,"connected_time":520000000000,"state":"active","ping":54},{"user_id":175,"name":"koke ‚òê‚òê","steam_id":76561199411391421,"connected_time":175000000000,"state":"active","ping":118},{"user_id":156,"name":"Robert M. Slackson, DDS","steam_id":76561197963562896,"connected_time":1318000000000,"state":"active","ping":65},{"user_id":176,"name":"The_Pacific_gamer","steam_id":76561198089491446,"connected_time":173000000000,"state":"active","ping":56},{"user_id":145,"name":"SesataPomang","steam_id":76561198145133059,"connected_time":2787000000000,"state":"active","ping":98},{"user_id":177,"name":"Psych03","steam_id":76561198061753667,"connected_time":142000000000,"state":"active","ping":81},{"user_id":178,"name":"JanPinyon610","steam_id":76561199238454799,"connected_time":125000000000,"state":"active","ping":48},{"user_id":83,"name":"PerKnuckleChuckle","steam_id":76561198023221596,"connected_time":8890000000000,"state":"active","ping":77}]},{"server_id":17,"name":"Uncletopia | San Francisco | 1 | All Maps","name_short":"sfo-1","host":"sfo-1.us.uncletopia.com","port":27015,"enabled":true,"region":"us-west","cc":"us","latitude":37.77397,"longitude":-122.4313,"reserved":0,"last_update":"0001-01-01T00:00:00Z","name_a2s":"Uncletopia | San Francisco | 1 | All Maps","protocol":17,"map":"pl_snowycoast","folder":"tf","game":"Team Fortress","app_id":440,"player_count":13,"max_players":24,"Bots":0,"server_type":"Dedicated","server_os":"Linux","password":true,"vac":true,"version":"7723704","steam_id":85568392924469999,"keywords":["nocrits","nodmgspread","payload","uncletopia"],"game_id":440,"stv_port":27016,"stv_name":"Uncletopia | San Francisco | 1 | All Maps | STV","players":[{"user_id":91,"name":"lil raph","steam_id":76561198870682982,"connected_time":1642000000000,"state":"active","ping":57},{"user_id":121,"name":"Anxious Nerd Bird","steam_id":76561198112178602,"connected_time":125000000000,"state":"active","ping":56},{"user_id":100,"name":"dosimeter","steam_id":76561198039608940,"connected_time":1049000000000,"state":"active","ping":70},{"user_id":97,"name":"Phil Collins","steam_id":76561198068868644,"connected_time":1416000000000,"state":"active","ping":54},{"user_id":99,"name":"‚õßAlkahestry","steam_id":76561198109641497,"connected_time":1076000000000,"state":"active","ping":61},{"user_id":115,"name":"Hot Milfs In Your Area","steam_id":76561198215203803,"connected_time":290000000000,"state":"active","ping":65},{"user_id":84,"name":"Dali","steam_id":76561198077593486,"connected_time":2406000000000,"state":"active","ping":63},{"user_id":102,"name":"The Boy","steam_id":76561198813586588,"connected_time":853000000000,"state":"active","ping":48},{"user_id":107,"name":"Google","steam_id":76561198857237473,"connected_time":608000000000,"state":"active","ping":67},{"user_id":105,"name":"ROGUE-PLANET","steam_id":76561198116023052,"connected_time":704000000000,"state":"active","ping":72},{"user_id":111,"name":"Gundam Guy","steam_id":76561198178453993,"connected_time":474000000000,"state":"active","ping":68},{"user_id":89,"name":"Endett","steam_id":76561198144392885,"connected_time":1745000000000,"state":"active","ping":112},{"user_id":119,"name":"RYMAXRULES","steam_id":76561198841603682,"connected_time":184000000000,"state":"active","ping":63}]},{"server_id":18,"name":"Uncletopia | San Francisco | 2 | All Maps","name_short":"sfo-2","host":"sfo-1.us.uncletopia.com","port":27025,"enabled":true,"region":"us-west","cc":"us","latitude":37.77397,"longitude":-122.4313,"reserved":0,"last_update":"0001-01-01T00:00:00Z","name_a2s":"Uncletopia | San Francisco | 2 | All Maps","protocol":17,"map":"pl_snowycoast","folder":"tf","game":"Team Fortress","app_id":440,"player_count":0,"max_players":24,"Bots":0,"server_type":"Dedicated","server_os":"Linux","password":true,"vac":true,"version":"7723704","steam_id":85568392924470000,"keywords":["nocrits","nodmgspread","payload","uncletopia"],"game_id":440,"stv_port":27026,"stv_name":"Uncletopia | San Francisco | 2 | All Maps | STV","players":null},{"server_id":19,"name":"Uncletopia | San Francisco | 3 | No Payload","name_short":"sfo-3","host":"sfo-1.us.uncletopia.com","port":27035,"enabled":true,"region":"us-west","cc":"us","latitude":37.77397,"longitude":-122.4313,"reserved":0,"last_update":"0001-01-01T00:00:00Z","name_a2s":"Uncletopia | San Francisco | 3 | No Payload","protocol":17,"map":"plr_hightower","folder":"tf","game":"Team Fortress","app_id":440,"player_count":0,"max_players":24,"Bots":0,"server_type":"Dedicated","server_os":"Linux","password":true,"vac":true,"version":"7723704","steam_id":85568392924742824,"keywords":["nocrits","nodmgspread","payload","uncletopia"],"game_id":440,"stv_port":27036,"stv_name":"Uncletopia | San Francisco | 3 | No Payload | STV","players":null},{"server_id":20,"name":"Uncletopia | San Francisco | 4 | Community","name_short":"sfo-4","host":"sfo-1.us.uncletopia.com","port":27045,"enabled":true,"region":"us-west","cc":"us","latitude":37.77397,"longitude":-122.4313,"reserved":0,"last_update":"0001-01-01T00:00:00Z","name_a2s":"Uncletopia | San Francisco | 4 | Community","protocol":17,"map":"pl_frontier_final","folder":"tf","game":"Team Fortress","app_id":440,"player_count":0,"max_players":24,"Bots":0,"server_type":"Dedicated","server_os":"Linux","password":true,"vac":true,"version":"7723704","steam_id":85568392924742826,"keywords":["nocrits","nodmgspread","payload","uncletopia"],"game_id":440,"stv_port":27046,"stv_name":"Uncletopia | San Francisco | 4 | Community | STV","players":null},{"server_id":141,"name":"Uncletopia | Sydney | 1 | All Maps","name_short":"syd-1","host":"syd-1.au.uncletopia.com","port":27015,"enabled":true,"region":"au","cc":"au","latitude":-33.865143,"longitude":151.2099,"reserved":0,"last_update":"0001-01-01T00:00:00Z","name_a2s":"Uncletopia | Sydney | 1 | All Maps","protocol":17,"map":"cp_sunshine","folder":"tf","game":"Team Fortress","app_id":440,"player_count":24,"max_players":24,"Bots":0,"server_type":"Dedicated","server_os":"Linux","password":true,"vac":true,"version":"7723704","steam_id":85568392924470001,"keywords":["cp","nocrits","nodmgspread","uncletopia"],"game_id":440,"stv_port":27016,"stv_name":"Uncletopia | Sydney | 1 | All Maps | STV","players":[{"user_id":89,"name":"Zieria","steam_id":76561199261811388,"connected_time":1855000000000,"state":"active","ping":35},{"user_id":26,"name":"Jiffy360","steam_id":76561198149550772,"connected_time":4443000000000,"state":"active","ping":93},{"user_id":123,"name":"CorporalRegicide","steam_id":76561198050413184,"connected_time":750000000000,"state":"active","ping":63},{"user_id":37,"name":"hobo","steam_id":76561199046481213,"connected_time":3756000000000,"state":"active","ping":65},{"user_id":105,"name":"Winky","steam_id":76561199059450243,"connected_time":1222000000000,"state":"active","ping":46},{"user_id":138,"name":"Country Slicker Joe","steam_id":76561198071200743,"connected_time":65000000000,"state":"active","ping":49},{"user_id":51,"name":"monocrumb","steam_id":76561199126588682,"connected_time":3489000000000,"state":"active","ping":51},{"user_id":28,"name":"Plowie789","steam_id":76561198144492322,"connected_time":4254000000000,"state":"active","ping":84},{"user_id":139,"name":"J''''","steam_id":76561198047565137,"connected_time":56000000000,"state":"active","ping":50},{"user_id":30,"name":"Warren","steam_id":76561198120350917,"connected_time":4176000000000,"state":"active","ping":46},{"user_id":31,"name":"sarah.nintendogs","steam_id":76561198035811678,"connected_time":4143000000000,"state":"active","ping":47},{"user_id":63,"name":"clueless","steam_id":76561198046239819,"connected_time":2981000000000,"state":"active","ping":92},{"user_id":90,"name":"The_Green_Jelly","steam_id":76561198381061704,"connected_time":1822000000000,"state":"active","ping":86},{"user_id":34,"name":"Classy Doctor","steam_id":76561198257123968,"connected_time":3992000000000,"state":"active","ping":209},{"user_id":55,"name":"Dr Barry Mundy PhD","steam_id":76561198034512686,"connected_time":3352000000000,"state":"active","ping":39},{"user_id":140,"name":"MR Merlin","steam_id":76561198867494206,"connected_time":54000000000,"state":"active","ping":385},{"user_id":39,"name":"krandlez` (Any/All)","steam_id":76561198044839726,"connected_time":3663000000000,"state":"active","ping":41},{"user_id":98,"name":"kimmybob47","steam_id":76561198850317251,"connected_time":1446000000000,"state":"active","ping":78},{"user_id":99,"name":"Azzy","steam_id":76561198096245286,"connected_time":1442000000000,"state":"active","ping":54},{"user_id":42,"name":"sat_","steam_id":76561198170693338,"connected_time":3642000000000,"state":"active","ping":85},{"user_id":137,"name":"Owlenstein‚Ñ¢","steam_id":76561198093983826,"connected_time":122000000000,"state":"active","ping":111},{"user_id":141,"name":"Peter","steam_id":76561198446343409,"connected_time":8000000000,"state":"spawning","ping":46},{"user_id":120,"name":"skud","steam_id":76561198136866711,"connected_time":860000000000,"state":"active","ping":55},{"user_id":97,"name":"Wolf","steam_id":76561198067256350,"connected_time":1526000000000,"state":"active","ping":59}]},{"server_id":123,"name":"Uncletopia | Sydney | 2 | All Maps","name_short":"syd-2","host":"syd-1.au.uncletopia.com","port":27025,"enabled":true,"region":"au","cc":"au","latitude":-33.865143,"longitude":151.2099,"reserved":0,"last_update":"0001-01-01T00:00:00Z","name_a2s":"Uncletopia | Sydney | 2 | All Maps","protocol":17,"map":"cp_mountainlab","folder":"tf","game":"Team Fortress","app_id":440,"player_count":0,"max_players":24,"Bots":0,"server_type":"Dedicated","server_os":"Linux","password":true,"vac":true,"version":"7723704","steam_id":85568392924470002,"keywords":["cp","nocrits","nodmgspread","uncletopia"],"game_id":440,"stv_port":27026,"stv_name":"Uncletopia | Sydney | 2 | All Maps | STV","players":null},{"server_id":395,"name":"Uncletopia | Sydney | 3 | All Maps","name_short":"syd-3","host":"syd-1.au.uncletopia.com","port":27035,"enabled":true,"region":"au","cc":"au","latitude":-33.865143,"longitude":151.2099,"reserved":0,"last_update":"0001-01-01T00:00:00Z","name_a2s":"Uncletopia | Sydney | 3 | All Maps","protocol":17,"map":"pl_snowycoast","folder":"tf","game":"Team Fortress","app_id":440,"player_count":24,"max_players":24,"Bots":0,"server_type":"Dedicated","server_os":"Linux","password":true,"vac":true,"version":"7723704","steam_id":85568392925194467,"keywords":["nocrits","nodmgspread","payload","uncletopia"],"game_id":440,"stv_port":27036,"stv_name":"Uncletopia | Sydney | 3 | All Maps | STV","players":[{"user_id":123,"name":"Profile Name","steam_id":76561198055677907,"connected_time":758000000000,"state":"active","ping":48},{"user_id":88,"name":"memesy","steam_id":76561198256173108,"connected_time":3876000000000,"state":"active","ping":45},{"user_id":78,"name":"squrrel","steam_id":76561198083429611,"connected_time":4138000000000,"state":"active","ping":75},{"user_id":40,"name":"Tricka ‚Ä¢","steam_id":76561197968440123,"connected_time":6343000000000,"state":"active","ping":45},{"user_id":130,"name":"Babytron","steam_id":76561198982382624,"connected_time":439000000000,"state":"active","ping":49},{"user_id":121,"name":"monkeyman536","steam_id":76561197997717737,"connected_time":910000000000,"state":"active","ping":178},{"user_id":132,"name":"gimmick","steam_id":76561198449368846,"connected_time":410000000000,"state":"active","ping":44},{"user_id":147,"name":"ArmoredInsecta","steam_id":76561198070405810,"connected_time":250000000000,"state":"active","ping":60},{"user_id":95,"name":"Mr Chook","steam_id":76561198970328852,"connected_time":3158000000000,"state":"active","ping":32},{"user_id":107,"name":"clout","steam_id":76561198073310502,"connected_time":2409000000000,"state":"active","ping":73},{"user_id":94,"name":"Gurnie_dingo","steam_id":76561198041639674,"connected_time":3194000000000,"state":"active","ping":107},{"user_id":98,"name":"Eugene (built different)","steam_id":76561198079108027,"connected_time":3046000000000,"state":"active","ping":56},{"user_id":122,"name":"EmmArrGus","steam_id":76561198106343847,"connected_time":864000000000,"state":"active","ping":52},{"user_id":124,"name":"DIY Miracle (An Hero)","steam_id":76561198046228152,"connected_time":753000000000,"state":"active","ping":62},{"user_id":152,"name":"michael","steam_id":76561198052848358,"connected_time":72000000000,"state":"active","ping":60},{"user_id":127,"name":"Dangerous DPad","steam_id":76561198452829128,"connected_time":582000000000,"state":"active","ping":67},{"user_id":150,"name":"Wendy","steam_id":76561198078877728,"connected_time":195000000000,"state":"active","ping":96},{"user_id":126,"name":"yumps","steam_id":76561198009311069,"connected_time":692000000000,"state":"active","ping":61},{"user_id":146,"name":"tuna","steam_id":76561198383900300,"connected_time":395000000000,"state":"active","ping":60},{"user_id":148,"name":"badmn","steam_id":76561198056462343,"connected_time":244000000000,"state":"active","ping":59},{"user_id":149,"name":"Ultra","steam_id":76561198061828206,"connected_time":235000000000,"state":"active","ping":55},{"user_id":82,"name":"Performance Issues","steam_id":76561198202341454,"connected_time":4044000000000,"state":"active","ping":69},{"user_id":151,"name":"Bob","steam_id":76561198076833299,"connected_time":180000000000,"state":"active","ping":63},{"user_id":153,"name":"zise","steam_id":76561198079210881,"connected_time":11000000000,"state":"active","ping":60}]},{"server_id":396,"name":"Uncletopia | Sydney | 4 | All Maps","name_short":"syd-4","host":"syd-1.au.uncletopia.com","port":27045,"enabled":true,"region":"au","cc":"au","latitude":-33.865143,"longitude":151.2099,"reserved":0,"last_update":"0001-01-01T00:00:00Z","name_a2s":"Uncletopia | Sydney | 4 | All Maps","protocol":17,"map":"cp_sunshine","folder":"tf","game":"Team Fortress","app_id":440,"player_count":0,"max_players":24,"Bots":0,"server_type":"Dedicated","server_os":"Linux","password":true,"vac":true,"version":"7723704","steam_id":85568392925397958,"keywords":["cp","nocrits","nodmgspread","uncletopia"],"game_id":440,"stv_port":27046,"stv_name":"Uncletopia | Sydney | 4 | All Maps | STV","players":null},{"server_id":58,"name":"Uncletopia | Sydney | 5 | No Payload","name_short":"syd-5","host":"syd-1.au.uncletopia.com","port":27055,"enabled":true,"region":"au","cc":"au","latitude":-33.865143,"longitude":151.2099,"reserved":0,"last_update":"0001-01-01T00:00:00Z","name_a2s":"Uncletopia | Sydney | 5 | No Payload","protocol":17,"map":"koth_cascade","folder":"tf","game":"Team Fortress","app_id":440,"player_count":0,"max_players":24,"Bots":0,"server_type":"Dedicated","server_os":"Linux","password":true,"vac":true,"version":"7723704","steam_id":85568392925397959,"keywords":["cp","nocrits","nodmgspread","uncletopia"],"game_id":440,"stv_port":27056,"stv_name":"Uncletopia | Sydney | 5 | No Payload | STV","players":null},{"server_id":59,"name":"Uncletopia | Sydney | 6 | Community","name_short":"syd-6","host":"syd-1.au.uncletopia.com","port":27065,"enabled":true,"region":"au","cc":"au","latitude":-33.865143,"longitude":151.2099,"reserved":0,"last_update":"0001-01-01T00:00:00Z","name_a2s":"Uncletopia | Sydney | 6 | Community","protocol":17,"map":"koth_lakeside_final","folder":"tf","game":"Team Fortress","app_id":440,"player_count":0,"max_players":24,"Bots":0,"server_type":"Dedicated","server_os":"Linux","password":true,"vac":true,"version":"7723704","steam_id":85568392925397960,"keywords":["cp","nocrits","nodmgspread","uncletopia"],"game_id":440,"stv_port":27066,"stv_name":"Uncletopia | Sydney | 6 | Community | STV","players":null},{"server_id":49,"name":"Uncletopia | Warsaw | 1 | All Maps","name_short":"waw-1","host":"waw-1.pl.uncletopia.com","port":27015,"enabled":true,"region":"eu","cc":"pl","latitude":52.2297,"longitude":21.017532,"reserved":0,"last_update":"0001-01-01T00:00:00Z","name_a2s":"Uncletopia | Warsaw | 1 | All Maps","protocol":17,"map":"pl_badwater","folder":"tf","game":"Team Fortress","app_id":440,"player_count":10,"max_players":24,"Bots":0,"server_type":"Dedicated","server_os":"Linux","password":true,"vac":true,"version":"7723704","steam_id":85568392925397850,"keywords":["nocrits","nodmgspread","payload","uncletopia"],"game_id":440,"stv_port":27016,"stv_name":"Uncletopia | Warsaw | 1 | All Maps | STV","players":[{"user_id":29,"name":"Purplenoogie","steam_id":76561198081872160,"connected_time":45000000000,"state":"spawning","ping":90},{"user_id":6,"name":"E1s","steam_id":76561198894958917,"connected_time":3080000000000,"state":"active","ping":56},{"user_id":11,"name":"peruna","steam_id":76561198000721196,"connected_time":1948000000000,"state":"active","ping":105},{"user_id":19,"name":"Virgil","steam_id":76561198248786778,"connected_time":974000000000,"state":"active","ping":135},{"user_id":16,"name":"wieto","steam_id":76561198050626427,"connected_time":1400000000000,"state":"active","ping":76},{"user_id":20,"name":".::[SerafeTTiN]::.","steam_id":76561198009471724,"connected_time":912000000000,"state":"active","ping":105},{"user_id":22,"name":"shepard","steam_id":76561199435854673,"connected_time":562000000000,"state":"active","ping":75},{"user_id":23,"name":"MakCuMka_AneJlcuHka","steam_id":76561198892412012,"connected_time":514000000000,"state":"active","ping":127},{"user_id":26,"name":"Worst spy main","steam_id":76561198924648366,"connected_time":447000000000,"state":"active","ping":54},{"user_id":27,"name":"Capvin","steam_id":76561198989449047,"connected_time":428000000000,"state":"active","ping":97}]},{"server_id":50,"name":"Uncletopia | Warsaw | 2 | All Maps","name_short":"waw-2","host":"waw-1.pl.uncletopia.com","port":27025,"enabled":true,"region":"eu","cc":"pl","latitude":52.2297,"longitude":21.017532,"reserved":0,"last_update":"0001-01-01T00:00:00Z","name_a2s":"Uncletopia | Warsaw | 2 | All Maps","protocol":17,"map":"pl_snowycoast","folder":"tf","game":"Team Fortress","app_id":440,"player_count":0,"max_players":24,"Bots":0,"server_type":"Dedicated","server_os":"Linux","password":true,"vac":true,"version":"7723704","steam_id":85568392925397851,"keywords":["nocrits","nodmgspread","payload","uncletopia"],"game_id":440,"stv_port":27026,"stv_name":"Uncletopia | Warsaw | 2 | All Maps | STV","players":null},{"server_id":51,"name":"Uncletopia | Warsaw | 3 | All Maps","name_short":"waw-3","host":"waw-1.pl.uncletopia.com","port":27035,"enabled":true,"region":"eu","cc":"pl","latitude":52.2297,"longitude":21.017532,"reserved":0,"last_update":"0001-01-01T00:00:00Z","name_a2s":"Uncletopia | Warsaw | 3 | All Maps","protocol":17,"map":"koth_lakeside_final","folder":"tf","game":"Team Fortress","app_id":440,"player_count":0,"max_players":24,"Bots":0,"server_type":"Dedicated","server_os":"Linux","password":true,"vac":true,"version":"7723704","steam_id":85568392925397852,"keywords":["cp","nocrits","nodmgspread","uncletopia"],"game_id":440,"stv_port":27036,"stv_name":"Uncletopia | Warsaw | 3 | All Maps | STV","players":null},{"server_id":52,"name":"Uncletopia | Warsaw | 4 | All Maps","name_short":"waw-4","host":"waw-1.pl.uncletopia.com","port":27045,"enabled":true,"region":"eu","cc":"pl","latitude":52.2297,"longitude":21.017532,"reserved":0,"last_update":"0001-01-01T00:00:00Z","name_a2s":"Uncletopia | Warsaw | 4 | All Maps","protocol":17,"map":"pl_upward","folder":"tf","game":"Team Fortress","app_id":440,"player_count":0,"max_players":24,"Bots":0,"server_type":"Dedicated","server_os":"Linux","password":true,"vac":true,"version":"7723704","steam_id":85568392925397853,"keywords":["nocrits","nodmgspread","payload","uncletopia"],"game_id":440,"stv_port":27046,"stv_name":"Uncletopia | Warsaw | 4 | All Maps | STV","players":null},{"server_id":53,"name":"Uncletopia | Warsaw | 5 | No Payload","name_short":"waw-5","host":"waw-1.pl.uncletopia.com","port":27055,"enabled":true,"region":"eu","cc":"pl","latitude":52.2297,"longitude":21.017532,"reserved":0,"last_update":"0001-01-01T00:00:00Z","name_a2s":"Uncletopia | Warsaw | 5 | No Payload","protocol":17,"map":"koth_highpass","folder":"tf","game":"Team Fortress","app_id":440,"player_count":0,"max_players":24,"Bots":0,"server_type":"Dedicated","server_os":"Linux","password":true,"vac":true,"version":"7723704","steam_id":85568392925397854,"keywords":["cp","nocrits","nodmgspread","uncletopia"],"game_id":440,"stv_port":27056,"stv_name":"Uncletopia | Warsaw | 5 | No Payload | STV","players":null},{"server_id":54,"name":"Uncletopia | Warsaw | 6 | Community","name_short":"waw-6","host":"waw-1.pl.uncletopia.com","port":27065,"enabled":true,"region":"eu","cc":"pl","latitude":52.2297,"longitude":21.017532,"reserved":0,"last_update":"0001-01-01T00:00:00Z","name_a2s":"Uncletopia | Warsaw | 6 | Community","protocol":17,"map":"koth_viaduct","folder":"tf","game":"Team Fortress","app_id":440,"player_count":0,"max_players":24,"Bots":0,"server_type":"Dedicated","server_os":"Linux","password":true,"vac":true,"version":"7723704","steam_id":85568392925397856,"keywords":["cp","nocrits","nodmgspread","uncletopia"],"game_id":440,"stv_port":27066,"stv_name":"Uncletopia | Warsaw | 6 | Community | STV","players":null}]}