{"status":true,"message":"","result":[{"server_id":9,"name":"Uncletopia | Atlanta | 1 | All Maps","name_short":"atl-1","host":"atl-1.us.uncletopia.com","port":27015,"enabled":true,"region":"us-east","cc":"us","latitude":33.753746,"longitude":-84.38633,"reserved":0,"last_update":"0001-01-01T00:00:00Z","name_a2s":"Uncletopia | Atlanta | 1 | All Maps","protocol":17,"map":"koth_sawmill","folder":"tf","game":"Team Fortress","app_id":440,"player_count":25,"max_players":24,"Bots":0,"server_type":"Dedicated","server_os":"Linux","password":true,"vac":true,"version":"7961495","steam_id":85568392924469982,"keywords":["cp","nocrits","nodmgspread","uncletopia"],"game_id":440,"stv_port":27016,"stv_name":"Uncletopia | Atlanta | 1 | All Maps | STV","players":[{"user_id":12,"name":"revolc36","steam_id":76561199438893811,"connected_time":1159000000000,"state":"active","ping":73},{"user_id":15,"name":"Cast Iron Crusader","steam_id":76561198066384337,"connected_time":1102000000000,"state":"active","ping":79},{"user_id":25,"name":"Josh the Mon","steam_id":76561198141725076,"connected_time":583000000000,"state":"active","ping":76},{"user_id":17,"name":"{YT} Sayori Fortress 2","steam_id":76561198988657191,"connected_time":1090000000000,"state":"active","ping":81},{"user_id":31,"name":"FIJI","steam_id":76561198126087725,"connected_time":445000000000,"state":"active","ping":67},{"user_id":34,"name":"ZachChase","steam_id":76561198086057112,"connected_time":342000000000,"state":"active","ping":100},{"user_id":20,"name":"Compile","steam_id":76561198242842394,"connected_time":1040000000000,"state":"active","ping":62},{"user_id":23,"name":"Neato","steam_id":76561198138219428,"connected_time":890000000000,"state":"active","ping":174},{"user_id":27,"name":"corbenis","steam_id":76561199012442511,"connected_time":508000000000,"state":"active","ping":90},{"user_id":28,"name":"Flyingmeadow","steam_id":76561198144687723,"connected_time":505000000000,"state":"active","ping":66},{"user_id":29,"name":"chexo4","steam_id":76561198150532531,"connected_time":502000000000,"state":"active","ping":51},{"user_id":30,"name":"YoshiGaming64","steam_id":76561199396299350,"connected_time":499000000000,"state":"active","ping":186},{"user_id":32,"name":"BloodHoundYT (F2P) | trade.tf","steam_id":76561199180340440,"connected_time":436000000000,"state":"active","ping":158},{"user_id":47,"name":"Dat1Scar","steam_id":76561199225594994,"connected_time":130000000000,"state":"active","ping":127},{"user_id":35,"name":"Karcist","steam_id":76561197970744075,"connected_time":290000000000,"state":"active","ping":91},{"user_id":36,"name":"The Nikocado Enjoyer","steam_id":76561198263154374,"connected_time":239000000000,"state":"active","ping":80},{"user_id":40,"name":"Donnie","steam_id":76561198837857545,"connected_time":196000000000,"state":"active","ping":150},{"user_id":38,"name":"crippledfrog133.ඞ","steam_id":76561198115458307,"connected_time":208000000000,"state":"active","ping":105},{"user_id":39,"name":"Dakota","steam_id":76561198134092308,"connected_time":203000000000,"state":"active","ping":87},{"user_id":41,"name":"photonbinding","steam_id":76561198250996330,"connected_time":188000000000,"state":"active","ping":84},{"user_id":42,"name":"D(b) Hell","steam_id":76561198067869016,"connected_time":181000000000,"state":"active","ping":66},{"user_id":43,"name":"Pyro she/her","steam_id":76561198214080773,"connected_time":169000000000,"state":"active","ping":65},{"user_id":46,"name":"RAWRWAIFU","steam_id":76561198032118386,"connected_time":139000000000,"state":"active","ping":96},{"user_id":45,"name":"ChimpChampion","steam_id":76561198046520712,"connected_time":148000000000,"state":"active","ping":105},{"user_id":48,"name":"Frosti","steam_id":76561199236298900,"connected_time":108000000000,"state":"active","ping":88}]},{"server_id":104,"name":"Uncletopia | Atlanta | 2 | All Maps","name_short":"atl-2","host":"atl-1.us.uncletopia.com","port":27025,"enabled":true,"region":"us-east","cc":"us","latitude":33.753746,"longitude":-84.38633,"reserved":0,"last_update":"0001-01-01T00:00:00Z","name_a2s":"Uncletopia | Atlanta | 2 | All Maps","protocol":17,"map":"pl_snowycoast","folder":"tf","game":"Team Fortress","app_id":440,"player_count":23,"max_players":24,"Bots":0,"server_type":"Dedicated","server_os":"Linux","password":true,"vac":true,"version":"7961495","steam_id":85568392924469983,"keywords":["nocrits","nodmgspread","payload","uncletopia"],"game_id":440,"stv_port":27026,"stv_name":"Uncletopia | Atlanta | 2 | All Maps | STV","players":[{"user_id":118,"name":"Nassu","steam_id":76561198147367577,"connected_time":1990000000000,"state":"active","ping":85},{"user_id":138,"name":"Rummy the Blargh-gineer","steam_id":76561197997192800,"connected_time":110000000000,"state":"active","ping":79},{"user_id":9,"name":"metalfan666","steam_id":76561198386344068,"connected_time":6670000000000,"state":"active","ping":60},{"user_id":122,"name":"Arm","steam_id":76561198116535637,"connected_time":1678000000000,"state":"active","ping":52},{"user_id":95,"name":"Young-OG","steam_id":76561198058800479,"connected_time":3751000000000,"state":"active","ping":55},{"user_id":81,"name":"the pizza","steam_id":76561198221331476,"connected_time":4623000000000,"state":"active","ping":101},{"user_id":39,"name":"JustADuck","steam_id":76561198311260943,"connected_time":5420000000000,"state":"active","ping":56},{"user_id":135,"name":"Doctor Bear ʕ •ᴥ•ʔ","steam_id":76561197968103161,"connected_time":397000000000,"state":"active","ping":94},{"user_id":119,"name":"NoobsSlayer","steam_id":76561199102765122,"connected_time":1972000000000,"state":"active","ping":130},{"user_id":97,"name":"Bobbn","steam_id":76561198876124683,"connected_time":3657000000000,"state":"active","ping":85},{"user_id":132,"name":"bikerkid207","steam_id":76561198390782783,"connected_time":634000000000,"state":"active","ping":66},{"user_id":28,"name":"summerlis","steam_id":76561198165324438,"connected_time":5600000000000,"state":"active","ping":89},{"user_id":113,"name":"Puck Norris","steam_id":76561198151256410,"connected_time":2439000000000,"state":"active","ping":111},{"user_id":114,"name":"yomommasabitch","steam_id":76561198323217150,"connected_time":2434000000000,"state":"active","ping":62},{"user_id":133,"name":"meow","steam_id":76561198046948758,"connected_time":614000000000,"state":"active","ping":54},{"user_id":128,"name":"Kay ☭","steam_id":76561198353432576,"connected_time":976000000000,"state":"active","ping":59},{"user_id":136,"name":"TTV RoamerYT ♤♤♤","steam_id":76561198317074062,"connected_time":390000000000,"state":"active","ping":113},{"user_id":124,"name":"mr poop","steam_id":76561199195196632,"connected_time":1602000000000,"state":"active","ping":70},{"user_id":110,"name":"Mudrock","steam_id":76561198348354629,"connected_time":2818000000000,"state":"active","ping":87},{"user_id":129,"name":"Rattle Bones","steam_id":76561198075736702,"connected_time":855000000000,"state":"active","ping":64},{"user_id":126,"name":"Kamin","steam_id":76561198255299559,"connected_time":1546000000000,"state":"active","ping":90},{"user_id":48,"name":"Retrowave","steam_id":76561198061921346,"connected_time":5201000000000,"state":"active","ping":77},{"user_id":131,"name":"hoboways","steam_id":76561198168035195,"connected_time":689000000000,"state":"active","ping":74}]},{"server_id":400,"name":"Uncletopia | Atlanta | 3 | Stopwatch","name_short":"atl-3","host":"atl-1.us.uncletopia.com","port":27035,"enabled":true,"region":"us-east","cc":"us","latitude":33.753746,"longitude":-84.38633,"reserved":0,"last_update":"0001-01-01T00:00:00Z","name_a2s":"Uncletopia | Atlanta | 3 | Stopwatch","protocol":17,"map":"pl_badwater","folder":"tf","game":"Team Fortress","app_id":440,"player_count":0,"max_players":24,"Bots":0,"server_type":"Dedicated","server_os":"Linux","password":true,"vac":true,"version":"7961495","steam_id":85568392924515187,"keywords":["nocrits","nodmgspread","payload","uncletopia"],"game_id":440,"stv_port":27036,"stv_name":"Uncletopia | Atlanta | 3 | Stopwatch | STV","players":null},{"server_id":401,"name":"Uncletopia | Atlanta | 4 | Community","name_short":"atl-4","host":"atl-1.us.uncletopia.com","port":27045,"enabled":true,"region":"us-east","cc":"us","latitude":33.753746,"longitude":-84.38633,"reserved":0,"last_update":"0001-01-01T00:00:00Z","name_a2s":"Uncletopia | Atlanta | 4 | Community","protocol":17,"map":"workshop/koth_slaughter_rc1.ugc1712845210","folder":"tf","game":"Team Fortress","app_id":440,"player_count":0,"max_players":24,"Bots":0,"server_type":"Dedicated","server_os":"Linux","password":true,"vac":true,"version":"7961495","steam_id":85568392924515188,"keywords":["cp","nocrits","nodmgspread","uncletopia"],"game_id":440,"stv_port":27046,"stv_name":"Uncletopia | Atlanta | 4 | Community | STV","players":null},{"server_id":2,"name":"Uncletopia | Chicago | 1 | All Maps","name_short":"chi-1","host":"chi-1.us.uncletopia.com","port":27015,"enabled":true,"region":"us-central","cc":"us","latitude":41.881832,"longitude":-87.62318,"reserved":0,"last_update":"0001-01-01T00:00:00Z","name_a2s":"Uncletopia | Chicago | 1 | All Maps","protocol":17,"map":"pl_frontier_final","folder":"tf","game":"Team Fortress","app_id":440,"player_count":24,"max_players":24,"Bots":0,"server_type":"Dedicated","server_os":"Linux","password":true,"vac":true,"version":"7961495","steam_id":85568392924469984,"keywords":["nocrits","nodmgspread","payload","uncletopia"],"game_id":440,"stv_port":27016,"stv_name":"Uncletopia | Chicago | 1 | All Maps | STV","players":[{"user_id":184,"name":"TurtledoveJones","steam_id":76561198010200051,"connected_time":2144000000000,"state":"active","ping":45},{"user_id":199,"name":"Ripheart","steam_id":76561198089661561,"connected_time":136000000000,"state":"active","ping":46},{"user_id":163,"name":"pea ttv/peabeanz","steam_id":76561198119551968,"connected_time":4125000000000,"state":"active","ping":75},{"user_id":96,"name":"Freddy Fazbear","steam_id":76561198272353440,"connected_time":9388000000000,"state":"active","ping":79},{"user_id":183,"name":"Fanatic","steam_id":76561197998548387,"connected_time":2481000000000,"state":"active","ping":60},{"user_id":99,"name":"Super Ghostbusters (Full Album)","steam_id":76561198057415490,"connected_time":9294000000000,"state":"active","ping":47},{"user_id":186,"name":"rf","steam_id":76561199018207049,"connected_time":918000000000,"state":"active","ping":87},{"user_id":180,"name":"Fabos","steam_id":76561199119843346,"connected_time":2746000000000,"state":"active","ping":177},{"user_id":192,"name":"La Tabda","steam_id":76561198120364620,"connected_time":444000000000,"state":"active","ping":90},{"user_id":159,"name":"dree","steam_id":76561198079178866,"connected_time":4630000000000,"state":"active","ping":73},{"user_id":80,"name":"Jel1440","steam_id":76561198179045366,"connected_time":10292000000000,"state":"active","ping":46},{"user_id":193,"name":"riven","steam_id":76561198057158050,"connected_time":443000000000,"state":"active","ping":44},{"user_id":200,"name":"incredirocks","steam_id":76561198061079993,"connected_time":11000000000,"state":"spawning","ping":44},{"user_id":198,"name":"Eridani","steam_id":76561198037289982,"connected_time":364000000000,"state":"active","ping":104},{"user_id":167,"name":"C.AK.E","steam_id":76561198842801197,"connected_time":4114000000000,"state":"active","ping":81},{"user_id":187,"name":"Citrus Sake","steam_id":76561198932769972,"connected_time":916000000000,"state":"active","ping":60},{"user_id":177,"name":"Dollop","steam_id":76561198055444075,"connected_time":2814000000000,"state":"active","ping":81},{"user_id":188,"name":"Degausser","steam_id":76561198149671307,"connected_time":916000000000,"state":"active","ping":60},{"user_id":146,"name":"Spy (Not Medic)","steam_id":76561199018278507,"connected_time":6045000000000,"state":"active","ping":133},{"user_id":171,"name":"yomo","steam_id":76561198063175935,"connected_time":2931000000000,"state":"active","ping":75},{"user_id":147,"name":"Lia_Rein TTV","steam_id":76561198151569597,"connected_time":6033000000000,"state":"active","ping":152},{"user_id":135,"name":"berserker_tf2 )HE/SHE(","steam_id":76561198303464488,"connected_time":6428000000000,"state":"active","ping":55},{"user_id":144,"name":"freyja","steam_id":76561198249206656,"connected_time":6184000000000,"state":"active","ping":62},{"user_id":126,"name":"beta central","steam_id":76561198301876831,"connected_time":7091000000000,"state":"active","ping":60}]},{"server_id":106,"name":"Uncletopia | Chicago | 2 | All Maps","name_short":"chi-2","host":"chi-1.us.uncletopia.com","port":27025,"enabled":true,"region":"us-central","cc":"us","latitude":41.881832,"longitude":-87.62318,"reserved":0,"last_update":"0001-01-01T00:00:00Z","name_a2s":"Uncletopia | Chicago | 2 | All Maps","protocol":17,"map":"koth_cascade","folder":"tf","game":"Team Fortress","app_id":440,"player_count":0,"max_players":24,"Bots":0,"server_type":"Dedicated","server_os":"Linux","password":true,"vac":true,"version":"7961495","steam_id":85568392924469985,"keywords":["cp","nocrits","nodmgspread","uncletopia"],"game_id":440,"stv_port":27026,"stv_name":"Uncletopia | Chicago | 2 | All Maps | STV","players":null},{"server_id":402,"name":"Uncletopia | Chicago | 3 | All Maps","name_short":"chi-3","host":"chi-1.us.uncletopia.com","port":27035,"enabled":true,"region":"us-central","cc":"us","latitude":41.881832,"longitude":-87.62318,"reserved":0,"last_update":"0001-01-01T00:00:00Z","name_a2s":"Uncletopia | Chicago | 3 | All Maps","protocol":17,"map":"koth_highpass","folder":"tf","game":"Team Fortress","app_id":440,"player_count":0,"max_players":24,"Bots":0,"server_type":"Dedicated","server_os":"Linux","password":true,"vac":true,"version":"7961495","steam_id":85568392924515191,"keywords":["cp","nocrits","nodmgspread","uncletopia"],"game_id":440,"stv_port":27036,"stv_name":"Uncletopia | Chicago | 3 | All Maps | STV","players":null},{"server_id":403,"name":"Uncletopia | Chicago | 4 | All Maps","name_short":"chi-4","host":"chi-1.us.uncletopia.com","port":27045,"enabled":true,"region":"us-central","cc":"us","latitude":41.881832,"longitude":-87.62318,"reserved":0,"last_update":"0001-01-01T00:00:00Z","name_a2s":"Uncletopia | Chicago | 4 | All Maps","protocol":17,"map":"koth_cascade","folder":"tf","game":"Team Fortress","app_id":440,"player_count":0,"max_players":24,"Bots":0,"server_type":"Dedicated","server_os":"Linux","password":true,"vac":true,"version":"7961495","steam_id":85568392924515193,"keywords":["cp","nocrits","nodmgspread","uncletopia"],"game_id":440,"stv_port":27046,"stv_name":"Uncletopia | Chicago | 4 | All Maps | STV","players":null},{"server_id":36,"name":"Uncletopia | Chicago | 5 | All Maps","name_short":"chi-5","host":"chi-2.us.uncletopia.com","port":27015,"enabled":true,"region":"us-central","cc":"us","latitude":41.881832,"longitude":-87.62318,"reserved":0,"last_update":"0001-01-01T00:00:00Z","name_a2s":"Uncletopia | Chicago | 5 | All Maps","protocol":17,"map":"koth_viaduct","folder":"tf","game":"Team Fortress","app_id":440,"player_count":0,"max_players":24,"Bots":0,"server_type":"Dedicated","server_os":"Linux","password":true,"vac":true,"version":"7961495","steam_id":85568392924866362,"keywords":["cp","nocrits","nodmgspread","uncletopia"],"game_id":440,"stv_port":27016,"stv_name":"Uncletopia | Chicago | 5 | All Maps | STV","players":null},{"server_id":37,"name":"Uncletopia | Chicago | 6 | All Maps","name_short":"chi-6","host":"chi-2.us.uncletopia.com","port":27025,"enabled":true,"region":"us-central","cc":"us","latitude":41.881832,"longitude":-87.62318,"reserved":0,"last_update":"0001-01-01T00:00:00Z","name_a2s":"Uncletopia | Chicago | 6 | All Maps","protocol":17,"map":"pl_frontier_final","folder":"tf","game":"Team Fortress","app_id":440,"player_count":0,"max_players":24,"Bots":0,"server_type":"Dedicated","server_os":"Linux","password":true,"vac":true,"version":"7961495","steam_id":85568392924866363,"keywords":["nocrits","nodmgspread","payload","uncletopia"],"game_id":440,"stv_port":27026,"stv_name":"Uncletopia | Chicago | 6 | All Maps | STV","players":null},{"server_id":38,"name":"Uncletopia | Chicago | 7 | Stopwatch","name_short":"chi-7","host":"chi-2.us.uncletopia.com","port":27035,"enabled":true,"region":"us-central","cc":"us","latitude":41.881832,"longitude":-87.62318,"reserved":0,"last_update":"0001-01-01T00:00:00Z","name_a2s":"Uncletopia | Chicago | 7 | Stopwatch","protocol":17,"map":"workshop/koth_ashville_final.ugc2130459942","folder":"tf","game":"Team Fortress","app_id":440,"player_count":0,"max_players":24,"Bots":0,"server_type":"Dedicated","server_os":"Linux","password":true,"vac":true,"version":"7961495","steam_id":85568392924866364,"keywords":["cp","nocrits","nodmgspread","uncletopia"],"game_id":440,"stv_port":27036,"stv_name":"Uncletopia | Chicago | 7 | Stopwatch | STV","players":null},{"server_id":39,"name":"Uncletopia | Chicago | 8 | Community","name_short":"chi-8","host":"chi-2.us.uncletopia.com","port":27045,"enabled":true,"region":"us-central","cc":"us","latitude":41.881832,"longitude":-87.62318,"reserved":0,"last_update":"0001-01-01T00:00:00Z","name_a2s":"Uncletopia | Chicago | 8 | Community","protocol":17,"map":"pl_pier","folder":"tf","game":"Team Fortress","app_id":440,"player_count":0,"max_players":24,"Bots":0,"server_type":"Dedicated","server_os":"Linux","password":true,"vac":true,"version":"7961495","steam_id":85568392924866365,"keywords":["nocrits","nodmgspread","payload","uncletopia"],"game_id":440,"stv_port":27046,"stv_name":"Uncletopia | Chicago | 8 | Community | STV","players":null},{"server_id":8,"name":"Uncletopia | Dallas | 1 | All Maps","name_short":"dal-1","host":"dal-1.us.uncletopia.com","port":27015,"enabled":true,"region":"us-central","cc":"us","latitude":32.779167,"longitude":-96.80889,"reserved":0,"last_update":"0001-01-01T00:00:00Z","name_a2s":"Uncletopia | Dallas | 1 | All Maps","protocol":17,"map":"pl_barnblitz","folder":"tf","game":"Team Fortress","app_id":440,"player_count":0,"max_players":24,"Bots":0,"server_type":"Dedicated","server_os":"Linux","password":true,"vac":true,"version":"7961495","steam_id":85568392924469986,"keywords":["nocrits","nodmgspread","payload","uncletopia"],"game_id":440,"stv_port":27016,"stv_name":"Uncletopia | Dallas | 1 | All Maps | STV","players":null},{"server_id":108,"name":"Uncletopia | Dallas | 2 | All Maps","name_short":"dal-2","host":"dal-1.us.uncletopia.com","port":27025,"enabled":true,"region":"us-central","cc":"us","latitude":32.779167,"longitude":-96.80889,"reserved":0,"last_update":"0001-01-01T00:00:00Z","name_a2s":"Uncletopia | Dallas | 2 | All Maps","protocol":17,"map":"pl_swiftwater_final1","folder":"tf","game":"Team Fortress","app_id":440,"player_count":0,"max_players":24,"Bots":0,"server_type":"Dedicated","server_os":"Linux","password":true,"vac":true,"version":"7961495","steam_id":85568392924469988,"keywords":["nocrits","nodmgspread","payload","uncletopia"],"game_id":440,"stv_port":27026,"stv_name":"Uncletopia | Dallas | 2 | All Maps | STV","players":null},{"server_id":404,"name":"Uncletopia | Dallas | 3 | All Maps","name_short":"dal-3","host":"dal-1.us.uncletopia.com","port":27035,"enabled":true,"region":"us-central","cc":"us","latitude":32.779167,"longitude":-96.80889,"reserved":0,"last_update":"0001-01-01T00:00:00Z","name_a2s":"Uncletopia | Dallas | 3 | All Maps","protocol":17,"map":"koth_viaduct","folder":"tf","game":"Team Fortress","app_id":440,"player_count":0,"max_players":24,"Bots":0,"server_type":"Dedicated","server_os":"Linux","password":true,"vac":true,"version":"7961495","steam_id":85568392924515219,"keywords":["cp","nocrits","nodmgspread","uncletopia"],"game_id":440,"stv_port":27036,"stv_name":"Uncletopia | Dallas | 3 | All Maps | STV","players":null},{"server_id":405,"name":"Uncletopia | Dallas | 4 | Community","name_short":"dal-4","host":"dal-1.us.uncletopia.com","port":27045,"enabled":true,"region":"us-central","cc":"us","latitude":32.779167,"longitude":-96.80889,"reserved":0,"last_update":"0001-01-01T00:00:00Z","name_a2s":"Uncletopia | Dallas | 4 | Community","protocol":17,"map":"pl_pier","folder":"tf","game":"Team Fortress","app_id":440,"player_count":0,"max_players":24,"Bots":0,"server_type":"Dedicated","server_os":"Linux","password":true,"vac":true,"version":"7961495","steam_id":85568392924515220,"keywords":["nocrits","nodmgspread","payload","uncletopia"],"game_id":440,"stv_port":27046,"stv_name":"Uncletopia | Dallas | 4 | Community | STV","players":null},{"server_id":5,"name":"Uncletopia | Frankfurt | 1 | All Maps","name_short":"frk-1","host":"frk-1.de.uncletopia.com","port":27015,"enabled":true,"region":"eu","cc":"de","latitude":50.110924,"longitude":8.682127,"reserved":0,"last_update":"0001-01-01T00:00:00Z","name_a2s":"Uncletopia | Frankfurt | 1 | All Maps","protocol":17,"map":"koth_highpass","folder":"tf","game":"Team Fortress","app_id":440,"player_count":0,"max_players":24,"Bots":0,"server_type":"Dedicated","server_os":"Linux","password":true,"vac":true,"version":"7961495","steam_id":85568392924469989,"keywords":["cp","nocrits","nodmgspread","uncletopia"],"game_id":440,"stv_port":27016,"stv_name":"Uncletopia | Frankfurt | 1 | All Maps | STV","players":null},{"server_id":110,"name":"Uncletopia | Frankfurt | 2 | All Maps","name_short":"frk-2","host":"frk-1.de.uncletopia.com","port":27025,"enabled":true,"region":"eu","cc":"de","latitude":50.110924,"longitude":8.682127,"reserved":0,"last_update":"0001-01-01T00:00:00Z","name_a2s":"Uncletopia | Frankfurt | 2 | All Maps","protocol":17,"map":"pl_barnblitz","folder":"tf","game":"Team Fortress","app_id":440,"player_count":24,"max_players":24,"Bots":0,"server_type":"Dedicated","server_os":"Linux","password":true,"vac":true,"version":"7961495","steam_id":85568392924469990,"keywords":["nocrits","nodmgspread","payload","uncletopia"],"game_id":440,"stv_port":27026,"stv_name":"Uncletopia | Frankfurt | 2 | All Maps | STV","players":[{"user_id":332,"name":"koji","steam_id":76561198051636999,"connected_time":3218000000000,"state":"active","ping":49},{"user_id":371,"name":"Ben UFO","steam_id":76561198001648348,"connected_time":1393000000000,"state":"active","ping":65},{"user_id":340,"name":"tafelpoot","steam_id":76561198080036024,"connected_time":2634000000000,"state":"active","ping":61},{"user_id":302,"name":"Master coitus","steam_id":76561198050416948,"connected_time":5504000000000,"state":"active","ping":56},{"user_id":348,"name":"salami","steam_id":76561198297812094,"connected_time":2546000000000,"state":"active","ping":98},{"user_id":298,"name":"CzechMate #SaveTF2","steam_id":76561198012687703,"connected_time":5970000000000,"state":"active","ping":50},{"user_id":344,"name":"prompt","steam_id":76561198154677956,"connected_time":2611000000000,"state":"active","ping":72},{"user_id":338,"name":"Rachugh","steam_id":76561199235852578,"connected_time":2682000000000,"state":"active","ping":165},{"user_id":376,"name":"Swagmaster","steam_id":76561198045828392,"connected_time":692000000000,"state":"active","ping":69},{"user_id":285,"name":"anders McFlanders","steam_id":76561198022811995,"connected_time":6163000000000,"state":"active","ping":58},{"user_id":359,"name":"\u003c blank \u003e","steam_id":76561199098460786,"connected_time":2320000000000,"state":"active","ping":70},{"user_id":336,"name":"Maxin","steam_id":76561197999923364,"connected_time":2901000000000,"state":"active","ping":63},{"user_id":374,"name":"Ghost11","steam_id":76561198068892992,"connected_time":1094000000000,"state":"active","ping":102},{"user_id":370,"name":"Space Raccoon","steam_id":76561198038399662,"connected_time":1620000000000,"state":"active","ping":83},{"user_id":379,"name":"Oceanic | tuesday maybe","steam_id":76561197979741827,"connected_time":276000000000,"state":"active","ping":69},{"user_id":143,"name":"else1","steam_id":76561197996558319,"connected_time":18011000000000,"state":"active","ping":75},{"user_id":377,"name":"nordstream bomber","steam_id":76561199401283123,"connected_time":370000000000,"state":"active","ping":61},{"user_id":362,"name":"Purrplehaze","steam_id":76561198297604298,"connected_time":2237000000000,"state":"active","ping":80},{"user_id":372,"name":"Daruun","steam_id":76561198019068781,"connected_time":1392000000000,"state":"active","ping":68},{"user_id":364,"name":"agonized.micheal2021","steam_id":76561198007929294,"connected_time":2210000000000,"state":"active","ping":89},{"user_id":368,"name":"hermano de batalla","steam_id":76561198093073758,"connected_time":1875000000000,"state":"active","ping":70},{"user_id":375,"name":"Dolcelatte","steam_id":76561198038501770,"connected_time":734000000000,"state":"active","ping":48},{"user_id":378,"name":"domek","steam_id":76561198048447632,"connected_time":364000000000,"state":"active","ping":62},{"user_id":309,"name":"tensh1","steam_id":76561198282471866,"connected_time":4908000000000,"state":"active","ping":100}]},{"server_id":308,"name":"Uncletopia | Frankfurt | 3 | All Maps","name_short":"frk-3","host":"frk-1.de.uncletopia.com","port":27035,"enabled":true,"region":"eu","cc":"de","latitude":50.110924,"longitude":8.682127,"reserved":0,"last_update":"0001-01-01T00:00:00Z","name_a2s":"Uncletopia | Frankfurt | 3 | All Maps","protocol":17,"map":"pl_pier","folder":"tf","game":"Team Fortress","app_id":440,"player_count":0,"max_players":24,"Bots":0,"server_type":"Dedicated","server_os":"Linux","password":true,"vac":true,"version":"7961495","steam_id":85568392924504274,"keywords":["nocrits","nodmgspread","payload","uncletopia"],"game_id":440,"stv_port":27036,"stv_name":"Uncletopia | Frankfurt | 3 | All Maps | STV","players":null},{"server_id":309,"name":"Uncletopia | Frankfurt | 4 | All Maps","name_short":"frk-4","host":"frk-1.de.uncletopia.com","port":27045,"enabled":true,"region":"eu","cc":"de","latitude":50.110924,"longitude":8.682127,"reserved":0,"last_update":"0001-01-01T00:00:00Z","name_a2s":"Uncletopia | Frankfurt | 4 | All Maps","protocol":17,"map":"pl_badwater","folder":"tf","game":"Team Fortress","app_id":440,"player_count":24,"max_players":24,"Bots":0,"server_type":"Dedicated","server_os":"Linux","password":true,"vac":true,"version":"7961495","steam_id":85568392924504275,"keywords":["nocrits","nodmgspread","payload","uncletopia"],"game_id":440,"stv_port":27046,"stv_name":"Uncletopia | Frankfurt | 4 | All Maps | STV","players":[{"user_id":154,"name":"ALARM","steam_id":76561198120686521,"connected_time":4838000000000,"state":"active","ping":52},{"user_id":215,"name":"Evarnite","steam_id":76561199137157629,"connected_time":356000000000,"state":"active","ping":79},{"user_id":210,"name":"MeDiciN","steam_id":76561199112280586,"connected_time":1444000000000,"state":"active","ping":142},{"user_id":206,"name":"NALA","steam_id":76561198039806469,"connected_time":1467000000000,"state":"active","ping":68},{"user_id":199,"name":"Khrinde","steam_id":76561198036744526,"connected_time":2014000000000,"state":"active","ping":97},{"user_id":214,"name":"Той, що овець пас\ufffd","steam_id":76561198237056456,"connected_time":393000000000,"state":"active","ping":60},{"user_id":177,"name":"jmp","steam_id":76561198168283286,"connected_time":3309000000000,"state":"active","ping":68},{"user_id":191,"name":"Ulven","steam_id":76561199198504187,"connected_time":2313000000000,"state":"active","ping":72},{"user_id":220,"name":"Enigma","steam_id":76561198035401717,"connected_time":276000000000,"state":"active","ping":56},{"user_id":207,"name":"Striker","steam_id":76561198100173021,"connected_time":1464000000000,"state":"active","ping":73},{"user_id":156,"name":"Doriian","steam_id":76561198071438810,"connected_time":4794000000000,"state":"active","ping":76},{"user_id":192,"name":"Speedyjoestar","steam_id":76561198907130963,"connected_time":2306000000000,"state":"active","ping":60},{"user_id":225,"name":"Blomman","steam_id":76561198059119716,"connected_time":19000000000,"state":"spawning","ping":116},{"user_id":190,"name":"Real (Real)","steam_id":76561198323425034,"connected_time":2399000000000,"state":"active","ping":69},{"user_id":134,"name":"Tre3","steam_id":76561198054795379,"connected_time":5536000000000,"state":"active","ping":51},{"user_id":221,"name":"Vel0city","steam_id":76561198049687798,"connected_time":269000000000,"state":"active","ping":58},{"user_id":201,"name":"Armored","steam_id":76561198267449130,"connected_time":1788000000000,"state":"active","ping":70},{"user_id":218,"name":"be gay do crime","steam_id":76561198254450468,"connected_time":334000000000,"state":"active","ping":75},{"user_id":171,"name":"Pico","steam_id":76561198063552545,"connected_time":3887000000000,"state":"active","ping":94},{"user_id":119,"name":"Mr Season","steam_id":76561198014005263,"connected_time":7070000000000,"state":"active","ping":102},{"user_id":202,"name":"Silver","steam_id":76561198037290739,"connected_time":1729000000000,"state":"active","ping":64},{"user_id":219,"name":"TrashVerN","steam_id":76561197977444051,"connected_time":313000000000,"state":"active","ping":70},{"user_id":204,"name":"Yuval","steam_id":76561198241802390,"connected_time":1682000000000,"state":"active","ping":116},{"user_id":222,"name":"High-Key Cat","steam_id":76561198012929012,"connected_time":262000000000,"state":"active","ping":85}]},{"server_id":310,"name":"Uncletopia | Frankfurt | 5 | All Maps","name_short":"frk-5","host":"frk-1.de.uncletopia.com","port":27055,"enabled":true,"region":"eu","cc":"de","latitude":50.110924,"longitude":8.682127,"reserved":0,"last_update":"0001-01-01T00:00:00Z","name_a2s":"Uncletopia | Frankfurt | 5 | All Maps","protocol":17,"map":"pl_swiftwater_final1","folder":"tf","game":"Team Fortress","app_id":440,"player_count":0,"max_players":24,"Bots":0,"server_type":"Dedicated","server_os":"Linux","password":true,"vac":true,"version":"7961495","steam_id":85568392924504277,"keywords":["nocrits","nodmgspread","payload","uncletopia"],"game_id":440,"stv_port":27056,"stv_name":"Uncletopia | Frankfurt | 5 | All Maps | STV","players":null},{"server_id":311,"name":"Uncletopia | Frankfurt | 6 | All Maps","name_short":"frk-6","host":"frk-1.de.uncletopia.com","port":27065,"enabled":true,"region":"eu","cc":"de","latitude":50.110924,"longitude":8.682127,"reserved":0,"last_update":"0001-01-01T00:00:00Z","name_a2s":"Uncletopia | Frankfurt | 6 | All Maps","protocol":17,"map":"cp_sunshine","folder":"tf","game":"Team Fortress","app_id":440,"player_count":24,"max_players":24,"Bots":0,"server_type":"Dedicated","server_os":"Linux","password":true,"vac":true,"version":"7961495","steam_id":85568392924504278,"keywords":["cp","nocrits","nodmgspread","uncletopia"],"game_id":440,"stv_port":27066,"stv_name":"Uncletopia | Frankfurt | 6 | All Maps | STV","players":[{"user_id":13,"name":"ducksattack","steam_id":76561198074706076,"connected_time":4530000000000,"state":"active","ping":78},{"user_id":11,"name":"DeCypher \u003c3","steam_id":76561198171992619,"connected_time":5325000000000,"state":"active","ping":66},{"user_id":17,"name":"I-I","steam_id":76561198267969436,"connected_time":4052000000000,"state":"active","ping":66},{"user_id":82,"name":"ender45","steam_id":76561198840955715,"connected_time":974000000000,"state":"active","ping":48},{"user_id":75,"name":"Amok","steam_id":76561198043889110,"connected_time":1329000000000,"state":"active","ping":63},{"user_id":104,"name":"Moses","steam_id":76561198257652671,"connected_time":104000000000,"state":"active","ping":64},{"user_id":74,"name":"I have 42 pipe bombs in my ass","steam_id":76561199111979000,"connected_time":1363000000000,"state":"active","ping":50},{"user_id":92,"name":"[Thrall891]","steam_id":76561198136402128,"connected_time":409000000000,"state":"active","ping":88},{"user_id":20,"name":"beetrootstrawberry2011","steam_id":76561198097239850,"connected_time":3931000000000,"state":"active","ping":58},{"user_id":89,"name":"QuestionMark","steam_id":76561198976108019,"connected_time":680000000000,"state":"active","ping":149},{"user_id":58,"name":"Duke Fishlord","steam_id":76561198079928327,"connected_time":2336000000000,"state":"active","ping":65},{"user_id":91,"name":"TruckOperator47","steam_id":76561198192924663,"connected_time":468000000000,"state":"active","ping":59},{"user_id":62,"name":"jeezo","steam_id":76561198123592400,"connected_time":2160000000000,"state":"active","ping":89},{"user_id":70,"name":"PairofDucks","steam_id":76561198078408213,"connected_time":1512000000000,"state":"active","ping":70},{"user_id":88,"name":"rajAs","steam_id":76561198035928111,"connected_time":756000000000,"state":"active","ping":73},{"user_id":72,"name":"Double Helix","steam_id":76561198085155381,"connected_time":1406000000000,"state":"active","ping":67},{"user_id":103,"name":"haydar198112","steam_id":76561198131197590,"connected_time":217000000000,"state":"active","ping":131},{"user_id":59,"name":"_Shkoot","steam_id":76561198318170398,"connected_time":2335000000000,"state":"active","ping":48},{"user_id":57,"name":"Lyncurion","steam_id":76561199260022725,"connected_time":2472000000000,"state":"active","ping":77},{"user_id":94,"name":"Mr. Hunts","steam_id":76561197981910397,"connected_time":380000000000,"state":"active","ping":69},{"user_id":39,"name":"Hot Bean","steam_id":76561198803639155,"connected_time":3315000000000,"state":"active","ping":87},{"user_id":50,"name":"cl","steam_id":76561199436640904,"connected_time":2894000000000,"state":"active","ping":77},{"user_id":105,"name":"Huggou","steam_id":76561198258625053,"connected_time":37000000000,"state":"active","ping":85},{"user_id":100,"name":"Xeno","steam_id":76561198354091553,"connected_time":301000000000,"state":"active","ping":66}]},{"server_id":23,"name":"Uncletopia | Frankfurt | 7 | Stopwatch","name_short":"frk-7","host":"frk-1.de.uncletopia.com","port":27075,"enabled":true,"region":"eu","cc":"de","latitude":50.110924,"longitude":8.682127,"reserved":0,"last_update":"0001-01-01T00:00:00Z","name_a2s":"Uncletopia | Frankfurt | 7 | Stopwatch","protocol":17,"map":"workshop/pl_vigil_rc10.ugc1266210012","folder":"tf","game":"Team Fortress","app_id":440,"player_count":0,"max_players":24,"Bots":0,"server_type":"Dedicated","server_os":"Linux","password":true,"vac":true,"version":"7961495","steam_id":85568392924742827,"keywords":["nocrits","nodmgspread","payload","uncletopia"],"game_id":440,"stv_port":27076,"stv_name":"Uncletopia | Frankfurt | 7 | Stopwatch | STV","players":null},{"server_id":24,"name":"Uncletopia | Frankfurt | 8 | Community","name_short":"frk-8","host":"frk-1.de.uncletopia.com","port":27085,"enabled":true,"region":"eu","cc":"de","latitude":50.110924,"longitude":8.682127,"reserved":0,"last_update":"0001-01-01T00:00:00Z","name_a2s":"Uncletopia | Frankfurt | 8 | Community","protocol":17,"map":"workshop/pl_emerge_rc2.ugc888027758","folder":"tf","game":"Team Fortress","app_id":440,"player_count":0,"max_players":24,"Bots":0,"server_type":"Dedicated","server_os":"Linux","password":true,"vac":true,"version":"7961495","steam_id":85568392924742828,"keywords":["nocrits","nodmgspread","payload","uncletopia"],"game_id":440,"stv_port":27086,"stv_name":"Uncletopia | Frankfurt | 8 | Community | STV","players":null},{"server_id":202,"name":"Uncletopia | Hong Kong | 1 | All Maps","name_short":"hgk-1","host":"hgk-1.hk.uncletopia.com","port":27015,"enabled":true,"region":"asia","cc":"hk","latitude":22.302711,"longitude":114.177216,"reserved":0,"last_update":"0001-01-01T00:00:00Z","name_a2s":"Uncletopia | Hong Kong | 1 | All Maps","protocol":17,"map":"pl_barnblitz","folder":"tf","game":"Team Fortress","app_id":440,"player_count":21,"max_players":24,"Bots":0,"server_type":"Dedicated","server_os":"Linux","password":true,"vac":true,"version":"7961495","steam_id":85568392924494504,"keywords":["nocrits","nodmgspread","payload","uncletopia"],"game_id":440,"stv_port":27016,"stv_name":"Uncletopia | Hong Kong | 1 | All Maps | STV","players":[{"user_id":325,"name":"김광만","steam_id":76561198295279503,"connected_time":2544000000000,"state":"active","ping":81},{"user_id":346,"name":"Soup Can. Pyro!","steam_id":76561199380284884,"connected_time":558000000000,"state":"active","ping":66},{"user_id":333,"name":"turd","steam_id":76561199006212966,"connected_time":2058000000000,"state":"active","ping":85},{"user_id":347,"name":"moonstar88","steam_id":76561198286261614,"connected_time":505000000000,"state":"active","ping":81},{"user_id":349,"name":"病名为爱.","steam_id":76561198842217982,"connected_time":431000000000,"state":"active","ping":55},{"user_id":352,"name":"tiden2000","steam_id":76561198092969425,"connected_time":138000000000,"state":"active","ping":61},{"user_id":209,"name":"Milf (The fan O'Milk)","steam_id":76561198213031155,"connected_time":9365000000000,"state":"active","ping":91},{"user_id":324,"name":"P","steam_id":76561198304514505,"connected_time":2739000000000,"state":"active","ping":72},{"user_id":353,"name":"purple germ","steam_id":76561198859275463,"connected_time":72000000000,"state":"active","ping":220},{"user_id":354,"name":"Alice","steam_id":76561198052410860,"connected_time":69000000000,"state":"active","ping":117},{"user_id":343,"name":"This is song is already turnt u","steam_id":76561199137927625,"connected_time":1075000000000,"state":"active","ping":90},{"user_id":355,"name":"i am a F2P and my aim is shit","steam_id":76561199475974790,"connected_time":19000000000,"state":"spawning","ping":74},{"user_id":344,"name":"Engimania","steam_id":76561199158560796,"connected_time":723000000000,"state":"active","ping":66},{"user_id":356,"name":"yuuto","steam_id":76561199143532661,"connected_time":19000000000,"state":"active","ping":100},{"user_id":303,"name":"Tommy Vercetti","steam_id":76561198332470619,"connected_time":4615000000000,"state":"active","ping":146},{"user_id":278,"name":"c","steam_id":76561199099271055,"connected_time":5956000000000,"state":"active","ping":86},{"user_id":235,"name":"쿠키","steam_id":76561197997220367,"connected_time":6977000000000,"state":"active","ping":51},{"user_id":357,"name":"天水圍驚驚","steam_id":76561198124516964,"connected_time":18000000000,"state":"active","ping":55},{"user_id":323,"name":"Doormann","steam_id":76561199219230108,"connected_time":2808000000000,"state":"active","ping":66},{"user_id":335,"name":"母の肉団子@hao123.com","steam_id":76561198069561896,"connected_time":2025000000000,"state":"active","ping":40}]},{"server_id":1,"name":"Uncletopia | Los Angeles | 1 | All Maps","name_short":"lax-1","host":"lax-1.us.uncletopia.com","port":27015,"enabled":true,"region":"us-west","cc":"us","latitude":33.94279,"longitude":-118.41004,"reserved":0,"last_update":"0001-01-01T00:00:00Z","name_a2s":"Uncletopia | Los Angeles | 1 | All Maps","protocol":17,"map":"ctf_2fort","folder":"tf","game":"Team Fortress","app_id":440,"player_count":0,"max_players":24,"Bots":0,"server_type":"Dedicated","server_os":"Linux","password":true,"vac":true,"version":"7961495","steam_id":85568392924469991,"keywords":["ctf","nocrits","nodmgspread","uncletopia"],"game_id":440,"stv_port":27016,"stv_name":"Uncletopia | Los Angeles | 1 | All Maps | STV","players":null},{"server_id":112,"name":"Uncletopia | Los Angeles | 2 | All Maps","name_short":"lax-2","host":"lax-1.us.uncletopia.com","port":27025,"enabled":true,"region":"us-west","cc":"us","latitude":33.94279,"longitude":-118.41004,"reserved":0,"last_update":"0001-01-01T00:00:00Z","name_a2s":"Uncletopia | Los Angeles | 2 | All Maps","protocol":17,"map":"cp_mountainlab","folder":"tf","game":"Team Fortress","app_id":440,"player_count":0,"max_players":24,"Bots":0,"server_type":"Dedicated","server_os":"Linux","password":true,"vac":true,"version":"7961495","steam_id":85568392924469992,"keywords":["cp","nocrits","nodmgspread","uncletopia"],"game_id":440,"stv_port":27026,"stv_name":"Uncletopia | Los Angeles | 2 | All Maps | STV","players":null},{"server_id":324,"name":"Uncletopia | Los Angeles | 3 | All Maps","name_short":"lax-3","host":"lax-1.us.uncletopia.com","port":27035,"enabled":true,"region":"us-west","cc":"us","latitude":33.94279,"longitude":-118.41004,"reserved":0,"last_update":"0001-01-01T00:00:00Z","name_a2s":"Uncletopia | Los Angeles | 3 | All Maps","protocol":17,"map":"pl_frontier_final","folder":"tf","game":"Team Fortress","app_id":440,"player_count":0,"max_players":24,"Bots":0,"server_type":"Dedicated","server_os":"Linux","password":true,"vac":true,"version":"7961495","steam_id":85568392924510198,"keywords":["nocrits","nodmgspread","payload","uncletopia"],"game_id":440,"stv_port":27036,"stv_name":"Uncletopia | Los Angeles | 3 | All Maps | STV","players":null},{"server_id":25,"name":"Uncletopia | Los Angeles | 4 | Stopwatch","name_short":"lax-4","host":"lax-1.us.uncletopia.com","port":27045,"enabled":true,"region":"us-west","cc":"us","latitude":33.94279,"longitude":-118.41004,"reserved":0,"last_update":"0001-01-01T00:00:00Z","name_a2s":"Uncletopia | Los Angeles | 4 | Stopwatch","protocol":17,"map":"pl_barnblitz","folder":"tf","game":"Team Fortress","app_id":440,"player_count":0,"max_players":24,"Bots":0,"server_type":"Dedicated","server_os":"Linux","password":true,"vac":true,"version":"7961495","steam_id":85568392924510199,"keywords":["nocrits","nodmgspread","payload","uncletopia"],"game_id":440,"stv_port":27046,"stv_name":"Uncletopia | Los Angeles | 4 | Stopwatch | STV","players":null},{"server_id":11,"name":"Uncletopia | London | 1 | All Maps","name_short":"lon-1","host":"lon-1.uk.uncletopia.com","port":27015,"enabled":true,"region":"eu","cc":"gb","latitude":51.509865,"longitude":-0.118092,"reserved":0,"last_update":"0001-01-01T00:00:00Z","name_a2s":"Uncletopia | London | 1 | All Maps","protocol":17,"map":"pl_badwater","folder":"tf","game":"Team Fortress","app_id":440,"player_count":24,"max_players":24,"Bots":0,"server_type":"Dedicated","server_os":"Linux","password":true,"vac":true,"version":"7961495","steam_id":85568392924367362,"keywords":["nocrits","nodmgspread","payload","uncletopia"],"game_id":440,"stv_port":27016,"stv_name":"Uncletopia | London | 1 | All Maps | STV","players":[{"user_id":450,"name":"Endi","steam_id":76561198914938199,"connected_time":2136000000000,"state":"active","ping":95},{"user_id":452,"name":"chestnutflea","steam_id":76561198144268690,"connected_time":1741000000000,"state":"active","ping":58},{"user_id":466,"name":"☁ Lou1smeister ☁","steam_id":76561198004032968,"connected_time":594000000000,"state":"active","ping":63},{"user_id":447,"name":"bowchika wowa #SlavaUkraine","steam_id":76561198159564550,"connected_time":2446000000000,"state":"active","ping":76},{"user_id":449,"name":"mertefe","steam_id":76561199237126613,"connected_time":2317000000000,"state":"active","ping":106},{"user_id":455,"name":"Dr Zoidcrab","steam_id":76561198023709882,"connected_time":1489000000000,"state":"active","ping":65},{"user_id":463,"name":"hbivnm","steam_id":76561197996468677,"connected_time":878000000000,"state":"active","ping":59},{"user_id":448,"name":"Joe Biden","steam_id":76561198047299145,"connected_time":2362000000000,"state":"active","ping":88},{"user_id":467,"name":"Losre","steam_id":76561198071393125,"connected_time":591000000000,"state":"active","ping":63},{"user_id":457,"name":"lol","steam_id":76561199403420562,"connected_time":1319000000000,"state":"active","ping":90},{"user_id":459,"name":"please do not the cat","steam_id":76561198089003514,"connected_time":906000000000,"state":"active","ping":59},{"user_id":392,"name":"Cool Ranch© Flavoured Pretzel","steam_id":76561198097130024,"connected_time":5074000000000,"state":"active","ping":80},{"user_id":451,"name":"Syd","steam_id":76561198020515027,"connected_time":1810000000000,"state":"active","ping":92},{"user_id":418,"name":"Marley","steam_id":76561198067663021,"connected_time":4151000000000,"state":"active","ping":45},{"user_id":464,"name":"Xuii Frog","steam_id":76561198191800994,"connected_time":874000000000,"state":"active","ping":84},{"user_id":200,"name":"Marcel","steam_id":76561198348686648,"connected_time":19953000000000,"state":"active","ping":45},{"user_id":468,"name":"Trans Femtress 2","steam_id":76561198014056212,"connected_time":589000000000,"state":"active","ping":69},{"user_id":425,"name":"Janneke Maan","steam_id":76561198069290924,"connected_time":3470000000000,"state":"active","ping":69},{"user_id":456,"name":"Pitipit","steam_id":76561198343333412,"connected_time":1488000000000,"state":"active","ping":98},{"user_id":395,"name":"Repa24","steam_id":76561198033016390,"connected_time":4891000000000,"state":"active","ping":84},{"user_id":444,"name":"theflu123456","steam_id":76561199105207042,"connected_time":2793000000000,"state":"active","ping":98},{"user_id":260,"name":"Imperial City Guard","steam_id":76561198083355845,"connected_time":14506000000000,"state":"active","ping":50},{"user_id":461,"name":"Jouppi","steam_id":76561198063725468,"connected_time":894000000000,"state":"active","ping":97}]},{"server_id":114,"name":"Uncletopia | London | 2 | All Maps","name_short":"lon-2","host":"lon-1.uk.uncletopia.com","port":27025,"enabled":true,"region":"eu","cc":"gb","latitude":51.509865,"longitude":-0.118092,"reserved":0,"last_update":"0001-01-01T00:00:00Z","name_a2s":"Uncletopia | London | 2 | All Maps","protocol":17,"map":"pl_swiftwater_final1","folder":"tf","game":"Team Fortress","app_id":440,"player_count":24,"max_players":24,"Bots":0,"server_type":"Dedicated","server_os":"Linux","password":true,"vac":true,"version":"7961495","steam_id":85568392924470941,"keywords":["nocrits","nodmgspread","payload","uncletopia"],"game_id":440,"stv_port":27026,"stv_name":"Uncletopia | London | 2 | All Maps | STV","players":[{"user_id":206,"name":"TheOxideGamer","steam_id":76561199445897326,"connected_time":1728000000000,"state":"active","ping":94},{"user_id":215,"name":"pyromaniac","steam_id":76561198292781255,"connected_time":1070000000000,"state":"active","ping":81},{"user_id":212,"name":"paułó","steam_id":76561198286747891,"connected_time":1094000000000,"state":"active","ping":87},{"user_id":186,"name":"ＥＥＭＡＮ™","steam_id":76561198044903016,"connected_time":3232000000000,"state":"active","ping":64},{"user_id":174,"name":"LILY-CHAN","steam_id":76561198035085893,"connected_time":3764000000000,"state":"active","ping":113},{"user_id":201,"name":"Wild Meep","steam_id":76561198199271438,"connected_time":2184000000000,"state":"active","ping":141},{"user_id":180,"name":"Grog the caveman","steam_id":76561199040975062,"connected_time":3623000000000,"state":"active","ping":77},{"user_id":223,"name":"1guard","steam_id":76561198135111270,"connected_time":872000000000,"state":"active","ping":60},{"user_id":231,"name":"British Disapproval","steam_id":76561198001375260,"connected_time":55000000000,"state":"active","ping":55},{"user_id":196,"name":"nejurnia","steam_id":76561198010360372,"connected_time":2557000000000,"state":"active","ping":75},{"user_id":228,"name":"minajj","steam_id":76561198249301650,"connected_time":327000000000,"state":"active","ping":46},{"user_id":224,"name":"MrToX","steam_id":76561198219219313,"connected_time":722000000000,"state":"active","ping":49},{"user_id":197,"name":"melon man","steam_id":76561198834046987,"connected_time":2553000000000,"state":"active","ping":107},{"user_id":230,"name":"LordTrap.exe","steam_id":76561198318089716,"connected_time":170000000000,"state":"active","ping":58},{"user_id":222,"name":"Dwarf","steam_id":76561198343932422,"connected_time":895000000000,"state":"active","ping":105},{"user_id":209,"name":"KFD","steam_id":76561198157183003,"connected_time":1141000000000,"state":"active","ping":91},{"user_id":229,"name":"owl","steam_id":76561198229230864,"connected_time":306000000000,"state":"active","ping":99},{"user_id":214,"name":"Igames","steam_id":76561198414062544,"connected_time":1084000000000,"state":"active","ping":63},{"user_id":190,"name":"QUACK","steam_id":76561198059385462,"connected_time":3110000000000,"state":"active","ping":62},{"user_id":217,"name":"roblan11","steam_id":76561198066839258,"connected_time":1066000000000,"state":"active","ping":51},{"user_id":221,"name":"HoneyBe_","steam_id":76561198288930154,"connected_time":908000000000,"state":"active","ping":72},{"user_id":218,"name":"hardway","steam_id":76561198272529254,"connected_time":1065000000000,"state":"active","ping":59},{"user_id":226,"name":"Welder","steam_id":76561198355300561,"connected_time":597000000000,"state":"active","ping":72},{"user_id":167,"name":"Skarp","steam_id":76561198034398376,"connected_time":4549000000000,"state":"active","ping":61}]},{"server_id":320,"name":"Uncletopia | London | 3 | All Maps","name_short":"lon-3","host":"lon-1.uk.uncletopia.com","port":27035,"enabled":true,"region":"eu","cc":"gb","latitude":51.509865,"longitude":-0.118092,"reserved":0,"last_update":"0001-01-01T00:00:00Z","name_a2s":"Uncletopia | London | 3 | All Maps","protocol":17,"map":"koth_cascade","folder":"tf","game":"Team Fortress","app_id":440,"player_count":6,"max_players":24,"Bots":0,"server_type":"Dedicated","server_os":"Linux","password":true,"vac":true,"version":"7961495","steam_id":85568392924510192,"keywords":["cp","nocrits","nodmgspread","uncletopia"],"game_id":440,"stv_port":27036,"stv_name":"Uncletopia | London | 3 | All Maps | STV","players":[{"user_id":12,"name":"Baster Moy","steam_id":76561198844767022,"connected_time":923000000000,"state":"active","ping":49},{"user_id":16,"name":"N","steam_id":76561199094237497,"connected_time":557000000000,"state":"active","ping":54},{"user_id":17,"name":"mfw0071","steam_id":76561198111713446,"connected_time":443000000000,"state":"active","ping":54},{"user_id":20,"name":"energoosest","steam_id":76561199036816943,"connected_time":110000000000,"state":"active","ping":102},{"user_id":18,"name":"ShiftingMind","steam_id":76561198448975127,"connected_time":429000000000,"state":"active","ping":55},{"user_id":19,"name":"tr4ce","steam_id":76561198085296732,"connected_time":180000000000,"state":"active","ping":38}]},{"server_id":321,"name":"Uncletopia | London | 4 | All Maps","name_short":"lon-4","host":"lon-1.uk.uncletopia.com","port":27045,"enabled":true,"region":"eu","cc":"gb","latitude":51.509865,"longitude":-0.118092,"reserved":0,"last_update":"0001-01-01T00:00:00Z","name_a2s":"Uncletopia | London | 4 | All Maps","protocol":17,"map":"koth_cascade","folder":"tf","game":"Team Fortress","app_id":440,"player_count":0,"max_players":24,"Bots":0,"server_type":"Dedicated","server_os":"Linux","password":true,"vac":true,"version":"7961495","steam_id":85568392924510193,"keywords":["cp","nocrits","nodmgspread","uncletopia"],"game_id":440,"stv_port":27046,"stv_name":"Uncletopia | London | 4 | All Maps | STV","players":null},{"server_id":21,"name":"Uncletopia | London | 5 | All Maps","name_short":"lon-5","host":"lon-1.uk.uncletopia.com","port":27055,"enabled":true,"region":"eu","cc":"gb","latitude":51.509865,"longitude":-0.118092,"reserved":0,"last_update":"0001-01-01T00:00:00Z","name_a2s":"Uncletopia | London | 5 | All Maps","protocol":17,"map":"pl_thundermountain","folder":"tf","game":"Team Fortress","app_id":440,"player_count":24,"max_players":24,"Bots":0,"server_type":"Dedicated","server_os":"Linux","password":true,"vac":true,"version":"7961495","steam_id":85568392924742829,"keywords":["nocrits","nodmgspread","payload","uncletopia"],"game_id":440,"stv_port":27056,"stv_name":"Uncletopia | London | 5 | All Maps | STV","players":[{"user_id":106,"name":"Michael","steam_id":76561198003146906,"connected_time":1967000000000,"state":"active","ping":45},{"user_id":107,"name":"ShadowTwin","steam_id":76561198046658200,"connected_time":1906000000000,"state":"active","ping":69},{"user_id":87,"name":"Plushy Freeman","steam_id":76561198004935560,"connected_time":2527000000000,"state":"active","ping":68},{"user_id":109,"name":"john fortress","steam_id":76561198013237629,"connected_time":1585000000000,"state":"active","ping":107},{"user_id":95,"name":"Pan Piotr","steam_id":76561198140016126,"connected_time":2388000000000,"state":"active","ping":87},{"user_id":118,"name":"Storm's Foreshadow","steam_id":76561198098462526,"connected_time":616000000000,"state":"active","ping":71},{"user_id":98,"name":"Rudoss","steam_id":76561198018415787,"connected_time":2332000000000,"state":"active","ping":74},{"user_id":68,"name":"hyvakii705","steam_id":76561198086630552,"connected_time":4100000000000,"state":"active","ping":94},{"user_id":123,"name":"aphextwink","steam_id":76561198012445580,"connected_time":386000000000,"state":"active","ping":105},{"user_id":124,"name":"Charles Darwin","steam_id":76561197973496139,"connected_time":280000000000,"state":"active","ping":68},{"user_id":108,"name":"bryophyta","steam_id":76561197968945306,"connected_time":1699000000000,"state":"active","ping":74},{"user_id":114,"name":"Dlaf'rferg (she/her)","steam_id":76561198284744735,"connected_time":1061000000000,"state":"active","ping":50},{"user_id":101,"name":"@KINGDRIICK","steam_id":76561198048396162,"connected_time":2260000000000,"state":"active","ping":98},{"user_id":115,"name":"tony","steam_id":76561199382978934,"connected_time":999000000000,"state":"active","ping":94},{"user_id":61,"name":"Roland Deschain","steam_id":76561198023296355,"connected_time":4724000000000,"state":"active","ping":101},{"user_id":104,"name":"Garry_G","steam_id":76561198362834902,"connected_time":2157000000000,"state":"active","ping":69},{"user_id":125,"name":"Forsén","steam_id":76561199131971501,"connected_time":205000000000,"state":"active","ping":93},{"user_id":110,"name":"Zojo","steam_id":76561198067225942,"connected_time":1163000000000,"state":"active","ping":67},{"user_id":120,"name":"Chicken pot pie","steam_id":76561198084997090,"connected_time":605000000000,"state":"active","ping":34},{"user_id":121,"name":"The Burger","steam_id":76561198124463930,"connected_time":603000000000,"state":"active","ping":39},{"user_id":102,"name":"prophits","steam_id":76561198011854314,"connected_time":2250000000000,"state":"active","ping":54},{"user_id":99,"name":"American Chjeff (✪oficial)","steam_id":76561198019917466,"connected_time":2332000000000,"state":"active","ping":57},{"user_id":48,"name":"Thundercracker__","steam_id":76561199163505476,"connected_time":5510000000000,"state":"active","ping":60},{"user_id":103,"name":"Warrior555MainsGanon","steam_id":76561198388627786,"connected_time":2224000000000,"state":"active","ping":66}]},{"server_id":22,"name":"Uncletopia | London | 6 | All Maps","name_short":"lon-6","host":"lon-1.uk.uncletopia.com","port":27065,"enabled":true,"region":"eu","cc":"gb","latitude":51.509865,"longitude":-0.118092,"reserved":0,"last_update":"0001-01-01T00:00:00Z","name_a2s":"Uncletopia | London | 6 | All Maps","protocol":17,"map":"pl_borneo","folder":"tf","game":"Team Fortress","app_id":440,"player_count":0,"max_players":24,"Bots":0,"server_type":"Dedicated","server_os":"Linux","password":true,"vac":true,"version":"7961495","steam_id":85568392924742830,"keywords":["nocrits","nodmgspread","payload","uncletopia"],"game_id":440,"stv_port":27066,"stv_name":"Uncletopia | London | 6 | All Maps | STV","players":null},{"server_id":40,"name":"Uncletopia | London | 7 | Stopwatch","name_short":"lon-7","host":"lon-1.uk.uncletopia.com","port":27075,"enabled":true,"region":"eu","cc":"gb","latitude":51.509865,"longitude":-0.118092,"reserved":0,"last_update":"0001-01-01T00:00:00Z","name_a2s":"Uncletopia | London | 7 | Stopwatch","protocol":17,"map":"workshop/koth_bagel_rc6.ugc2514036946","folder":"tf","game":"Team Fortress","app_id":440,"player_count":0,"max_players":24,"Bots":0,"server_type":"Dedicated","server_os":"Linux","password":true,"vac":true,"version":"7961495","steam_id":85568392924964314,"keywords":["cp","nocrits","nodmgspread","uncletopia"],"game_id":440,"stv_port":27076,"stv_name":"Uncletopia | London | 7 | Stopwatch | STV","players":null},{"server_id":41,"name":"Uncletopia | London | 8 | Community","name_short":"lon-8","host":"lon-1.uk.uncletopia.com","port":27085,"enabled":true,"region":"eu","cc":"gb","latitude":51.509865,"longitude":-0.118092,"reserved":0,"last_update":"0001-01-01T00:00:00Z","name_a2s":"Uncletopia | London | 8 | Community","protocol":17,"map":"cp_snakewater_final1","folder":"tf","game":"Team Fortress","app_id":440,"player_count":0,"max_players":24,"Bots":0,"server_type":"Dedicated","server_os":"Linux","password":true,"vac":true,"version":"7961495","steam_id":85568392924964315,"keywords":["cp","nocrits","nodmgspread","uncletopia"],"game_id":440,"stv_port":27086,"stv_name":"Uncletopia | London | 8 | Community | STV","players":null},{"server_id":300,"name":"Uncletopia | Montréal | 1 | One Thousand Uncles","name_short":"mtl-1","host":"mtl-1.ca.uncletopia.com","port":27015,"enabled":true,"region":"us-east","cc":"ca","latitude":45.50889,"longitude":-73.56167,"reserved":0,"last_update":"0001-01-01T00:00:00Z","name_a2s":"","protocol":0,"map":"","folder":"","game":"","app_id":0,"player_count":0,"max_players":0,"Bots":0,"server_type":"","server_os":"","password":false,"vac":false,"version":"","steam_id":0,"keywords":null,"game_id":0,"stv_port":0,"stv_name":"","players":null},{"server_id":301,"name":"Uncletopia | Montréal | 2 | One Thousand Uncles","name_short":"mtl-2","host":"mtl-1.ca.uncletopia.com","port":27025,"enabled":true,"region":"us-east","cc":"ca","latitude":45.50889,"longitude":-73.56167,"reserved":0,"last_update":"0001-01-01T00:00:00Z","name_a2s":"","protocol":0,"map":"","folder":"","game":"","app_id":0,"player_count":0,"max_players":0,"Bots":0,"server_type":"","server_os":"","password":false,"vac":false,"version":"","steam_id":0,"keywords":null,"game_id":0,"stv_port":0,"stv_name":"","players":null},{"server_id":302,"name":"Uncletopia | Montréal | 3 | One Thousand Uncles","name_short":"mtl-3","host":"mtl-1.ca.uncletopia.com","port":27035,"enabled":true,"region":"us-east","cc":"ca","latitude":45.50889,"longitude":-73.56167,"reserved":0,"last_update":"0001-01-01T00:00:00Z","name_a2s":"","protocol":0,"map":"","folder":"","game":"","app_id":0,"player_count":0,"max_players":0,"Bots":0,"server_type":"","server_os":"","password":false,"vac":false,"version":"","steam_id":0,"keywords":null,"game_id":0,"stv_port":0,"stv_name":"","players":null},{"server_id":13,"name":"Uncletopia | New York City | 1 | All Maps","name_short":"nyc-1","host":"nyc-1.us.uncletopia.com","port":27015,"enabled":true,"region":"us-east","cc":"us","latitude":40.73061,"longitude":-73.93524,"reserved":0,"last_update":"0001-01-01T00:00:00Z","name_a2s":"Uncletopia | New York City | 1 | All Maps","protocol":17,"map":"koth_cascade","folder":"tf","game":"Team Fortress","app_id":440,"player_count":0,"max_players":24,"Bots":0,"server_type":"Dedicated","server_os":"Linux","password":true,"vac":true,"version":"7961495","steam_id":85568392924469993,"keywords":["cp","nocrits","nodmgspread","uncletopia"],"game_id":440,"stv_port":27016,"stv_name":"Uncletopia | New York City | 1 | All Maps | STV","players":null},{"server_id":14,"name":"Uncletopia | New York City | 2 | All Maps","name_short":"nyc-2","host":"nyc-1.us.uncletopia.com","port":27025,"enabled":true,"region":"us-east","cc":"us","latitude":40.73061,"longitude":-73.93524,"reserved":0,"last_update":"0001-01-01T00:00:00Z","name_a2s":"Uncletopia | New York City | 2 | All Maps","protocol":17,"map":"koth_viaduct","folder":"tf","game":"Team Fortress","app_id":440,"player_count":0,"max_players":24,"Bots":0,"server_type":"Dedicated","server_os":"Linux","password":true,"vac":true,"version":"7961495","steam_id":85568392924469994,"keywords":["cp","nocrits","nodmgspread","uncletopia"],"game_id":440,"stv_port":27026,"stv_name":"Uncletopia | New York City | 2 | All Maps | STV","players":null},{"server_id":15,"name":"Uncletopia | New York City | 3 | Stopwatch","name_short":"nyc-3","host":"nyc-1.us.uncletopia.com","port":27035,"enabled":true,"region":"us-east","cc":"us","latitude":40.73061,"longitude":-73.93524,"reserved":0,"last_update":"0001-01-01T00:00:00Z","name_a2s":"Uncletopia | New York City | 3 | Stopwatch","protocol":17,"map":"pl_snowycoast","folder":"tf","game":"Team Fortress","app_id":440,"player_count":0,"max_players":24,"Bots":0,"server_type":"Dedicated","server_os":"Linux","password":true,"vac":true,"version":"7961495","steam_id":85568392924742820,"keywords":["nocrits","nodmgspread","payload","uncletopia"],"game_id":440,"stv_port":27036,"stv_name":"Uncletopia | New York City | 3 | Stopwatch | STV","players":null},{"server_id":16,"name":"Uncletopia | New York City | 4 | Community","name_short":"nyc-4","host":"nyc-1.us.uncletopia.com","port":27045,"enabled":true,"region":"us-east","cc":"us","latitude":40.73061,"longitude":-73.93524,"reserved":0,"last_update":"0001-01-01T00:00:00Z","name_a2s":"Uncletopia | New York City | 4 | Community","protocol":17,"map":"cp_altitude","folder":"tf","game":"Team Fortress","app_id":440,"player_count":0,"max_players":24,"Bots":0,"server_type":"Dedicated","server_os":"Linux","password":true,"vac":true,"version":"7961495","steam_id":85568392924742821,"keywords":["cp","nocrits","nodmgspread","uncletopia"],"game_id":440,"stv_port":27046,"stv_name":"Uncletopia | New York City | 4 | Community | STV","players":null},{"server_id":142,"name":"Uncletopia | São Paulo | 1 | All Maps","name_short":"sao-1","host":"sao-1.br.uncletopia.com","port":27015,"enabled":true,"region":"sa","cc":"br","latitude":-23.533773,"longitude":-46.62529,"reserved":0,"last_update":"0001-01-01T00:00:00Z","name_a2s":"Uncletopia | São Paulo | 1 | All Maps","protocol":17,"map":"cp_mountainlab","folder":"tf","game":"Team Fortress","app_id":440,"player_count":0,"max_players":24,"Bots":0,"server_type":"Dedicated","server_os":"Linux","password":true,"vac":true,"version":"7961495","steam_id":85568392924469996,"keywords":["cp","nocrits","nodmgspread","uncletopia"],"game_id":440,"stv_port":27016,"stv_name":"Uncletopia | São Paulo | 1 | All Maps | STV","players":null},{"server_id":143,"name":"Uncletopia | São Paulo | 2 | Community","name_short":"sao-2","host":"sao-2.br.uncletopia.com","port":27015,"enabled":true,"region":"sa","cc":"br","latitude":-23.533773,"longitude":-46.62529,"reserved":0,"last_update":"0001-01-01T00:00:00Z","name_a2s":"Uncletopia | São Paulo | 2 | Community","protocol":17,"map":"pl_badwater","folder":"tf","game":"Team Fortress","app_id":440,"player_count":0,"max_players":24,"Bots":0,"server_type":"Dedicated","server_os":"Linux","password":true,"vac":true,"version":"7961495","steam_id":85568392924485349,"keywords":["nocrits","nodmgspread","payload","uncletopia"],"game_id":440,"stv_port":27016,"stv_name":"Uncletopia | São Paulo | 2 | Community | STV","players":null},{"server_id":7,"name":"Uncletopia | Seattle | 1 | All Maps","name_short":"sea-1","host":"sea-1.us.uncletopia.com","port":27015,"enabled":true,"region":"us-west","cc":"us","latitude":47.608013,"longitude":-122.33517,"reserved":0,"last_update":"0001-01-01T00:00:00Z","name_a2s":"Uncletopia | Seattle | 1 | All Maps","protocol":17,"map":"pl_pier","folder":"tf","game":"Team Fortress","app_id":440,"player_count":0,"max_players":24,"Bots":0,"server_type":"Dedicated","server_os":"Linux","password":true,"vac":true,"version":"7961495","steam_id":85568392924469997,"keywords":["nocrits","nodmgspread","payload","uncletopia"],"game_id":440,"stv_port":27016,"stv_name":"Uncletopia | Seattle | 1 | All Maps | STV","players":null},{"server_id":119,"name":"Uncletopia | Seattle | 2 | All Maps","name_short":"sea-2","host":"sea-1.us.uncletopia.com","port":27025,"enabled":true,"region":"us-west","cc":"us","latitude":47.608013,"longitude":-122.33517,"reserved":0,"last_update":"0001-01-01T00:00:00Z","name_a2s":"Uncletopia | Seattle | 2 | All Maps","protocol":17,"map":"cp_process_final","folder":"tf","game":"Team Fortress","app_id":440,"player_count":0,"max_players":24,"Bots":0,"server_type":"Dedicated","server_os":"Linux","password":true,"vac":true,"version":"7961495","steam_id":85568392924469998,"keywords":["cp","nocrits","nodmgspread","uncletopia"],"game_id":440,"stv_port":27026,"stv_name":"Uncletopia | Seattle | 2 | All Maps | STV","players":null},{"server_id":406,"name":"Uncletopia | Seattle | 3 | Stopwatch","name_short":"sea-3","host":"sea-1.us.uncletopia.com","port":27035,"enabled":true,"region":"us-west","cc":"us","latitude":47.608013,"longitude":-122.33517,"reserved":0,"last_update":"0001-01-01T00:00:00Z","name_a2s":"Uncletopia | Seattle | 3 | Stopwatch","protocol":17,"map":"pl_pier","folder":"tf","game":"Team Fortress","app_id":440,"player_count":0,"max_players":24,"Bots":0,"server_type":"Dedicated","server_os":"Linux","password":true,"vac":true,"version":"7961495","steam_id":85568392924515217,"keywords":["nocrits","nodmgspread","payload","uncletopia"],"game_id":440,"stv_port":27036,"stv_name":"Uncletopia | Seattle | 3 | Stopwatch | STV","players":null},{"server_id":17,"name":"Uncletopia | San Francisco | 1 | All Maps","name_short":"sfo-1","host":"sfo-1.us.uncletopia.com","port":27015,"enabled":true,"region":"us-west","cc":"us","latitude":37.77397,"longitude":-122.4313,"reserved":0,"last_update":"0001-01-01T00:00:00Z","name_a2s":"Uncletopia | San Francisco | 1 | All Maps","protocol":17,"map":"koth_cascade","folder":"tf","game":"Team Fortress","app_id":440,"player_count":0,"max_players":24,"Bots":0,"server_type":"Dedicated","server_os":"Linux","password":true,"vac":true,"version":"7961495","steam_id":85568392924469999,"keywords":["cp","nocrits","nodmgspread","uncletopia"],"game_id":440,"stv_port":27016,"stv_name":"Uncletopia | San Francisco | 1 | All Maps | STV","players":null},{"server_id":18,"name":"Uncletopia | San Francisco | 2 | All Maps","name_short":"sfo-2","host":"sfo-1.us.uncletopia.com","port":27025,"enabled":true,"region":"us-west","cc":"us","latitude":37.77397,"longitude":-122.4313,"reserved":0,"last_update":"0001-01-01T00:00:00Z","name_a2s":"Uncletopia | San Francisco | 2 | All Maps","protocol":17,"map":"pl_frontier_final","folder":"tf","game":"Team Fortress","app_id":440,"player_count":0,"max_players":24,"Bots":0,"server_type":"Dedicated","server_os":"Linux","password":true,"vac":true,"version":"7961495","steam_id":85568392924470000,"keywords":["nocrits","nodmgspread","payload","uncletopia"],"game_id":440,"stv_port":27026,"stv_name":"Uncletopia | San Francisco | 2 | All Maps | STV","players":null},{"server_id":19,"name":"Uncletopia | San Francisco | 3 | Stopwatch","name_short":"sfo-3","host":"sfo-1.us.uncletopia.com","port":27035,"enabled":true,"region":"us-west","cc":"us","latitude":37.77397,"longitude":-122.4313,"reserved":0,"last_update":"0001-01-01T00:00:00Z","name_a2s":"Uncletopia | San Francisco | 3 | Stopwatch","protocol":17,"map":"pl_pier","folder":"tf","game":"Team Fortress","app_id":440,"player_count":0,"max_players":24,"Bots":0,"server_type":"Dedicated","server_os":"Linux","password":true,"vac":true,"version":"7961495","steam_id":85568392924742824,"keywords":["nocrits","nodmgspread","payload","uncletopia"],"game_id":440,"stv_port":27036,"stv_name":"Uncletopia | San Francisco | 3 | Stopwatch | STV","players":null},{"server_id":20,"name":"Uncletopia | San Francisco | 4 | Community","name_short":"sfo-4","host":"sfo-1.us.uncletopia.com","port":27045,"enabled":true,"region":"us-west","cc":"us","latitude":37.77397,"longitude":-122.4313,"reserved":0,"last_update":"0001-01-01T00:00:00Z","name_a2s":"Uncletopia | San Francisco | 4 | Community","protocol":17,"map":"pl_pier","folder":"tf","game":"Team Fortress","app_id":440,"player_count":0,"max_players":24,"Bots":0,"server_type":"Dedicated","server_os":"Linux","password":true,"vac":true,"version":"7961495","steam_id":85568392924742826,"keywords":["nocrits","nodmgspread","payload","uncletopia"],"game_id":440,"stv_port":27046,"stv_name":"Uncletopia | San Francisco | 4 | Community | STV","players":null},{"server_id":141,"name":"Uncletopia | Sydney | 1 | All Maps","name_short":"syd-1","host":"syd-1.au.uncletopia.com","port":27015,"enabled":true,"region":"au","cc":"au","latitude":-33.865143,"longitude":151.2099,"reserved":0,"last_update":"0001-01-01T00:00:00Z","name_a2s":"Uncletopia | Sydney | 1 | All Maps","protocol":17,"map":"pl_upward","folder":"tf","game":"Team Fortress","app_id":440,"player_count":17,"max_players":24,"Bots":0,"server_type":"Dedicated","server_os":"Linux","password":true,"vac":true,"version":"7961495","steam_id":85568392924470001,"keywords":["nocrits","nodmgspread","payload","uncletopia"],"game_id":440,"stv_port":27016,"stv_name":"Uncletopia | Sydney | 1 | All Maps | STV","players":[{"user_id":389,"name":"MoistNipple","steam_id":76561198180956833,"connected_time":1220000000000,"state":"active","ping":66},{"user_id":259,"name":"the 莖莖莖莖莖莖莖莖莖","steam_id":76561198300712697,"connected_time":11134000000000,"state":"active","ping":78},{"user_id":353,"name":"slime","steam_id":76561199176020333,"connected_time":4598000000000,"state":"active","ping":88},{"user_id":390,"name":"you can lead a Horace to water","steam_id":76561198301282416,"connected_time":1050000000000,"state":"active","ping":58},{"user_id":391,"name":"uhhhh huhuhhuhuhuhhuh","steam_id":76561198025099660,"connected_time":880000000000,"state":"active","ping":43},{"user_id":272,"name":"mateo","steam_id":76561198064249290,"connected_time":9934000000000,"state":"active","ping":33},{"user_id":402,"name":"Gary local rock owner","steam_id":76561199179010340,"connected_time":50000000000,"state":"active","ping":314},{"user_id":392,"name":"garnish master","steam_id":76561197996551827,"connected_time":875000000000,"state":"active","ping":52},{"user_id":393,"name":":sticky::sticky::sticky:","steam_id":76561198183060018,"connected_time":843000000000,"state":"active","ping":60},{"user_id":394,"name":"Testosterone","steam_id":76561198182437450,"connected_time":707000000000,"state":"active","ping":104},{"user_id":395,"name":"Jeremiah","steam_id":76561198217236915,"connected_time":686000000000,"state":"active","ping":109},{"user_id":397,"name":"Money Man Jones","steam_id":76561199161637215,"connected_time":570000000000,"state":"active","ping":99},{"user_id":399,"name":"Mooty","steam_id":76561198301293435,"connected_time":194000000000,"state":"active","ping":46},{"user_id":352,"name":"helton1 #NerfCrossbow","steam_id":76561198841855657,"connected_time":4671000000000,"state":"active","ping":59},{"user_id":401,"name":"Tech.","steam_id":76561197986582743,"connected_time":179000000000,"state":"active","ping":47},{"user_id":328,"name":"L. Presidente","steam_id":76561198857147659,"connected_time":6532000000000,"state":"active","ping":109},{"user_id":329,"name":"cones2nite","steam_id":76561198101111240,"connected_time":6469000000000,"state":"active","ping":102}]},{"server_id":123,"name":"Uncletopia | Sydney | 2 | All Maps","name_short":"syd-2","host":"syd-1.au.uncletopia.com","port":27025,"enabled":true,"region":"au","cc":"au","latitude":-33.865143,"longitude":151.2099,"reserved":0,"last_update":"0001-01-01T00:00:00Z","name_a2s":"Uncletopia | Sydney | 2 | All Maps","protocol":17,"map":"koth_highpass","folder":"tf","game":"Team Fortress","app_id":440,"player_count":0,"max_players":24,"Bots":0,"server_type":"Dedicated","server_os":"Linux","password":true,"vac":true,"version":"7961495","steam_id":85568392924470002,"keywords":["cp","nocrits","nodmgspread","uncletopia"],"game_id":440,"stv_port":27026,"stv_name":"Uncletopia | Sydney | 2 | All Maps | STV","players":null},{"server_id":395,"name":"Uncletopia | Sydney | 3 | All Maps","name_short":"syd-3","host":"syd-1.au.uncletopia.com","port":27035,"enabled":true,"region":"au","cc":"au","latitude":-33.865143,"longitude":151.2099,"reserved":0,"last_update":"0001-01-01T00:00:00Z","name_a2s":"Uncletopia | Sydney | 3 | All Maps","protocol":17,"map":"koth_highpass","folder":"tf","game":"Team Fortress","app_id":440,"player_count":0,"max_players":24,"Bots":0,"server_type":"Dedicated","server_os":"Linux","password":true,"vac":true,"version":"7961495","steam_id":85568392925194467,"keywords":["cp","nocrits","nodmgspread","uncletopia"],"game_id":440,"stv_port":27036,"stv_name":"Uncletopia | Sydney | 3 | All Maps | STV","players":null},{"server_id":396,"name":"Uncletopia | Sydney | 4 | All Maps","name_short":"syd-4","host":"syd-1.au.uncletopia.com","port":27045,"enabled":true,"region":"au","cc":"au","latitude":-33.865143,"longitude":151.2099,"reserved":0,"last_update":"0001-01-01T00:00:00Z","name_a2s":"Uncletopia | Sydney | 4 | All Maps","protocol":17,"map":"cp_sunshine","folder":"tf","game":"Team Fortress","app_id":440,"player_count":0,"max_players":24,"Bots":0,"server_type":"Dedicated","server_os":"Linux","password":true,"vac":true,"version":"7961495","steam_id":85568392925397958,"keywords":["cp","nocrits","nodmgspread","uncletopia"],"game_id":440,"stv_port":27046,"stv_name":"Uncletopia | Sydney | 4 | All Maps | STV","players":null},{"server_id":58,"name":"Uncletopia | Sydney | 5 | Stopwatch","name_short":"syd-5","host":"syd-1.au.uncletopia.com","port":27055,"enabled":true,"region":"au","cc":"au","latitude":-33.865143,"longitude":151.2099,"reserved":0,"last_update":"0001-01-01T00:00:00Z","name_a2s":"Uncletopia | Sydney | 5 | Stopwatch","protocol":17,"map":"workshop/pl_badwater_pro_v12.ugc2142942074","folder":"tf","game":"Team Fortress","app_id":440,"player_count":0,"max_players":24,"Bots":0,"server_type":"Dedicated","server_os":"Linux","password":true,"vac":true,"version":"7961495","steam_id":85568392925397959,"keywords":["nocrits","nodmgspread","payload","uncletopia"],"game_id":440,"stv_port":27056,"stv_name":"Uncletopia | Sydney | 5 | Stopwatch | STV","players":null},{"server_id":59,"name":"Uncletopia | Sydney | 6 | Community","name_short":"syd-6","host":"syd-1.au.uncletopia.com","port":27065,"enabled":true,"region":"au","cc":"au","latitude":-33.865143,"longitude":151.2099,"reserved":0,"last_update":"0001-01-01T00:00:00Z","name_a2s":"Uncletopia | Sydney | 6 | Community","protocol":17,"map":"workshop/koth_slaughter_rc1.ugc1712845210","folder":"tf","game":"Team Fortress","app_id":440,"player_count":0,"max_players":24,"Bots":0,"server_type":"Dedicated","server_os":"Linux","password":true,"vac":true,"version":"7961495","steam_id":85568392925397960,"keywords":["cp","nocrits","nodmgspread","uncletopia"],"game_id":440,"stv_port":27066,"stv_name":"Uncletopia | Sydney | 6 | Community | STV","players":null},{"server_id":49,"name":"Uncletopia | Warsaw | 1 | One Thousand Uncles","name_short":"waw-1","host":"waw-1.pl.uncletopia.com","port":27015,"enabled":true,"region":"eu","cc":"pl","latitude":52.2297,"longitude":21.017532,"reserved":0,"last_update":"0001-01-01T00:00:00Z","name_a2s":"Uncletopia | Warsaw | 1 | One Thousand Uncles","protocol":17,"map":"koth_highpass","folder":"tf","game":"Team Fortress","app_id":440,"player_count":18,"max_players":32,"Bots":16,"server_type":"Dedicated","server_os":"Linux","password":true,"vac":true,"version":"7961495","steam_id":85568392925397850,"keywords":["alltalk","bots","cp","danepve","increased_maxplayers","nocrits","norespawntime","uncletopia"],"game_id":440,"stv_port":0,"stv_name":"","players":[{"user_id":149,"name":"BUCKET:\\soldier\\Desktop\\","steam_id":76561199047240319,"connected_time":877000000000,"state":"active","ping":101},{"user_id":154,"name":"Soya Suki","steam_id":76561197998106435,"connected_time":372000000000,"state":"active","ping":60}]},{"server_id":50,"name":"Uncletopia | Warsaw | 2 | One Thousand Uncles","name_short":"waw-2","host":"waw-1.pl.uncletopia.com","port":27025,"enabled":true,"region":"eu","cc":"pl","latitude":52.2297,"longitude":21.017532,"reserved":0,"last_update":"0001-01-01T00:00:00Z","name_a2s":"Uncletopia | Warsaw | 2 | One Thousand Uncles","protocol":17,"map":"pl_hoodoo_final","folder":"tf","game":"Team Fortress","app_id":440,"player_count":24,"max_players":32,"Bots":16,"server_type":"Dedicated","server_os":"Linux","password":true,"vac":true,"version":"7961495","steam_id":85568392925397851,"keywords":["alltalk","bots","danepve","increased_maxplayers","nocrits","norespawntime","payload","uncletopia"],"game_id":440,"stv_port":0,"stv_name":"","players":[{"user_id":435,"name":"Ulysses","steam_id":76561198042645091,"connected_time":698000000000,"state":"active","ping":35},{"user_id":436,"name":"mad cat lon","steam_id":76561199194009782,"connected_time":474000000000,"state":"active","ping":65},{"user_id":427,"name":"Aighto","steam_id":76561199472313160,"connected_time":1187000000000,"state":"active","ping":305},{"user_id":458,"name":"Señor González","steam_id":76561198278515252,"connected_time":19000000000,"state":"active","ping":61},{"user_id":376,"name":"Uncle Moomin","steam_id":76561198011628656,"connected_time":3368000000000,"state":"active","ping":86},{"user_id":265,"name":"meatsoupcube","steam_id":76561198276802249,"connected_time":8416000000000,"state":"active","ping":127},{"user_id":395,"name":"Abakum","steam_id":76561198413243475,"connected_time":2167000000000,"state":"active","ping":84},{"user_id":424,"name":"matvejisakov7","steam_id":76561199493568179,"connected_time":1442000000000,"state":"active","ping":118}]},{"server_id":51,"name":"Uncletopia | Warsaw | 3 | All Maps","name_short":"waw-3","host":"waw-1.pl.uncletopia.com","port":27035,"enabled":true,"region":"eu","cc":"pl","latitude":52.2297,"longitude":21.017532,"reserved":0,"last_update":"0001-01-01T00:00:00Z","name_a2s":"Uncletopia | Warsaw | 3 | All Maps","protocol":17,"map":"plr_pipeline","folder":"tf","game":"Team Fortress","app_id":440,"player_count":0,"max_players":24,"Bots":0,"server_type":"Dedicated","server_os":"Linux","password":true,"vac":true,"version":"7961495","steam_id":85568392925397852,"keywords":["nocrits","nodmgspread","payload","uncletopia"],"game_id":440,"stv_port":27036,"stv_name":"Uncletopia | Warsaw | 3 | All Maps | STV","players":null},{"server_id":52,"name":"Uncletopia | Warsaw | 4 | All Maps","name_short":"waw-4","host":"waw-1.pl.uncletopia.com","port":27045,"enabled":true,"region":"eu","cc":"pl","latitude":52.2297,"longitude":21.017532,"reserved":0,"last_update":"0001-01-01T00:00:00Z","name_a2s":"Uncletopia | Warsaw | 4 | All Maps","protocol":17,"map":"cp_mountainlab","folder":"tf","game":"Team Fortress","app_id":440,"player_count":5,"max_players":24,"Bots":0,"server_type":"Dedicated","server_os":"Linux","password":true,"vac":true,"version":"7961495","steam_id":85568392925397853,"keywords":["cp","nocrits","nodmgspread","uncletopia"],"game_id":440,"stv_port":27046,"stv_name":"Uncletopia | Warsaw | 4 | All Maps | STV","players":[{"user_id":77,"name":"InsaneBear","steam_id":76561198036086678,"connected_time":329000000000,"state":"active","ping":93},{"user_id":70,"name":"gametram","steam_id":76561199129180186,"connected_time":1717000000000,"state":"active","ping":61},{"user_id":71,"name":"Erdogames","steam_id":76561198959564055,"connected_time":1427000000000,"state":"active","ping":75},{"user_id":68,"name":"smiley","steam_id":76561198042245117,"connected_time":2094000000000,"state":"active","ping":109},{"user_id":76,"name":"Aphrodite","steam_id":76561199085162623,"connected_time":1150000000000,"state":"active","ping":63}]},{"server_id":53,"name":"Uncletopia | Warsaw | 5 | Stopwatch","name_short":"waw-5","host":"waw-1.pl.uncletopia.com","port":27055,"enabled":true,"region":"eu","cc":"pl","latitude":52.2297,"longitude":21.017532,"reserved":0,"last_update":"0001-01-01T00:00:00Z","name_a2s":"Uncletopia | Warsaw | 5 | Stopwatch","protocol":17,"map":"pl_swiftwater_final1","folder":"tf","game":"Team Fortress","app_id":440,"player_count":0,"max_players":24,"Bots":0,"server_type":"Dedicated","server_os":"Linux","password":true,"vac":true,"version":"7961495","steam_id":85568392925397854,"keywords":["nocrits","nodmgspread","payload","uncletopia"],"game_id":440,"stv_port":27056,"stv_name":"Uncletopia | Warsaw | 5 | Stopwatch | STV","players":null},{"server_id":54,"name":"Uncletopia | Warsaw | 6 | Community","name_short":"waw-6","host":"waw-1.pl.uncletopia.com","port":27065,"enabled":true,"region":"eu","cc":"pl","latitude":52.2297,"longitude":21.017532,"reserved":0,"last_update":"0001-01-01T00:00:00Z","name_a2s":"Uncletopia | Warsaw | 6 | Community","protocol":17,"map":"workshop/pl_barnblitz_pro7.ugc582280235","folder":"tf","game":"Team Fortress","app_id":440,"player_count":12,"max_players":24,"Bots":0,"server_type":"Dedicated","server_os":"Linux","password":true,"vac":true,"version":"7961495","steam_id":85568392925397856,"keywords":["nocrits","nodmgspread","payload","uncletopia"],"game_id":440,"stv_port":27066,"stv_name":"Uncletopia | Warsaw | 6 | Community | STV","players":[{"user_id":3,"name":"RayTrain","steam_id":76561198874299515,"connected_time":2349000000000,"state":"active","ping":60},{"user_id":4,"name":"Moondrop","steam_id":76561199421181719,"connected_time":2336000000000,"state":"active","ping":66},{"user_id":21,"name":"Pharaoh | ez","steam_id":76561198974553024,"connected_time":99000000000,"state":"active","ping":122},{"user_id":6,"name":"♦nudzeku♦","steam_id":76561199196336940,"connected_time":1655000000000,"state":"active","ping":402},{"user_id":7,"name":"Angela ☘","steam_id":76561198105207050,"connected_time":1522000000000,"state":"active","ping":60},{"user_id":14,"name":"Tas Sklan Rauš","steam_id":76561198150212823,"connected_time":585000000000,"state":"active","ping":65},{"user_id":9,"name":"keleos82","steam_id":76561198123916013,"connected_time":1494000000000,"state":"active","ping":60},{"user_id":10,"name":"Gabibicus the Fair","steam_id":76561198089248987,"connected_time":1278000000000,"state":"active","ping":88},{"user_id":16,"name":"_3tHeR_","steam_id":76561199109870743,"connected_time":565000000000,"state":"active","ping":51},{"user_id":17,"name":"Piquesque","steam_id":76561198286763046,"connected_time":565000000000,"state":"active","ping":117},{"user_id":19,"name":"Detarin5000","steam_id":76561198864279558,"connected_time":460000000000,"state":"active","ping":59},{"user_id":20,"name":"Rice Lee","steam_id":76561198313734012,"connected_time":395000000000,"state":"active","ping":60}]}]}