{"status":true,"message":"","result":[{"server_id":9,"name":"Uncletopia | Atlanta | 1 | All Maps","name_short":"atl-1","host":"atl-1.us.uncletopia.com","port":27015,"enabled":true,"region":"us-east","cc":"us","latitude":33.753746,"longitude":-84.38633,"reserved":0,"last_update":"0001-01-01T00:00:00Z","name_a2s":"Uncletopia | Atlanta | 1 | All Maps","protocol":17,"map":"cp_process_final","folder":"tf","game":"Team Fortress","app_id":440,"player_count":24,"max_players":24,"Bots":0,"server_type":"Dedicated","server_os":"Linux","password":true,"vac":true,"version":"7757534","steam_id":85568392924469982,"keywords":["cp","nocrits","nodmgspread","uncletopia"],"game_id":440,"stv_port":27016,"stv_name":"Uncletopia | Atlanta | 1 | All Maps | STV","players":[{"user_id":360,"name":"Bandi","steam_id":76561198432036026,"connected_time":1683000000000,"state":"active","ping":51},{"user_id":367,"name":"LadyAnon","steam_id":76561198014709418,"connected_time":947000000000,"state":"active","ping":55},{"user_id":359,"name":"Chimpish","steam_id":76561199263493270,"connected_time":1685000000000,"state":"active","ping":81},{"user_id":368,"name":"Just PYE","steam_id":76561199439622967,"connected_time":844000000000,"state":"active","ping":70},{"user_id":347,"name":"ATL1 | Crystron","steam_id":76561198880437428,"connected_time":1746000000000,"state":"active","ping":86},{"user_id":338,"name":"Lilith","steam_id":76561198125102885,"connected_time":1769000000000,"state":"active","ping":61},{"user_id":370,"name":"marguerite","steam_id":76561198170873495,"connected_time":508000000000,"state":"active","ping":50},{"user_id":345,"name":"Genetic Komodo (He/Him)","steam_id":76561198174806758,"connected_time":1749000000000,"state":"active","ping":60},{"user_id":372,"name":"pizza steve","steam_id":76561198811554257,"connected_time":487000000000,"state":"active","ping":82},{"user_id":363,"name":"the doo doo man","steam_id":76561198057076267,"connected_time":1306000000000,"state":"active","ping":68},{"user_id":234,"name":"ATL1 | Lancer Fan Club","steam_id":76561198355495948,"connected_time":3609000000000,"state":"active","ping":67},{"user_id":373,"name":"ChubbySolution","steam_id":76561198160468964,"connected_time":473000000000,"state":"active","ping":72},{"user_id":273,"name":"Spooky Scary","steam_id":76561198195388759,"connected_time":2708000000000,"state":"active","ping":55},{"user_id":375,"name":"Oddball","steam_id":76561198040440984,"connected_time":245000000000,"state":"active","ping":83},{"user_id":378,"name":"Notation","steam_id":76561198119509319,"connected_time":55000000000,"state":"active","ping":44},{"user_id":374,"name":"town.midi","steam_id":76561198059041027,"connected_time":470000000000,"state":"active","ping":119},{"user_id":340,"name":"root beer enthusiast","steam_id":76561198124791670,"connected_time":1759000000000,"state":"active","ping":41},{"user_id":231,"name":"Mug","steam_id":76561199282207802,"connected_time":3635000000000,"state":"active","ping":77},{"user_id":377,"name":"God's Sleepiest Puppy Girl","steam_id":76561198070315609,"connected_time":91000000000,"state":"active","ping":45},{"user_id":239,"name":"Gian","steam_id":76561198098575593,"connected_time":3530000000000,"state":"active","ping":96},{"user_id":346,"name":"O'Keearns","steam_id":76561198042213797,"connected_time":1748000000000,"state":"active","ping":45},{"user_id":119,"name":"lil hog","steam_id":76561199230929836,"connected_time":12845000000000,"state":"active","ping":100},{"user_id":320,"name":"Mage","steam_id":76561198285026879,"connected_time":1949000000000,"state":"active","ping":75},{"user_id":366,"name":"ATL1 | Avo","steam_id":76561197993340494,"connected_time":1260000000000,"state":"active","ping":66}]},{"server_id":104,"name":"Uncletopia | Atlanta | 2 | All Maps","name_short":"atl-2","host":"atl-1.us.uncletopia.com","port":27025,"enabled":true,"region":"us-east","cc":"us","latitude":33.753746,"longitude":-84.38633,"reserved":0,"last_update":"0001-01-01T00:00:00Z","name_a2s":"Uncletopia | Atlanta | 2 | All Maps","protocol":17,"map":"pl_upward","folder":"tf","game":"Team Fortress","app_id":440,"player_count":24,"max_players":24,"Bots":0,"server_type":"Dedicated","server_os":"Linux","password":true,"vac":true,"version":"7757534","steam_id":85568392924469983,"keywords":["nocrits","nodmgspread","payload","uncletopia"],"game_id":440,"stv_port":27026,"stv_name":"Uncletopia | Atlanta | 2 | All Maps | STV","players":[{"user_id":89,"name":"jzplr üé∑üêõ","steam_id":76561198091901520,"connected_time":1817000000000,"state":"active","ping":59},{"user_id":100,"name":"chimeowa","steam_id":76561198076598729,"connected_time":853000000000,"state":"active","ping":68},{"user_id":24,"name":"box","steam_id":76561198985635309,"connected_time":5905000000000,"state":"active","ping":87},{"user_id":95,"name":"bendera","steam_id":76561197965486503,"connected_time":1102000000000,"state":"active","ping":75},{"user_id":94,"name":"Yuri Tarded","steam_id":76561198034339940,"connected_time":1203000000000,"state":"active","ping":53},{"user_id":101,"name":"barbara","steam_id":76561198072417792,"connected_time":838000000000,"state":"active","ping":109},{"user_id":112,"name":"(‚óî) Neville","steam_id":76561198025637970,"connected_time":483000000000,"state":"active","ping":70},{"user_id":97,"name":"uniwu - BUFF THE SPEED","steam_id":76561198864421290,"connected_time":889000000000,"state":"active","ping":46},{"user_id":96,"name":"Metna ‚òÅ","steam_id":76561198092381079,"connected_time":979000000000,"state":"active","ping":75},{"user_id":109,"name":"slowdance","steam_id":76561198097427947,"connected_time":599000000000,"state":"active","ping":148},{"user_id":85,"name":"Shovel Man","steam_id":76561198120926552,"connected_time":2137000000000,"state":"active","ping":67},{"user_id":102,"name":"Shame","steam_id":76561198100490994,"connected_time":821000000000,"state":"active","ping":59},{"user_id":105,"name":"apidUsurper","steam_id":76561198147941408,"connected_time":733000000000,"state":"active","ping":173},{"user_id":113,"name":"The Chosen One","steam_id":76561199046984627,"connected_time":430000000000,"state":"active","ping":67},{"user_id":110,"name":"TheFireRanger","steam_id":76561198970305585,"connected_time":582000000000,"state":"active","ping":101},{"user_id":77,"name":"runescape sea_shanty2","steam_id":76561198397662124,"connected_time":2347000000000,"state":"active","ping":91},{"user_id":88,"name":"Zee","steam_id":76561199229870438,"connected_time":1831000000000,"state":"active","ping":77},{"user_id":116,"name":"eman","steam_id":76561198204395721,"connected_time":161000000000,"state":"active","ping":102},{"user_id":115,"name":"kramer","steam_id":76561198117761965,"connected_time":307000000000,"state":"active","ping":82},{"user_id":106,"name":"DoomoPelota","steam_id":76561198326462587,"connected_time":731000000000,"state":"active","ping":93},{"user_id":107,"name":"comet sooicidy","steam_id":76561198025173479,"connected_time":711000000000,"state":"active","ping":82},{"user_id":108,"name":"jenitt.gotz","steam_id":76561198274258941,"connected_time":702000000000,"state":"active","ping":115},{"user_id":63,"name":"custodian","steam_id":76561198058793778,"connected_time":4223000000000,"state":"active","ping":78},{"user_id":72,"name":"webbchess","steam_id":76561198825450565,"connected_time":2906000000000,"state":"active","ping":73}]},{"server_id":400,"name":"Uncletopia | Atlanta | 3 | Community","name_short":"atl-3","host":"atl-1.us.uncletopia.com","port":27035,"enabled":true,"region":"us-east","cc":"us","latitude":33.753746,"longitude":-84.38633,"reserved":0,"last_update":"0001-01-01T00:00:00Z","name_a2s":"Uncletopia | Atlanta | 3 | Community","protocol":17,"map":"workshop/cp_caldera_rc2.ugc2834196889","folder":"tf","game":"Team Fortress","app_id":440,"player_count":0,"max_players":24,"Bots":0,"server_type":"Dedicated","server_os":"Linux","password":true,"vac":true,"version":"7757534","steam_id":85568392924515187,"keywords":["cp","nocrits","nodmgspread","uncletopia"],"game_id":440,"stv_port":27036,"stv_name":"Uncletopia | Atlanta | 3 | Community | STV","players":null},{"server_id":401,"name":"Uncletopia | Atlanta | 4 | No Payload","name_short":"atl-4","host":"atl-1.us.uncletopia.com","port":27045,"enabled":true,"region":"us-east","cc":"us","latitude":33.753746,"longitude":-84.38633,"reserved":0,"last_update":"0001-01-01T00:00:00Z","name_a2s":"","protocol":0,"map":"","folder":"","game":"","app_id":0,"player_count":0,"max_players":0,"Bots":0,"server_type":"","server_os":"","password":false,"vac":false,"version":"","steam_id":0,"keywords":null,"game_id":0,"stv_port":0,"stv_name":"","players":null},{"server_id":2,"name":"Uncletopia | Chicago | 1 | All Maps","name_short":"chi-1","host":"chi-1.us.uncletopia.com","port":27015,"enabled":true,"region":"us-central","cc":"us","latitude":41.881832,"longitude":-87.62318,"reserved":0,"last_update":"0001-01-01T00:00:00Z","name_a2s":"Uncletopia | Chicago | 1 | All Maps","protocol":17,"map":"pl_snowycoast","folder":"tf","game":"Team Fortress","app_id":440,"player_count":23,"max_players":24,"Bots":0,"server_type":"Dedicated","server_os":"Linux","password":true,"vac":true,"version":"7757534","steam_id":85568392924469984,"keywords":["nocrits","nodmgspread","payload","uncletopia"],"game_id":440,"stv_port":27016,"stv_name":"Uncletopia | Chicago | 1 | All Maps | STV","players":[{"user_id":279,"name":"volta","steam_id":76561199214283884,"connected_time":3284000000000,"state":"active","ping":103},{"user_id":265,"name":"Tobo","steam_id":76561198085846393,"connected_time":5146000000000,"state":"active","ping":94},{"user_id":269,"name":"Howard Hamlin","steam_id":76561198881039861,"connected_time":4847000000000,"state":"active","ping":50},{"user_id":321,"name":"Chung","steam_id":76561198114928567,"connected_time":273000000000,"state":"active","ping":81},{"user_id":307,"name":"an inebriated newt fancier","steam_id":76561197985428155,"connected_time":1304000000000,"state":"active","ping":53},{"user_id":317,"name":"Diatomaceous","steam_id":76561198333556852,"connected_time":604000000000,"state":"active","ping":111},{"user_id":322,"name":"Yuri","steam_id":76561198071860907,"connected_time":230000000000,"state":"active","ping":70},{"user_id":325,"name":"danny d","steam_id":76561198110834357,"connected_time":218000000000,"state":"active","ping":45},{"user_id":276,"name":"Baka!‚ë®‚ë®‚ë®‚ë®","steam_id":76561198152948254,"connected_time":3999000000000,"state":"active","ping":66},{"user_id":296,"name":"ConfettiCannon","steam_id":76561198062946700,"connected_time":1937000000000,"state":"active","ping":49},{"user_id":316,"name":"BayanTheBear","steam_id":76561198134537476,"connected_time":783000000000,"state":"active","ping":83},{"user_id":301,"name":"Zackariah","steam_id":76561198269224342,"connected_time":1456000000000,"state":"active","ping":66},{"user_id":309,"name":"Craig Isonychia","steam_id":76561198272013678,"connected_time":979000000000,"state":"active","ping":73},{"user_id":299,"name":"350cc","steam_id":76561198377320040,"connected_time":1490000000000,"state":"active","ping":86},{"user_id":304,"name":"notatrip(mommymoding)","steam_id":76561198046109327,"connected_time":1438000000000,"state":"active","ping":58},{"user_id":326,"name":"sunset","steam_id":76561197994492154,"connected_time":212000000000,"state":"active","ping":165},{"user_id":323,"name":"V!CT!M","steam_id":76561198962721502,"connected_time":229000000000,"state":"active","ping":70},{"user_id":318,"name":"cactus eater","steam_id":76561199107499844,"connected_time":521000000000,"state":"active","ping":116},{"user_id":312,"name":"Not What He Wanted to Cook","steam_id":76561198057374871,"connected_time":879000000000,"state":"active","ping":62},{"user_id":327,"name":"io","steam_id":76561198046184291,"connected_time":80000000000,"state":"active","ping":56},{"user_id":324,"name":"choccy milk","steam_id":76561198111370355,"connected_time":227000000000,"state":"active","ping":68},{"user_id":262,"name":"Ras","steam_id":76561198123546775,"connected_time":5541000000000,"state":"active","ping":61},{"user_id":320,"name":"CapnKris22","steam_id":76561198049010994,"connected_time":373000000000,"state":"active","ping":61}]},{"server_id":106,"name":"Uncletopia | Chicago | 2 | All Maps","name_short":"chi-2","host":"chi-1.us.uncletopia.com","port":27025,"enabled":true,"region":"us-central","cc":"us","latitude":41.881832,"longitude":-87.62318,"reserved":0,"last_update":"0001-01-01T00:00:00Z","name_a2s":"Uncletopia | Chicago | 2 | All Maps","protocol":17,"map":"koth_harvest_final","folder":"tf","game":"Team Fortress","app_id":440,"player_count":17,"max_players":24,"Bots":0,"server_type":"Dedicated","server_os":"Linux","password":true,"vac":true,"version":"7757534","steam_id":85568392924469985,"keywords":["cp","nocrits","nodmgspread","uncletopia"],"game_id":440,"stv_port":27026,"stv_name":"Uncletopia | Chicago | 2 | All Maps | STV","players":[{"user_id":33,"name":"boob knight","steam_id":76561199007245822,"connected_time":854000000000,"state":"active","ping":111},{"user_id":32,"name":"Drizzle","steam_id":76561198152143806,"connected_time":1255000000000,"state":"active","ping":47},{"user_id":34,"name":"Captain Barrel","steam_id":76561199061470542,"connected_time":803000000000,"state":"active","ping":52},{"user_id":49,"name":"DEADHORSE","steam_id":76561198066342171,"connected_time":133000000000,"state":"active","ping":75},{"user_id":36,"name":"ShotgunGuy06","steam_id":76561199071591465,"connected_time":532000000000,"state":"active","ping":106},{"user_id":50,"name":"Sergeant Joker #savetf2","steam_id":76561198854616604,"connected_time":109000000000,"state":"active","ping":63},{"user_id":38,"name":"Santamen","steam_id":76561198119478199,"connected_time":334000000000,"state":"active","ping":56},{"user_id":45,"name":"mdharsy","steam_id":76561198065831053,"connected_time":186000000000,"state":"active","ping":71},{"user_id":40,"name":"RetroDsk | TTV","steam_id":76561198020646524,"connected_time":303000000000,"state":"active","ping":64},{"user_id":41,"name":"Arcadletus","steam_id":76561198976009938,"connected_time":299000000000,"state":"active","ping":82},{"user_id":42,"name":"mann","steam_id":76561199406261605,"connected_time":256000000000,"state":"active","ping":86},{"user_id":43,"name":"THE UNDERTAKER","steam_id":76561198089852954,"connected_time":236000000000,"state":"active","ping":77},{"user_id":44,"name":"SquirrelAway‚Ñ¢","steam_id":76561197998828619,"connected_time":212000000000,"state":"active","ping":67},{"user_id":46,"name":"THEREaLNESS","steam_id":76561198063211557,"connected_time":180000000000,"state":"active","ping":45},{"user_id":47,"name":"|WS| Don't_Taze_Me_Bro","steam_id":76561198043289495,"connected_time":174000000000,"state":"active","ping":74},{"user_id":48,"name":"Point then Click","steam_id":76561198076133259,"connected_time":146000000000,"state":"active","ping":101},{"user_id":51,"name":"Lost CS player","steam_id":76561198892387723,"connected_time":106000000000,"state":"active","ping":73}]},{"server_id":402,"name":"Uncletopia | Chicago | 3 | All Maps","name_short":"chi-3","host":"chi-1.us.uncletopia.com","port":27035,"enabled":true,"region":"us-central","cc":"us","latitude":41.881832,"longitude":-87.62318,"reserved":0,"last_update":"0001-01-01T00:00:00Z","name_a2s":"Uncletopia | Chicago | 3 | All Maps","protocol":17,"map":"pl_borneo","folder":"tf","game":"Team Fortress","app_id":440,"player_count":24,"max_players":24,"Bots":0,"server_type":"Dedicated","server_os":"Linux","password":true,"vac":true,"version":"7757534","steam_id":85568392924515191,"keywords":["nocrits","nodmgspread","payload","uncletopia"],"game_id":440,"stv_port":27036,"stv_name":"Uncletopia | Chicago | 3 | All Maps | STV","players":[{"user_id":342,"name":"Nefy","steam_id":76561198030017316,"connected_time":4599000000000,"state":"active","ping":87},{"user_id":343,"name":"Soul_Intern","steam_id":76561198310238109,"connected_time":4582000000000,"state":"active","ping":105},{"user_id":339,"name":"sweppy","steam_id":76561198035457667,"connected_time":4723000000000,"state":"active","ping":63},{"user_id":353,"name":"The Feds","steam_id":76561199134834554,"connected_time":3507000000000,"state":"active","ping":83},{"user_id":398,"name":"you need to leave","steam_id":76561198337692867,"connected_time":47000000000,"state":"active","ping":68},{"user_id":304,"name":"gNarNar","steam_id":76561197994505205,"connected_time":6403000000000,"state":"active","ping":69},{"user_id":377,"name":"Raniel Dicciardo","steam_id":76561198053859538,"connected_time":1621000000000,"state":"active","ping":72},{"user_id":383,"name":"Lightish Red","steam_id":76561198060879701,"connected_time":1254000000000,"state":"active","ping":46},{"user_id":397,"name":"Kaprinae","steam_id":76561199260109617,"connected_time":236000000000,"state":"active","ping":77},{"user_id":352,"name":"Aegis","steam_id":76561198272052750,"connected_time":3674000000000,"state":"active","ping":73},{"user_id":370,"name":"CamSoup","steam_id":76561198202483168,"connected_time":2181000000000,"state":"active","ping":72},{"user_id":380,"name":"hoot.","steam_id":76561198066876703,"connected_time":1459000000000,"state":"active","ping":47},{"user_id":386,"name":"TheLobsterInQuestion","steam_id":76561198888928334,"connected_time":865000000000,"state":"active","ping":75},{"user_id":394,"name":"joethefool","steam_id":76561199015436319,"connected_time":622000000000,"state":"active","ping":68},{"user_id":396,"name":"wùëíùëívil","steam_id":76561198081260791,"connected_time":351000000000,"state":"active","ping":138},{"user_id":372,"name":"jibby","steam_id":76561198046872382,"connected_time":1849000000000,"state":"active","ping":52},{"user_id":366,"name":"Texas Man","steam_id":76561198353412986,"connected_time":2506000000000,"state":"active","ping":117},{"user_id":395,"name":"Anor","steam_id":76561198356139775,"connected_time":475000000000,"state":"active","ping":71},{"user_id":367,"name":"Rukks","steam_id":76561197993918954,"connected_time":2346000000000,"state":"active","ping":81},{"user_id":390,"name":"Reb, the Lord of Magic","steam_id":76561198144756713,"connected_time":715000000000,"state":"active","ping":81},{"user_id":391,"name":"Darghul the Skeleton Lord","steam_id":76561198004140161,"connected_time":704000000000,"state":"active","ping":41},{"user_id":388,"name":"Kegg#6946","steam_id":76561198091141510,"connected_time":747000000000,"state":"active","ping":66},{"user_id":399,"name":"DatFluffyPancake","steam_id":76561198271958697,"connected_time":9000000000,"state":"spawning","ping":91},{"user_id":393,"name":"QwQ","steam_id":76561198432226673,"connected_time":683000000000,"state":"active","ping":100}]},{"server_id":403,"name":"Uncletopia | Chicago | 4 | All Maps","name_short":"chi-4","host":"chi-1.us.uncletopia.com","port":27045,"enabled":true,"region":"us-central","cc":"us","latitude":41.881832,"longitude":-87.62318,"reserved":0,"last_update":"0001-01-01T00:00:00Z","name_a2s":"Uncletopia | Chicago | 4 | All Maps","protocol":17,"map":"cp_powerhouse","folder":"tf","game":"Team Fortress","app_id":440,"player_count":22,"max_players":24,"Bots":0,"server_type":"Dedicated","server_os":"Linux","password":true,"vac":true,"version":"7757534","steam_id":85568392924515193,"keywords":["cp","nocrits","nodmgspread","uncletopia"],"game_id":440,"stv_port":27046,"stv_name":"Uncletopia | Chicago | 4 | All Maps | STV","players":[{"user_id":539,"name":"jazztree14","steam_id":76561199239395356,"connected_time":1268000000000,"state":"active","ping":60},{"user_id":553,"name":"Proof by close enough","steam_id":76561198083345384,"connected_time":327000000000,"state":"active","ping":88},{"user_id":499,"name":"Gandalf Gaming","steam_id":76561198368151490,"connected_time":3168000000000,"state":"active","ping":58},{"user_id":514,"name":"Furious George","steam_id":76561198405111646,"connected_time":2851000000000,"state":"active","ping":99},{"user_id":515,"name":"023e20902o0239ee02390o239e","steam_id":76561198175741741,"connected_time":2849000000000,"state":"active","ping":71},{"user_id":537,"name":"Hipp-Dip","steam_id":76561199027874633,"connected_time":1496000000000,"state":"active","ping":57},{"user_id":531,"name":"nhbiker","steam_id":76561198081277675,"connected_time":1580000000000,"state":"active","ping":59},{"user_id":552,"name":"DarthEthanBoy","steam_id":76561198441643581,"connected_time":659000000000,"state":"active","ping":87},{"user_id":538,"name":"Hipster Killer","steam_id":76561198068569249,"connected_time":1482000000000,"state":"active","ping":87},{"user_id":458,"name":"B.","steam_id":76561198040445907,"connected_time":6672000000000,"state":"active","ping":72},{"user_id":544,"name":"YASAI JUICE","steam_id":76561198131971992,"connected_time":973000000000,"state":"active","ping":31},{"user_id":496,"name":"JSClinton","steam_id":76561198067487389,"connected_time":4146000000000,"state":"active","ping":66},{"user_id":554,"name":"WatchWill","steam_id":76561198157237945,"connected_time":290000000000,"state":"active","ping":70},{"user_id":548,"name":"Canteloupe","steam_id":76561199187764012,"connected_time":879000000000,"state":"active","ping":67},{"user_id":513,"name":"Barlon","steam_id":76561198023717515,"connected_time":2926000000000,"state":"active","ping":75},{"user_id":547,"name":"dave strider","steam_id":76561198065112186,"connected_time":886000000000,"state":"active","ping":69},{"user_id":454,"name":"Jak(i)","steam_id":76561198076823144,"connected_time":7173000000000,"state":"active","ping":62},{"user_id":545,"name":"Jed","steam_id":76561199074026132,"connected_time":910000000000,"state":"active","ping":63},{"user_id":551,"name":"TransSammie","steam_id":76561198046331930,"connected_time":761000000000,"state":"active","ping":102},{"user_id":549,"name":"doctor large","steam_id":76561199195836752,"connected_time":878000000000,"state":"active","ping":66},{"user_id":550,"name":"Fresh0c0","steam_id":76561198271933283,"connected_time":872000000000,"state":"active","ping":57},{"user_id":490,"name":"primordialheath","steam_id":76561199386942638,"connected_time":4920000000000,"state":"active","ping":55}]},{"server_id":36,"name":"Uncletopia | Chicago | 5 | All Maps","name_short":"chi-5","host":"chi-2.us.uncletopia.com","port":27015,"enabled":true,"region":"us-central","cc":"us","latitude":41.881832,"longitude":-87.62318,"reserved":0,"last_update":"0001-01-01T00:00:00Z","name_a2s":"Uncletopia | Chicago | 5 | All Maps","protocol":17,"map":"koth_cascade","folder":"tf","game":"Team Fortress","app_id":440,"player_count":0,"max_players":24,"Bots":0,"server_type":"Dedicated","server_os":"Linux","password":true,"vac":true,"version":"7757534","steam_id":85568392924866362,"keywords":["cp","nocrits","nodmgspread","uncletopia"],"game_id":440,"stv_port":27016,"stv_name":"Uncletopia | Chicago | 5 | All Maps | STV","players":null},{"server_id":37,"name":"Uncletopia | Chicago | 6 | All Maps","name_short":"chi-6","host":"chi-2.us.uncletopia.com","port":27025,"enabled":true,"region":"us-central","cc":"us","latitude":41.881832,"longitude":-87.62318,"reserved":0,"last_update":"0001-01-01T00:00:00Z","name_a2s":"Uncletopia | Chicago | 6 | All Maps","protocol":17,"map":"ctf_2fort","folder":"tf","game":"Team Fortress","app_id":440,"player_count":23,"max_players":24,"Bots":0,"server_type":"Dedicated","server_os":"Linux","password":true,"vac":true,"version":"7757534","steam_id":85568392924866363,"keywords":["ctf","nocrits","nodmgspread","uncletopia"],"game_id":440,"stv_port":27026,"stv_name":"Uncletopia | Chicago | 6 | All Maps | STV","players":[{"user_id":397,"name":"Error 4 Oh Four","steam_id":76561198121637567,"connected_time":3344000000000,"state":"active","ping":75},{"user_id":395,"name":"playername","steam_id":76561198121955432,"connected_time":3466000000000,"state":"active","ping":56},{"user_id":458,"name":"Shin Tae Il's Lighter","steam_id":76561198984360849,"connected_time":20000000000,"state":"spawning","ping":74},{"user_id":443,"name":"Ejaculation Zach","steam_id":76561198203765200,"connected_time":1066000000000,"state":"active","ping":56},{"user_id":444,"name":"DerrickHenryFan2012","steam_id":76561198254452687,"connected_time":858000000000,"state":"active","ping":99},{"user_id":436,"name":"One Horned Bitch Destroyer","steam_id":76561198045810191,"connected_time":1187000000000,"state":"active","ping":87},{"user_id":439,"name":"Jill Stingray","steam_id":76561198074209737,"connected_time":1136000000000,"state":"active","ping":60},{"user_id":412,"name":"3ggsalad3","steam_id":76561199386969191,"connected_time":2907000000000,"state":"active","ping":45},{"user_id":426,"name":"im the beef","steam_id":76561198069506128,"connected_time":2180000000000,"state":"active","ping":50},{"user_id":456,"name":"BraggerCrab","steam_id":76561198153310992,"connected_time":63000000000,"state":"active","ping":51},{"user_id":417,"name":"Swirly Cat","steam_id":76561198017033478,"connected_time":2839000000000,"state":"active","ping":132},{"user_id":384,"name":"Luck","steam_id":76561199122232082,"connected_time":4382000000000,"state":"active","ping":83},{"user_id":457,"name":"diarrhea.daniel (gamer)","steam_id":76561198117148323,"connected_time":35000000000,"state":"active","ping":58},{"user_id":431,"name":"A Puppy","steam_id":76561198828184456,"connected_time":1255000000000,"state":"active","ping":59},{"user_id":389,"name":"flappyflap2","steam_id":76561198285048973,"connected_time":3838000000000,"state":"active","ping":60},{"user_id":432,"name":"grahamcrunchycracker","steam_id":76561199037569525,"connected_time":1252000000000,"state":"active","ping":80},{"user_id":454,"name":"Sprinklze","steam_id":76561198163562681,"connected_time":142000000000,"state":"active","ping":68},{"user_id":428,"name":"captainspatklz","steam_id":76561198432167270,"connected_time":2091000000000,"state":"active","ping":69},{"user_id":448,"name":"Dangerous_Dave76","steam_id":76561199230056550,"connected_time":391000000000,"state":"active","ping":117},{"user_id":422,"name":"Mr.Bady","steam_id":76561199094651706,"connected_time":2771000000000,"state":"active","ping":71},{"user_id":334,"name":"CreativeCoffeeCake","steam_id":76561198323542875,"connected_time":6927000000000,"state":"active","ping":94},{"user_id":453,"name":"Idiot Prince (They/Them)","steam_id":76561198048205270,"connected_time":194000000000,"state":"active","ping":91},{"user_id":424,"name":"Unlock The Shock (She/They)","steam_id":76561198823616667,"connected_time":2650000000000,"state":"active","ping":73}]},{"server_id":38,"name":"Uncletopia | Chicago | 7 | Stopwatch Beta","name_short":"chi-7","host":"chi-2.us.uncletopia.com","port":27035,"enabled":true,"region":"us-central","cc":"us","latitude":41.881832,"longitude":-87.62318,"reserved":0,"last_update":"0001-01-01T00:00:00Z","name_a2s":"Uncletopia | Chicago | 7 | Stopwatch Beta","protocol":17,"map":"pl_barnblitz","folder":"tf","game":"Team Fortress","app_id":440,"player_count":0,"max_players":24,"Bots":0,"server_type":"Dedicated","server_os":"Linux","password":true,"vac":true,"version":"7757534","steam_id":85568392924866364,"keywords":["nocrits","nodmgspread","payload","uncletopia"],"game_id":440,"stv_port":27036,"stv_name":"Uncletopia | Chicago | 7 | Stopwatch Beta | STV","players":null},{"server_id":39,"name":"Uncletopia | Chicago | 8 | Community","name_short":"chi-8","host":"chi-2.us.uncletopia.com","port":27045,"enabled":true,"region":"us-central","cc":"us","latitude":41.881832,"longitude":-87.62318,"reserved":0,"last_update":"0001-01-01T00:00:00Z","name_a2s":"Uncletopia | Chicago | 8 | Community","protocol":17,"map":"koth_cascade","folder":"tf","game":"Team Fortress","app_id":440,"player_count":0,"max_players":24,"Bots":0,"server_type":"Dedicated","server_os":"Linux","password":true,"vac":true,"version":"7757534","steam_id":85568392924866365,"keywords":["cp","nocrits","nodmgspread","uncletopia"],"game_id":440,"stv_port":27046,"stv_name":"Uncletopia | Chicago | 8 | Community | STV","players":null},{"server_id":8,"name":"Uncletopia | Dallas | 1 | All Maps","name_short":"dal-1","host":"dal-1.us.uncletopia.com","port":27015,"enabled":true,"region":"us-central","cc":"us","latitude":32.779167,"longitude":-96.80889,"reserved":0,"last_update":"0001-01-01T00:00:00Z","name_a2s":"Uncletopia | Dallas | 1 | All Maps","protocol":17,"map":"pl_barnblitz","folder":"tf","game":"Team Fortress","app_id":440,"player_count":24,"max_players":24,"Bots":0,"server_type":"Dedicated","server_os":"Linux","password":true,"vac":true,"version":"7757534","steam_id":85568392924469986,"keywords":["nocrits","nodmgspread","payload","uncletopia"],"game_id":440,"stv_port":27016,"stv_name":"Uncletopia | Dallas | 1 | All Maps | STV","players":[{"user_id":189,"name":"the nut chuckler","steam_id":76561198211677460,"connected_time":723000000000,"state":"active","ping":99},{"user_id":198,"name":"North Central Positronics Rep","steam_id":76561198133718360,"connected_time":583000000000,"state":"active","ping":86},{"user_id":199,"name":"Soothsayer","steam_id":76561198051750641,"connected_time":519000000000,"state":"active","ping":83},{"user_id":173,"name":"ThatGamingKiwi","steam_id":76561199170522237,"connected_time":3047000000000,"state":"active","ping":105},{"user_id":194,"name":"Punished Shitster","steam_id":76561198150452857,"connected_time":688000000000,"state":"active","ping":45},{"user_id":180,"name":"Flubdy_","steam_id":76561198073338521,"connected_time":1513000000000,"state":"active","ping":51},{"user_id":190,"name":"buttermaster46","steam_id":76561198431081885,"connected_time":723000000000,"state":"active","ping":69},{"user_id":186,"name":"Hambo","steam_id":76561199013488128,"connected_time":841000000000,"state":"active","ping":84},{"user_id":196,"name":"The Horselords and Animal Gods","steam_id":76561197975094050,"connected_time":665000000000,"state":"active","ping":85},{"user_id":156,"name":"Slingwolf","steam_id":76561198132720460,"connected_time":3985000000000,"state":"active","ping":102},{"user_id":126,"name":"Piss Champion","steam_id":76561198059362878,"connected_time":6454000000000,"state":"active","ping":75},{"user_id":192,"name":"Rubiks Cool","steam_id":76561198419839117,"connected_time":710000000000,"state":"active","ping":61},{"user_id":191,"name":"spy","steam_id":76561198937717599,"connected_time":714000000000,"state":"active","ping":46},{"user_id":184,"name":"lamadre07","steam_id":76561198067337453,"connected_time":1376000000000,"state":"active","ping":79},{"user_id":176,"name":"ChottoAMinute","steam_id":76561198873157775,"connected_time":2541000000000,"state":"active","ping":59},{"user_id":193,"name":"Highphin","steam_id":76561198986584680,"connected_time":709000000000,"state":"active","ping":82},{"user_id":166,"name":"Owixan","steam_id":76561198074990070,"connected_time":3441000000000,"state":"active","ping":56},{"user_id":118,"name":"plink","steam_id":76561198057829889,"connected_time":6931000000000,"state":"active","ping":106},{"user_id":139,"name":"Dell Conagher (real)","steam_id":76561198220120368,"connected_time":5101000000000,"state":"active","ping":44},{"user_id":201,"name":"Tako","steam_id":76561199264073138,"connected_time":387000000000,"state":"active","ping":88},{"user_id":200,"name":"DannyM","steam_id":76561198351165570,"connected_time":489000000000,"state":"active","ping":44},{"user_id":141,"name":"KyleBlack","steam_id":76561198139932550,"connected_time":5067000000000,"state":"active","ping":45},{"user_id":177,"name":"49belowzero","steam_id":76561198108177252,"connected_time":2288000000000,"state":"active","ping":96},{"user_id":188,"name":"Karma","steam_id":76561199112057184,"connected_time":764000000000,"state":"active","ping":60}]},{"server_id":108,"name":"Uncletopia | Dallas | 2 | All Maps","name_short":"dal-2","host":"dal-1.us.uncletopia.com","port":27025,"enabled":true,"region":"us-central","cc":"us","latitude":32.779167,"longitude":-96.80889,"reserved":0,"last_update":"0001-01-01T00:00:00Z","name_a2s":"Uncletopia | Dallas | 2 | All Maps","protocol":17,"map":"pl_badwater","folder":"tf","game":"Team Fortress","app_id":440,"player_count":23,"max_players":24,"Bots":0,"server_type":"Dedicated","server_os":"Linux","password":true,"vac":true,"version":"7757534","steam_id":85568392924469988,"keywords":["nocrits","nodmgspread","payload","uncletopia"],"game_id":440,"stv_port":27026,"stv_name":"Uncletopia | Dallas | 2 | All Maps | STV","players":[{"user_id":487,"name":"wahooka","steam_id":76561197981211922,"connected_time":916000000000,"state":"active","ping":86},{"user_id":489,"name":"squaggles!","steam_id":76561197994995011,"connected_time":901000000000,"state":"active","ping":48},{"user_id":459,"name":"mkl","steam_id":76561197986401685,"connected_time":2505000000000,"state":"active","ping":57},{"user_id":501,"name":"Kid B8","steam_id":76561198086764710,"connected_time":323000000000,"state":"active","ping":75},{"user_id":458,"name":"VixianUwU","steam_id":76561198948815060,"connected_time":2719000000000,"state":"active","ping":78},{"user_id":432,"name":"Happy whale","steam_id":76561199026039153,"connected_time":4239000000000,"state":"active","ping":88},{"user_id":481,"name":"Grand Piano Tuna","steam_id":76561198135137213,"connected_time":1274000000000,"state":"active","ping":73},{"user_id":495,"name":"raw.crit","steam_id":76561198033033884,"connected_time":588000000000,"state":"active","ping":93},{"user_id":502,"name":"Unreliable Narrator","steam_id":76561198021303959,"connected_time":239000000000,"state":"active","ping":71},{"user_id":496,"name":"C^a^L","steam_id":76561198241124222,"connected_time":578000000000,"state":"active","ping":87},{"user_id":462,"name":"bookreader","steam_id":76561198978568007,"connected_time":2458000000000,"state":"active","ping":74},{"user_id":468,"name":"Bobby Zimmeruski","steam_id":76561198171428589,"connected_time":2390000000000,"state":"active","ping":47},{"user_id":492,"name":"heimdall","steam_id":76561198069380992,"connected_time":675000000000,"state":"active","ping":66},{"user_id":473,"name":"le Shtink","steam_id":76561199433948284,"connected_time":2147000000000,"state":"active","ping":88},{"user_id":466,"name":"Jar Jar Kinks","steam_id":76561199087748803,"connected_time":2424000000000,"state":"active","ping":98},{"user_id":497,"name":"Hydrostasis","steam_id":76561198412399283,"connected_time":568000000000,"state":"active","ping":101},{"user_id":456,"name":"picnic blanket","steam_id":76561198308186037,"connected_time":2844000000000,"state":"active","ping":73},{"user_id":483,"name":"Jack from Jack in The Box","steam_id":76561199083594971,"connected_time":1254000000000,"state":"active","ping":65},{"user_id":475,"name":"Vixy","steam_id":76561198120912607,"connected_time":2102000000000,"state":"active","ping":108},{"user_id":484,"name":"pt","steam_id":76561198143023330,"connected_time":1148000000000,"state":"active","ping":77},{"user_id":471,"name":"tr3@d0f4","steam_id":76561198000757362,"connected_time":2374000000000,"state":"active","ping":91},{"user_id":498,"name":"Diamond Fries","steam_id":76561199086196600,"connected_time":541000000000,"state":"active","ping":81},{"user_id":499,"name":"gamble","steam_id":76561198252320278,"connected_time":516000000000,"state":"active","ping":50}]},{"server_id":5,"name":"Uncletopia | Frankfurt | 1 | All Maps","name_short":"frk-1","host":"frk-1.de.uncletopia.com","port":27015,"enabled":true,"region":"eu","cc":"de","latitude":50.110924,"longitude":8.682127,"reserved":0,"last_update":"0001-01-01T00:00:00Z","name_a2s":"Uncletopia | Frankfurt | 1 | All Maps","protocol":17,"map":"koth_viaduct","folder":"tf","game":"Team Fortress","app_id":440,"player_count":0,"max_players":24,"Bots":0,"server_type":"Dedicated","server_os":"Linux","password":true,"vac":true,"version":"7757534","steam_id":85568392924469989,"keywords":["cp","nocrits","nodmgspread","uncletopia"],"game_id":440,"stv_port":27016,"stv_name":"Uncletopia | Frankfurt | 1 | All Maps | STV","players":null},{"server_id":110,"name":"Uncletopia | Frankfurt | 2 | All Maps","name_short":"frk-2","host":"frk-1.de.uncletopia.com","port":27025,"enabled":true,"region":"eu","cc":"de","latitude":50.110924,"longitude":8.682127,"reserved":0,"last_update":"0001-01-01T00:00:00Z","name_a2s":"Uncletopia | Frankfurt | 2 | All Maps","protocol":17,"map":"pl_pier","folder":"tf","game":"Team Fortress","app_id":440,"player_count":21,"max_players":24,"Bots":0,"server_type":"Dedicated","server_os":"Linux","password":true,"vac":true,"version":"7757534","steam_id":85568392924469990,"keywords":["nocrits","nodmgspread","payload","uncletopia"],"game_id":440,"stv_port":27026,"stv_name":"Uncletopia | Frankfurt | 2 | All Maps | STV","players":[{"user_id":631,"name":"scarecrowshelper","steam_id":76561198072260553,"connected_time":306000000000,"state":"active","ping":45},{"user_id":628,"name":"heavy sings (real)","steam_id":76561199023804405,"connected_time":522000000000,"state":"active","ping":75},{"user_id":632,"name":"Qdarks","steam_id":76561198013391340,"connected_time":237000000000,"state":"active","ping":145},{"user_id":563,"name":"NB","steam_id":76561198079361515,"connected_time":3935000000000,"state":"active","ping":70},{"user_id":616,"name":"Breadcrab","steam_id":76561198015924039,"connected_time":916000000000,"state":"active","ping":69},{"user_id":584,"name":"Refurbished Boy","steam_id":76561197995834697,"connected_time":2490000000000,"state":"active","ping":90},{"user_id":612,"name":"Fletcher","steam_id":76561198108604934,"connected_time":975000000000,"state":"active","ping":75},{"user_id":604,"name":"Lennox","steam_id":76561198069063554,"connected_time":1589000000000,"state":"active","ping":42},{"user_id":607,"name":"Aaron","steam_id":76561198324775476,"connected_time":1423000000000,"state":"active","ping":74},{"user_id":633,"name":"Painkiller (real)‚òë","steam_id":76561199036837091,"connected_time":228000000000,"state":"active","ping":77},{"user_id":634,"name":"ufomaster1111111","steam_id":76561198837347666,"connected_time":187000000000,"state":"active","ping":64},{"user_id":619,"name":"schaffi","steam_id":76561198061369274,"connected_time":822000000000,"state":"active","ping":77},{"user_id":626,"name":"Gety0","steam_id":76561198044387185,"connected_time":582000000000,"state":"active","ping":86},{"user_id":589,"name":"The Fellow Feller","steam_id":76561198188864306,"connected_time":2287000000000,"state":"active","ping":59},{"user_id":622,"name":"vug","steam_id":76561198042227249,"connected_time":800000000000,"state":"active","ping":45},{"user_id":624,"name":"lilly","steam_id":76561199441196540,"connected_time":746000000000,"state":"active","ping":58},{"user_id":608,"name":"ChPerette","steam_id":76561198060004887,"connected_time":1295000000000,"state":"active","ping":46},{"user_id":590,"name":"AZM","steam_id":76561198040351432,"connected_time":2271000000000,"state":"active","ping":76},{"user_id":591,"name":"DunerGate","steam_id":76561198070804363,"connected_time":2243000000000,"state":"active","ping":77},{"user_id":578,"name":"EagleFire","steam_id":76561198352938403,"connected_time":2855000000000,"state":"active","ping":64},{"user_id":627,"name":"Alfred Schroom","steam_id":76561198117990411,"connected_time":576000000000,"state":"active","ping":98}]},{"server_id":308,"name":"Uncletopia | Frankfurt | 3 | All Maps","name_short":"frk-3","host":"frk-1.de.uncletopia.com","port":27035,"enabled":true,"region":"eu","cc":"de","latitude":50.110924,"longitude":8.682127,"reserved":0,"last_update":"0001-01-01T00:00:00Z","name_a2s":"Uncletopia | Frankfurt | 3 | All Maps","protocol":17,"map":"koth_highpass","folder":"tf","game":"Team Fortress","app_id":440,"player_count":0,"max_players":24,"Bots":0,"server_type":"Dedicated","server_os":"Linux","password":true,"vac":true,"version":"7757534","steam_id":85568392924504274,"keywords":["cp","nocrits","nodmgspread","uncletopia"],"game_id":440,"stv_port":27036,"stv_name":"Uncletopia | Frankfurt | 3 | All Maps | STV","players":null},{"server_id":309,"name":"Uncletopia | Frankfurt | 4 | All Maps","name_short":"frk-4","host":"frk-1.de.uncletopia.com","port":27045,"enabled":true,"region":"eu","cc":"de","latitude":50.110924,"longitude":8.682127,"reserved":0,"last_update":"0001-01-01T00:00:00Z","name_a2s":"Uncletopia | Frankfurt | 4 | All Maps","protocol":17,"map":"pl_frontier_final","folder":"tf","game":"Team Fortress","app_id":440,"player_count":17,"max_players":24,"Bots":0,"server_type":"Dedicated","server_os":"Linux","password":true,"vac":true,"version":"7757534","steam_id":85568392924504275,"keywords":["nocrits","nodmgspread","payload","uncletopia"],"game_id":440,"stv_port":27046,"stv_name":"Uncletopia | Frankfurt | 4 | All Maps | STV","players":[{"user_id":516,"name":"Nyhde","steam_id":76561198012771416,"connected_time":614000000000,"state":"active","ping":82},{"user_id":522,"name":"saderhesz","steam_id":76561197992287330,"connected_time":89000000000,"state":"active","ping":50},{"user_id":482,"name":"walter white","steam_id":76561198075157560,"connected_time":2412000000000,"state":"active","ping":55},{"user_id":489,"name":"pizza man","steam_id":76561198952555268,"connected_time":1945000000000,"state":"active","ping":108},{"user_id":521,"name":"Lucky7","steam_id":76561199084623109,"connected_time":337000000000,"state":"active","ping":217},{"user_id":514,"name":"thia","steam_id":76561198186366599,"connected_time":888000000000,"state":"active","ping":73},{"user_id":510,"name":"manu chao","steam_id":76561199233979726,"connected_time":1109000000000,"state":"active","ping":74},{"user_id":496,"name":"C.dat","steam_id":76561198261169912,"connected_time":1604000000000,"state":"active","ping":49},{"user_id":523,"name":"Fat Juicy Girlcock","steam_id":76561198022584980,"connected_time":86000000000,"state":"active","ping":68},{"user_id":524,"name":"Wren","steam_id":76561198046292179,"connected_time":69000000000,"state":"active","ping":66},{"user_id":525,"name":"peepee_luigi","steam_id":76561198355667121,"connected_time":47000000000,"state":"spawning","ping":222},{"user_id":519,"name":"Fazarky","steam_id":76561199013370791,"connected_time":419000000000,"state":"active","ping":69},{"user_id":493,"name":"Acrithrope","steam_id":76561198079196707,"connected_time":1821000000000,"state":"active","ping":77},{"user_id":520,"name":"[T]aKer","steam_id":76561198001778013,"connected_time":397000000000,"state":"active","ping":48},{"user_id":441,"name":"Oak","steam_id":76561198412507725,"connected_time":5221000000000,"state":"active","ping":104},{"user_id":503,"name":"Phalcon","steam_id":76561197987051394,"connected_time":1321000000000,"state":"active","ping":66},{"user_id":505,"name":"DarthMurloc_OW","steam_id":76561198075577711,"connected_time":1306000000000,"state":"active","ping":76}]},{"server_id":310,"name":"Uncletopia | Frankfurt | 5 | All Maps","name_short":"frk-5","host":"frk-1.de.uncletopia.com","port":27055,"enabled":true,"region":"eu","cc":"de","latitude":50.110924,"longitude":8.682127,"reserved":0,"last_update":"0001-01-01T00:00:00Z","name_a2s":"Uncletopia | Frankfurt | 5 | All Maps","protocol":17,"map":"pl_badwater","folder":"tf","game":"Team Fortress","app_id":440,"player_count":0,"max_players":24,"Bots":0,"server_type":"Dedicated","server_os":"Linux","password":true,"vac":true,"version":"7757534","steam_id":85568392924504277,"keywords":["nocrits","nodmgspread","payload","uncletopia"],"game_id":440,"stv_port":27056,"stv_name":"Uncletopia | Frankfurt | 5 | All Maps | STV","players":null},{"server_id":311,"name":"Uncletopia | Frankfurt | 6 | All Maps","name_short":"frk-6","host":"frk-1.de.uncletopia.com","port":27065,"enabled":true,"region":"eu","cc":"de","latitude":50.110924,"longitude":8.682127,"reserved":0,"last_update":"0001-01-01T00:00:00Z","name_a2s":"Uncletopia | Frankfurt | 6 | All Maps","protocol":17,"map":"plr_nightfall_final","folder":"tf","game":"Team Fortress","app_id":440,"player_count":0,"max_players":24,"Bots":0,"server_type":"Dedicated","server_os":"Linux","password":true,"vac":true,"version":"7757534","steam_id":85568392924504278,"keywords":["nocrits","nodmgspread","payload","uncletopia"],"game_id":440,"stv_port":27066,"stv_name":"Uncletopia | Frankfurt | 6 | All Maps | STV","players":null},{"server_id":23,"name":"Uncletopia | Frankfurt | 7 | Stopwatch Beta","name_short":"frk-7","host":"frk-1.de.uncletopia.com","port":27075,"enabled":true,"region":"eu","cc":"de","latitude":50.110924,"longitude":8.682127,"reserved":0,"last_update":"0001-01-01T00:00:00Z","name_a2s":"Uncletopia | Frankfurt | 7 | Stopwatch Beta","protocol":17,"map":"workshop/koth_clearcut_b15.ugc2107050255","folder":"tf","game":"Team Fortress","app_id":440,"player_count":0,"max_players":24,"Bots":0,"server_type":"Dedicated","server_os":"Linux","password":true,"vac":true,"version":"7757534","steam_id":85568392924742827,"keywords":["cp","nocrits","nodmgspread","uncletopia"],"game_id":440,"stv_port":27076,"stv_name":"Uncletopia | Frankfurt | 7 | Stopwatch Beta | STV","players":null},{"server_id":24,"name":"Uncletopia | Frankfurt | 8 | Community","name_short":"frk-8","host":"frk-1.de.uncletopia.com","port":27085,"enabled":true,"region":"eu","cc":"de","latitude":50.110924,"longitude":8.682127,"reserved":0,"last_update":"0001-01-01T00:00:00Z","name_a2s":"Uncletopia | Frankfurt | 8 | Community","protocol":17,"map":"workshop/cp_kalinka_rc6a.ugc1272700588","folder":"tf","game":"Team Fortress","app_id":440,"player_count":0,"max_players":24,"Bots":0,"server_type":"Dedicated","server_os":"Linux","password":true,"vac":true,"version":"7757534","steam_id":85568392924742828,"keywords":["cp","nocrits","nodmgspread","uncletopia"],"game_id":440,"stv_port":27086,"stv_name":"Uncletopia | Frankfurt | 8 | Community | STV","players":null},{"server_id":202,"name":"Uncletopia | Hong Kong | 1 | All Maps","name_short":"hgk-1","host":"hgk-1.hk.uncletopia.com","port":27015,"enabled":true,"region":"asia","cc":"hk","latitude":22.302711,"longitude":114.177216,"reserved":0,"last_update":"0001-01-01T00:00:00Z","name_a2s":"Uncletopia | Hong Kong | 1 | All Maps","protocol":17,"map":"pl_borneo","folder":"tf","game":"Team Fortress","app_id":440,"player_count":0,"max_players":24,"Bots":0,"server_type":"Dedicated","server_os":"Linux","password":true,"vac":true,"version":"7757534","steam_id":85568392924494504,"keywords":["nocrits","nodmgspread","payload","uncletopia"],"game_id":440,"stv_port":27016,"stv_name":"Uncletopia | Hong Kong | 1 | All Maps | STV","players":null},{"server_id":1,"name":"Uncletopia | Los Angeles | 1 | All Maps","name_short":"lax-1","host":"lax-1.us.uncletopia.com","port":27015,"enabled":true,"region":"us-west","cc":"us","latitude":33.94279,"longitude":-118.41004,"reserved":0,"last_update":"0001-01-01T00:00:00Z","name_a2s":"Uncletopia | Los Angeles | 1 | All Maps","protocol":17,"map":"koth_lakeside_final","folder":"tf","game":"Team Fortress","app_id":440,"player_count":0,"max_players":24,"Bots":0,"server_type":"Dedicated","server_os":"Linux","password":true,"vac":true,"version":"7757534","steam_id":85568392924469991,"keywords":["cp","nocrits","nodmgspread","uncletopia"],"game_id":440,"stv_port":27016,"stv_name":"Uncletopia | Los Angeles | 1 | All Maps | STV","players":null},{"server_id":112,"name":"Uncletopia | Los Angeles | 2 | All Maps","name_short":"lax-2","host":"lax-1.us.uncletopia.com","port":27025,"enabled":true,"region":"us-west","cc":"us","latitude":33.94279,"longitude":-118.41004,"reserved":0,"last_update":"0001-01-01T00:00:00Z","name_a2s":"Uncletopia | Los Angeles | 2 | All Maps","protocol":17,"map":"pl_badwater","folder":"tf","game":"Team Fortress","app_id":440,"player_count":1,"max_players":24,"Bots":0,"server_type":"Dedicated","server_os":"Linux","password":true,"vac":true,"version":"7757534","steam_id":85568392924469992,"keywords":["nocrits","nodmgspread","payload","uncletopia"],"game_id":440,"stv_port":27026,"stv_name":"Uncletopia | Los Angeles | 2 | All Maps | STV","players":[{"user_id":7,"name":"owlburrithoo","steam_id":76561199400401377,"connected_time":784000000000,"state":"active","ping":79}]},{"server_id":324,"name":"Uncletopia | Los Angeles | 3 | All Maps","name_short":"lax-3","host":"lax-1.us.uncletopia.com","port":27035,"enabled":true,"region":"us-west","cc":"us","latitude":33.94279,"longitude":-118.41004,"reserved":0,"last_update":"0001-01-01T00:00:00Z","name_a2s":"Uncletopia | Los Angeles | 3 | All Maps","protocol":17,"map":"pl_barnblitz","folder":"tf","game":"Team Fortress","app_id":440,"player_count":0,"max_players":24,"Bots":0,"server_type":"Dedicated","server_os":"Linux","password":true,"vac":true,"version":"7757534","steam_id":85568392924510198,"keywords":["nocrits","nodmgspread","payload","uncletopia"],"game_id":440,"stv_port":27036,"stv_name":"Uncletopia | Los Angeles | 3 | All Maps | STV","players":null},{"server_id":25,"name":"Uncletopia | Los Angeles | 4 | Stopwatch Beta","name_short":"lax-4","host":"lax-1.us.uncletopia.com","port":27045,"enabled":true,"region":"us-west","cc":"us","latitude":33.94279,"longitude":-118.41004,"reserved":0,"last_update":"0001-01-01T00:00:00Z","name_a2s":"Uncletopia | Los Angeles | 4 | Stopwatch Beta","protocol":17,"map":"pl_swiftwater_final1","folder":"tf","game":"Team Fortress","app_id":440,"player_count":0,"max_players":24,"Bots":0,"server_type":"Dedicated","server_os":"Linux","password":true,"vac":true,"version":"7757534","steam_id":85568392924510199,"keywords":["nocrits","nodmgspread","payload","uncletopia"],"game_id":440,"stv_port":27046,"stv_name":"Uncletopia | Los Angeles | 4 | Stopwatch Beta | STV","players":null},{"server_id":11,"name":"Uncletopia | London | 1 | All Maps","name_short":"lon-1","host":"lon-1.uk.uncletopia.com","port":27015,"enabled":true,"region":"eu","cc":"gb","latitude":51.509865,"longitude":-0.118092,"reserved":0,"last_update":"0001-01-01T00:00:00Z","name_a2s":"Uncletopia | London | 1 | All Maps","protocol":17,"map":"cp_sunshine","folder":"tf","game":"Team Fortress","app_id":440,"player_count":24,"max_players":24,"Bots":0,"server_type":"Dedicated","server_os":"Linux","password":true,"vac":true,"version":"7757534","steam_id":85568392924367362,"keywords":["cp","nocrits","nodmgspread","uncletopia"],"game_id":440,"stv_port":27016,"stv_name":"Uncletopia | London | 1 | All Maps | STV","players":[{"user_id":640,"name":"Fr3nzyfull","steam_id":76561199156792382,"connected_time":2502000000000,"state":"active","ping":66},{"user_id":652,"name":"raclure","steam_id":76561198072093365,"connected_time":1891000000000,"state":"active","ping":45},{"user_id":635,"name":"Locke","steam_id":76561198339408300,"connected_time":3007000000000,"state":"active","ping":60},{"user_id":666,"name":"Peanut","steam_id":76561198018865486,"connected_time":1089000000000,"state":"active","ping":67},{"user_id":667,"name":"sloppy transgirl toppy","steam_id":76561198057092208,"connected_time":732000000000,"state":"active","ping":68},{"user_id":651,"name":"/ff bouseux","steam_id":76561198095238286,"connected_time":1926000000000,"state":"active","ping":49},{"user_id":674,"name":"Buk Lau","steam_id":76561197993573576,"connected_time":98000000000,"state":"active","ping":95},{"user_id":592,"name":"shooer","steam_id":76561198110531281,"connected_time":7851000000000,"state":"active","ping":71},{"user_id":656,"name":"SPONGE","steam_id":76561198040933472,"connected_time":1698000000000,"state":"active","ping":72},{"user_id":653,"name":"AXAL","steam_id":76561198178250598,"connected_time":1889000000000,"state":"active","ping":60},{"user_id":668,"name":"Hieronymus Flex","steam_id":76561198133526074,"connected_time":213000000000,"state":"active","ping":37},{"user_id":663,"name":"Raine","steam_id":76561198098860903,"connected_time":1105000000000,"state":"active","ping":57},{"user_id":660,"name":"nword snowden","steam_id":76561198280203428,"connected_time":1155000000000,"state":"active","ping":47},{"user_id":670,"name":"blade","steam_id":76561199308850812,"connected_time":198000000000,"state":"active","ping":40},{"user_id":654,"name":"nedilya","steam_id":76561198039692077,"connected_time":1816000000000,"state":"active","ping":60},{"user_id":661,"name":"Nevo","steam_id":76561198033396021,"connected_time":1149000000000,"state":"active","ping":82},{"user_id":675,"name":"Chester","steam_id":76561198037913276,"connected_time":94000000000,"state":"active","ping":56},{"user_id":631,"name":"‚ú™ Danny","steam_id":76561198104483241,"connected_time":3285000000000,"state":"active","ping":50},{"user_id":634,"name":"tm`","steam_id":76561197993580412,"connected_time":3106000000000,"state":"active","ping":70},{"user_id":662,"name":"TF2 Lollichop (Real)","steam_id":76561199047081427,"connected_time":1130000000000,"state":"active","ping":80},{"user_id":669,"name":"ronz","steam_id":76561198202166884,"connected_time":210000000000,"state":"active","ping":58},{"user_id":673,"name":"jacop","steam_id":76561198240633534,"connected_time":175000000000,"state":"active","ping":68},{"user_id":664,"name":"The Sunnyshot","steam_id":76561198086787499,"connected_time":1101000000000,"state":"active","ping":60},{"user_id":616,"name":"UltimateSlayer","steam_id":76561198384109309,"connected_time":4381000000000,"state":"active","ping":45}]},{"server_id":114,"name":"Uncletopia | London | 2 | All Maps","name_short":"lon-2","host":"lon-1.uk.uncletopia.com","port":27025,"enabled":true,"region":"eu","cc":"gb","latitude":51.509865,"longitude":-0.118092,"reserved":0,"last_update":"0001-01-01T00:00:00Z","name_a2s":"Uncletopia | London | 2 | All Maps","protocol":17,"map":"cp_process_final","folder":"tf","game":"Team Fortress","app_id":440,"player_count":13,"max_players":24,"Bots":0,"server_type":"Dedicated","server_os":"Linux","password":true,"vac":true,"version":"7757534","steam_id":85568392924470941,"keywords":["cp","nocrits","nodmgspread","uncletopia"],"game_id":440,"stv_port":27026,"stv_name":"Uncletopia | London | 2 | All Maps | STV","players":[{"user_id":254,"name":"He could be any one of us","steam_id":76561198320506848,"connected_time":1907000000000,"state":"spawning","ping":33},{"user_id":259,"name":"Toodlesnoot","steam_id":76561198036543689,"connected_time":1734000000000,"state":"spawning","ping":47},{"user_id":263,"name":"Denton","steam_id":76561198367991717,"connected_time":662000000000,"state":"spawning","ping":88},{"user_id":257,"name":"Vershal Smershal","steam_id":76561198116223995,"connected_time":1870000000000,"state":"spawning","ping":53},{"user_id":224,"name":"Wubba","steam_id":76561198421341789,"connected_time":3803000000000,"state":"spawning","ping":33},{"user_id":235,"name":"free uber","steam_id":76561198198581079,"connected_time":3284000000000,"state":"spawning","ping":77},{"user_id":251,"name":"Chikapu_Xek","steam_id":76561198428023493,"connected_time":2330000000000,"state":"spawning","ping":72},{"user_id":226,"name":"·†å ·†å ·†å·†å ·†å ·†å ·†å","steam_id":76561198312906114,"connected_time":3782000000000,"state":"spawning","ping":59},{"user_id":262,"name":"—á—É–ø–∞-—á—É–ø—Å‚Ñ¢","steam_id":76561198020598495,"connected_time":1150000000000,"state":"spawning","ping":109},{"user_id":261,"name":"agent youppii","steam_id":76561198055264447,"connected_time":1447000000000,"state":"spawning","ping":65},{"user_id":266,"name":"wibbyiseepy","steam_id":76561199110686673,"connected_time":172000000000,"state":"spawning","ping":113},{"user_id":220,"name":"SuntanPikachu","steam_id":76561198121242476,"connected_time":4357000000000,"state":"spawning","ping":33},{"user_id":221,"name":"Kyeel_Smeel","steam_id":76561199164471622,"connected_time":4315000000000,"state":"spawning","ping":61}]},{"server_id":320,"name":"Uncletopia | London | 3 | All Maps","name_short":"lon-3","host":"lon-1.uk.uncletopia.com","port":27035,"enabled":true,"region":"eu","cc":"gb","latitude":51.509865,"longitude":-0.118092,"reserved":0,"last_update":"0001-01-01T00:00:00Z","name_a2s":"Uncletopia | London | 3 | All Maps","protocol":17,"map":"plr_bananabay","folder":"tf","game":"Team Fortress","app_id":440,"player_count":24,"max_players":24,"Bots":0,"server_type":"Dedicated","server_os":"Linux","password":true,"vac":true,"version":"7757534","steam_id":85568392924510192,"keywords":["nocrits","nodmgspread","payload","uncletopia"],"game_id":440,"stv_port":27036,"stv_name":"Uncletopia | London | 3 | All Maps | STV","players":[{"user_id":676,"name":"MLG Peridot","steam_id":76561198069780233,"connected_time":665000000000,"state":"active","ping":50},{"user_id":665,"name":"lynceus","steam_id":76561198131209426,"connected_time":1065000000000,"state":"active","ping":53},{"user_id":682,"name":"ICEBLOCK","steam_id":76561198118611762,"connected_time":188000000000,"state":"active","ping":73},{"user_id":555,"name":"Welder","steam_id":76561198355300561,"connected_time":10617000000000,"state":"active","ping":71},{"user_id":615,"name":"‚ô• Aura ‚òÖ","steam_id":76561198066258544,"connected_time":4359000000000,"state":"active","ping":61},{"user_id":674,"name":"lama","steam_id":76561198360093039,"connected_time":878000000000,"state":"active","ping":57},{"user_id":646,"name":"Kidney failure","steam_id":76561199061138730,"connected_time":1641000000000,"state":"active","ping":87},{"user_id":629,"name":"BetrayedBanana","steam_id":76561198053470223,"connected_time":2850000000000,"state":"active","ping":59},{"user_id":672,"name":"alphawarrior999","steam_id":76561199001580062,"connected_time":907000000000,"state":"active","ping":147},{"user_id":683,"name":"Moai gaming","steam_id":76561199309745098,"connected_time":164000000000,"state":"active","ping":53},{"user_id":660,"name":"Gryoss","steam_id":76561197999837111,"connected_time":1168000000000,"state":"active","ping":109},{"user_id":628,"name":"‚ù§ milkkore","steam_id":76561198019165469,"connected_time":2862000000000,"state":"active","ping":68},{"user_id":651,"name":"FlumpMaster","steam_id":76561198080686432,"connected_time":1400000000000,"state":"active","ping":54},{"user_id":608,"name":"Mor'du","steam_id":76561198274105878,"connected_time":4804000000000,"state":"active","ping":91},{"user_id":631,"name":"tapeworms!","steam_id":76561198069649097,"connected_time":2775000000000,"state":"active","ping":47},{"user_id":643,"name":"erectile dysfuction","steam_id":76561198844502582,"connected_time":1660000000000,"state":"active","ping":157},{"user_id":677,"name":"Hamst123","steam_id":76561198957312452,"connected_time":649000000000,"state":"active","ping":69},{"user_id":649,"name":"GoatLord1","steam_id":76561198157964544,"connected_time":1435000000000,"state":"active","ping":55},{"user_id":684,"name":"grandpa's post-mortem photo","steam_id":76561198130116078,"connected_time":12000000000,"state":"spawning","ping":105},{"user_id":685,"name":"robouki","steam_id":76561198168265569,"connected_time":12000000000,"state":"active","ping":40},{"user_id":675,"name":"‚ù§ Ingi","steam_id":76561197985628247,"connected_time":811000000000,"state":"active","ping":86},{"user_id":645,"name":"Diamhair","steam_id":76561198109020178,"connected_time":1659000000000,"state":"active","ping":62},{"user_id":500,"name":"Fat Pigeon","steam_id":76561198817940142,"connected_time":13026000000000,"state":"active","ping":51},{"user_id":633,"name":"Jedleo","steam_id":76561198347292531,"connected_time":2735000000000,"state":"active","ping":59}]},{"server_id":321,"name":"Uncletopia | London | 4 | All Maps","name_short":"lon-4","host":"lon-1.uk.uncletopia.com","port":27045,"enabled":true,"region":"eu","cc":"gb","latitude":51.509865,"longitude":-0.118092,"reserved":0,"last_update":"0001-01-01T00:00:00Z","name_a2s":"Uncletopia | London | 4 | All Maps","protocol":17,"map":"koth_viaduct","folder":"tf","game":"Team Fortress","app_id":440,"player_count":0,"max_players":24,"Bots":0,"server_type":"Dedicated","server_os":"Linux","password":true,"vac":true,"version":"7757534","steam_id":85568392924510193,"keywords":["cp","nocrits","nodmgspread","uncletopia"],"game_id":440,"stv_port":27046,"stv_name":"Uncletopia | London | 4 | All Maps | STV","players":null},{"server_id":21,"name":"Uncletopia | London | 5 | All Maps","name_short":"lon-5","host":"lon-1.uk.uncletopia.com","port":27055,"enabled":true,"region":"eu","cc":"gb","latitude":51.509865,"longitude":-0.118092,"reserved":0,"last_update":"0001-01-01T00:00:00Z","name_a2s":"Uncletopia | London | 5 | All Maps","protocol":17,"map":"pl_barnblitz","folder":"tf","game":"Team Fortress","app_id":440,"player_count":23,"max_players":24,"Bots":0,"server_type":"Dedicated","server_os":"Linux","password":true,"vac":true,"version":"7757534","steam_id":85568392924742829,"keywords":["nocrits","nodmgspread","payload","uncletopia"],"game_id":440,"stv_port":27056,"stv_name":"Uncletopia | London | 5 | All Maps | STV","players":[{"user_id":341,"name":"MiniGame","steam_id":76561198093477052,"connected_time":2678000000000,"state":"active","ping":66},{"user_id":372,"name":"Avg. Santa Believer (Nice list)","steam_id":76561198040444697,"connected_time":166000000000,"state":"active","ping":116},{"user_id":337,"name":"cz","steam_id":76561198965227348,"connected_time":3089000000000,"state":"active","ping":70},{"user_id":344,"name":"Doctor Marijuana","steam_id":76561198288289879,"connected_time":2622000000000,"state":"active","ping":50},{"user_id":340,"name":"An albino alsatian","steam_id":76561198073769916,"connected_time":2730000000000,"state":"active","ping":60},{"user_id":362,"name":"Ichbaplaya","steam_id":76561198152701211,"connected_time":876000000000,"state":"active","ping":75},{"user_id":364,"name":"Dr.Disrespect","steam_id":76561198043820228,"connected_time":495000000000,"state":"active","ping":59},{"user_id":300,"name":"Majima Gaming HD","steam_id":76561198365750503,"connected_time":7224000000000,"state":"active","ping":40},{"user_id":358,"name":"Be on my ....!?","steam_id":76561198067204908,"connected_time":1898000000000,"state":"active","ping":60},{"user_id":366,"name":"turntechCathead","steam_id":76561198351249088,"connected_time":389000000000,"state":"active","ping":78},{"user_id":367,"name":"d!eing pigs Wh3n?","steam_id":76561198963410515,"connected_time":365000000000,"state":"active","ping":125},{"user_id":355,"name":"Son Goku","steam_id":76561199383437138,"connected_time":2148000000000,"state":"active","ping":114},{"user_id":369,"name":"Ghost","steam_id":76561198426370628,"connected_time":258000000000,"state":"active","ping":134},{"user_id":359,"name":"TekkiShodanPL","steam_id":76561198047064015,"connected_time":1867000000000,"state":"active","ping":51},{"user_id":370,"name":"Pixelz","steam_id":76561198078963334,"connected_time":247000000000,"state":"active","ping":60},{"user_id":373,"name":"Bounter","steam_id":76561198072614188,"connected_time":159000000000,"state":"active","ping":75},{"user_id":280,"name":"Alibi","steam_id":76561198061845595,"connected_time":9063000000000,"state":"active","ping":48},{"user_id":323,"name":"Al3xis","steam_id":76561198183835821,"connected_time":4589000000000,"state":"active","ping":83},{"user_id":333,"name":"Dwevy","steam_id":76561198090379437,"connected_time":3512000000000,"state":"active","ping":54},{"user_id":339,"name":"Bonca","steam_id":76561198137503531,"connected_time":2885000000000,"state":"active","ping":70},{"user_id":274,"name":"rz-/Atomic Punch","steam_id":76561199195508541,"connected_time":9362000000000,"state":"active","ping":73},{"user_id":336,"name":"Misctek","steam_id":76561199037541925,"connected_time":3283000000000,"state":"active","ping":71},{"user_id":338,"name":"Skylox","steam_id":76561198129291480,"connected_time":2978000000000,"state":"active","ping":79}]},{"server_id":22,"name":"Uncletopia | London | 6 | All Maps","name_short":"lon-6","host":"lon-1.uk.uncletopia.com","port":27065,"enabled":true,"region":"eu","cc":"gb","latitude":51.509865,"longitude":-0.118092,"reserved":0,"last_update":"0001-01-01T00:00:00Z","name_a2s":"Uncletopia | London | 6 | All Maps","protocol":17,"map":"pl_upward","folder":"tf","game":"Team Fortress","app_id":440,"player_count":0,"max_players":24,"Bots":0,"server_type":"Dedicated","server_os":"Linux","password":true,"vac":true,"version":"7757534","steam_id":85568392924742830,"keywords":["nocrits","nodmgspread","payload","uncletopia"],"game_id":440,"stv_port":27066,"stv_name":"Uncletopia | London | 6 | All Maps | STV","players":null},{"server_id":40,"name":"Uncletopia | London | 7 | No Payload","name_short":"lon-7","host":"lon-1.uk.uncletopia.com","port":27075,"enabled":true,"region":"eu","cc":"gb","latitude":51.509865,"longitude":-0.118092,"reserved":0,"last_update":"0001-01-01T00:00:00Z","name_a2s":"Uncletopia | London | 7 | No Payload","protocol":17,"map":"cp_process_final","folder":"tf","game":"Team Fortress","app_id":440,"player_count":0,"max_players":24,"Bots":0,"server_type":"Dedicated","server_os":"Linux","password":true,"vac":true,"version":"7757534","steam_id":85568392924964314,"keywords":["cp","nocrits","nodmgspread","uncletopia"],"game_id":440,"stv_port":27076,"stv_name":"Uncletopia | London | 7 | No Payload | STV","players":null},{"server_id":41,"name":"Uncletopia | London | 8 | Community","name_short":"lon-8","host":"lon-1.uk.uncletopia.com","port":27085,"enabled":true,"region":"eu","cc":"gb","latitude":51.509865,"longitude":-0.118092,"reserved":0,"last_update":"0001-01-01T00:00:00Z","name_a2s":"Uncletopia | London | 8 | Community","protocol":17,"map":"workshop/cp_indulge.ugc528106646","folder":"tf","game":"Team Fortress","app_id":440,"player_count":0,"max_players":24,"Bots":0,"server_type":"Dedicated","server_os":"Linux","password":true,"vac":true,"version":"7757534","steam_id":85568392924964315,"keywords":["cp","nocrits","nodmgspread","uncletopia"],"game_id":440,"stv_port":27086,"stv_name":"Uncletopia | London | 8 | Community | STV","players":null},{"server_id":300,"name":"Uncletopia | Montr√©al | 1 | All Maps","name_short":"mtl-1","host":"mtl-1.ca.uncletopia.com","port":27015,"enabled":true,"region":"us-east","cc":"ca","latitude":45.50889,"longitude":-73.56167,"reserved":0,"last_update":"0001-01-01T00:00:00Z","name_a2s":"Uncletopia | Montr√©al | 1 | All Maps","protocol":17,"map":"pl_badwater","folder":"tf","game":"Team Fortress","app_id":440,"player_count":0,"max_players":24,"Bots":0,"server_type":"Dedicated","server_os":"Linux","password":true,"vac":true,"version":"7757534","steam_id":85568392924500087,"keywords":["nocrits","nodmgspread","payload","uncletopia"],"game_id":440,"stv_port":27016,"stv_name":"Uncletopia | Montr√©al | 1 | All Maps | STV","players":null},{"server_id":301,"name":"Uncletopia | Montr√©al | 2 | All Maps","name_short":"mtl-2","host":"mtl-1.ca.uncletopia.com","port":27025,"enabled":true,"region":"us-east","cc":"ca","latitude":45.50889,"longitude":-73.56167,"reserved":0,"last_update":"0001-01-01T00:00:00Z","name_a2s":"Uncletopia | Montr√©al | 2 | All Maps","protocol":17,"map":"pl_snowycoast","folder":"tf","game":"Team Fortress","app_id":440,"player_count":0,"max_players":24,"Bots":0,"server_type":"Dedicated","server_os":"Linux","password":true,"vac":true,"version":"7757534","steam_id":85568392924500088,"keywords":["nocrits","nodmgspread","payload","uncletopia"],"game_id":440,"stv_port":27026,"stv_name":"Uncletopia | Montr√©al | 2 | All Maps | STV","players":null},{"server_id":302,"name":"Uncletopia | Montr√©al | 3 | All Maps","name_short":"mtl-3","host":"mtl-1.ca.uncletopia.com","port":27035,"enabled":true,"region":"us-east","cc":"ca","latitude":45.50889,"longitude":-73.56167,"reserved":0,"last_update":"0001-01-01T00:00:00Z","name_a2s":"Uncletopia | Montr√©al | 3 | All Maps","protocol":17,"map":"koth_cascade","folder":"tf","game":"Team Fortress","app_id":440,"player_count":0,"max_players":24,"Bots":0,"server_type":"Dedicated","server_os":"Linux","password":true,"vac":true,"version":"7757534","steam_id":85568392924500089,"keywords":["cp","nocrits","nodmgspread","uncletopia"],"game_id":440,"stv_port":27036,"stv_name":"Uncletopia | Montr√©al | 3 | All Maps | STV","players":null},{"server_id":303,"name":"Uncletopia | Montr√©al | 4 | No Payload","name_short":"mtl-4","host":"mtl-1.ca.uncletopia.com","port":27045,"enabled":true,"region":"us-east","cc":"ca","latitude":45.50889,"longitude":-73.56167,"reserved":0,"last_update":"0001-01-01T00:00:00Z","name_a2s":"Uncletopia | Montr√©al | 4 | No Payload","protocol":17,"map":"cp_mercenarypark","folder":"tf","game":"Team Fortress","app_id":440,"player_count":0,"max_players":24,"Bots":0,"server_type":"Dedicated","server_os":"Linux","password":true,"vac":true,"version":"7757534","steam_id":85568392924500090,"keywords":["cp","nocrits","nodmgspread","uncletopia"],"game_id":440,"stv_port":27046,"stv_name":"Uncletopia | Montr√©al | 4 | No Payload | STV","players":null},{"server_id":13,"name":"Uncletopia | New York City | 1 | All Maps","name_short":"nyc-1","host":"nyc-1.us.uncletopia.com","port":27015,"enabled":true,"region":"us-east","cc":"us","latitude":40.73061,"longitude":-73.93524,"reserved":0,"last_update":"0001-01-01T00:00:00Z","name_a2s":"Uncletopia | New York City | 1 | All Maps","protocol":17,"map":"cp_gorge","folder":"tf","game":"Team Fortress","app_id":440,"player_count":24,"max_players":24,"Bots":0,"server_type":"Dedicated","server_os":"Linux","password":true,"vac":true,"version":"7757534","steam_id":85568392924469993,"keywords":["cp","nocrits","nodmgspread","uncletopia"],"game_id":440,"stv_port":27016,"stv_name":"Uncletopia | New York City | 1 | All Maps | STV","players":[{"user_id":106,"name":"blankworthy","steam_id":76561199097823273,"connected_time":760000000000,"state":"active","ping":52},{"user_id":80,"name":"Aviyarn","steam_id":76561199074194652,"connected_time":3484000000000,"state":"active","ping":75},{"user_id":103,"name":"ShoalFox","steam_id":76561198035674966,"connected_time":1321000000000,"state":"active","ping":56},{"user_id":83,"name":"Gerald Jay Sussman","steam_id":76561198114515026,"connected_time":3341000000000,"state":"active","ping":44},{"user_id":109,"name":"The Bagel Bird (She/Her)","steam_id":76561199083673217,"connected_time":677000000000,"state":"active","ping":58},{"user_id":69,"name":"Shiroompa","steam_id":76561198010705959,"connected_time":3785000000000,"state":"active","ping":100},{"user_id":105,"name":"yeyoi","steam_id":76561198069821885,"connected_time":871000000000,"state":"active","ping":61},{"user_id":71,"name":"flamingcookies","steam_id":76561198280864779,"connected_time":3686000000000,"state":"active","ping":71},{"user_id":73,"name":"dangler","steam_id":76561198060334743,"connected_time":3666000000000,"state":"active","ping":73},{"user_id":72,"name":"basilberry","steam_id":76561198145275937,"connected_time":3680000000000,"state":"active","ping":100},{"user_id":50,"name":"Pourpel","steam_id":76561198059125470,"connected_time":5522000000000,"state":"active","ping":82},{"user_id":99,"name":"KaloKing","steam_id":76561198118318798,"connected_time":1879000000000,"state":"active","ping":94},{"user_id":108,"name":"Piss Drawer","steam_id":76561198121007848,"connected_time":728000000000,"state":"active","ping":55},{"user_id":104,"name":"Ragveida","steam_id":76561199156968587,"connected_time":1258000000000,"state":"active","ping":74},{"user_id":110,"name":"GRONT","steam_id":76561198040464533,"connected_time":674000000000,"state":"active","ping":110},{"user_id":59,"name":"[F8P] ‚ô†Robs-Insanity‚ô¶‚Ñ¢","steam_id":76561198055521233,"connected_time":4706000000000,"state":"active","ping":62},{"user_id":85,"name":"Bootes","steam_id":76561197968255551,"connected_time":3031000000000,"state":"active","ping":50},{"user_id":111,"name":"techturkey","steam_id":76561199154637989,"connected_time":642000000000,"state":"active","ping":58},{"user_id":102,"name":"IM THE BIGGEST BIRD","steam_id":76561199479004504,"connected_time":1557000000000,"state":"active","ping":50},{"user_id":101,"name":"uhooter","steam_id":76561198007829078,"connected_time":1807000000000,"state":"active","ping":66},{"user_id":60,"name":"hsoj318","steam_id":76561198062564543,"connected_time":4687000000000,"state":"active","ping":99},{"user_id":112,"name":"Lexabyte","steam_id":76561198065032237,"connected_time":636000000000,"state":"active","ping":64},{"user_id":97,"name":"quint","steam_id":76561198046797995,"connected_time":1924000000000,"state":"active","ping":105},{"user_id":107,"name":"Narwhal","steam_id":76561198132448838,"connected_time":745000000000,"state":"active","ping":52}]},{"server_id":14,"name":"Uncletopia | New York City | 2 | All Maps","name_short":"nyc-2","host":"nyc-1.us.uncletopia.com","port":27025,"enabled":true,"region":"us-east","cc":"us","latitude":40.73061,"longitude":-73.93524,"reserved":0,"last_update":"0001-01-01T00:00:00Z","name_a2s":"Uncletopia | New York City | 2 | All Maps","protocol":17,"map":"pl_frontier_final","folder":"tf","game":"Team Fortress","app_id":440,"player_count":24,"max_players":24,"Bots":0,"server_type":"Dedicated","server_os":"Linux","password":true,"vac":true,"version":"7757534","steam_id":85568392924469994,"keywords":["nocrits","nodmgspread","payload","uncletopia"],"game_id":440,"stv_port":27026,"stv_name":"Uncletopia | New York City | 2 | All Maps | STV","players":[{"user_id":54,"name":"skaj","steam_id":76561198082278586,"connected_time":956000000000,"state":"active","ping":81},{"user_id":27,"name":"Stabs","steam_id":76561198293116584,"connected_time":1335000000000,"state":"active","ping":60},{"user_id":60,"name":"guyinatophat51","steam_id":76561198180230694,"connected_time":411000000000,"state":"active","ping":54},{"user_id":29,"name":"BIGGEST MAC","steam_id":76561198847517098,"connected_time":1327000000000,"state":"active","ping":85},{"user_id":58,"name":"Diarrhea Gaming","steam_id":76561198090589784,"connected_time":508000000000,"state":"active","ping":75},{"user_id":36,"name":"Ribbered","steam_id":76561198242118240,"connected_time":1148000000000,"state":"active","ping":69},{"user_id":32,"name":"Minion Hater","steam_id":76561197987805095,"connected_time":1209000000000,"state":"active","ping":105},{"user_id":61,"name":"4d4","steam_id":76561198402360789,"connected_time":243000000000,"state":"active","ping":68},{"user_id":56,"name":"BiggFoot","steam_id":76561197998605599,"connected_time":576000000000,"state":"active","ping":73},{"user_id":35,"name":"orcluvr69","steam_id":76561198068712028,"connected_time":1171000000000,"state":"active","ping":61},{"user_id":37,"name":"surrender to the void","steam_id":76561198055494039,"connected_time":1146000000000,"state":"active","ping":63},{"user_id":38,"name":"B·µ¢g B‚Çí‚Çõ‚Çõ","steam_id":76561198090271815,"connected_time":1124000000000,"state":"active","ping":125},{"user_id":39,"name":"Kuzi","steam_id":76561199360988431,"connected_time":1116000000000,"state":"active","ping":128},{"user_id":40,"name":"TotalDarkness","steam_id":76561198358350005,"connected_time":1102000000000,"state":"active","ping":83},{"user_id":52,"name":"Tophu","steam_id":76561198380229671,"connected_time":979000000000,"state":"active","ping":80},{"user_id":42,"name":"Matt","steam_id":76561198008108521,"connected_time":1094000000000,"state":"active","ping":74},{"user_id":43,"name":"Ned Ryerson","steam_id":76561198014574925,"connected_time":1094000000000,"state":"active","ping":74},{"user_id":44,"name":"Queen Chrystaliana","steam_id":76561198312198313,"connected_time":1082000000000,"state":"active","ping":99},{"user_id":45,"name":"AlexLovesYou (Drunk)","steam_id":76561199163263543,"connected_time":1079000000000,"state":"active","ping":90},{"user_id":46,"name":"Vacket","steam_id":76561198161868015,"connected_time":1075000000000,"state":"active","ping":53},{"user_id":47,"name":"EJ 2 u","steam_id":76561198242738174,"connected_time":1072000000000,"state":"active","ping":69},{"user_id":49,"name":"Laughablelogan","steam_id":76561198293241796,"connected_time":1038000000000,"state":"active","ping":60},{"user_id":50,"name":"Axelpars [B.A.L.S]","steam_id":76561198830510901,"connected_time":1030000000000,"state":"active","ping":86},{"user_id":55,"name":"Eating like The Rock","steam_id":76561198280114512,"connected_time":882000000000,"state":"active","ping":61}]},{"server_id":15,"name":"Uncletopia | New York City | 3 | Stopwatch Beta","name_short":"nyc-3","host":"nyc-1.us.uncletopia.com","port":27035,"enabled":true,"region":"us-east","cc":"us","latitude":40.73061,"longitude":-73.93524,"reserved":0,"last_update":"0001-01-01T00:00:00Z","name_a2s":"Uncletopia | New York City | 3 | Stopwatch Beta","protocol":17,"map":"pl_upward","folder":"tf","game":"Team Fortress","app_id":440,"player_count":0,"max_players":24,"Bots":0,"server_type":"Dedicated","server_os":"Linux","password":true,"vac":true,"version":"7757534","steam_id":85568392924742820,"keywords":["nocrits","nodmgspread","payload","uncletopia"],"game_id":440,"stv_port":27036,"stv_name":"Uncletopia | New York City | 3 | Stopwatch Beta | STV","players":null},{"server_id":16,"name":"Uncletopia | New York City | 4 | Community","name_short":"nyc-4","host":"nyc-1.us.uncletopia.com","port":27045,"enabled":true,"region":"us-east","cc":"us","latitude":40.73061,"longitude":-73.93524,"reserved":0,"last_update":"0001-01-01T00:00:00Z","name_a2s":"Uncletopia | New York City | 4 | Community","protocol":17,"map":"workshop/pl_eruption_b9a.ugc2807898013","folder":"tf","game":"Team Fortress","app_id":440,"player_count":9,"max_players":24,"Bots":0,"server_type":"Dedicated","server_os":"Linux","password":true,"vac":true,"version":"7757534","steam_id":85568392924742821,"keywords":["nocrits","nodmgspread","payload","uncletopia"],"game_id":440,"stv_port":27046,"stv_name":"Uncletopia | New York City | 4 | Community | STV","players":[{"user_id":18,"name":"TuckMan321","steam_id":76561198171690594,"connected_time":489000000000,"state":"active","ping":70},{"user_id":15,"name":"[Deep] ExorKing","steam_id":76561198089731303,"connected_time":531000000000,"state":"active","ping":86},{"user_id":17,"name":"TheDismantler | HM","steam_id":76561198259311540,"connected_time":519000000000,"state":"active","ping":76},{"user_id":19,"name":"Rashin","steam_id":76561198154010198,"connected_time":476000000000,"state":"active","ping":34},{"user_id":24,"name":"flex-x","steam_id":76561198822319999,"connected_time":126000000000,"state":"active","ping":101},{"user_id":22,"name":"GrittyEggs","steam_id":76561199177185664,"connected_time":320000000000,"state":"active","ping":71},{"user_id":23,"name":"Buck","steam_id":76561197993075304,"connected_time":140000000000,"state":"active","ping":48},{"user_id":25,"name":"Thequirka","steam_id":76561198968058652,"connected_time":100000000000,"state":"active","ping":113},{"user_id":26,"name":"ShaqtusHD(She/Her)","steam_id":76561199138286233,"connected_time":89000000000,"state":"active","ping":61}]},{"server_id":142,"name":"Uncletopia | S√£o Paulo | 1 | All Maps","name_short":"sao-1","host":"sao-1.br.uncletopia.com","port":27015,"enabled":true,"region":"sa","cc":"br","latitude":-23.533773,"longitude":-46.62529,"reserved":0,"last_update":"0001-01-01T00:00:00Z","name_a2s":"Uncletopia | S√£o Paulo | 1 | All Maps","protocol":17,"map":"cp_granary","folder":"tf","game":"Team Fortress","app_id":440,"player_count":12,"max_players":24,"Bots":0,"server_type":"Dedicated","server_os":"Linux","password":true,"vac":true,"version":"7757534","steam_id":85568392924469996,"keywords":["cp","nocrits","nodmgspread","uncletopia"],"game_id":440,"stv_port":27016,"stv_name":"Uncletopia | S√£o Paulo | 1 | All Maps | STV","players":[{"user_id":8,"name":"ailuros","steam_id":76561198171349369,"connected_time":9297000000000,"state":"active","ping":36},{"user_id":64,"name":"Blue9Fairy","steam_id":76561198039942928,"connected_time":1607000000000,"state":"active","ping":55},{"user_id":80,"name":"Stoopid","steam_id":76561198126485401,"connected_time":286000000000,"state":"active","ping":53},{"user_id":65,"name":"saiko","steam_id":76561198024557594,"connected_time":1590000000000,"state":"active","ping":90},{"user_id":77,"name":"Cley the Engie Main","steam_id":76561198142839368,"connected_time":524000000000,"state":"active","ping":60},{"user_id":82,"name":"Anders575","steam_id":76561198220386384,"connected_time":64000000000,"state":"spawning","ping":44},{"user_id":69,"name":"NOFI","steam_id":76561199105986016,"connected_time":1246000000000,"state":"active","ping":68},{"user_id":78,"name":"Miel","steam_id":76561199442213560,"connected_time":317000000000,"state":"active","ping":56},{"user_id":66,"name":"„Çø„É™","steam_id":76561198028717980,"connected_time":1584000000000,"state":"active","ping":71},{"user_id":67,"name":"Turin","steam_id":76561198102778133,"connected_time":1463000000000,"state":"active","ping":56},{"user_id":72,"name":"brg","steam_id":76561198049993814,"connected_time":1002000000000,"state":"active","ping":45},{"user_id":74,"name":"‚ô¶BritZ‚ô¶","steam_id":76561199078691343,"connected_time":818000000000,"state":"active","ping":64}]},{"server_id":143,"name":"Uncletopia | S√£o Paulo | 2 | All Maps","name_short":"sao-2","host":"sao-2.br.uncletopia.com","port":27015,"enabled":true,"region":"sa","cc":"br","latitude":-23.533773,"longitude":-46.62529,"reserved":0,"last_update":"0001-01-01T00:00:00Z","name_a2s":"Uncletopia | S√£o Paulo | 2 | All Maps","protocol":17,"map":"koth_viaduct","folder":"tf","game":"Team Fortress","app_id":440,"player_count":1,"max_players":24,"Bots":0,"server_type":"Dedicated","server_os":"Linux","password":true,"vac":true,"version":"7757534","steam_id":85568392924485349,"keywords":["cp","nocrits","nodmgspread","uncletopia"],"game_id":440,"stv_port":27016,"stv_name":"Uncletopia | S√£o Paulo | 2 | All Maps | STV","players":[{"user_id":15,"name":"Sternward","steam_id":76561198342969184,"connected_time":98000000000,"state":"active","ping":101}]},{"server_id":7,"name":"Uncletopia | Seattle | 1 | All Maps","name_short":"sea-1","host":"sea-1.us.uncletopia.com","port":27015,"enabled":true,"region":"us-west","cc":"us","latitude":47.608013,"longitude":-122.33517,"reserved":0,"last_update":"0001-01-01T00:00:00Z","name_a2s":"Uncletopia | Seattle | 1 | All Maps","protocol":17,"map":"pl_badwater","folder":"tf","game":"Team Fortress","app_id":440,"player_count":24,"max_players":24,"Bots":0,"server_type":"Dedicated","server_os":"Linux","password":true,"vac":true,"version":"7757534","steam_id":85568392924469997,"keywords":["nocrits","nodmgspread","payload","uncletopia"],"game_id":440,"stv_port":27016,"stv_name":"Uncletopia | Seattle | 1 | All Maps | STV","players":[{"user_id":584,"name":"SwoopShoot","steam_id":76561199024079388,"connected_time":126000000000,"state":"active","ping":47},{"user_id":576,"name":"HDI","steam_id":76561199062715724,"connected_time":936000000000,"state":"active","ping":64},{"user_id":553,"name":"Spirit","steam_id":76561199069322627,"connected_time":2200000000000,"state":"active","ping":119},{"user_id":566,"name":"[TrC] Dackstrus","steam_id":76561197973518509,"connected_time":1628000000000,"state":"active","ping":54},{"user_id":583,"name":"Zeruel","steam_id":76561198149673080,"connected_time":146000000000,"state":"active","ping":60},{"user_id":555,"name":"Pump","steam_id":76561198085846167,"connected_time":2171000000000,"state":"active","ping":107},{"user_id":582,"name":"jayeskae","steam_id":76561198144220801,"connected_time":253000000000,"state":"active","ping":45},{"user_id":501,"name":"Fh","steam_id":76561198000903511,"connected_time":6199000000000,"state":"active","ping":60},{"user_id":563,"name":"skelly702","steam_id":76561198384117003,"connected_time":2013000000000,"state":"active","ping":75},{"user_id":565,"name":"Mynameisbeep","steam_id":76561198041988517,"connected_time":1906000000000,"state":"active","ping":76},{"user_id":581,"name":"[TrC] Nosy","steam_id":76561197978859310,"connected_time":424000000000,"state":"active","ping":57},{"user_id":568,"name":"The Dumper","steam_id":76561198147302569,"connected_time":1455000000000,"state":"active","ping":64},{"user_id":585,"name":"matchmatch                     ","steam_id":76561198048925904,"connected_time":114000000000,"state":"active","ping":90},{"user_id":530,"name":"Imitation Caucasian","steam_id":76561198320536166,"connected_time":3392000000000,"state":"active","ping":98},{"user_id":573,"name":"SomeRandomCat","steam_id":76561199107044061,"connected_time":1371000000000,"state":"active","ping":97},{"user_id":557,"name":"‚ô• Milo Stefferson ‚ô• (Soupca","steam_id":76561198056269538,"connected_time":2145000000000,"state":"active","ping":62},{"user_id":414,"name":"Mediarch","steam_id":76561198050765729,"connected_time":7894000000000,"state":"active","ping":53},{"user_id":579,"name":"oToqd","steam_id":76561198389063713,"connected_time":811000000000,"state":"active","ping":68},{"user_id":586,"name":"pontiff","steam_id":76561198304265800,"connected_time":101000000000,"state":"active","ping":88},{"user_id":587,"name":"snek","steam_id":76561197994816492,"connected_time":70000000000,"state":"active","ping":133},{"user_id":524,"name":"spacetoven","steam_id":76561198115821131,"connected_time":4112000000000,"state":"active","ping":60},{"user_id":580,"name":"What are you doing?!","steam_id":76561198405248691,"connected_time":455000000000,"state":"active","ping":86},{"user_id":588,"name":"Brah","steam_id":76561198265114467,"connected_time":57000000000,"state":"active","ping":90},{"user_id":575,"name":"Hindmost","steam_id":76561199081837220,"connected_time":1335000000000,"state":"active","ping":113}]},{"server_id":119,"name":"Uncletopia | Seattle | 2 | All Maps","name_short":"sea-2","host":"sea-1.us.uncletopia.com","port":27025,"enabled":true,"region":"us-west","cc":"us","latitude":47.608013,"longitude":-122.33517,"reserved":0,"last_update":"0001-01-01T00:00:00Z","name_a2s":"Uncletopia | Seattle | 2 | All Maps","protocol":17,"map":"pl_upward","folder":"tf","game":"Team Fortress","app_id":440,"player_count":24,"max_players":24,"Bots":0,"server_type":"Dedicated","server_os":"Linux","password":true,"vac":true,"version":"7757534","steam_id":85568392924469998,"keywords":["nocrits","nodmgspread","payload","uncletopia"],"game_id":440,"stv_port":27026,"stv_name":"Uncletopia | Seattle | 2 | All Maps | STV","players":[{"user_id":217,"name":"O","steam_id":76561198450073779,"connected_time":1569000000000,"state":"active","ping":45},{"user_id":235,"name":"maltravois","steam_id":76561198277732150,"connected_time":123000000000,"state":"active","ping":52},{"user_id":233,"name":"Niykin","steam_id":76561198044779043,"connected_time":208000000000,"state":"active","ping":111},{"user_id":218,"name":"Rick Assley","steam_id":76561198365019199,"connected_time":1444000000000,"state":"active","ping":113},{"user_id":223,"name":"havarti gaming","steam_id":76561198069895678,"connected_time":1173000000000,"state":"active","ping":66},{"user_id":228,"name":"kodynotcody","steam_id":76561198340685758,"connected_time":476000000000,"state":"active","ping":60},{"user_id":212,"name":"bergly","steam_id":76561198811650078,"connected_time":1814000000000,"state":"active","ping":137},{"user_id":232,"name":"Yune","steam_id":76561198039324447,"connected_time":253000000000,"state":"active","ping":147},{"user_id":194,"name":"N√©oGothiqueüïØ","steam_id":76561198003467269,"connected_time":2867000000000,"state":"active","ping":106},{"user_id":195,"name":"chrome 2008 (she/they)","steam_id":76561198321277216,"connected_time":2707000000000,"state":"active","ping":69},{"user_id":227,"name":"Yoyo-Wo","steam_id":76561198880520205,"connected_time":595000000000,"state":"active","ping":88},{"user_id":226,"name":"shy guy","steam_id":76561198151246059,"connected_time":732000000000,"state":"active","ping":60},{"user_id":178,"name":"lowtierdeity","steam_id":76561199154440770,"connected_time":4718000000000,"state":"active","ping":79},{"user_id":206,"name":"Omnoman","steam_id":76561198006258213,"connected_time":2294000000000,"state":"active","ping":141},{"user_id":197,"name":"Rat","steam_id":76561198330059340,"connected_time":2492000000000,"state":"active","ping":67},{"user_id":155,"name":"Z71Jeffrey05","steam_id":76561198045992418,"connected_time":7050000000000,"state":"active","ping":52},{"user_id":200,"name":"Duck","steam_id":76561198074705500,"connected_time":2411000000000,"state":"active","ping":88},{"user_id":224,"name":"user10","steam_id":76561198184814466,"connected_time":881000000000,"state":"active","ping":43},{"user_id":198,"name":"6PieceNuggs","steam_id":76561198333367310,"connected_time":2490000000000,"state":"active","ping":80},{"user_id":154,"name":"Vlasic_Garlic_Dills99","steam_id":76561198030052564,"connected_time":7130000000000,"state":"active","ping":60},{"user_id":230,"name":"Keller","steam_id":76561198812778542,"connected_time":440000000000,"state":"active","ping":107},{"user_id":208,"name":"shroom gloom","steam_id":76561198042941628,"connected_time":2279000000000,"state":"active","ping":75},{"user_id":209,"name":"shroom doom","steam_id":76561198117113848,"connected_time":2269000000000,"state":"active","ping":115},{"user_id":231,"name":"Jack Celliers","steam_id":76561198060983357,"connected_time":388000000000,"state":"active","ping":106}]},{"server_id":406,"name":"Uncletopia | Seattle | 3 | Stopwatch Beta","name_short":"sea-3","host":"sea-1.us.uncletopia.com","port":27035,"enabled":true,"region":"us-west","cc":"us","latitude":47.608013,"longitude":-122.33517,"reserved":0,"last_update":"0001-01-01T00:00:00Z","name_a2s":"Uncletopia | Seattle | 3 | Stopwatch Beta","protocol":17,"map":"workshop/koth_clearcut_b15.ugc2107050255","folder":"tf","game":"Team Fortress","app_id":440,"player_count":0,"max_players":24,"Bots":0,"server_type":"Dedicated","server_os":"Linux","password":true,"vac":true,"version":"7757534","steam_id":85568392924515217,"keywords":["cp","nocrits","nodmgspread","uncletopia"],"game_id":440,"stv_port":27036,"stv_name":"Uncletopia | Seattle | 3 | Stopwatch Beta | STV","players":null},{"server_id":17,"name":"Uncletopia | San Francisco | 1 | All Maps","name_short":"sfo-1","host":"sfo-1.us.uncletopia.com","port":27015,"enabled":true,"region":"us-west","cc":"us","latitude":37.77397,"longitude":-122.4313,"reserved":0,"last_update":"0001-01-01T00:00:00Z","name_a2s":"Uncletopia | San Francisco | 1 | All Maps","protocol":17,"map":"cp_sunshine","folder":"tf","game":"Team Fortress","app_id":440,"player_count":0,"max_players":24,"Bots":0,"server_type":"Dedicated","server_os":"Linux","password":true,"vac":true,"version":"7757534","steam_id":85568392924469999,"keywords":["cp","nocrits","nodmgspread","uncletopia"],"game_id":440,"stv_port":27016,"stv_name":"Uncletopia | San Francisco | 1 | All Maps | STV","players":null},{"server_id":18,"name":"Uncletopia | San Francisco | 2 | All Maps","name_short":"sfo-2","host":"sfo-1.us.uncletopia.com","port":27025,"enabled":true,"region":"us-west","cc":"us","latitude":37.77397,"longitude":-122.4313,"reserved":0,"last_update":"0001-01-01T00:00:00Z","name_a2s":"Uncletopia | San Francisco | 2 | All Maps","protocol":17,"map":"koth_highpass","folder":"tf","game":"Team Fortress","app_id":440,"player_count":0,"max_players":24,"Bots":0,"server_type":"Dedicated","server_os":"Linux","password":true,"vac":true,"version":"7757534","steam_id":85568392924470000,"keywords":["cp","nocrits","nodmgspread","uncletopia"],"game_id":440,"stv_port":27026,"stv_name":"Uncletopia | San Francisco | 2 | All Maps | STV","players":null},{"server_id":19,"name":"Uncletopia | San Francisco | 3 | Stopwatch Beta","name_short":"sfo-3","host":"sfo-1.us.uncletopia.com","port":27035,"enabled":true,"region":"us-west","cc":"us","latitude":37.77397,"longitude":-122.4313,"reserved":0,"last_update":"0001-01-01T00:00:00Z","name_a2s":"Uncletopia | San Francisco | 3 | Stopwatch Beta","protocol":17,"map":"koth_lakeside_final","folder":"tf","game":"Team Fortress","app_id":440,"player_count":0,"max_players":24,"Bots":0,"server_type":"Dedicated","server_os":"Linux","password":true,"vac":true,"version":"7757534","steam_id":85568392924742824,"keywords":["cp","nocrits","nodmgspread","uncletopia"],"game_id":440,"stv_port":27036,"stv_name":"Uncletopia | San Francisco | 3 | Stopwatch Beta | STV","players":null},{"server_id":20,"name":"Uncletopia | San Francisco | 4 | Community","name_short":"sfo-4","host":"sfo-1.us.uncletopia.com","port":27045,"enabled":true,"region":"us-west","cc":"us","latitude":37.77397,"longitude":-122.4313,"reserved":0,"last_update":"0001-01-01T00:00:00Z","name_a2s":"Uncletopia | San Francisco | 4 | Community","protocol":17,"map":"workshop/pl_cactuscanyon_redux_final1.ugc2579644293","folder":"tf","game":"Team Fortress","app_id":440,"player_count":24,"max_players":24,"Bots":0,"server_type":"Dedicated","server_os":"Linux","password":true,"vac":true,"version":"7757534","steam_id":85568392924742826,"keywords":["nocrits","nodmgspread","payload","uncletopia"],"game_id":440,"stv_port":27046,"stv_name":"Uncletopia | San Francisco | 4 | Community | STV","players":[{"user_id":177,"name":"stoned jester","steam_id":76561198079609974,"connected_time":2254000000000,"state":"active","ping":67},{"user_id":153,"name":"ConiferCarver(#SaveTF2)","steam_id":76561198195875845,"connected_time":3555000000000,"state":"active","ping":57},{"user_id":242,"name":"June","steam_id":76561198141803658,"connected_time":178000000000,"state":"active","ping":59},{"user_id":233,"name":"snezhnaya","steam_id":76561198076395081,"connected_time":447000000000,"state":"active","ping":57},{"user_id":229,"name":"Falcon","steam_id":76561198084582082,"connected_time":657000000000,"state":"active","ping":65},{"user_id":119,"name":"‡∏∏","steam_id":76561198084134025,"connected_time":6438000000000,"state":"active","ping":89},{"user_id":179,"name":"ShadowWasUhOh","steam_id":76561198400361935,"connected_time":2134000000000,"state":"active","ping":122},{"user_id":227,"name":"Cpt. Dingle","steam_id":76561198025720199,"connected_time":821000000000,"state":"active","ping":86},{"user_id":230,"name":"steak gaming","steam_id":76561199137205144,"connected_time":606000000000,"state":"active","ping":94},{"user_id":171,"name":"the meta","steam_id":76561199071495058,"connected_time":2778000000000,"state":"active","ping":114},{"user_id":157,"name":"Sly Marbo","steam_id":76561198135271741,"connected_time":3446000000000,"state":"active","ping":65},{"user_id":245,"name":"cake-mix","steam_id":76561199475394535,"connected_time":138000000000,"state":"active","ping":65},{"user_id":166,"name":"terrorism? boy howdy","steam_id":76561198844003641,"connected_time":3103000000000,"state":"active","ping":73},{"user_id":228,"name":"Thomas Goblin-man Yorke","steam_id":76561197999658755,"connected_time":817000000000,"state":"active","ping":100},{"user_id":244,"name":"yourlocaldm","steam_id":76561199220865606,"connected_time":163000000000,"state":"active","ping":114},{"user_id":113,"name":"Thunderchief","steam_id":76561198022802780,"connected_time":6781000000000,"state":"active","ping":70},{"user_id":183,"name":"Mini","steam_id":76561198119708149,"connected_time":1848000000000,"state":"active","ping":67},{"user_id":205,"name":"starrk","steam_id":76561198246066894,"connected_time":1328000000000,"state":"active","ping":102},{"user_id":235,"name":"Bocchi the Cock","steam_id":76561198152455316,"connected_time":331000000000,"state":"active","ping":155},{"user_id":236,"name":"yaldabaoth","steam_id":76561198084606869,"connected_time":290000000000,"state":"active","ping":115},{"user_id":247,"name":"GKumo","steam_id":76561198023175868,"connected_time":104000000000,"state":"active","ping":45},{"user_id":238,"name":"TTV/YT Hunter","steam_id":76561198115812405,"connected_time":256000000000,"state":"active","ping":140},{"user_id":240,"name":"chop","steam_id":76561197962191333,"connected_time":198000000000,"state":"active","ping":108},{"user_id":241,"name":"SetAnExample","steam_id":76561198881077447,"connected_time":185000000000,"state":"active","ping":56}]},{"server_id":141,"name":"Uncletopia | Sydney | 1 | All Maps","name_short":"syd-1","host":"syd-1.au.uncletopia.com","port":27015,"enabled":true,"region":"au","cc":"au","latitude":-33.865143,"longitude":151.2099,"reserved":0,"last_update":"0001-01-01T00:00:00Z","name_a2s":"Uncletopia | Sydney | 1 | All Maps","protocol":17,"map":"koth_viaduct","folder":"tf","game":"Team Fortress","app_id":440,"player_count":0,"max_players":24,"Bots":0,"server_type":"Dedicated","server_os":"Linux","password":true,"vac":true,"version":"7757534","steam_id":85568392924470001,"keywords":["cp","nocrits","nodmgspread","uncletopia"],"game_id":440,"stv_port":27016,"stv_name":"Uncletopia | Sydney | 1 | All Maps | STV","players":null},{"server_id":123,"name":"Uncletopia | Sydney | 2 | All Maps","name_short":"syd-2","host":"syd-1.au.uncletopia.com","port":27025,"enabled":true,"region":"au","cc":"au","latitude":-33.865143,"longitude":151.2099,"reserved":0,"last_update":"0001-01-01T00:00:00Z","name_a2s":"Uncletopia | Sydney | 2 | All Maps","protocol":17,"map":"cp_process_final","folder":"tf","game":"Team Fortress","app_id":440,"player_count":0,"max_players":24,"Bots":0,"server_type":"Dedicated","server_os":"Linux","password":true,"vac":true,"version":"7757534","steam_id":85568392924470002,"keywords":["cp","nocrits","nodmgspread","uncletopia"],"game_id":440,"stv_port":27026,"stv_name":"Uncletopia | Sydney | 2 | All Maps | STV","players":null},{"server_id":395,"name":"Uncletopia | Sydney | 3 | All Maps","name_short":"syd-3","host":"syd-1.au.uncletopia.com","port":27035,"enabled":true,"region":"au","cc":"au","latitude":-33.865143,"longitude":151.2099,"reserved":0,"last_update":"0001-01-01T00:00:00Z","name_a2s":"Uncletopia | Sydney | 3 | All Maps","protocol":17,"map":"pl_swiftwater_final1","folder":"tf","game":"Team Fortress","app_id":440,"player_count":0,"max_players":24,"Bots":0,"server_type":"Dedicated","server_os":"Linux","password":true,"vac":true,"version":"7757534","steam_id":85568392925194467,"keywords":["nocrits","nodmgspread","payload","uncletopia"],"game_id":440,"stv_port":27036,"stv_name":"Uncletopia | Sydney | 3 | All Maps | STV","players":null},{"server_id":396,"name":"Uncletopia | Sydney | 4 | All Maps","name_short":"syd-4","host":"syd-1.au.uncletopia.com","port":27045,"enabled":true,"region":"au","cc":"au","latitude":-33.865143,"longitude":151.2099,"reserved":0,"last_update":"0001-01-01T00:00:00Z","name_a2s":"Uncletopia | Sydney | 4 | All Maps","protocol":17,"map":"koth_highpass","folder":"tf","game":"Team Fortress","app_id":440,"player_count":0,"max_players":24,"Bots":0,"server_type":"Dedicated","server_os":"Linux","password":true,"vac":true,"version":"7757534","steam_id":85568392925397958,"keywords":["cp","nocrits","nodmgspread","uncletopia"],"game_id":440,"stv_port":27046,"stv_name":"Uncletopia | Sydney | 4 | All Maps | STV","players":null},{"server_id":58,"name":"Uncletopia | Sydney | 5 | Stopwatch Beta","name_short":"syd-5","host":"syd-1.au.uncletopia.com","port":27055,"enabled":true,"region":"au","cc":"au","latitude":-33.865143,"longitude":151.2099,"reserved":0,"last_update":"0001-01-01T00:00:00Z","name_a2s":"Uncletopia | Sydney | 5 | Stopwatch Beta","protocol":17,"map":"koth_cascade","folder":"tf","game":"Team Fortress","app_id":440,"player_count":0,"max_players":24,"Bots":0,"server_type":"Dedicated","server_os":"Linux","password":true,"vac":true,"version":"7757534","steam_id":85568392925397959,"keywords":["cp","nocrits","nodmgspread","uncletopia"],"game_id":440,"stv_port":27056,"stv_name":"Uncletopia | Sydney | 5 | Stopwatch Beta | STV","players":null},{"server_id":59,"name":"Uncletopia | Sydney | 6 | Community","name_short":"syd-6","host":"syd-1.au.uncletopia.com","port":27065,"enabled":true,"region":"au","cc":"au","latitude":-33.865143,"longitude":151.2099,"reserved":0,"last_update":"0001-01-01T00:00:00Z","name_a2s":"Uncletopia | Sydney | 6 | Community","protocol":17,"map":"cp_snakewater_final1","folder":"tf","game":"Team Fortress","app_id":440,"player_count":0,"max_players":24,"Bots":0,"server_type":"Dedicated","server_os":"Linux","password":true,"vac":true,"version":"7757534","steam_id":85568392925397960,"keywords":["cp","nocrits","nodmgspread","uncletopia"],"game_id":440,"stv_port":27066,"stv_name":"Uncletopia | Sydney | 6 | Community | STV","players":null},{"server_id":49,"name":"Uncletopia | Warsaw | 1 | All Maps","name_short":"waw-1","host":"waw-1.pl.uncletopia.com","port":27015,"enabled":true,"region":"eu","cc":"pl","latitude":52.2297,"longitude":21.017532,"reserved":0,"last_update":"0001-01-01T00:00:00Z","name_a2s":"","protocol":0,"map":"","folder":"","game":"","app_id":0,"player_count":0,"max_players":0,"Bots":0,"server_type":"","server_os":"","password":false,"vac":false,"version":"","steam_id":0,"keywords":null,"game_id":0,"stv_port":0,"stv_name":"","players":null},{"server_id":50,"name":"Uncletopia | Warsaw | 2 | All Maps","name_short":"waw-2","host":"waw-1.pl.uncletopia.com","port":27025,"enabled":true,"region":"eu","cc":"pl","latitude":52.2297,"longitude":21.017532,"reserved":0,"last_update":"0001-01-01T00:00:00Z","name_a2s":"Uncletopia | Warsaw | 2 | All Maps","protocol":17,"map":"pl_barnblitz","folder":"tf","game":"Team Fortress","app_id":440,"player_count":0,"max_players":24,"Bots":0,"server_type":"Dedicated","server_os":"Linux","password":true,"vac":true,"version":"7757534","steam_id":85568392925397851,"keywords":["nocrits","nodmgspread","payload","uncletopia"],"game_id":440,"stv_port":27026,"stv_name":"Uncletopia | Warsaw | 2 | All Maps | STV","players":null},{"server_id":51,"name":"Uncletopia | Warsaw | 3 | All Maps","name_short":"waw-3","host":"waw-1.pl.uncletopia.com","port":27035,"enabled":true,"region":"eu","cc":"pl","latitude":52.2297,"longitude":21.017532,"reserved":0,"last_update":"0001-01-01T00:00:00Z","name_a2s":"Uncletopia | Warsaw | 3 | All Maps","protocol":17,"map":"koth_lakeside_final","folder":"tf","game":"Team Fortress","app_id":440,"player_count":0,"max_players":24,"Bots":0,"server_type":"Dedicated","server_os":"Linux","password":true,"vac":true,"version":"7757534","steam_id":85568392925397852,"keywords":["cp","nocrits","nodmgspread","uncletopia"],"game_id":440,"stv_port":27036,"stv_name":"Uncletopia | Warsaw | 3 | All Maps | STV","players":null},{"server_id":52,"name":"Uncletopia | Warsaw | 4 | All Maps","name_short":"waw-4","host":"waw-1.pl.uncletopia.com","port":27045,"enabled":true,"region":"eu","cc":"pl","latitude":52.2297,"longitude":21.017532,"reserved":0,"last_update":"0001-01-01T00:00:00Z","name_a2s":"Uncletopia | Warsaw | 4 | All Maps","protocol":17,"map":"koth_lakeside_final","folder":"tf","game":"Team Fortress","app_id":440,"player_count":0,"max_players":24,"Bots":0,"server_type":"Dedicated","server_os":"Linux","password":true,"vac":true,"version":"7757534","steam_id":85568392925397853,"keywords":["cp","nocrits","nodmgspread","uncletopia"],"game_id":440,"stv_port":27046,"stv_name":"Uncletopia | Warsaw | 4 | All Maps | STV","players":null},{"server_id":53,"name":"Uncletopia | Warsaw | 5 | Stopwatch Beta","name_short":"waw-5","host":"waw-1.pl.uncletopia.com","port":27055,"enabled":true,"region":"eu","cc":"pl","latitude":52.2297,"longitude":21.017532,"reserved":0,"last_update":"0001-01-01T00:00:00Z","name_a2s":"Uncletopia | Warsaw | 5 | Stopwatch Beta","protocol":17,"map":"pl_borneo","folder":"tf","game":"Team Fortress","app_id":440,"player_count":0,"max_players":24,"Bots":0,"server_type":"Dedicated","server_os":"Linux","password":true,"vac":true,"version":"7757534","steam_id":85568392925397854,"keywords":["nocrits","nodmgspread","payload","uncletopia"],"game_id":440,"stv_port":27056,"stv_name":"Uncletopia | Warsaw | 5 | Stopwatch Beta | STV","players":null},{"server_id":54,"name":"Uncletopia | Warsaw | 6 | Community","name_short":"waw-6","host":"waw-1.pl.uncletopia.com","port":27065,"enabled":true,"region":"eu","cc":"pl","latitude":52.2297,"longitude":21.017532,"reserved":0,"last_update":"0001-01-01T00:00:00Z","name_a2s":"Uncletopia | Warsaw | 6 | Community","protocol":17,"map":"koth_lakeside_final","folder":"tf","game":"Team Fortress","app_id":440,"player_count":0,"max_players":24,"Bots":0,"server_type":"Dedicated","server_os":"Linux","password":true,"vac":true,"version":"7757534","steam_id":85568392925397856,"keywords":["cp","nocrits","nodmgspread","uncletopia"],"game_id":440,"stv_port":27066,"stv_name":"Uncletopia | Warsaw | 6 | Community | STV","players":null}]}