{"status":true,"message":"","result":[{"server_id":9,"name":"Uncletopia | Atlanta | 1 | All Maps","name_short":"atl-1","host":"atl-1.us.uncletopia.com","port":27015,"enabled":true,"region":"us-east","cc":"us","latitude":33.753746,"longitude":-84.38633,"reserved":0,"last_update":"0001-01-01T00:00:00Z","name_a2s":"Uncletopia | Atlanta | 1 | All Maps","protocol":17,"map":"pl_badwater","folder":"tf","game":"Team Fortress","app_id":440,"player_count":24,"max_players":24,"Bots":0,"server_type":"Dedicated","server_os":"Linux","password":true,"vac":true,"version":"7757534","steam_id":85568392924469982,"keywords":["nocrits","nodmgspread","payload","uncletopia"],"game_id":440,"stv_port":27016,"stv_name":"Uncletopia | Atlanta | 1 | All Maps | STV","players":[{"user_id":6,"name":"yomo","steam_id":76561198063175935,"connected_time":4293000000000,"state":"active","ping":53},{"user_id":8,"name":"Help Me","steam_id":76561198133851467,"connected_time":3949000000000,"state":"active","ping":135},{"user_id":56,"name":"Pepsiman","steam_id":76561198436946165,"connected_time":2089000000000,"state":"active","ping":84},{"user_id":37,"name":"indi","steam_id":76561198045917538,"connected_time":2975000000000,"state":"active","ping":60},{"user_id":49,"name":"DevSlashUser","steam_id":76561198805884205,"connected_time":2549000000000,"state":"active","ping":54},{"user_id":12,"name":"ash","steam_id":76561198127890645,"connected_time":3643000000000,"state":"active","ping":60},{"user_id":65,"name":"MyamE","steam_id":76561198133278462,"connected_time":1125000000000,"state":"active","ping":76},{"user_id":75,"name":"apricity_a","steam_id":76561198202273263,"connected_time":276000000000,"state":"active","ping":60},{"user_id":51,"name":"boneyard","steam_id":76561199080454140,"connected_time":2369000000000,"state":"active","ping":61},{"user_id":63,"name":"CHAINSAW CONSULTANT","steam_id":76561198088529360,"connected_time":1470000000000,"state":"active","ping":81},{"user_id":50,"name":"Alexthegreat","steam_id":76561197996796222,"connected_time":2403000000000,"state":"active","ping":51},{"user_id":74,"name":"No Web Deep Love \u003c3","steam_id":76561198397009880,"connected_time":336000000000,"state":"active","ping":58},{"user_id":24,"name":"󠀡󠀡","steam_id":76561198202704364,"connected_time":3255000000000,"state":"active","ping":99},{"user_id":26,"name":"061202travis","steam_id":76561198267467078,"connected_time":3241000000000,"state":"active","ping":116},{"user_id":72,"name":"HarryjusttHarry","steam_id":76561198982810452,"connected_time":727000000000,"state":"active","ping":80},{"user_id":27,"name":"Decolour","steam_id":76561199045608372,"connected_time":3235000000000,"state":"active","ping":86},{"user_id":64,"name":"A_Malebolgia","steam_id":76561198097722818,"connected_time":1463000000000,"state":"active","ping":96},{"user_id":76,"name":"evan_is_sauce","steam_id":76561199086802383,"connected_time":59000000000,"state":"active","ping":100},{"user_id":71,"name":"jackhillard83","steam_id":76561199057098390,"connected_time":750000000000,"state":"active","ping":92},{"user_id":66,"name":"Dong-A-Tron 27.0","steam_id":76561198082202698,"connected_time":1092000000000,"state":"active","ping":64},{"user_id":69,"name":"rcriv","steam_id":76561198315635428,"connected_time":1036000000000,"state":"active","ping":81},{"user_id":55,"name":"Sir Atom!","steam_id":76561198873491860,"connected_time":2264000000000,"state":"active","ping":102},{"user_id":61,"name":"Oddball","steam_id":76561198040440984,"connected_time":1699000000000,"state":"active","ping":88},{"user_id":48,"name":"conscripted monk","steam_id":76561199029246232,"connected_time":2613000000000,"state":"active","ping":65}]},{"server_id":400,"name":"Uncletopia | Atlanta | 3 | Stopwatch Beta","name_short":"atl-3","host":"atl-1.us.uncletopia.com","port":27035,"enabled":true,"region":"us-east","cc":"us","latitude":33.753746,"longitude":-84.38633,"reserved":0,"last_update":"0001-01-01T00:00:00Z","name_a2s":"Uncletopia | Atlanta | 3 | Stopwatch Beta","protocol":17,"map":"pl_upward","folder":"tf","game":"Team Fortress","app_id":440,"player_count":0,"max_players":24,"Bots":0,"server_type":"Dedicated","server_os":"Linux","password":true,"vac":true,"version":"7757534","steam_id":85568392924515187,"keywords":["nocrits","nodmgspread","payload","uncletopia"],"game_id":440,"stv_port":27036,"stv_name":"Uncletopia | Atlanta | 3 | Stopwatch Beta | STV","players":null},{"server_id":401,"name":"Uncletopia | Atlanta | 4 | No Payload","name_short":"atl-4","host":"atl-1.us.uncletopia.com","port":27045,"enabled":true,"region":"us-east","cc":"us","latitude":33.753746,"longitude":-84.38633,"reserved":0,"last_update":"0001-01-01T00:00:00Z","name_a2s":"Uncletopia | Atlanta | 4 | No Payload","protocol":17,"map":"pl_pier","folder":"tf","game":"Team Fortress","app_id":440,"player_count":0,"max_players":24,"Bots":0,"server_type":"Dedicated","server_os":"Linux","password":true,"vac":true,"version":"7723704","steam_id":85568392924515188,"keywords":["nocrits","nodmgspread","payload","uncletopia"],"game_id":440,"stv_port":27046,"stv_name":"Uncletopia | Atlanta | 4 | No Payload | STV","players":null},{"server_id":2,"name":"Uncletopia | Chicago | 1 | All Maps","name_short":"chi-1","host":"chi-1.us.uncletopia.com","port":27015,"enabled":true,"region":"us-central","cc":"us","latitude":41.881832,"longitude":-87.62318,"reserved":0,"last_update":"0001-01-01T00:00:00Z","name_a2s":"Uncletopia | Chicago | 1 | All Maps","protocol":17,"map":"pl_thundermountain","folder":"tf","game":"Team Fortress","app_id":440,"player_count":24,"max_players":24,"Bots":0,"server_type":"Dedicated","server_os":"Linux","password":true,"vac":true,"version":"7757534","steam_id":85568392924469984,"keywords":["nocrits","nodmgspread","payload","uncletopia"],"game_id":440,"stv_port":27016,"stv_name":"Uncletopia | Chicago | 1 | All Maps | STV","players":[{"user_id":56,"name":"badboy6996","steam_id":76561197969386201,"connected_time":12663000000000,"state":"active","ping":58},{"user_id":177,"name":"munkiツ","steam_id":76561198841270249,"connected_time":1956000000000,"state":"active","ping":58},{"user_id":132,"name":"Winter the Witchie","steam_id":76561198151971178,"connected_time":5210000000000,"state":"active","ping":64},{"user_id":195,"name":"lauren/","steam_id":76561198048745798,"connected_time":190000000000,"state":"active","ping":39},{"user_id":164,"name":"monke12344","steam_id":76561199274757725,"connected_time":2849000000000,"state":"active","ping":57},{"user_id":174,"name":"LVL","steam_id":76561198334403617,"connected_time":2033000000000,"state":"active","ping":52},{"user_id":188,"name":"Pixler544","steam_id":76561198240575132,"connected_time":665000000000,"state":"active","ping":84},{"user_id":190,"name":"Jimmy Two-Times","steam_id":76561198013308693,"connected_time":580000000000,"state":"active","ping":61},{"user_id":192,"name":"with no fear","steam_id":76561198045725613,"connected_time":473000000000,"state":"active","ping":58},{"user_id":58,"name":"IKISSYOURWIFEWTONGUE #WEWRESTLE","steam_id":76561198144766439,"connected_time":12574000000000,"state":"active","ping":43},{"user_id":189,"name":"bary","steam_id":76561197988317087,"connected_time":639000000000,"state":"active","ping":58},{"user_id":162,"name":"PKBEAST_7","steam_id":76561198177136537,"connected_time":2993000000000,"state":"active","ping":91},{"user_id":184,"name":"Bee","steam_id":76561198074681324,"connected_time":786000000000,"state":"active","ping":63},{"user_id":194,"name":"good_s1r","steam_id":76561199010842391,"connected_time":257000000000,"state":"active","ping":70},{"user_id":182,"name":"eloressa","steam_id":76561198120330867,"connected_time":900000000000,"state":"active","ping":45},{"user_id":196,"name":"limlermite","steam_id":76561197967761582,"connected_time":91000000000,"state":"active","ping":115},{"user_id":191,"name":"Extraordinary Absence of Pootis","steam_id":76561198020270981,"connected_time":507000000000,"state":"active","ping":186},{"user_id":180,"name":"A Pyro Main","steam_id":76561198421760112,"connected_time":1411000000000,"state":"active","ping":51},{"user_id":185,"name":"{FITH}™ SmittyWun","steam_id":76561198079531938,"connected_time":716000000000,"state":"active","ping":75},{"user_id":170,"name":"Big Phony","steam_id":76561199092395311,"connected_time":2618000000000,"state":"active","ping":72},{"user_id":171,"name":"Tlaloc","steam_id":76561198375215983,"connected_time":2614000000000,"state":"active","ping":120},{"user_id":175,"name":"fruity","steam_id":76561198855810297,"connected_time":2033000000000,"state":"active","ping":90},{"user_id":111,"name":"Eins","steam_id":76561199030343810,"connected_time":7006000000000,"state":"active","ping":62},{"user_id":54,"name":"yomommasabitch","steam_id":76561198323217150,"connected_time":12735000000000,"state":"active","ping":61}]},{"server_id":106,"name":"Uncletopia | Chicago | 2 | All Maps","name_short":"chi-2","host":"chi-1.us.uncletopia.com","port":27025,"enabled":true,"region":"us-central","cc":"us","latitude":41.881832,"longitude":-87.62318,"reserved":0,"last_update":"0001-01-01T00:00:00Z","name_a2s":"Uncletopia | Chicago | 2 | All Maps","protocol":17,"map":"koth_cascade","folder":"tf","game":"Team Fortress","app_id":440,"player_count":0,"max_players":24,"Bots":0,"server_type":"Dedicated","server_os":"Linux","password":true,"vac":true,"version":"7757534","steam_id":85568392924469985,"keywords":["cp","nocrits","nodmgspread","uncletopia"],"game_id":440,"stv_port":27026,"stv_name":"Uncletopia | Chicago | 2 | All Maps | STV","players":null},{"server_id":402,"name":"Uncletopia | Chicago | 3 | All Maps","name_short":"chi-3","host":"chi-1.us.uncletopia.com","port":27035,"enabled":true,"region":"us-central","cc":"us","latitude":41.881832,"longitude":-87.62318,"reserved":0,"last_update":"0001-01-01T00:00:00Z","name_a2s":"Uncletopia | Chicago | 3 | All Maps","protocol":17,"map":"koth_viaduct","folder":"tf","game":"Team Fortress","app_id":440,"player_count":0,"max_players":24,"Bots":0,"server_type":"Dedicated","server_os":"Linux","password":true,"vac":true,"version":"7757534","steam_id":85568392924515191,"keywords":["cp","nocrits","nodmgspread","uncletopia"],"game_id":440,"stv_port":27036,"stv_name":"Uncletopia | Chicago | 3 | All Maps | STV","players":null},{"server_id":403,"name":"Uncletopia | Chicago | 4 | All Maps","name_short":"chi-4","host":"chi-1.us.uncletopia.com","port":27045,"enabled":true,"region":"us-central","cc":"us","latitude":41.881832,"longitude":-87.62318,"reserved":0,"last_update":"0001-01-01T00:00:00Z","name_a2s":"Uncletopia | Chicago | 4 | All Maps","protocol":17,"map":"cp_altitude","folder":"tf","game":"Team Fortress","app_id":440,"player_count":0,"max_players":24,"Bots":0,"server_type":"Dedicated","server_os":"Linux","password":true,"vac":true,"version":"7757534","steam_id":85568392924515193,"keywords":["cp","nocrits","nodmgspread","uncletopia"],"game_id":440,"stv_port":27046,"stv_name":"Uncletopia | Chicago | 4 | All Maps | STV","players":null},{"server_id":36,"name":"Uncletopia | Chicago | 5 | All Maps","name_short":"chi-5","host":"chi-2.us.uncletopia.com","port":27015,"enabled":true,"region":"us-central","cc":"us","latitude":41.881832,"longitude":-87.62318,"reserved":0,"last_update":"0001-01-01T00:00:00Z","name_a2s":"Uncletopia | Chicago | 5 | All Maps","protocol":17,"map":"pl_hoodoo_final","folder":"tf","game":"Team Fortress","app_id":440,"player_count":21,"max_players":24,"Bots":0,"server_type":"Dedicated","server_os":"Linux","password":true,"vac":true,"version":"7757534","steam_id":85568392924866362,"keywords":["nocrits","nodmgspread","payload","uncletopia"],"game_id":440,"stv_port":27016,"stv_name":"Uncletopia | Chicago | 5 | All Maps | STV","players":[{"user_id":121,"name":"localization files","steam_id":76561197997139225,"connected_time":5622000000000,"state":"active","ping":55},{"user_id":91,"name":"Boasta' Berry","steam_id":76561198029015179,"connected_time":7050000000000,"state":"active","ping":122},{"user_id":166,"name":"DrNoob","steam_id":76561198888731756,"connected_time":471000000000,"state":"active","ping":57},{"user_id":149,"name":"Project Dusk","steam_id":76561198193521149,"connected_time":1452000000000,"state":"active","ping":91},{"user_id":104,"name":"Gamut","steam_id":76561199185822800,"connected_time":6562000000000,"state":"active","ping":81},{"user_id":170,"name":"Anyar","steam_id":76561198160174097,"connected_time":33000000000,"state":"active","ping":81},{"user_id":172,"name":"rive","steam_id":76561198216487540,"connected_time":18000000000,"state":"active","ping":91},{"user_id":147,"name":"derz","steam_id":76561198010742216,"connected_time":2238000000000,"state":"active","ping":59},{"user_id":100,"name":"Chase McCain","steam_id":76561198314538469,"connected_time":6666000000000,"state":"active","ping":73},{"user_id":126,"name":"poggerchamp","steam_id":76561199145124973,"connected_time":4651000000000,"state":"active","ping":87},{"user_id":164,"name":"Keph","steam_id":76561198853420295,"connected_time":1002000000000,"state":"active","ping":103},{"user_id":139,"name":"Elizabeth truss","steam_id":76561198058250979,"connected_time":3987000000000,"state":"active","ping":70},{"user_id":151,"name":"CapnCoolaid","steam_id":76561199120332919,"connected_time":1447000000000,"state":"active","ping":99},{"user_id":84,"name":"gen","steam_id":76561199118569153,"connected_time":7400000000000,"state":"active","ping":58},{"user_id":144,"name":"Ghost","steam_id":76561198110914180,"connected_time":3215000000000,"state":"active","ping":187},{"user_id":153,"name":"the gamer hermit crab","steam_id":76561198969402276,"connected_time":1427000000000,"state":"active","ping":45},{"user_id":168,"name":"Sunvaar","steam_id":76561198852679851,"connected_time":220000000000,"state":"active","ping":64},{"user_id":167,"name":"Robert","steam_id":76561198091171326,"connected_time":344000000000,"state":"active","ping":107},{"user_id":165,"name":"Lord_Magoots","steam_id":76561198019592297,"connected_time":999000000000,"state":"active","ping":89},{"user_id":157,"name":"OldManHenderson1976","steam_id":76561198148713751,"connected_time":1339000000000,"state":"active","ping":86},{"user_id":113,"name":"steve","steam_id":76561198170409402,"connected_time":5881000000000,"state":"active","ping":157}]},{"server_id":37,"name":"Uncletopia | Chicago | 6 | All Maps","name_short":"chi-6","host":"chi-2.us.uncletopia.com","port":27025,"enabled":true,"region":"us-central","cc":"us","latitude":41.881832,"longitude":-87.62318,"reserved":0,"last_update":"0001-01-01T00:00:00Z","name_a2s":"Uncletopia | Chicago | 6 | All Maps","protocol":17,"map":"pl_upward","folder":"tf","game":"Team Fortress","app_id":440,"player_count":23,"max_players":24,"Bots":0,"server_type":"Dedicated","server_os":"Linux","password":true,"vac":true,"version":"7757534","steam_id":85568392924866363,"keywords":["nocrits","nodmgspread","payload","uncletopia"],"game_id":440,"stv_port":27026,"stv_name":"Uncletopia | Chicago | 6 | All Maps | STV","players":[{"user_id":6,"name":"motorcarriage","steam_id":76561199229248835,"connected_time":1726000000000,"state":"active","ping":93},{"user_id":7,"name":"EggsAndBaconSuportor","steam_id":76561199089160000,"connected_time":1708000000000,"state":"active","ping":73},{"user_id":8,"name":"Eviscerator","steam_id":76561197980073637,"connected_time":1457000000000,"state":"active","ping":70},{"user_id":9,"name":"Kitt(eh) ∑:3","steam_id":76561198110858518,"connected_time":1456000000000,"state":"active","ping":59},{"user_id":13,"name":"agentish","steam_id":76561198055088122,"connected_time":1381000000000,"state":"active","ping":51},{"user_id":11,"name":"Godmode","steam_id":76561198076240365,"connected_time":1446000000000,"state":"active","ping":59},{"user_id":14,"name":"Beany","steam_id":76561198102299438,"connected_time":1360000000000,"state":"active","ping":59},{"user_id":16,"name":"salad rhythm","steam_id":76561198328109873,"connected_time":1157000000000,"state":"active","ping":72},{"user_id":49,"name":"gaylittlemouse","steam_id":76561198819562111,"connected_time":209000000000,"state":"active","ping":71},{"user_id":18,"name":"Slime-san","steam_id":76561198886509660,"connected_time":1103000000000,"state":"active","ping":86},{"user_id":19,"name":"tA.CHRONIC","steam_id":76561197960760990,"connected_time":979000000000,"state":"active","ping":49},{"user_id":20,"name":"Snow☆","steam_id":76561198031290573,"connected_time":902000000000,"state":"active","ping":58},{"user_id":21,"name":"Wang of Wall St","steam_id":76561198047460598,"connected_time":900000000000,"state":"active","ping":69},{"user_id":22,"name":"El_Jackso","steam_id":76561198126121555,"connected_time":825000000000,"state":"active","ping":57},{"user_id":40,"name":"Bulk","steam_id":76561199009814535,"connected_time":557000000000,"state":"active","ping":65},{"user_id":24,"name":"KaiDuck4348","steam_id":76561199060186538,"connected_time":822000000000,"state":"active","ping":82},{"user_id":56,"name":"JYNOOBCCI","steam_id":76561198100942212,"connected_time":14000000000,"state":"active","ping":77},{"user_id":26,"name":"[BUFF] Artgrenadier","steam_id":76561198063305359,"connected_time":778000000000,"state":"active","ping":68},{"user_id":27,"name":"otter","steam_id":76561198180787351,"connected_time":767000000000,"state":"active","ping":60},{"user_id":28,"name":"Potato Knight","steam_id":76561198256439806,"connected_time":749000000000,"state":"active","ping":86},{"user_id":39,"name":"Crit Magnet","steam_id":76561198002158982,"connected_time":603000000000,"state":"active","ping":74},{"user_id":54,"name":"Scoop #ReviveTF2Ware","steam_id":76561197990539611,"connected_time":70000000000,"state":"active","ping":120},{"user_id":35,"name":"Amogus The Sussy Baka ඞ","steam_id":76561198008577961,"connected_time":657000000000,"state":"active","ping":60}]},{"server_id":38,"name":"Uncletopia | Chicago | 7 | Stopwatch Beta","name_short":"chi-7","host":"chi-2.us.uncletopia.com","port":27035,"enabled":true,"region":"us-central","cc":"us","latitude":41.881832,"longitude":-87.62318,"reserved":0,"last_update":"0001-01-01T00:00:00Z","name_a2s":"Uncletopia | Chicago | 7 | Stopwatch Beta","protocol":17,"map":"cp_process_final","folder":"tf","game":"Team Fortress","app_id":440,"player_count":24,"max_players":24,"Bots":0,"server_type":"Dedicated","server_os":"Linux","password":true,"vac":true,"version":"7757534","steam_id":85568392924866364,"keywords":["cp","nocrits","nodmgspread","uncletopia"],"game_id":440,"stv_port":27036,"stv_name":"Uncletopia | Chicago | 7 | Stopwatch Beta | STV","players":[{"user_id":158,"name":"GG | xaun","steam_id":76561198384019793,"connected_time":1271000000000,"state":"active","ping":73},{"user_id":134,"name":"acid trax","steam_id":76561198041535102,"connected_time":2310000000000,"state":"active","ping":54},{"user_id":140,"name":"It's a me Mario","steam_id":76561199118287796,"connected_time":2183000000000,"state":"active","ping":67},{"user_id":142,"name":"「Daws_Dudeguy」","steam_id":76561198205838645,"connected_time":2134000000000,"state":"active","ping":70},{"user_id":48,"name":"Luxcraz","steam_id":76561198035278349,"connected_time":6902000000000,"state":"active","ping":59},{"user_id":141,"name":"Feldspar","steam_id":76561198027437590,"connected_time":2171000000000,"state":"active","ping":80},{"user_id":159,"name":"awesome","steam_id":76561198248656836,"connected_time":1269000000000,"state":"active","ping":87},{"user_id":100,"name":"LukeLeal","steam_id":76561198049822995,"connected_time":4286000000000,"state":"active","ping":168},{"user_id":99,"name":"Kritzburgh","steam_id":76561198149466938,"connected_time":4322000000000,"state":"active","ping":62},{"user_id":160,"name":"Seth the Sugar Salesman","steam_id":76561198152031932,"connected_time":1173000000000,"state":"active","ping":57},{"user_id":163,"name":"Moizturized","steam_id":76561198873850038,"connected_time":1011000000000,"state":"active","ping":75},{"user_id":113,"name":"the horse from schenectady?","steam_id":76561198142756572,"connected_time":3475000000000,"state":"active","ping":60},{"user_id":64,"name":"San. www.vaticanhospital.org","steam_id":76561199238923581,"connected_time":5817000000000,"state":"active","ping":126},{"user_id":167,"name":"Perogies","steam_id":76561198096423093,"connected_time":517000000000,"state":"active","ping":73},{"user_id":86,"name":"next RKTGOD.","steam_id":76561199047187302,"connected_time":4817000000000,"state":"active","ping":46},{"user_id":164,"name":"Demoman With One Joke","steam_id":76561197993467034,"connected_time":985000000000,"state":"active","ping":47},{"user_id":162,"name":"Emperor Trombone","steam_id":76561199018354359,"connected_time":1085000000000,"state":"active","ping":54},{"user_id":156,"name":"hamIV[HM]","steam_id":76561198353574751,"connected_time":1669000000000,"state":"active","ping":78},{"user_id":165,"name":"kametro4","steam_id":76561198835430429,"connected_time":799000000000,"state":"active","ping":79},{"user_id":166,"name":"G6 1920","steam_id":76561198111669774,"connected_time":684000000000,"state":"active","ping":48},{"user_id":157,"name":"chicken wit dah eggrow","steam_id":76561198115458307,"connected_time":1495000000000,"state":"active","ping":106},{"user_id":118,"name":"primordialheath","steam_id":76561199386942638,"connected_time":3085000000000,"state":"active","ping":71},{"user_id":105,"name":"Caoticaos","steam_id":76561198114800227,"connected_time":3961000000000,"state":"active","ping":153},{"user_id":170,"name":"Dog Deodorant","steam_id":76561199225832228,"connected_time":78000000000,"state":"active","ping":103}]},{"server_id":39,"name":"Uncletopia | Chicago | 8 | Community","name_short":"chi-8","host":"chi-2.us.uncletopia.com","port":27045,"enabled":true,"region":"us-central","cc":"us","latitude":41.881832,"longitude":-87.62318,"reserved":0,"last_update":"0001-01-01T00:00:00Z","name_a2s":"Uncletopia | Chicago | 8 | Community","protocol":17,"map":"pl_pier","folder":"tf","game":"Team Fortress","app_id":440,"player_count":0,"max_players":24,"Bots":0,"server_type":"Dedicated","server_os":"Linux","password":true,"vac":true,"version":"7757534","steam_id":85568392924866365,"keywords":["nocrits","nodmgspread","payload","uncletopia"],"game_id":440,"stv_port":27046,"stv_name":"Uncletopia | Chicago | 8 | Community | STV","players":null},{"server_id":8,"name":"Uncletopia | Dallas | 1 | All Maps","name_short":"dal-1","host":"dal-1.us.uncletopia.com","port":27015,"enabled":true,"region":"us-central","cc":"us","latitude":32.779167,"longitude":-96.80889,"reserved":0,"last_update":"0001-01-01T00:00:00Z","name_a2s":"Uncletopia | Dallas | 1 | All Maps","protocol":17,"map":"ctf_turbine","folder":"tf","game":"Team Fortress","app_id":440,"player_count":24,"max_players":24,"Bots":0,"server_type":"Dedicated","server_os":"Linux","password":true,"vac":true,"version":"7757534","steam_id":85568392924469986,"keywords":["ctf","nocrits","nodmgspread","uncletopia"],"game_id":440,"stv_port":27016,"stv_name":"Uncletopia | Dallas | 1 | All Maps | STV","players":[{"user_id":84,"name":"NotNot","steam_id":76561198195114895,"connected_time":1733000000000,"state":"active","ping":117},{"user_id":60,"name":"Ctrl And F4","steam_id":76561199367935846,"connected_time":3618000000000,"state":"active","ping":66},{"user_id":100,"name":"Motreir","steam_id":76561198151717946,"connected_time":581000000000,"state":"active","ping":78},{"user_id":71,"name":"yitz","steam_id":76561198375575841,"connected_time":2664000000000,"state":"active","ping":75},{"user_id":88,"name":"b. eno","steam_id":76561198109901138,"connected_time":1610000000000,"state":"active","ping":96},{"user_id":54,"name":"FUSION","steam_id":76561197972659738,"connected_time":4307000000000,"state":"active","ping":75},{"user_id":32,"name":"Fred","steam_id":76561197983870604,"connected_time":5440000000000,"state":"active","ping":69},{"user_id":93,"name":"Teleporter  (Entrance, Level 3)","steam_id":76561198316927664,"connected_time":1337000000000,"state":"active","ping":96},{"user_id":80,"name":"Mad Cow※","steam_id":76561198132498594,"connected_time":2154000000000,"state":"active","ping":71},{"user_id":105,"name":"mikey | I'm Burning Bright!","steam_id":76561198985847893,"connected_time":128000000000,"state":"active","ping":44},{"user_id":33,"name":"Fishstall","steam_id":76561198038126034,"connected_time":5415000000000,"state":"active","ping":68},{"user_id":81,"name":"Franz","steam_id":76561198041929745,"connected_time":1910000000000,"state":"active","ping":70},{"user_id":57,"name":"exer","steam_id":76561197973093864,"connected_time":4127000000000,"state":"active","ping":75},{"user_id":96,"name":"Obamacare","steam_id":76561198018894553,"connected_time":1128000000000,"state":"active","ping":70},{"user_id":37,"name":"Bomb Squirtle™","steam_id":76561197998931145,"connected_time":5166000000000,"state":"active","ping":100},{"user_id":64,"name":"Tyler\u0026Fingers","steam_id":76561198085154485,"connected_time":3332000000000,"state":"active","ping":90},{"user_id":95,"name":"Geobeetle","steam_id":76561198207400124,"connected_time":1273000000000,"state":"active","ping":75},{"user_id":90,"name":"Jailbreak","steam_id":76561198802085218,"connected_time":1592000000000,"state":"active","ping":55},{"user_id":94,"name":"CCC","steam_id":76561199051064354,"connected_time":1323000000000,"state":"active","ping":85},{"user_id":82,"name":"grape","steam_id":76561197993980328,"connected_time":1883000000000,"state":"active","ping":122},{"user_id":101,"name":"shadow wizard","steam_id":76561198165212575,"connected_time":456000000000,"state":"active","ping":76},{"user_id":69,"name":"Inkspot","steam_id":76561199003790541,"connected_time":2822000000000,"state":"active","ping":56},{"user_id":97,"name":"LAB8","steam_id":76561198047743526,"connected_time":815000000000,"state":"active","ping":90},{"user_id":79,"name":"Danizica15","steam_id":76561198073993841,"connected_time":2182000000000,"state":"active","ping":94}]},{"server_id":108,"name":"Uncletopia | Dallas | 2 | All Maps","name_short":"dal-2","host":"dal-1.us.uncletopia.com","port":27025,"enabled":true,"region":"us-central","cc":"us","latitude":32.779167,"longitude":-96.80889,"reserved":0,"last_update":"0001-01-01T00:00:00Z","name_a2s":"Uncletopia | Dallas | 2 | All Maps","protocol":17,"map":"pl_frontier_final","folder":"tf","game":"Team Fortress","app_id":440,"player_count":0,"max_players":24,"Bots":0,"server_type":"Dedicated","server_os":"Linux","password":true,"vac":true,"version":"7757534","steam_id":85568392924469988,"keywords":["nocrits","nodmgspread","payload","uncletopia"],"game_id":440,"stv_port":27026,"stv_name":"Uncletopia | Dallas | 2 | All Maps | STV","players":null},{"server_id":5,"name":"Uncletopia | Frankfurt | 1 | All Maps","name_short":"frk-1","host":"frk-1.de.uncletopia.com","port":27015,"enabled":true,"region":"eu","cc":"de","latitude":50.110924,"longitude":8.682127,"reserved":0,"last_update":"0001-01-01T00:00:00Z","name_a2s":"Uncletopia | Frankfurt | 1 | All Maps","protocol":17,"map":"pl_swiftwater_final1","folder":"tf","game":"Team Fortress","app_id":440,"player_count":24,"max_players":24,"Bots":0,"server_type":"Dedicated","server_os":"Linux","password":true,"vac":true,"version":"7757534","steam_id":85568392924469989,"keywords":["nocrits","nodmgspread","payload","uncletopia"],"game_id":440,"stv_port":27016,"stv_name":"Uncletopia | Frankfurt | 1 | All Maps | STV","players":[{"user_id":247,"name":"LarsInABox","steam_id":76561198028329262,"connected_time":9699000000000,"state":"active","ping":66},{"user_id":374,"name":"Thoom Slayer","steam_id":76561198155010055,"connected_time":1292000000000,"state":"active","ping":128},{"user_id":358,"name":"Jruhh","steam_id":76561198842477772,"connected_time":1697000000000,"state":"active","ping":66},{"user_id":357,"name":"Mazhavil","steam_id":76561198350435096,"connected_time":1818000000000,"state":"active","ping":102},{"user_id":404,"name":"Mr.B","steam_id":76561199204478925,"connected_time":59000000000,"state":"active","ping":115},{"user_id":396,"name":"Skeletros","steam_id":76561198130969152,"connected_time":249000000000,"state":"active","ping":137},{"user_id":403,"name":"lukabudimir","steam_id":76561199251950016,"connected_time":128000000000,"state":"active","ping":77},{"user_id":369,"name":"Blo","steam_id":76561198161651469,"connected_time":1403000000000,"state":"active","ping":61},{"user_id":368,"name":"Fish 'n' Chips","steam_id":76561198033476886,"connected_time":1465000000000,"state":"active","ping":45},{"user_id":402,"name":"テイルス","steam_id":76561198022403271,"connected_time":131000000000,"state":"active","ping":44},{"user_id":405,"name":"Turkish Spy","steam_id":76561198831177630,"connected_time":59000000000,"state":"active","ping":93},{"user_id":240,"name":"Cippo95","steam_id":76561198255311582,"connected_time":10516000000000,"state":"active","ping":60},{"user_id":401,"name":"rapsterdude","steam_id":76561199388597561,"connected_time":141000000000,"state":"active","ping":70},{"user_id":373,"name":"Zonts","steam_id":76561198850176432,"connected_time":1326000000000,"state":"active","ping":80},{"user_id":406,"name":"꧁༒Xenon༒꧂","steam_id":76561198120502313,"connected_time":57000000000,"state":"active","ping":72},{"user_id":407,"name":"Kraiti","steam_id":76561198847296908,"connected_time":53000000000,"state":"active","ping":71},{"user_id":169,"name":"EdSuedi","steam_id":76561199387956486,"connected_time":14607000000000,"state":"active","ping":52},{"user_id":344,"name":"Minimi","steam_id":76561198873850443,"connected_time":3053000000000,"state":"active","ping":57},{"user_id":351,"name":"G/3","steam_id":76561198234844188,"connected_time":2603000000000,"state":"active","ping":61},{"user_id":385,"name":"DeadlyFish","steam_id":76561198144617521,"connected_time":494000000000,"state":"active","ping":86},{"user_id":408,"name":"ℤar","steam_id":76561199019585369,"connected_time":40000000000,"state":"active","ping":76},{"user_id":382,"name":"kask","steam_id":76561198115923341,"connected_time":661000000000,"state":"active","ping":89},{"user_id":355,"name":"Killbind yourself now!","steam_id":76561198082502910,"connected_time":2314000000000,"state":"active","ping":51},{"user_id":383,"name":"åtem","steam_id":76561198148681931,"connected_time":639000000000,"state":"active","ping":75}]},{"server_id":110,"name":"Uncletopia | Frankfurt | 2 | All Maps","name_short":"frk-2","host":"frk-1.de.uncletopia.com","port":27025,"enabled":true,"region":"eu","cc":"de","latitude":50.110924,"longitude":8.682127,"reserved":0,"last_update":"0001-01-01T00:00:00Z","name_a2s":"Uncletopia | Frankfurt | 2 | All Maps","protocol":17,"map":"cp_powerhouse","folder":"tf","game":"Team Fortress","app_id":440,"player_count":24,"max_players":24,"Bots":0,"server_type":"Dedicated","server_os":"Linux","password":true,"vac":true,"version":"7757534","steam_id":85568392924469990,"keywords":["cp","nocrits","nodmgspread","uncletopia"],"game_id":440,"stv_port":27026,"stv_name":"Uncletopia | Frankfurt | 2 | All Maps | STV","players":[{"user_id":249,"name":"JujuBalu","steam_id":76561198207253071,"connected_time":140000000000,"state":"active","ping":48},{"user_id":218,"name":"Far ∞","steam_id":76561199166149359,"connected_time":1804000000000,"state":"active","ping":79},{"user_id":233,"name":"Yoshikage Kira","steam_id":76561199051752886,"connected_time":800000000000,"state":"active","ping":63},{"user_id":232,"name":"tealoverr.190","steam_id":76561199028497703,"connected_time":1270000000000,"state":"active","ping":99},{"user_id":247,"name":"Dr. Le Quack","steam_id":76561197995711176,"connected_time":293000000000,"state":"active","ping":85},{"user_id":221,"name":"NABER","steam_id":76561198831465151,"connected_time":1689000000000,"state":"active","ping":85},{"user_id":211,"name":"Bromoneto","steam_id":76561198876695014,"connected_time":2126000000000,"state":"active","ping":84},{"user_id":54,"name":"Melon","steam_id":76561198150893860,"connected_time":14691000000000,"state":"active","ping":66},{"user_id":190,"name":"Bottom 1 Johnnii","steam_id":76561198012841225,"connected_time":3535000000000,"state":"active","ping":69},{"user_id":235,"name":"Nesto","steam_id":76561198015065391,"connected_time":561000000000,"state":"active","ping":90},{"user_id":161,"name":"estrogen deliver","steam_id":76561198190259726,"connected_time":5378000000000,"state":"active","ping":81},{"user_id":251,"name":"john fortress","steam_id":76561198013237629,"connected_time":109000000000,"state":"active","ping":98},{"user_id":248,"name":"turtlemode","steam_id":76561198047725928,"connected_time":175000000000,"state":"active","ping":46},{"user_id":237,"name":"Kulebra","steam_id":76561198041462031,"connected_time":550000000000,"state":"active","ping":97},{"user_id":70,"name":"wads","steam_id":76561198175406562,"connected_time":12915000000000,"state":"active","ping":60},{"user_id":194,"name":"PEW-PEW","steam_id":76561199135229478,"connected_time":3163000000000,"state":"active","ping":64},{"user_id":238,"name":"Dem","steam_id":76561198421733235,"connected_time":542000000000,"state":"active","ping":81},{"user_id":239,"name":"Daniel","steam_id":76561198015148369,"connected_time":516000000000,"state":"active","ping":85},{"user_id":252,"name":"Chrikin","steam_id":76561198416301532,"connected_time":34000000000,"state":"active","ping":174},{"user_id":245,"name":"Crocodile","steam_id":76561197984680667,"connected_time":365000000000,"state":"active","ping":71},{"user_id":241,"name":"pete_the_cat_2014","steam_id":76561198199266047,"connected_time":487000000000,"state":"active","ping":124},{"user_id":133,"name":"Banana","steam_id":76561198155118706,"connected_time":8350000000000,"state":"active","ping":105},{"user_id":242,"name":"Mogwai","steam_id":76561198078832314,"connected_time":475000000000,"state":"active","ping":77},{"user_id":230,"name":"T1 (ted1)","steam_id":76561199229022826,"connected_time":1493000000000,"state":"active","ping":112}]},{"server_id":308,"name":"Uncletopia | Frankfurt | 3 | All Maps","name_short":"frk-3","host":"frk-1.de.uncletopia.com","port":27035,"enabled":true,"region":"eu","cc":"de","latitude":50.110924,"longitude":8.682127,"reserved":0,"last_update":"0001-01-01T00:00:00Z","name_a2s":"Uncletopia | Frankfurt | 3 | All Maps","protocol":17,"map":"pl_upward","folder":"tf","game":"Team Fortress","app_id":440,"player_count":24,"max_players":24,"Bots":0,"server_type":"Dedicated","server_os":"Linux","password":true,"vac":true,"version":"7757534","steam_id":85568392924504274,"keywords":["nocrits","nodmgspread","payload","uncletopia"],"game_id":440,"stv_port":27036,"stv_name":"Uncletopia | Frankfurt | 3 | All Maps | STV","players":[{"user_id":466,"name":"GodOfBeefy","steam_id":76561198796420092,"connected_time":2040000000000,"state":"active","ping":71},{"user_id":481,"name":"enesven","steam_id":76561199466839845,"connected_time":219000000000,"state":"active","ping":100},{"user_id":473,"name":"Echo of Abyss","steam_id":76561198981841782,"connected_time":1097000000000,"state":"active","ping":87},{"user_id":479,"name":"Duke Fishlord","steam_id":76561198079928327,"connected_time":395000000000,"state":"active","ping":57},{"user_id":477,"name":"Operunter","steam_id":76561198059937616,"connected_time":478000000000,"state":"active","ping":70},{"user_id":407,"name":"Elon Ma","steam_id":76561199018053264,"connected_time":4594000000000,"state":"active","ping":66},{"user_id":427,"name":"meatsoupcube","steam_id":76561198276802249,"connected_time":3446000000000,"state":"active","ping":106},{"user_id":446,"name":"Jimbo","steam_id":76561198253507297,"connected_time":2807000000000,"state":"active","ping":143},{"user_id":483,"name":"emti","steam_id":76561198836233001,"connected_time":85000000000,"state":"active","ping":63},{"user_id":482,"name":"dash.","steam_id":76561198084796149,"connected_time":159000000000,"state":"active","ping":50},{"user_id":372,"name":"Nifi","steam_id":76561198102682566,"connected_time":6834000000000,"state":"active","ping":60},{"user_id":393,"name":"blurst of times","steam_id":76561197972325640,"connected_time":5840000000000,"state":"active","ping":51},{"user_id":454,"name":"Fart Sniffer","steam_id":76561198064513206,"connected_time":2370000000000,"state":"active","ping":74},{"user_id":436,"name":"Bowd3n","steam_id":76561198195602342,"connected_time":3361000000000,"state":"active","ping":53},{"user_id":434,"name":"Piros","steam_id":76561198193785653,"connected_time":3377000000000,"state":"active","ping":85},{"user_id":399,"name":"✪ qua ✪","steam_id":76561198066408333,"connected_time":5462000000000,"state":"active","ping":73},{"user_id":468,"name":"_zipfile","steam_id":76561198066133808,"connected_time":1923000000000,"state":"active","ping":68},{"user_id":435,"name":"The Dwarf Who Says Grudge a lot","steam_id":76561197963866545,"connected_time":3369000000000,"state":"active","ping":58},{"user_id":448,"name":"General Antifascista","steam_id":76561198194714570,"connected_time":2653000000000,"state":"active","ping":45},{"user_id":463,"name":"Mr. Shakedown Egashira","steam_id":76561198353212142,"connected_time":2060000000000,"state":"active","ping":74},{"user_id":420,"name":"tayro","steam_id":76561198202990635,"connected_time":3951000000000,"state":"active","ping":60},{"user_id":476,"name":"Spacey","steam_id":76561198055778504,"connected_time":553000000000,"state":"active","ping":110},{"user_id":465,"name":"Mr. Shakedown Oe","steam_id":76561198154153011,"connected_time":2048000000000,"state":"active","ping":106},{"user_id":471,"name":"Datenegassie","steam_id":76561198089417032,"connected_time":1558000000000,"state":"active","ping":72}]},{"server_id":309,"name":"Uncletopia | Frankfurt | 4 | All Maps","name_short":"frk-4","host":"frk-1.de.uncletopia.com","port":27045,"enabled":true,"region":"eu","cc":"de","latitude":50.110924,"longitude":8.682127,"reserved":0,"last_update":"0001-01-01T00:00:00Z","name_a2s":"Uncletopia | Frankfurt | 4 | All Maps","protocol":17,"map":"cp_dustbowl","folder":"tf","game":"Team Fortress","app_id":440,"player_count":24,"max_players":24,"Bots":0,"server_type":"Dedicated","server_os":"Linux","password":true,"vac":true,"version":"7757534","steam_id":85568392924504275,"keywords":["cp","nocrits","nodmgspread","uncletopia"],"game_id":440,"stv_port":27046,"stv_name":"Uncletopia | Frankfurt | 4 | All Maps | STV","players":[{"user_id":331,"name":"naaaa","steam_id":76561198136259553,"connected_time":307000000000,"state":"active","ping":90},{"user_id":257,"name":"Laxslow","steam_id":76561198065361846,"connected_time":3507000000000,"state":"active","ping":58},{"user_id":301,"name":"Shimass","steam_id":76561198867546842,"connected_time":1474000000000,"state":"active","ping":59},{"user_id":317,"name":"Mekurukitoッ","steam_id":76561198414304171,"connected_time":772000000000,"state":"active","ping":43},{"user_id":303,"name":"where is my egg?","steam_id":76561198172542535,"connected_time":1395000000000,"state":"active","ping":227},{"user_id":297,"name":"antlionguard","steam_id":76561198072747143,"connected_time":2255000000000,"state":"active","ping":103},{"user_id":280,"name":"InfamousAxe","steam_id":76561198099504739,"connected_time":2864000000000,"state":"active","ping":118},{"user_id":318,"name":"Gjsöekakeurhdkfisgjchjateyvxsr","steam_id":76561198220571256,"connected_time":771000000000,"state":"active","ping":54},{"user_id":288,"name":"Mellcrawler","steam_id":76561198157185673,"connected_time":2662000000000,"state":"active","ping":93},{"user_id":330,"name":"sexo","steam_id":76561199088284199,"connected_time":345000000000,"state":"active","ping":58},{"user_id":316,"name":"Noah May","steam_id":76561198411732527,"connected_time":817000000000,"state":"active","ping":56},{"user_id":335,"name":"davlevan","steam_id":76561198090848620,"connected_time":104000000000,"state":"active","ping":62},{"user_id":315,"name":"xiiski","steam_id":76561198152387747,"connected_time":846000000000,"state":"active","ping":90},{"user_id":320,"name":"Old Hat","steam_id":76561197994673297,"connected_time":684000000000,"state":"active","ping":61},{"user_id":306,"name":"r/sonofelicenellafece","steam_id":76561198262231733,"connected_time":1348000000000,"state":"active","ping":73},{"user_id":249,"name":"Asgaard","steam_id":76561198026516905,"connected_time":3779000000000,"state":"active","ping":105},{"user_id":255,"name":"FluiDCobRa™","steam_id":76561198142461723,"connected_time":3552000000000,"state":"active","ping":94},{"user_id":321,"name":"Paulo","steam_id":76561198001386978,"connected_time":605000000000,"state":"active","ping":60},{"user_id":322,"name":"Dave The Sloth","steam_id":76561199135831355,"connected_time":548000000000,"state":"active","ping":67},{"user_id":275,"name":"Landsknecht","steam_id":76561199293036742,"connected_time":3127000000000,"state":"active","ping":58},{"user_id":326,"name":"Penis Contortionist","steam_id":76561198073663784,"connected_time":407000000000,"state":"active","ping":52},{"user_id":336,"name":"TheNothinkness","steam_id":76561199063416016,"connected_time":14000000000,"state":"active","ping":106},{"user_id":332,"name":"Ralsei","steam_id":76561198030189916,"connected_time":277000000000,"state":"active","ping":63},{"user_id":334,"name":"fis","steam_id":76561199401478121,"connected_time":191000000000,"state":"active","ping":57}]},{"server_id":310,"name":"Uncletopia | Frankfurt | 5 | All Maps","name_short":"frk-5","host":"frk-1.de.uncletopia.com","port":27055,"enabled":true,"region":"eu","cc":"de","latitude":50.110924,"longitude":8.682127,"reserved":0,"last_update":"0001-01-01T00:00:00Z","name_a2s":"Uncletopia | Frankfurt | 5 | All Maps","protocol":17,"map":"koth_lakeside_final","folder":"tf","game":"Team Fortress","app_id":440,"player_count":0,"max_players":24,"Bots":0,"server_type":"Dedicated","server_os":"Linux","password":true,"vac":true,"version":"7757534","steam_id":85568392924504277,"keywords":["cp","nocrits","nodmgspread","uncletopia"],"game_id":440,"stv_port":27056,"stv_name":"Uncletopia | Frankfurt | 5 | All Maps | STV","players":null},{"server_id":311,"name":"Uncletopia | Frankfurt | 6 | All Maps","name_short":"frk-6","host":"frk-1.de.uncletopia.com","port":27065,"enabled":true,"region":"eu","cc":"de","latitude":50.110924,"longitude":8.682127,"reserved":0,"last_update":"0001-01-01T00:00:00Z","name_a2s":"Uncletopia | Frankfurt | 6 | All Maps","protocol":17,"map":"pl_barnblitz","folder":"tf","game":"Team Fortress","app_id":440,"player_count":24,"max_players":24,"Bots":0,"server_type":"Dedicated","server_os":"Linux","password":true,"vac":true,"version":"7757534","steam_id":85568392924504278,"keywords":["nocrits","nodmgspread","payload","uncletopia"],"game_id":440,"stv_port":27066,"stv_name":"Uncletopia | Frankfurt | 6 | All Maps | STV","players":[{"user_id":154,"name":"WHUSSKEY","steam_id":76561198137827441,"connected_time":1753000000000,"state":"active","ping":65},{"user_id":164,"name":"bob the veggie","steam_id":76561198013956429,"connected_time":539000000000,"state":"active","ping":72},{"user_id":165,"name":"B-Eitros","steam_id":76561198021605503,"connected_time":508000000000,"state":"active","ping":64},{"user_id":166,"name":"sork","steam_id":76561198082446459,"connected_time":448000000000,"state":"active","ping":65},{"user_id":143,"name":"whatever","steam_id":76561198095943461,"connected_time":2594000000000,"state":"active","ping":62},{"user_id":159,"name":"Realist 40","steam_id":76561198052476979,"connected_time":1048000000000,"state":"active","ping":75},{"user_id":150,"name":"mercedes ben","steam_id":76561198000147423,"connected_time":1936000000000,"state":"active","ping":55},{"user_id":160,"name":"Xie Xil Ling","steam_id":76561198053394831,"connected_time":1043000000000,"state":"active","ping":59},{"user_id":145,"name":"COLD EXPOSURE ENTHUSIAST","steam_id":76561198119392756,"connected_time":2290000000000,"state":"active","ping":90},{"user_id":90,"name":"Proto-arc","steam_id":76561198012776747,"connected_time":5877000000000,"state":"active","ping":59},{"user_id":161,"name":"Zdl","steam_id":76561198066015557,"connected_time":933000000000,"state":"active","ping":62},{"user_id":167,"name":"Some Random Guy","steam_id":76561198214459669,"connected_time":373000000000,"state":"active","ping":82},{"user_id":130,"name":"The Pyro Chef","steam_id":76561198069610259,"connected_time":3738000000000,"state":"active","ping":62},{"user_id":168,"name":"KNARRER","steam_id":76561199130777953,"connected_time":352000000000,"state":"active","ping":55},{"user_id":81,"name":"Optimist 50","steam_id":76561198039631442,"connected_time":6130000000000,"state":"active","ping":77},{"user_id":79,"name":"galaxy","steam_id":76561198164819022,"connected_time":6146000000000,"state":"active","ping":68},{"user_id":132,"name":"Tresnov","steam_id":76561198068106802,"connected_time":3731000000000,"state":"active","ping":69},{"user_id":76,"name":"gagalak","steam_id":76561198089979108,"connected_time":6373000000000,"state":"active","ping":92},{"user_id":85,"name":"Piellino","steam_id":76561198156873276,"connected_time":6087000000000,"state":"active","ping":111},{"user_id":169,"name":"Deacon Dracul","steam_id":76561198046880663,"connected_time":302000000000,"state":"active","ping":102},{"user_id":136,"name":"im red","steam_id":76561199087284519,"connected_time":3183000000000,"state":"active","ping":67},{"user_id":133,"name":"Asucca","steam_id":76561198084964415,"connected_time":3446000000000,"state":"active","ping":82},{"user_id":142,"name":"FNF","steam_id":76561199151422826,"connected_time":2971000000000,"state":"active","ping":119},{"user_id":152,"name":"what is an mc if he cant rap?","steam_id":76561198126634202,"connected_time":1840000000000,"state":"active","ping":86}]},{"server_id":23,"name":"Uncletopia | Frankfurt | 7 | Stopwatch Beta","name_short":"frk-7","host":"frk-1.de.uncletopia.com","port":27075,"enabled":true,"region":"eu","cc":"de","latitude":50.110924,"longitude":8.682127,"reserved":0,"last_update":"0001-01-01T00:00:00Z","name_a2s":"Uncletopia | Frankfurt | 7 | Stopwatch Beta","protocol":17,"map":"workshop/koth_ramjam_rc1.ugc459778887","folder":"tf","game":"Team Fortress","app_id":440,"player_count":0,"max_players":24,"Bots":0,"server_type":"Dedicated","server_os":"Linux","password":true,"vac":true,"version":"7757534","steam_id":85568392924742827,"keywords":["cp","nocrits","nodmgspread","uncletopia"],"game_id":440,"stv_port":27076,"stv_name":"Uncletopia | Frankfurt | 7 | Stopwatch Beta | STV","players":null},{"server_id":24,"name":"Uncletopia | Frankfurt | 8 | Community","name_short":"frk-8","host":"frk-1.de.uncletopia.com","port":27085,"enabled":true,"region":"eu","cc":"de","latitude":50.110924,"longitude":8.682127,"reserved":0,"last_update":"0001-01-01T00:00:00Z","name_a2s":"Uncletopia | Frankfurt | 8 | Community","protocol":17,"map":"workshop/pl_eruption_b9a.ugc2807898013","folder":"tf","game":"Team Fortress","app_id":440,"player_count":23,"max_players":24,"Bots":0,"server_type":"Dedicated","server_os":"Linux","password":true,"vac":true,"version":"7757534","steam_id":85568392924742828,"keywords":["nocrits","nodmgspread","payload","uncletopia"],"game_id":440,"stv_port":27086,"stv_name":"Uncletopia | Frankfurt | 8 | Community | STV","players":[{"user_id":385,"name":"Harry","steam_id":76561198046899720,"connected_time":2130000000000,"state":"active","ping":60},{"user_id":407,"name":"Alarmed Felix","steam_id":76561198167208311,"connected_time":246000000000,"state":"active","ping":71},{"user_id":398,"name":"Tea guy","steam_id":76561198797847641,"connected_time":1059000000000,"state":"active","ping":75},{"user_id":403,"name":"русофоб бандера","steam_id":76561199405386077,"connected_time":751000000000,"state":"active","ping":58},{"user_id":392,"name":"Joe the potato","steam_id":76561198965406613,"connected_time":1657000000000,"state":"active","ping":68},{"user_id":406,"name":"this is a cat","steam_id":76561199407659065,"connected_time":261000000000,"state":"active","ping":135},{"user_id":408,"name":"Taffer","steam_id":76561198883964471,"connected_time":175000000000,"state":"active","ping":161},{"user_id":401,"name":"♱⛧ Z e a l y ⛧♱","steam_id":76561198137499463,"connected_time":791000000000,"state":"active","ping":47},{"user_id":353,"name":"Nikola","steam_id":76561197993300020,"connected_time":3828000000000,"state":"active","ping":68},{"user_id":395,"name":"Golden Boi","steam_id":76561198325990004,"connected_time":1212000000000,"state":"active","ping":69},{"user_id":376,"name":"Bigfootjinx","steam_id":76561199128050459,"connected_time":2655000000000,"state":"active","ping":168},{"user_id":377,"name":"dustloaf","steam_id":76561198074339302,"connected_time":2491000000000,"state":"active","ping":99},{"user_id":358,"name":"M. Hulot","steam_id":76561197994284798,"connected_time":3508000000000,"state":"active","ping":48},{"user_id":372,"name":"Swedde","steam_id":76561198297296440,"connected_time":2865000000000,"state":"active","ping":82},{"user_id":409,"name":"Wir suchen dich!","steam_id":76561198307613521,"connected_time":88000000000,"state":"active","ping":55},{"user_id":386,"name":"pretty boy swag","steam_id":76561198208448312,"connected_time":2110000000000,"state":"active","ping":76},{"user_id":391,"name":"Tordenkalven!","steam_id":76561197980490417,"connected_time":1717000000000,"state":"active","ping":82},{"user_id":347,"name":"UptownFall","steam_id":76561198356707725,"connected_time":4096000000000,"state":"active","ping":61},{"user_id":348,"name":"Yung Pussy Baker","steam_id":76561198353865337,"connected_time":4093000000000,"state":"active","ping":60},{"user_id":396,"name":"silicon based life form","steam_id":76561199127121346,"connected_time":1199000000000,"state":"active","ping":71},{"user_id":402,"name":"my name is jeff the killer yo","steam_id":76561198089401997,"connected_time":778000000000,"state":"active","ping":71},{"user_id":410,"name":"Gio'sMonkey","steam_id":76561198892432223,"connected_time":78000000000,"state":"active","ping":85},{"user_id":404,"name":"Miton","steam_id":76561197970323209,"connected_time":713000000000,"state":"active","ping":89}]},{"server_id":202,"name":"Uncletopia | Hong Kong | 1 | All Maps","name_short":"hgk-1","host":"hgk-1.hk.uncletopia.com","port":27015,"enabled":true,"region":"asia","cc":"hk","latitude":22.302711,"longitude":114.177216,"reserved":0,"last_update":"0001-01-01T00:00:00Z","name_a2s":"Uncletopia | Hong Kong | 1 | All Maps","protocol":17,"map":"cp_mountainlab","folder":"tf","game":"Team Fortress","app_id":440,"player_count":0,"max_players":24,"Bots":0,"server_type":"Dedicated","server_os":"Linux","password":true,"vac":true,"version":"7757534","steam_id":85568392924494504,"keywords":["cp","nocrits","nodmgspread","uncletopia"],"game_id":440,"stv_port":27016,"stv_name":"Uncletopia | Hong Kong | 1 | All Maps | STV","players":null},{"server_id":1,"name":"Uncletopia | Los Angeles | 1 | All Maps","name_short":"lax-1","host":"lax-1.us.uncletopia.com","port":27015,"enabled":true,"region":"us-west","cc":"us","latitude":33.94279,"longitude":-118.41004,"reserved":0,"last_update":"0001-01-01T00:00:00Z","name_a2s":"Uncletopia | Los Angeles | 1 | All Maps","protocol":17,"map":"cp_snakewater_final1","folder":"tf","game":"Team Fortress","app_id":440,"player_count":0,"max_players":24,"Bots":0,"server_type":"Dedicated","server_os":"Linux","password":true,"vac":true,"version":"7757534","steam_id":85568392924469991,"keywords":["cp","nocrits","nodmgspread","uncletopia"],"game_id":440,"stv_port":27016,"stv_name":"Uncletopia | Los Angeles | 1 | All Maps | STV","players":null},{"server_id":112,"name":"Uncletopia | Los Angeles | 2 | All Maps","name_short":"lax-2","host":"lax-1.us.uncletopia.com","port":27025,"enabled":true,"region":"us-west","cc":"us","latitude":33.94279,"longitude":-118.41004,"reserved":0,"last_update":"0001-01-01T00:00:00Z","name_a2s":"Uncletopia | Los Angeles | 2 | All Maps","protocol":17,"map":"koth_viaduct","folder":"tf","game":"Team Fortress","app_id":440,"player_count":0,"max_players":24,"Bots":0,"server_type":"Dedicated","server_os":"Linux","password":true,"vac":true,"version":"7757534","steam_id":85568392924469992,"keywords":["cp","nocrits","nodmgspread","uncletopia"],"game_id":440,"stv_port":27026,"stv_name":"Uncletopia | Los Angeles | 2 | All Maps | STV","players":null},{"server_id":324,"name":"Uncletopia | Los Angeles | 3 | All Maps","name_short":"lax-3","host":"lax-1.us.uncletopia.com","port":27035,"enabled":true,"region":"us-west","cc":"us","latitude":33.94279,"longitude":-118.41004,"reserved":0,"last_update":"0001-01-01T00:00:00Z","name_a2s":"Uncletopia | Los Angeles | 3 | All Maps","protocol":17,"map":"pl_badwater","folder":"tf","game":"Team Fortress","app_id":440,"player_count":0,"max_players":24,"Bots":0,"server_type":"Dedicated","server_os":"Linux","password":true,"vac":true,"version":"7757534","steam_id":85568392924510198,"keywords":["nocrits","nodmgspread","payload","uncletopia"],"game_id":440,"stv_port":27036,"stv_name":"Uncletopia | Los Angeles | 3 | All Maps | STV","players":null},{"server_id":25,"name":"Uncletopia | Los Angeles | 4 | Stopwatch Beta","name_short":"lax-4","host":"lax-1.us.uncletopia.com","port":27045,"enabled":true,"region":"us-west","cc":"us","latitude":33.94279,"longitude":-118.41004,"reserved":0,"last_update":"0001-01-01T00:00:00Z","name_a2s":"Uncletopia | Los Angeles | 4 | Stopwatch Beta","protocol":17,"map":"koth_viaduct","folder":"tf","game":"Team Fortress","app_id":440,"player_count":0,"max_players":24,"Bots":0,"server_type":"Dedicated","server_os":"Linux","password":true,"vac":true,"version":"7757534","steam_id":85568392924510199,"keywords":["cp","nocrits","nodmgspread","uncletopia"],"game_id":440,"stv_port":27046,"stv_name":"Uncletopia | Los Angeles | 4 | Stopwatch Beta | STV","players":null},{"server_id":11,"name":"Uncletopia | London | 1 | All Maps","name_short":"lon-1","host":"lon-1.uk.uncletopia.com","port":27015,"enabled":true,"region":"eu","cc":"gb","latitude":51.509865,"longitude":-0.118092,"reserved":0,"last_update":"0001-01-01T00:00:00Z","name_a2s":"Uncletopia | London | 1 | All Maps","protocol":17,"map":"pl_wutville_event","folder":"tf","game":"Team Fortress","app_id":440,"player_count":20,"max_players":24,"Bots":0,"server_type":"Dedicated","server_os":"Linux","password":true,"vac":true,"version":"7757534","steam_id":85568392924367362,"keywords":["nocrits","nodmgspread","payload","uncletopia"],"game_id":440,"stv_port":27016,"stv_name":"Uncletopia | London | 1 | All Maps | STV","players":[{"user_id":235,"name":"LordTrap.exe","steam_id":76561198318089716,"connected_time":6154000000000,"state":"active","ping":45},{"user_id":328,"name":"MrXtr","steam_id":76561198966247397,"connected_time":86000000000,"state":"active","ping":70},{"user_id":327,"name":"Jose Luis Torrente","steam_id":76561199104305519,"connected_time":145000000000,"state":"active","ping":74},{"user_id":319,"name":"Katie","steam_id":76561198056193753,"connected_time":814000000000,"state":"active","ping":47},{"user_id":324,"name":"F1nny ♡","steam_id":76561199041640689,"connected_time":330000000000,"state":"active","ping":98},{"user_id":284,"name":"Asfreild","steam_id":76561198055901120,"connected_time":2669000000000,"state":"active","ping":72},{"user_id":299,"name":"Bumpin'Scrunts","steam_id":76561198069641252,"connected_time":2027000000000,"state":"active","ping":52},{"user_id":325,"name":"Неоновые кишки","steam_id":76561198836757413,"connected_time":273000000000,"state":"active","ping":147},{"user_id":308,"name":"Dominus.","steam_id":76561199065917088,"connected_time":1595000000000,"state":"active","ping":58},{"user_id":301,"name":"cris","steam_id":76561198047662200,"connected_time":1751000000000,"state":"active","ping":55},{"user_id":329,"name":"GigaNi*ga","steam_id":76561199044631977,"connected_time":32000000000,"state":"active","ping":74},{"user_id":282,"name":"GARbageTrash","steam_id":76561199101269633,"connected_time":2715000000000,"state":"active","ping":89},{"user_id":330,"name":"susq","steam_id":76561198405547143,"connected_time":29000000000,"state":"active","ping":86},{"user_id":302,"name":"NotChloe","steam_id":76561198080658092,"connected_time":1744000000000,"state":"active","ping":59},{"user_id":331,"name":"wiisports01","steam_id":76561199091453472,"connected_time":26000000000,"state":"spawning","ping":44},{"user_id":332,"name":"source? i made it up.","steam_id":76561198113239036,"connected_time":24000000000,"state":"spawning","ping":73},{"user_id":313,"name":"Groomable minor","steam_id":76561198345249841,"connected_time":1464000000000,"state":"active","ping":70},{"user_id":307,"name":"Celdis","steam_id":76561198079741434,"connected_time":1661000000000,"state":"active","ping":62},{"user_id":290,"name":"Drsoldier","steam_id":76561198165504766,"connected_time":2580000000000,"state":"active","ping":84},{"user_id":293,"name":"Jack\u003c3","steam_id":76561197968851846,"connected_time":2529000000000,"state":"active","ping":60}]},{"server_id":114,"name":"Uncletopia | London | 2 | All Maps","name_short":"lon-2","host":"lon-1.uk.uncletopia.com","port":27025,"enabled":true,"region":"eu","cc":"gb","latitude":51.509865,"longitude":-0.118092,"reserved":0,"last_update":"0001-01-01T00:00:00Z","name_a2s":"Uncletopia | London | 2 | All Maps","protocol":17,"map":"pl_upward","folder":"tf","game":"Team Fortress","app_id":440,"player_count":24,"max_players":24,"Bots":0,"server_type":"Dedicated","server_os":"Linux","password":true,"vac":true,"version":"7757534","steam_id":85568392924470941,"keywords":["nocrits","nodmgspread","payload","uncletopia"],"game_id":440,"stv_port":27026,"stv_name":"Uncletopia | London | 2 | All Maps | STV","players":[{"user_id":482,"name":"azzy","steam_id":76561198061293740,"connected_time":456000000000,"state":"active","ping":78},{"user_id":476,"name":"lem0nadina","steam_id":76561198427611007,"connected_time":655000000000,"state":"active","ping":77},{"user_id":483,"name":"one more time","steam_id":76561198053940216,"connected_time":449000000000,"state":"active","ping":60},{"user_id":459,"name":"cuz","steam_id":76561198283606917,"connected_time":1294000000000,"state":"active","ping":58},{"user_id":484,"name":"Avitz","steam_id":76561197986150359,"connected_time":413000000000,"state":"active","ping":44},{"user_id":455,"name":"PWizard","steam_id":76561198026458489,"connected_time":1842000000000,"state":"active","ping":70},{"user_id":485,"name":"bluemoon","steam_id":76561198097713633,"connected_time":399000000000,"state":"active","ping":72},{"user_id":465,"name":"koira","steam_id":76561197996199669,"connected_time":1178000000000,"state":"active","ping":77},{"user_id":450,"name":"Bostrash641","steam_id":76561199447225685,"connected_time":2654000000000,"state":"active","ping":73},{"user_id":486,"name":"D3$TR0Y3R (not my real name)","steam_id":76561198384909836,"connected_time":379000000000,"state":"active","ping":52},{"user_id":454,"name":"makiverem","steam_id":76561198425866216,"connected_time":2180000000000,"state":"active","ping":78},{"user_id":496,"name":"Pungkrockaren","steam_id":76561198050214002,"connected_time":55000000000,"state":"active","ping":69},{"user_id":473,"name":"SmolHedge(f2p)","steam_id":76561199170424238,"connected_time":790000000000,"state":"active","ping":61},{"user_id":470,"name":"bushman","steam_id":76561197996548146,"connected_time":996000000000,"state":"active","ping":151},{"user_id":477,"name":"Breadcrab","steam_id":76561198015924039,"connected_time":655000000000,"state":"active","ping":61},{"user_id":481,"name":"GuSkand","steam_id":76561198043775605,"connected_time":546000000000,"state":"active","ping":92},{"user_id":491,"name":"Tax fraud gaming","steam_id":76561198426628935,"connected_time":284000000000,"state":"active","ping":75},{"user_id":492,"name":"Salty dodo","steam_id":76561198992829873,"connected_time":282000000000,"state":"active","ping":76},{"user_id":479,"name":"Dr.Sees [F2P]","steam_id":76561199219233587,"connected_time":602000000000,"state":"active","ping":77},{"user_id":494,"name":"flange","steam_id":76561198040182692,"connected_time":117000000000,"state":"active","ping":44},{"user_id":495,"name":"snuppy","steam_id":76561199157666657,"connected_time":100000000000,"state":"active","ping":162},{"user_id":489,"name":"Gorp","steam_id":76561199095387705,"connected_time":354000000000,"state":"active","ping":83},{"user_id":413,"name":"Cumbustible Punda #SaveTF2","steam_id":76561197974274677,"connected_time":5956000000000,"state":"active","ping":61},{"user_id":490,"name":"is pepsi ok?","steam_id":76561197983286644,"connected_time":338000000000,"state":"active","ping":169}]},{"server_id":320,"name":"Uncletopia | London | 3 | All Maps","name_short":"lon-3","host":"lon-1.uk.uncletopia.com","port":27035,"enabled":true,"region":"eu","cc":"gb","latitude":51.509865,"longitude":-0.118092,"reserved":0,"last_update":"0001-01-01T00:00:00Z","name_a2s":"Uncletopia | London | 3 | All Maps","protocol":17,"map":"pl_snowycoast","folder":"tf","game":"Team Fortress","app_id":440,"player_count":23,"max_players":24,"Bots":0,"server_type":"Dedicated","server_os":"Linux","password":true,"vac":true,"version":"7757534","steam_id":85568392924510192,"keywords":["nocrits","nodmgspread","payload","uncletopia"],"game_id":440,"stv_port":27036,"stv_name":"Uncletopia | London | 3 | All Maps | STV","players":[{"user_id":189,"name":"ducks","steam_id":76561198166148685,"connected_time":1281000000000,"state":"active","ping":31},{"user_id":209,"name":"Solymr ibn Wali Barad","steam_id":76561198044008976,"connected_time":629000000000,"state":"active","ping":63},{"user_id":211,"name":"Koi-Koi","steam_id":76561198045527771,"connected_time":229000000000,"state":"active","ping":56},{"user_id":206,"name":"Speibsackerl","steam_id":76561198058135257,"connected_time":785000000000,"state":"active","ping":98},{"user_id":178,"name":"FaceShackle","steam_id":76561198038371397,"connected_time":2015000000000,"state":"active","ping":51},{"user_id":213,"name":"Teffg","steam_id":76561198274386094,"connected_time":114000000000,"state":"active","ping":91},{"user_id":199,"name":"Jughead","steam_id":76561198000355410,"connected_time":1066000000000,"state":"active","ping":42},{"user_id":190,"name":"ok","steam_id":76561198052575567,"connected_time":1258000000000,"state":"active","ping":85},{"user_id":172,"name":"Aximus","steam_id":76561198024575710,"connected_time":2176000000000,"state":"active","ping":72},{"user_id":192,"name":"Toast","steam_id":76561198037377265,"connected_time":1245000000000,"state":"active","ping":57},{"user_id":210,"name":"Mapus Lepoldus","steam_id":76561198067705233,"connected_time":568000000000,"state":"active","ping":82},{"user_id":201,"name":"ToniGAM3S","steam_id":76561198128605351,"connected_time":1009000000000,"state":"active","ping":67},{"user_id":207,"name":"Cu713","steam_id":76561198175463442,"connected_time":783000000000,"state":"active","ping":97},{"user_id":173,"name":"Clyde","steam_id":76561198028146043,"connected_time":2165000000000,"state":"active","ping":100},{"user_id":212,"name":"Louis Laurent","steam_id":76561198137856726,"connected_time":202000000000,"state":"active","ping":102},{"user_id":203,"name":"Ged","steam_id":76561198079288943,"connected_time":977000000000,"state":"active","ping":130},{"user_id":208,"name":"walking sentry","steam_id":76561199225363633,"connected_time":752000000000,"state":"active","ping":156},{"user_id":183,"name":"Cars","steam_id":76561198173329977,"connected_time":1529000000000,"state":"active","ping":53},{"user_id":204,"name":"Dolcelatte","steam_id":76561198038501770,"connected_time":940000000000,"state":"active","ping":62},{"user_id":121,"name":"rettucgol","steam_id":76561198068081430,"connected_time":5718000000000,"state":"active","ping":43},{"user_id":186,"name":"Paddyhammer","steam_id":76561198073195747,"connected_time":1428000000000,"state":"active","ping":59},{"user_id":193,"name":"43291842381","steam_id":76561198038160325,"connected_time":1229000000000,"state":"active","ping":82},{"user_id":188,"name":"lazoboy","steam_id":76561199074095198,"connected_time":1348000000000,"state":"active","ping":119}]},{"server_id":321,"name":"Uncletopia | London | 4 | All Maps","name_short":"lon-4","host":"lon-1.uk.uncletopia.com","port":27045,"enabled":true,"region":"eu","cc":"gb","latitude":51.509865,"longitude":-0.118092,"reserved":0,"last_update":"0001-01-01T00:00:00Z","name_a2s":"Uncletopia | London | 4 | All Maps","protocol":17,"map":"pl_badwater","folder":"tf","game":"Team Fortress","app_id":440,"player_count":19,"max_players":24,"Bots":0,"server_type":"Dedicated","server_os":"Linux","password":true,"vac":true,"version":"7757534","steam_id":85568392924510193,"keywords":["nocrits","nodmgspread","payload","uncletopia"],"game_id":440,"stv_port":27046,"stv_name":"Uncletopia | London | 4 | All Maps | STV","players":[{"user_id":137,"name":"just a cat","steam_id":76561198328023740,"connected_time":1697000000000,"state":"active","ping":54},{"user_id":120,"name":"Mr. Mundy","steam_id":76561198132008918,"connected_time":2913000000000,"state":"active","ping":88},{"user_id":126,"name":"Xiqui","steam_id":76561198818386611,"connected_time":2108000000000,"state":"active","ping":71},{"user_id":146,"name":"Dispenser Gaming","steam_id":76561198855333841,"connected_time":35000000000,"state":"active","ping":75},{"user_id":121,"name":"Bucket","steam_id":76561198814907468,"connected_time":2804000000000,"state":"active","ping":45},{"user_id":65,"name":"After8","steam_id":76561198090750865,"connected_time":5903000000000,"state":"active","ping":75},{"user_id":129,"name":"sin","steam_id":76561198193416785,"connected_time":1953000000000,"state":"active","ping":50},{"user_id":105,"name":"grip","steam_id":76561198088201976,"connected_time":3504000000000,"state":"active","ping":28},{"user_id":98,"name":"Hexagon","steam_id":76561198151205758,"connected_time":3931000000000,"state":"active","ping":60},{"user_id":99,"name":"rmz.ssj","steam_id":76561198329613930,"connected_time":3925000000000,"state":"active","ping":45},{"user_id":123,"name":"Yessirskiii","steam_id":76561198179324075,"connected_time":2618000000000,"state":"active","ping":60},{"user_id":138,"name":"Aydin","steam_id":76561197982695429,"connected_time":1642000000000,"state":"active","ping":39},{"user_id":124,"name":"zazuza","steam_id":76561198049820905,"connected_time":2362000000000,"state":"active","ping":75},{"user_id":143,"name":"MEDiUM","steam_id":76561198112328561,"connected_time":658000000000,"state":"active","ping":85},{"user_id":131,"name":"dddd","steam_id":76561198120894372,"connected_time":1949000000000,"state":"active","ping":115},{"user_id":134,"name":"Vinhal Keller","steam_id":76561198145589528,"connected_time":1905000000000,"state":"active","ping":62},{"user_id":93,"name":"night.s","steam_id":76561198326287823,"connected_time":4158000000000,"state":"active","ping":81},{"user_id":144,"name":"Lyell","steam_id":76561198350329389,"connected_time":637000000000,"state":"active","ping":81},{"user_id":136,"name":"glyph","steam_id":76561197980736364,"connected_time":1790000000000,"state":"active","ping":93}]},{"server_id":21,"name":"Uncletopia | London | 5 | All Maps","name_short":"lon-5","host":"lon-1.uk.uncletopia.com","port":27055,"enabled":true,"region":"eu","cc":"gb","latitude":51.509865,"longitude":-0.118092,"reserved":0,"last_update":"0001-01-01T00:00:00Z","name_a2s":"Uncletopia | London | 5 | All Maps","protocol":17,"map":"pl_upward","folder":"tf","game":"Team Fortress","app_id":440,"player_count":22,"max_players":24,"Bots":0,"server_type":"Dedicated","server_os":"Linux","password":true,"vac":true,"version":"7757534","steam_id":85568392924742829,"keywords":["nocrits","nodmgspread","payload","uncletopia"],"game_id":440,"stv_port":27056,"stv_name":"Uncletopia | London | 5 | All Maps | STV","players":[{"user_id":547,"name":"UltimateSlayer","steam_id":76561198384109309,"connected_time":1020000000000,"state":"active","ping":60},{"user_id":520,"name":"Cake","steam_id":76561199092422645,"connected_time":1751000000000,"state":"active","ping":133},{"user_id":542,"name":"0xDEADBEEF","steam_id":76561199075416111,"connected_time":1140000000000,"state":"active","ping":71},{"user_id":533,"name":"b_a1Ln","steam_id":76561198135213739,"connected_time":1576000000000,"state":"active","ping":101},{"user_id":556,"name":"ani","steam_id":76561198255413507,"connected_time":29000000000,"state":"active","ping":86},{"user_id":515,"name":"gorp enyojer","steam_id":76561198044293799,"connected_time":1998000000000,"state":"active","ping":64},{"user_id":551,"name":"Maestro_69","steam_id":76561199153246582,"connected_time":776000000000,"state":"active","ping":123},{"user_id":552,"name":"duuuuutch","steam_id":76561199062586342,"connected_time":736000000000,"state":"active","ping":64},{"user_id":412,"name":"Garbo","steam_id":76561198133885944,"connected_time":6445000000000,"state":"active","ping":53},{"user_id":548,"name":"TheButterPickle","steam_id":76561198354317787,"connected_time":915000000000,"state":"active","ping":55},{"user_id":526,"name":"[CiC] FU2Max","steam_id":76561197960282327,"connected_time":1660000000000,"state":"active","ping":33},{"user_id":525,"name":"Sipsu","steam_id":76561198059424107,"connected_time":1676000000000,"state":"active","ping":82},{"user_id":456,"name":".bRdyyy","steam_id":76561198057256978,"connected_time":2943000000000,"state":"active","ping":60},{"user_id":416,"name":"толя","steam_id":76561199098518615,"connected_time":5733000000000,"state":"active","ping":95},{"user_id":428,"name":"chocolate flavoured femboy","steam_id":76561198819353867,"connected_time":4824000000000,"state":"active","ping":30},{"user_id":554,"name":"Watt","steam_id":76561198894850616,"connected_time":591000000000,"state":"active","ping":76},{"user_id":545,"name":"skilltissues","steam_id":76561198025828664,"connected_time":1074000000000,"state":"active","ping":54},{"user_id":546,"name":"Noob_with_source","steam_id":76561198870362103,"connected_time":1059000000000,"state":"active","ping":54},{"user_id":534,"name":"Jack","steam_id":76561198325505238,"connected_time":1574000000000,"state":"active","ping":83},{"user_id":507,"name":"xddinside","steam_id":76561198037237664,"connected_time":2120000000000,"state":"active","ping":79},{"user_id":457,"name":"Markus Rühl","steam_id":76561198074899144,"connected_time":2938000000000,"state":"active","ping":56},{"user_id":555,"name":"Saturn","steam_id":76561199239752278,"connected_time":412000000000,"state":"active","ping":135}]},{"server_id":22,"name":"Uncletopia | London | 6 | All Maps","name_short":"lon-6","host":"lon-1.uk.uncletopia.com","port":27065,"enabled":true,"region":"eu","cc":"gb","latitude":51.509865,"longitude":-0.118092,"reserved":0,"last_update":"0001-01-01T00:00:00Z","name_a2s":"Uncletopia | London | 6 | All Maps","protocol":17,"map":"pl_snowycoast","folder":"tf","game":"Team Fortress","app_id":440,"player_count":23,"max_players":24,"Bots":0,"server_type":"Dedicated","server_os":"Linux","password":true,"vac":true,"version":"7757534","steam_id":85568392924742830,"keywords":["nocrits","nodmgspread","payload","uncletopia"],"game_id":440,"stv_port":27066,"stv_name":"Uncletopia | London | 6 | All Maps | STV","players":[{"user_id":136,"name":"Laax","steam_id":76561198938409558,"connected_time":81000000000,"state":"spawning","ping":123},{"user_id":118,"name":"not drunk","steam_id":76561199184873889,"connected_time":932000000000,"state":"active","ping":82},{"user_id":112,"name":"tepih","steam_id":76561198384246286,"connected_time":1836000000000,"state":"active","ping":64},{"user_id":100,"name":"Priceybay","steam_id":76561198055389492,"connected_time":2767000000000,"state":"active","ping":40},{"user_id":18,"name":"Ghilly","steam_id":76561198800993575,"connected_time":8607000000000,"state":"active","ping":45},{"user_id":119,"name":"FuneralDJ (semen demon)","steam_id":76561198105320071,"connected_time":864000000000,"state":"active","ping":45},{"user_id":120,"name":"Lord_Azrael","steam_id":76561199123402707,"connected_time":840000000000,"state":"active","ping":53},{"user_id":123,"name":"HERISSON","steam_id":76561199062194778,"connected_time":761000000000,"state":"active","ping":78},{"user_id":115,"name":"Lord Maldimort","steam_id":76561198063150039,"connected_time":1774000000000,"state":"active","ping":64},{"user_id":105,"name":"Matomatic","steam_id":76561198063013603,"connected_time":2496000000000,"state":"active","ping":52},{"user_id":110,"name":"toothpaste vaper","steam_id":76561198078458780,"connected_time":2252000000000,"state":"active","ping":48},{"user_id":25,"name":"lisivi","steam_id":76561198365503306,"connected_time":8312000000000,"state":"active","ping":52},{"user_id":124,"name":"drew","steam_id":76561198012304706,"connected_time":757000000000,"state":"active","ping":94},{"user_id":117,"name":"Bob_Tostas","steam_id":76561198249006560,"connected_time":1537000000000,"state":"active","ping":87},{"user_id":129,"name":"Sam Fisher","steam_id":76561198364121077,"connected_time":551000000000,"state":"active","ping":99},{"user_id":52,"name":"Nin","steam_id":76561198227246584,"connected_time":6563000000000,"state":"active","ping":72},{"user_id":137,"name":"sex haver","steam_id":76561198798892497,"connected_time":54000000000,"state":"active","ping":52},{"user_id":125,"name":"RIFT","steam_id":76561198991622379,"connected_time":745000000000,"state":"active","ping":40},{"user_id":104,"name":"Fran","steam_id":76561198339019518,"connected_time":2548000000000,"state":"active","ping":67},{"user_id":135,"name":"bad at gaem","steam_id":76561198072373587,"connected_time":231000000000,"state":"active","ping":75},{"user_id":108,"name":"Burbie","steam_id":76561198046069449,"connected_time":2351000000000,"state":"active","ping":59},{"user_id":114,"name":"ye","steam_id":76561199204543772,"connected_time":1792000000000,"state":"active","ping":55},{"user_id":133,"name":"vi","steam_id":76561198303147966,"connected_time":507000000000,"state":"active","ping":47}]},{"server_id":40,"name":"Uncletopia | London | 7 | No Payload","name_short":"lon-7","host":"lon-1.uk.uncletopia.com","port":27075,"enabled":true,"region":"eu","cc":"gb","latitude":51.509865,"longitude":-0.118092,"reserved":0,"last_update":"0001-01-01T00:00:00Z","name_a2s":"Uncletopia | London | 7 | No Payload","protocol":17,"map":"cp_steel","folder":"tf","game":"Team Fortress","app_id":440,"player_count":23,"max_players":24,"Bots":0,"server_type":"Dedicated","server_os":"Linux","password":true,"vac":true,"version":"7757534","steam_id":85568392924964314,"keywords":["cp","nocrits","nodmgspread","uncletopia"],"game_id":440,"stv_port":27076,"stv_name":"Uncletopia | London | 7 | No Payload | STV","players":[{"user_id":385,"name":"CrabboStabbo","steam_id":76561198105660937,"connected_time":80000000000,"state":"active","ping":46},{"user_id":352,"name":"CEO of Pen Island","steam_id":76561198037212191,"connected_time":1707000000000,"state":"active","ping":70},{"user_id":384,"name":"Allereinan","steam_id":76561198342239906,"connected_time":101000000000,"state":"active","ping":119},{"user_id":276,"name":"Schlumi","steam_id":76561197985385129,"connected_time":5823000000000,"state":"active","ping":61},{"user_id":375,"name":"Welder","steam_id":76561198355300561,"connected_time":612000000000,"state":"active","ping":69},{"user_id":297,"name":"Swayer","steam_id":76561198056192460,"connected_time":4588000000000,"state":"active","ping":63},{"user_id":376,"name":"Pan Pan","steam_id":76561199074670515,"connected_time":534000000000,"state":"active","ping":86},{"user_id":368,"name":"Teamtrevien","steam_id":76561198085513932,"connected_time":886000000000,"state":"active","ping":67},{"user_id":386,"name":"Topme","steam_id":76561198091734693,"connected_time":55000000000,"state":"active","ping":74},{"user_id":378,"name":"kapitan szczurros","steam_id":76561198156061143,"connected_time":472000000000,"state":"active","ping":98},{"user_id":379,"name":"Rasmusson [29th ID]","steam_id":76561198191451713,"connected_time":434000000000,"state":"active","ping":97},{"user_id":372,"name":"Stragnov☆","steam_id":76561198074702465,"connected_time":774000000000,"state":"active","ping":63},{"user_id":380,"name":"holykyckling","steam_id":76561198040661615,"connected_time":319000000000,"state":"active","ping":75},{"user_id":356,"name":"2shay","steam_id":76561198094467900,"connected_time":1618000000000,"state":"active","ping":39},{"user_id":360,"name":"tobia s","steam_id":76561198212620899,"connected_time":1485000000000,"state":"active","ping":53},{"user_id":381,"name":"saml","steam_id":76561198040716257,"connected_time":312000000000,"state":"active","ping":75},{"user_id":382,"name":"terrapieseven","steam_id":76561198072062415,"connected_time":189000000000,"state":"active","ping":129},{"user_id":350,"name":"G(RIZZ)LY","steam_id":76561197973234203,"connected_time":1790000000000,"state":"active","ping":57},{"user_id":370,"name":"Arcweld","steam_id":76561198816060720,"connected_time":796000000000,"state":"active","ping":66},{"user_id":383,"name":"Zee","steam_id":76561199229870438,"connected_time":121000000000,"state":"active","ping":163},{"user_id":323,"name":"Estrogen Overdoser","steam_id":76561199030306982,"connected_time":3208000000000,"state":"active","ping":79},{"user_id":357,"name":"Xarzni","steam_id":76561198084880661,"connected_time":1614000000000,"state":"active","ping":104},{"user_id":374,"name":"Chromatic","steam_id":76561198355976286,"connected_time":767000000000,"state":"active","ping":98}]},{"server_id":41,"name":"Uncletopia | London | 8 | Community","name_short":"lon-8","host":"lon-1.uk.uncletopia.com","port":27085,"enabled":true,"region":"eu","cc":"gb","latitude":51.509865,"longitude":-0.118092,"reserved":0,"last_update":"0001-01-01T00:00:00Z","name_a2s":"Uncletopia | London | 8 | Community","protocol":17,"map":"workshop/cp_sulfur_rc2.ugc619869471","folder":"tf","game":"Team Fortress","app_id":440,"player_count":0,"max_players":24,"Bots":0,"server_type":"Dedicated","server_os":"Linux","password":true,"vac":true,"version":"7757534","steam_id":85568392924964315,"keywords":["cp","nocrits","nodmgspread","uncletopia"],"game_id":440,"stv_port":27086,"stv_name":"Uncletopia | London | 8 | Community | STV","players":null},{"server_id":300,"name":"Uncletopia | Montréal | 1 | All Maps","name_short":"mtl-1","host":"mtl-1.ca.uncletopia.com","port":27015,"enabled":true,"region":"us-east","cc":"ca","latitude":45.50889,"longitude":-73.56167,"reserved":0,"last_update":"0001-01-01T00:00:00Z","name_a2s":"Uncletopia | Montréal | 1 | All Maps","protocol":17,"map":"koth_cascade","folder":"tf","game":"Team Fortress","app_id":440,"player_count":0,"max_players":24,"Bots":0,"server_type":"Dedicated","server_os":"Linux","password":true,"vac":true,"version":"7757534","steam_id":85568392924500087,"keywords":["cp","nocrits","nodmgspread","uncletopia"],"game_id":440,"stv_port":27016,"stv_name":"Uncletopia | Montréal | 1 | All Maps | STV","players":null},{"server_id":301,"name":"Uncletopia | Montréal | 2 | All Maps","name_short":"mtl-2","host":"mtl-1.ca.uncletopia.com","port":27025,"enabled":true,"region":"us-east","cc":"ca","latitude":45.50889,"longitude":-73.56167,"reserved":0,"last_update":"0001-01-01T00:00:00Z","name_a2s":"Uncletopia | Montréal | 2 | All Maps","protocol":17,"map":"cp_dustbowl","folder":"tf","game":"Team Fortress","app_id":440,"player_count":3,"max_players":24,"Bots":0,"server_type":"Dedicated","server_os":"Linux","password":true,"vac":true,"version":"7757534","steam_id":85568392924500088,"keywords":["cp","nocrits","nodmgspread","uncletopia"],"game_id":440,"stv_port":27026,"stv_name":"Uncletopia | Montréal | 2 | All Maps | STV","players":[{"user_id":17,"name":"FreonAddict9x19","steam_id":76561198060010824,"connected_time":617000000000,"state":"active","ping":64},{"user_id":19,"name":"CMAhappy","steam_id":76561198336929808,"connected_time":113000000000,"state":"active","ping":90},{"user_id":11,"name":"uVeins","steam_id":76561198067445528,"connected_time":3325000000000,"state":"active","ping":34}]},{"server_id":302,"name":"Uncletopia | Montréal | 3 | All Maps","name_short":"mtl-3","host":"mtl-1.ca.uncletopia.com","port":27035,"enabled":true,"region":"us-east","cc":"ca","latitude":45.50889,"longitude":-73.56167,"reserved":0,"last_update":"0001-01-01T00:00:00Z","name_a2s":"Uncletopia | Montréal | 3 | All Maps","protocol":17,"map":"pl_snowycoast","folder":"tf","game":"Team Fortress","app_id":440,"player_count":0,"max_players":24,"Bots":0,"server_type":"Dedicated","server_os":"Linux","password":true,"vac":true,"version":"7757534","steam_id":85568392924500089,"keywords":["nocrits","nodmgspread","payload","uncletopia"],"game_id":440,"stv_port":27036,"stv_name":"Uncletopia | Montréal | 3 | All Maps | STV","players":null},{"server_id":303,"name":"Uncletopia | Montréal | 4 | No Payload","name_short":"mtl-4","host":"mtl-1.ca.uncletopia.com","port":27045,"enabled":true,"region":"us-east","cc":"ca","latitude":45.50889,"longitude":-73.56167,"reserved":0,"last_update":"0001-01-01T00:00:00Z","name_a2s":"Uncletopia | Montréal | 4 | No Payload","protocol":17,"map":"koth_lakeside_final","folder":"tf","game":"Team Fortress","app_id":440,"player_count":0,"max_players":24,"Bots":0,"server_type":"Dedicated","server_os":"Linux","password":true,"vac":true,"version":"7757534","steam_id":85568392924500090,"keywords":["cp","nocrits","nodmgspread","uncletopia"],"game_id":440,"stv_port":27046,"stv_name":"Uncletopia | Montréal | 4 | No Payload | STV","players":null},{"server_id":13,"name":"Uncletopia | New York City | 1 | All Maps","name_short":"nyc-1","host":"nyc-1.us.uncletopia.com","port":27015,"enabled":true,"region":"us-east","cc":"us","latitude":40.73061,"longitude":-73.93524,"reserved":0,"last_update":"0001-01-01T00:00:00Z","name_a2s":"Uncletopia | New York City | 1 | All Maps","protocol":17,"map":"pl_pier","folder":"tf","game":"Team Fortress","app_id":440,"player_count":8,"max_players":24,"Bots":0,"server_type":"Dedicated","server_os":"Linux","password":true,"vac":true,"version":"7757534","steam_id":85568392924469993,"keywords":["nocrits","nodmgspread","payload","uncletopia"],"game_id":440,"stv_port":27016,"stv_name":"Uncletopia | New York City | 1 | All Maps | STV","players":[{"user_id":8,"name":"kel","steam_id":76561199153923345,"connected_time":1641000000000,"state":"active","ping":94},{"user_id":11,"name":"-W3E- grim10465","steam_id":76561198045698581,"connected_time":541000000000,"state":"active","ping":34},{"user_id":12,"name":"mixelmaster8","steam_id":76561198873846318,"connected_time":409000000000,"state":"active","ping":84},{"user_id":13,"name":"Red Bull Enjoyer","steam_id":76561199057730282,"connected_time":343000000000,"state":"active","ping":84},{"user_id":15,"name":"Joe Burning","steam_id":76561198208623275,"connected_time":320000000000,"state":"active","ping":87},{"user_id":16,"name":"MrSpiffy","steam_id":76561198303596449,"connected_time":251000000000,"state":"active","ping":76},{"user_id":17,"name":"Hoopla","steam_id":76561198327775508,"connected_time":128000000000,"state":"active","ping":36},{"user_id":18,"name":"Cardboard_oof","steam_id":76561199010567734,"connected_time":89000000000,"state":"active","ping":99}]},{"server_id":14,"name":"Uncletopia | New York City | 2 | All Maps","name_short":"nyc-2","host":"nyc-1.us.uncletopia.com","port":27025,"enabled":true,"region":"us-east","cc":"us","latitude":40.73061,"longitude":-73.93524,"reserved":0,"last_update":"0001-01-01T00:00:00Z","name_a2s":"Uncletopia | New York City | 2 | All Maps","protocol":17,"map":"koth_highpass","folder":"tf","game":"Team Fortress","app_id":440,"player_count":0,"max_players":24,"Bots":0,"server_type":"Dedicated","server_os":"Linux","password":true,"vac":true,"version":"7757534","steam_id":85568392924469994,"keywords":["cp","nocrits","nodmgspread","uncletopia"],"game_id":440,"stv_port":27026,"stv_name":"Uncletopia | New York City | 2 | All Maps | STV","players":null},{"server_id":15,"name":"Uncletopia | New York City | 3 | Stopwatch Beta","name_short":"nyc-3","host":"nyc-1.us.uncletopia.com","port":27035,"enabled":true,"region":"us-east","cc":"us","latitude":40.73061,"longitude":-73.93524,"reserved":0,"last_update":"0001-01-01T00:00:00Z","name_a2s":"Uncletopia | New York City | 3 | Stopwatch Beta","protocol":17,"map":"koth_highpass","folder":"tf","game":"Team Fortress","app_id":440,"player_count":0,"max_players":24,"Bots":0,"server_type":"Dedicated","server_os":"Linux","password":true,"vac":true,"version":"7757534","steam_id":85568392924742820,"keywords":["cp","nocrits","nodmgspread","uncletopia"],"game_id":440,"stv_port":27036,"stv_name":"Uncletopia | New York City | 3 | Stopwatch Beta | STV","players":null},{"server_id":16,"name":"Uncletopia | New York City | 4 | Community","name_short":"nyc-4","host":"nyc-1.us.uncletopia.com","port":27045,"enabled":true,"region":"us-east","cc":"us","latitude":40.73061,"longitude":-73.93524,"reserved":0,"last_update":"0001-01-01T00:00:00Z","name_a2s":"Uncletopia | New York City | 4 | Community","protocol":17,"map":"workshop/koth_bagel_rc5.ugc2514036946","folder":"tf","game":"Team Fortress","app_id":440,"player_count":0,"max_players":24,"Bots":0,"server_type":"Dedicated","server_os":"Linux","password":true,"vac":true,"version":"7757534","steam_id":85568392924742821,"keywords":["cp","nocrits","nodmgspread","uncletopia"],"game_id":440,"stv_port":27046,"stv_name":"Uncletopia | New York City | 4 | Community | STV","players":null},{"server_id":142,"name":"Uncletopia | São Paulo | 1 | All Maps","name_short":"sao-1","host":"sao-1.br.uncletopia.com","port":27015,"enabled":true,"region":"sa","cc":"br","latitude":-23.533773,"longitude":-46.62529,"reserved":0,"last_update":"0001-01-01T00:00:00Z","name_a2s":"Uncletopia | São Paulo | 1 | All Maps","protocol":17,"map":"pl_upward","folder":"tf","game":"Team Fortress","app_id":440,"player_count":0,"max_players":24,"Bots":0,"server_type":"Dedicated","server_os":"Linux","password":true,"vac":true,"version":"7757534","steam_id":85568392924469996,"keywords":["nocrits","nodmgspread","payload","uncletopia"],"game_id":440,"stv_port":27016,"stv_name":"Uncletopia | São Paulo | 1 | All Maps | STV","players":null},{"server_id":143,"name":"Uncletopia | São Paulo | 2 | All Maps","name_short":"sao-2","host":"sao-2.br.uncletopia.com","port":27015,"enabled":true,"region":"sa","cc":"br","latitude":-23.533773,"longitude":-46.62529,"reserved":0,"last_update":"0001-01-01T00:00:00Z","name_a2s":"Uncletopia | São Paulo | 2 | All Maps","protocol":17,"map":"koth_cascade","folder":"tf","game":"Team Fortress","app_id":440,"player_count":0,"max_players":24,"Bots":0,"server_type":"Dedicated","server_os":"Linux","password":true,"vac":true,"version":"7757534","steam_id":85568392924485349,"keywords":["cp","nocrits","nodmgspread","uncletopia"],"game_id":440,"stv_port":27016,"stv_name":"Uncletopia | São Paulo | 2 | All Maps | STV","players":null},{"server_id":7,"name":"Uncletopia | Seattle | 1 | All Maps","name_short":"sea-1","host":"sea-1.us.uncletopia.com","port":27015,"enabled":true,"region":"us-west","cc":"us","latitude":47.608013,"longitude":-122.33517,"reserved":0,"last_update":"0001-01-01T00:00:00Z","name_a2s":"Uncletopia | Seattle | 1 | All Maps","protocol":17,"map":"pl_barnblitz","folder":"tf","game":"Team Fortress","app_id":440,"player_count":0,"max_players":24,"Bots":0,"server_type":"Dedicated","server_os":"Linux","password":true,"vac":true,"version":"7757534","steam_id":85568392924469997,"keywords":["nocrits","nodmgspread","payload","uncletopia"],"game_id":440,"stv_port":27016,"stv_name":"Uncletopia | Seattle | 1 | All Maps | STV","players":null},{"server_id":119,"name":"Uncletopia | Seattle | 2 | All Maps","name_short":"sea-2","host":"sea-1.us.uncletopia.com","port":27025,"enabled":true,"region":"us-west","cc":"us","latitude":47.608013,"longitude":-122.33517,"reserved":0,"last_update":"0001-01-01T00:00:00Z","name_a2s":"Uncletopia | Seattle | 2 | All Maps","protocol":17,"map":"pl_pier","folder":"tf","game":"Team Fortress","app_id":440,"player_count":0,"max_players":24,"Bots":0,"server_type":"Dedicated","server_os":"Linux","password":true,"vac":true,"version":"7757534","steam_id":85568392924469998,"keywords":["nocrits","nodmgspread","payload","uncletopia"],"game_id":440,"stv_port":27026,"stv_name":"Uncletopia | Seattle | 2 | All Maps | STV","players":null},{"server_id":406,"name":"Uncletopia | Seattle | 3 | Stopwatch Beta","name_short":"sea-3","host":"sea-1.us.uncletopia.com","port":27035,"enabled":true,"region":"us-west","cc":"us","latitude":47.608013,"longitude":-122.33517,"reserved":0,"last_update":"0001-01-01T00:00:00Z","name_a2s":"Uncletopia | Seattle | 3 | Stopwatch Beta","protocol":17,"map":"cp_sunshine","folder":"tf","game":"Team Fortress","app_id":440,"player_count":0,"max_players":24,"Bots":0,"server_type":"Dedicated","server_os":"Linux","password":true,"vac":true,"version":"7757534","steam_id":85568392924515217,"keywords":["cp","nocrits","nodmgspread","uncletopia"],"game_id":440,"stv_port":27036,"stv_name":"Uncletopia | Seattle | 3 | Stopwatch Beta | STV","players":null},{"server_id":17,"name":"Uncletopia | San Francisco | 1 | All Maps","name_short":"sfo-1","host":"sfo-1.us.uncletopia.com","port":27015,"enabled":true,"region":"us-west","cc":"us","latitude":37.77397,"longitude":-122.4313,"reserved":0,"last_update":"0001-01-01T00:00:00Z","name_a2s":"Uncletopia | San Francisco | 1 | All Maps","protocol":17,"map":"pl_pier","folder":"tf","game":"Team Fortress","app_id":440,"player_count":0,"max_players":24,"Bots":0,"server_type":"Dedicated","server_os":"Linux","password":true,"vac":true,"version":"7757534","steam_id":85568392924469999,"keywords":["nocrits","nodmgspread","payload","uncletopia"],"game_id":440,"stv_port":27016,"stv_name":"Uncletopia | San Francisco | 1 | All Maps | STV","players":null},{"server_id":18,"name":"Uncletopia | San Francisco | 2 | All Maps","name_short":"sfo-2","host":"sfo-1.us.uncletopia.com","port":27025,"enabled":true,"region":"us-west","cc":"us","latitude":37.77397,"longitude":-122.4313,"reserved":0,"last_update":"0001-01-01T00:00:00Z","name_a2s":"Uncletopia | San Francisco | 2 | All Maps","protocol":17,"map":"cp_mountainlab","folder":"tf","game":"Team Fortress","app_id":440,"player_count":0,"max_players":24,"Bots":0,"server_type":"Dedicated","server_os":"Linux","password":true,"vac":true,"version":"7757534","steam_id":85568392924470000,"keywords":["cp","nocrits","nodmgspread","uncletopia"],"game_id":440,"stv_port":27026,"stv_name":"Uncletopia | San Francisco | 2 | All Maps | STV","players":null},{"server_id":19,"name":"Uncletopia | San Francisco | 3 | Stopwatch Beta","name_short":"sfo-3","host":"sfo-1.us.uncletopia.com","port":27035,"enabled":true,"region":"us-west","cc":"us","latitude":37.77397,"longitude":-122.4313,"reserved":0,"last_update":"0001-01-01T00:00:00Z","name_a2s":"Uncletopia | San Francisco | 3 | Stopwatch Beta","protocol":17,"map":"koth_viaduct","folder":"tf","game":"Team Fortress","app_id":440,"player_count":0,"max_players":24,"Bots":0,"server_type":"Dedicated","server_os":"Linux","password":true,"vac":true,"version":"7757534","steam_id":85568392924742824,"keywords":["cp","nocrits","nodmgspread","uncletopia"],"game_id":440,"stv_port":27036,"stv_name":"Uncletopia | San Francisco | 3 | Stopwatch Beta | STV","players":null},{"server_id":20,"name":"Uncletopia | San Francisco | 4 | Community","name_short":"sfo-4","host":"sfo-1.us.uncletopia.com","port":27045,"enabled":true,"region":"us-west","cc":"us","latitude":37.77397,"longitude":-122.4313,"reserved":0,"last_update":"0001-01-01T00:00:00Z","name_a2s":"Uncletopia | San Francisco | 4 | Community","protocol":17,"map":"workshop/rd_asteroid_redux_b1.ugc2154902912","folder":"tf","game":"Team Fortress","app_id":440,"player_count":12,"max_players":24,"Bots":0,"server_type":"Dedicated","server_os":"Linux","password":true,"vac":true,"version":"7757534","steam_id":85568392924742826,"keywords":["beta","nocrits","nodmgspread","rd","uncletopia"],"game_id":440,"stv_port":27046,"stv_name":"Uncletopia | San Francisco | 4 | Community | STV","players":[{"user_id":138,"name":"no vc no c","steam_id":76561197989503095,"connected_time":716000000000,"state":"active","ping":149},{"user_id":127,"name":"Kuma","steam_id":76561199100813140,"connected_time":1403000000000,"state":"spawning","ping":145},{"user_id":126,"name":"KittyToy","steam_id":76561198043990701,"connected_time":1432000000000,"state":"active","ping":72},{"user_id":139,"name":"hoOmIN","steam_id":76561198334947079,"connected_time":663000000000,"state":"active","ping":46},{"user_id":96,"name":"Sad Sapling","steam_id":76561198075612150,"connected_time":3288000000000,"state":"active","ping":54},{"user_id":87,"name":"TheGreatDong","steam_id":76561198000634178,"connected_time":3742000000000,"state":"active","ping":56},{"user_id":132,"name":"Ginger Jesus","steam_id":76561198052386458,"connected_time":999000000000,"state":"active","ping":107},{"user_id":145,"name":"Acro Banwagon","steam_id":76561198092451804,"connected_time":52000000000,"state":"active","ping":112},{"user_id":134,"name":"Honeybunch","steam_id":76561198014850580,"connected_time":997000000000,"state":"active","ping":57},{"user_id":88,"name":"schnedwob","steam_id":76561197999146588,"connected_time":3742000000000,"state":"active","ping":91},{"user_id":99,"name":"prdxninja","steam_id":76561198170081774,"connected_time":2800000000000,"state":"active","ping":89},{"user_id":109,"name":"Zobozo","steam_id":76561198028954297,"connected_time":2465000000000,"state":"active","ping":54}]},{"server_id":141,"name":"Uncletopia | Sydney | 1 | All Maps","name_short":"syd-1","host":"syd-1.au.uncletopia.com","port":27015,"enabled":true,"region":"au","cc":"au","latitude":-33.865143,"longitude":151.2099,"reserved":0,"last_update":"0001-01-01T00:00:00Z","name_a2s":"Uncletopia | Sydney | 1 | All Maps","protocol":17,"map":"koth_highpass","folder":"tf","game":"Team Fortress","app_id":440,"player_count":0,"max_players":24,"Bots":0,"server_type":"Dedicated","server_os":"Linux","password":true,"vac":true,"version":"7757534","steam_id":85568392924470001,"keywords":["cp","nocrits","nodmgspread","uncletopia"],"game_id":440,"stv_port":27016,"stv_name":"Uncletopia | Sydney | 1 | All Maps | STV","players":null},{"server_id":123,"name":"Uncletopia | Sydney | 2 | All Maps","name_short":"syd-2","host":"syd-1.au.uncletopia.com","port":27025,"enabled":true,"region":"au","cc":"au","latitude":-33.865143,"longitude":151.2099,"reserved":0,"last_update":"0001-01-01T00:00:00Z","name_a2s":"Uncletopia | Sydney | 2 | All Maps","protocol":17,"map":"koth_cascade","folder":"tf","game":"Team Fortress","app_id":440,"player_count":6,"max_players":24,"Bots":0,"server_type":"Dedicated","server_os":"Linux","password":true,"vac":true,"version":"7757534","steam_id":85568392924470002,"keywords":["cp","nocrits","nodmgspread","uncletopia"],"game_id":440,"stv_port":27026,"stv_name":"Uncletopia | Sydney | 2 | All Maps | STV","players":[{"user_id":587,"name":"707","steam_id":76561198846610729,"connected_time":188000000000,"state":"active","ping":230},{"user_id":580,"name":"Traveller","steam_id":76561199161637215,"connected_time":2380000000000,"state":"active","ping":103},{"user_id":585,"name":"Gort","steam_id":76561198967244552,"connected_time":1403000000000,"state":"active","ping":163},{"user_id":581,"name":"Nut Bucket","steam_id":76561198138193812,"connected_time":2336000000000,"state":"active","ping":61},{"user_id":556,"name":"Jad","steam_id":76561198453862581,"connected_time":5038000000000,"state":"active","ping":84},{"user_id":566,"name":"bunnies002","steam_id":76561199368512129,"connected_time":4197000000000,"state":"active","ping":82}]},{"server_id":395,"name":"Uncletopia | Sydney | 3 | All Maps","name_short":"syd-3","host":"syd-1.au.uncletopia.com","port":27035,"enabled":true,"region":"au","cc":"au","latitude":-33.865143,"longitude":151.2099,"reserved":0,"last_update":"0001-01-01T00:00:00Z","name_a2s":"Uncletopia | Sydney | 3 | All Maps","protocol":17,"map":"cp_process_final","folder":"tf","game":"Team Fortress","app_id":440,"player_count":0,"max_players":24,"Bots":0,"server_type":"Dedicated","server_os":"Linux","password":true,"vac":true,"version":"7757534","steam_id":85568392925194467,"keywords":["cp","nocrits","nodmgspread","uncletopia"],"game_id":440,"stv_port":27036,"stv_name":"Uncletopia | Sydney | 3 | All Maps | STV","players":null},{"server_id":396,"name":"Uncletopia | Sydney | 4 | All Maps","name_short":"syd-4","host":"syd-1.au.uncletopia.com","port":27045,"enabled":true,"region":"au","cc":"au","latitude":-33.865143,"longitude":151.2099,"reserved":0,"last_update":"0001-01-01T00:00:00Z","name_a2s":"Uncletopia | Sydney | 4 | All Maps","protocol":17,"map":"koth_highpass","folder":"tf","game":"Team Fortress","app_id":440,"player_count":0,"max_players":24,"Bots":0,"server_type":"Dedicated","server_os":"Linux","password":true,"vac":true,"version":"7757534","steam_id":85568392925397958,"keywords":["cp","nocrits","nodmgspread","uncletopia"],"game_id":440,"stv_port":27046,"stv_name":"Uncletopia | Sydney | 4 | All Maps | STV","players":null},{"server_id":58,"name":"Uncletopia | Sydney | 5 | Stopwatch Beta","name_short":"syd-5","host":"syd-1.au.uncletopia.com","port":27055,"enabled":true,"region":"au","cc":"au","latitude":-33.865143,"longitude":151.2099,"reserved":0,"last_update":"0001-01-01T00:00:00Z","name_a2s":"Uncletopia | Sydney | 5 | Stopwatch Beta","protocol":17,"map":"workshop/koth_ashville_final.ugc2130459942","folder":"tf","game":"Team Fortress","app_id":440,"player_count":0,"max_players":24,"Bots":0,"server_type":"Dedicated","server_os":"Linux","password":true,"vac":true,"version":"7757534","steam_id":85568392925397959,"keywords":["cp","nocrits","nodmgspread","uncletopia"],"game_id":440,"stv_port":27056,"stv_name":"Uncletopia | Sydney | 5 | Stopwatch Beta | STV","players":null},{"server_id":59,"name":"Uncletopia | Sydney | 6 | Community","name_short":"syd-6","host":"syd-1.au.uncletopia.com","port":27065,"enabled":true,"region":"au","cc":"au","latitude":-33.865143,"longitude":151.2099,"reserved":0,"last_update":"0001-01-01T00:00:00Z","name_a2s":"Uncletopia | Sydney | 6 | Community","protocol":17,"map":"workshop/koth_ashville_final.ugc2130459942","folder":"tf","game":"Team Fortress","app_id":440,"player_count":0,"max_players":24,"Bots":0,"server_type":"Dedicated","server_os":"Linux","password":true,"vac":true,"version":"7757534","steam_id":85568392925397960,"keywords":["cp","nocrits","nodmgspread","uncletopia"],"game_id":440,"stv_port":27066,"stv_name":"Uncletopia | Sydney | 6 | Community | STV","players":null},{"server_id":49,"name":"Uncletopia | Warsaw | 1 | All Maps","name_short":"waw-1","host":"waw-1.pl.uncletopia.com","port":27015,"enabled":true,"region":"eu","cc":"pl","latitude":52.2297,"longitude":21.017532,"reserved":0,"last_update":"0001-01-01T00:00:00Z","name_a2s":"","protocol":0,"map":"","folder":"","game":"","app_id":0,"player_count":0,"max_players":0,"Bots":0,"server_type":"","server_os":"","password":false,"vac":false,"version":"","steam_id":0,"keywords":null,"game_id":0,"stv_port":0,"stv_name":"","players":null},{"server_id":50,"name":"Uncletopia | Warsaw | 2 | All Maps","name_short":"waw-2","host":"waw-1.pl.uncletopia.com","port":27025,"enabled":true,"region":"eu","cc":"pl","latitude":52.2297,"longitude":21.017532,"reserved":0,"last_update":"0001-01-01T00:00:00Z","name_a2s":"Uncletopia | Warsaw | 2 | All Maps","protocol":17,"map":"cp_snakewater_final1","folder":"tf","game":"Team Fortress","app_id":440,"player_count":2,"max_players":24,"Bots":0,"server_type":"Dedicated","server_os":"Linux","password":true,"vac":true,"version":"7757534","steam_id":85568392925397851,"keywords":["cp","nocrits","nodmgspread","uncletopia"],"game_id":440,"stv_port":27026,"stv_name":"Uncletopia | Warsaw | 2 | All Maps | STV","players":[{"user_id":4,"name":"Imnotbadimpootis","steam_id":76561199273982777,"connected_time":331000000000,"state":"active","ping":78},{"user_id":6,"name":"Super_Mario","steam_id":76561199099250683,"connected_time":268000000000,"state":"active","ping":104}]},{"server_id":51,"name":"Uncletopia | Warsaw | 3 | All Maps","name_short":"waw-3","host":"waw-1.pl.uncletopia.com","port":27035,"enabled":true,"region":"eu","cc":"pl","latitude":52.2297,"longitude":21.017532,"reserved":0,"last_update":"0001-01-01T00:00:00Z","name_a2s":"Uncletopia | Warsaw | 3 | All Maps","protocol":17,"map":"pl_borneo","folder":"tf","game":"Team Fortress","app_id":440,"player_count":4,"max_players":24,"Bots":0,"server_type":"Dedicated","server_os":"Linux","password":true,"vac":true,"version":"7757534","steam_id":85568392925397852,"keywords":["nocrits","nodmgspread","payload","uncletopia"],"game_id":440,"stv_port":27036,"stv_name":"Uncletopia | Warsaw | 3 | All Maps | STV","players":[{"user_id":19,"name":"Roe Jogan","steam_id":76561198871991529,"connected_time":145000000000,"state":"active","ping":89},{"user_id":20,"name":"Alexdre","steam_id":76561199119427718,"connected_time":142000000000,"state":"active","ping":87},{"user_id":16,"name":"RiAvoTheOfficial","steam_id":76561199121022061,"connected_time":1580000000000,"state":"active","ping":143},{"user_id":17,"name":"sej0986","steam_id":76561199146998433,"connected_time":1276000000000,"state":"active","ping":127}]},{"server_id":52,"name":"Uncletopia | Warsaw | 4 | All Maps","name_short":"waw-4","host":"waw-1.pl.uncletopia.com","port":27045,"enabled":true,"region":"eu","cc":"pl","latitude":52.2297,"longitude":21.017532,"reserved":0,"last_update":"0001-01-01T00:00:00Z","name_a2s":"Uncletopia | Warsaw | 4 | All Maps","protocol":17,"map":"pl_frontier_final","folder":"tf","game":"Team Fortress","app_id":440,"player_count":0,"max_players":24,"Bots":0,"server_type":"Dedicated","server_os":"Linux","password":true,"vac":true,"version":"7757534","steam_id":85568392925397853,"keywords":["nocrits","nodmgspread","payload","uncletopia"],"game_id":440,"stv_port":27046,"stv_name":"Uncletopia | Warsaw | 4 | All Maps | STV","players":null},{"server_id":53,"name":"Uncletopia | Warsaw | 5 | Stopwatch Beta","name_short":"waw-5","host":"waw-1.pl.uncletopia.com","port":27055,"enabled":true,"region":"eu","cc":"pl","latitude":52.2297,"longitude":21.017532,"reserved":0,"last_update":"0001-01-01T00:00:00Z","name_a2s":"Uncletopia | Warsaw | 5 | Stopwatch Beta","protocol":17,"map":"pl_upward","folder":"tf","game":"Team Fortress","app_id":440,"player_count":0,"max_players":24,"Bots":0,"server_type":"Dedicated","server_os":"Linux","password":true,"vac":true,"version":"7757534","steam_id":85568392925397854,"keywords":["nocrits","nodmgspread","payload","uncletopia"],"game_id":440,"stv_port":27056,"stv_name":"Uncletopia | Warsaw | 5 | Stopwatch Beta | STV","players":null},{"server_id":54,"name":"Uncletopia | Warsaw | 6 | Community","name_short":"waw-6","host":"waw-1.pl.uncletopia.com","port":27065,"enabled":true,"region":"eu","cc":"pl","latitude":52.2297,"longitude":21.017532,"reserved":0,"last_update":"0001-01-01T00:00:00Z","name_a2s":"Uncletopia | Warsaw | 6 | Community","protocol":17,"map":"workshop/koth_bagel_rc5.ugc2514036946","folder":"tf","game":"Team Fortress","app_id":440,"player_count":0,"max_players":24,"Bots":0,"server_type":"Dedicated","server_os":"Linux","password":true,"vac":true,"version":"7757534","steam_id":85568392925397856,"keywords":["cp","nocrits","nodmgspread","uncletopia"],"game_id":440,"stv_port":27066,"stv_name":"Uncletopia | Warsaw | 6 | Community | STV","players":null}]}