{"status":true,"message":"","result":[{"server_id":9,"name":"Uncletopia | Atlanta | 1 | All Maps","name_short":"atl-1","host":"atl-1.us.uncletopia.com","port":27015,"enabled":true,"region":"us-east","cc":"us","latitude":33.753746,"longitude":-84.38633,"reserved":0,"last_update":"0001-01-01T00:00:00Z","name_a2s":"Uncletopia | Atlanta | 1 | All Maps","protocol":17,"map":"pl_borneo","folder":"tf","game":"Team Fortress","app_id":440,"player_count":1,"max_players":24,"Bots":0,"server_type":"Dedicated","server_os":"Linux","password":true,"vac":true,"version":"7723704","steam_id":85568392924469982,"keywords":["nocrits","nodmgspread","payload","uncletopia"],"game_id":440,"stv_port":27016,"stv_name":"Uncletopia | Atlanta | 1 | All Maps | STV","players":[{"user_id":13,"name":"Apachegg","steam_id":76561199407948948,"connected_time":994000000000,"state":"active","ping":86}]},{"server_id":400,"name":"Uncletopia | Atlanta | 3 | Stopwatch Beta","name_short":"atl-3","host":"atl-1.us.uncletopia.com","port":27035,"enabled":true,"region":"us-east","cc":"us","latitude":33.753746,"longitude":-84.38633,"reserved":0,"last_update":"0001-01-01T00:00:00Z","name_a2s":"Uncletopia | Atlanta | 3 | Stopwatch Beta","protocol":17,"map":"koth_cascade","folder":"tf","game":"Team Fortress","app_id":440,"player_count":0,"max_players":24,"Bots":0,"server_type":"Dedicated","server_os":"Linux","password":true,"vac":true,"version":"7723704","steam_id":85568392924515187,"keywords":["cp","nocrits","nodmgspread","uncletopia"],"game_id":440,"stv_port":27036,"stv_name":"Uncletopia | Atlanta | 3 | Stopwatch Beta | STV","players":null},{"server_id":401,"name":"Uncletopia | Atlanta | 4 | No Payload","name_short":"atl-4","host":"atl-1.us.uncletopia.com","port":27045,"enabled":true,"region":"us-east","cc":"us","latitude":33.753746,"longitude":-84.38633,"reserved":0,"last_update":"0001-01-01T00:00:00Z","name_a2s":"Uncletopia | Atlanta | 4 | No Payload","protocol":17,"map":"pl_pier","folder":"tf","game":"Team Fortress","app_id":440,"player_count":0,"max_players":24,"Bots":0,"server_type":"Dedicated","server_os":"Linux","password":true,"vac":true,"version":"7723704","steam_id":85568392924515188,"keywords":["nocrits","nodmgspread","payload","uncletopia"],"game_id":440,"stv_port":27046,"stv_name":"Uncletopia | Atlanta | 4 | No Payload | STV","players":null},{"server_id":2,"name":"Uncletopia | Chicago | 1 | All Maps","name_short":"chi-1","host":"chi-1.us.uncletopia.com","port":27015,"enabled":true,"region":"us-central","cc":"us","latitude":41.881832,"longitude":-87.62318,"reserved":0,"last_update":"0001-01-01T00:00:00Z","name_a2s":"Uncletopia | Chicago | 1 | All Maps","protocol":17,"map":"pl_upward","folder":"tf","game":"Team Fortress","app_id":440,"player_count":24,"max_players":24,"Bots":0,"server_type":"Dedicated","server_os":"Linux","password":true,"vac":true,"version":"7723704","steam_id":85568392924469984,"keywords":["nocrits","nodmgspread","payload","uncletopia"],"game_id":440,"stv_port":27016,"stv_name":"Uncletopia | Chicago | 1 | All Maps | STV","players":[{"user_id":3,"name":"F3RRAL","steam_id":76561198172279275,"connected_time":5014000000000,"state":"active","ping":90},{"user_id":62,"name":"viagra addict","steam_id":76561198017705248,"connected_time":583000000000,"state":"active","ping":63},{"user_id":53,"name":"Gaming Gaming","steam_id":76561198989717627,"connected_time":2024000000000,"state":"active","ping":62},{"user_id":67,"name":"Maxx","steam_id":76561198045405304,"connected_time":501000000000,"state":"active","ping":89},{"user_id":28,"name":"Ramix","steam_id":76561198120419206,"connected_time":3734000000000,"state":"active","ping":81},{"user_id":8,"name":"The Doc K","steam_id":76561198035695029,"connected_time":4998000000000,"state":"active","ping":95},{"user_id":9,"name":"Kol","steam_id":76561199151398882,"connected_time":4998000000000,"state":"active","ping":87},{"user_id":66,"name":"wizorb","steam_id":76561198002172674,"connected_time":526000000000,"state":"active","ping":74},{"user_id":70,"name":"ENORMOUS HOG","steam_id":76561198079923652,"connected_time":5000000000,"state":"spawning","ping":85},{"user_id":13,"name":"SRV","steam_id":76561198026589960,"connected_time":4939000000000,"state":"active","ping":57},{"user_id":56,"name":"richard clock","steam_id":76561198048455671,"connected_time":1037000000000,"state":"active","ping":60},{"user_id":54,"name":"valtiel","steam_id":76561198165212575,"connected_time":2017000000000,"state":"active","ping":74},{"user_id":68,"name":"Wolfwu - BUFF THE SPEED","steam_id":76561198864421290,"connected_time":111000000000,"state":"active","ping":51},{"user_id":26,"name":"SomeRandomPerson (f2p)","steam_id":76561198977045933,"connected_time":4006000000000,"state":"active","ping":81},{"user_id":57,"name":"Dr. Bobo","steam_id":76561198271696761,"connected_time":1035000000000,"state":"active","ping":82},{"user_id":69,"name":"name him golfball","steam_id":76561198068958789,"connected_time":49000000000,"state":"active","ping":60},{"user_id":32,"name":"mommy claus","steam_id":76561199230929836,"connected_time":3659000000000,"state":"active","ping":81},{"user_id":37,"name":"the crusader","steam_id":76561199121421613,"connected_time":3507000000000,"state":"active","ping":56},{"user_id":61,"name":"Ripheart","steam_id":76561198089661561,"connected_time":586000000000,"state":"active","ping":56},{"user_id":51,"name":"lost in spaaaaace","steam_id":76561199085974120,"connected_time":2502000000000,"state":"active","ping":64},{"user_id":63,"name":"waxdood","steam_id":76561198117546063,"connected_time":581000000000,"state":"active","ping":63},{"user_id":45,"name":"Gel electrophoresis railgun","steam_id":76561198032259680,"connected_time":3327000000000,"state":"active","ping":76},{"user_id":55,"name":"bobdragon27","steam_id":76561198065833387,"connected_time":1928000000000,"state":"active","ping":59},{"user_id":64,"name":"The Engie","steam_id":76561198029782412,"connected_time":581000000000,"state":"active","ping":71}]},{"server_id":106,"name":"Uncletopia | Chicago | 2 | All Maps","name_short":"chi-2","host":"chi-1.us.uncletopia.com","port":27025,"enabled":true,"region":"us-central","cc":"us","latitude":41.881832,"longitude":-87.62318,"reserved":0,"last_update":"0001-01-01T00:00:00Z","name_a2s":"Uncletopia | Chicago | 2 | All Maps","protocol":17,"map":"koth_highpass","folder":"tf","game":"Team Fortress","app_id":440,"player_count":0,"max_players":24,"Bots":0,"server_type":"Dedicated","server_os":"Linux","password":true,"vac":true,"version":"7723704","steam_id":85568392924469985,"keywords":["cp","nocrits","nodmgspread","uncletopia"],"game_id":440,"stv_port":27026,"stv_name":"Uncletopia | Chicago | 2 | All Maps | STV","players":null},{"server_id":402,"name":"Uncletopia | Chicago | 3 | All Maps","name_short":"chi-3","host":"chi-1.us.uncletopia.com","port":27035,"enabled":true,"region":"us-central","cc":"us","latitude":41.881832,"longitude":-87.62318,"reserved":0,"last_update":"0001-01-01T00:00:00Z","name_a2s":"Uncletopia | Chicago | 3 | All Maps","protocol":17,"map":"cp_mountainlab","folder":"tf","game":"Team Fortress","app_id":440,"player_count":0,"max_players":24,"Bots":0,"server_type":"Dedicated","server_os":"Linux","password":true,"vac":true,"version":"7723704","steam_id":85568392924515191,"keywords":["cp","nocrits","nodmgspread","uncletopia"],"game_id":440,"stv_port":27036,"stv_name":"Uncletopia | Chicago | 3 | All Maps | STV","players":null},{"server_id":403,"name":"Uncletopia | Chicago | 4 | All Maps","name_short":"chi-4","host":"chi-1.us.uncletopia.com","port":27045,"enabled":true,"region":"us-central","cc":"us","latitude":41.881832,"longitude":-87.62318,"reserved":0,"last_update":"0001-01-01T00:00:00Z","name_a2s":"Uncletopia | Chicago | 4 | All Maps","protocol":17,"map":"pl_pier","folder":"tf","game":"Team Fortress","app_id":440,"player_count":0,"max_players":24,"Bots":0,"server_type":"Dedicated","server_os":"Linux","password":true,"vac":true,"version":"7723704","steam_id":85568392924515193,"keywords":["nocrits","nodmgspread","payload","uncletopia"],"game_id":440,"stv_port":27046,"stv_name":"Uncletopia | Chicago | 4 | All Maps | STV","players":null},{"server_id":36,"name":"Uncletopia | Chicago | 5 | All Maps","name_short":"chi-5","host":"chi-2.us.uncletopia.com","port":27015,"enabled":true,"region":"us-central","cc":"us","latitude":41.881832,"longitude":-87.62318,"reserved":0,"last_update":"0001-01-01T00:00:00Z","name_a2s":"Uncletopia | Chicago | 5 | All Maps","protocol":17,"map":"cp_altitude","folder":"tf","game":"Team Fortress","app_id":440,"player_count":0,"max_players":24,"Bots":0,"server_type":"Dedicated","server_os":"Linux","password":true,"vac":true,"version":"7723704","steam_id":85568392924866362,"keywords":["cp","nocrits","nodmgspread","uncletopia"],"game_id":440,"stv_port":27016,"stv_name":"Uncletopia | Chicago | 5 | All Maps | STV","players":null},{"server_id":37,"name":"Uncletopia | Chicago | 6 | All Maps","name_short":"chi-6","host":"chi-2.us.uncletopia.com","port":27025,"enabled":true,"region":"us-central","cc":"us","latitude":41.881832,"longitude":-87.62318,"reserved":0,"last_update":"0001-01-01T00:00:00Z","name_a2s":"Uncletopia | Chicago | 6 | All Maps","protocol":17,"map":"koth_viaduct","folder":"tf","game":"Team Fortress","app_id":440,"player_count":0,"max_players":24,"Bots":0,"server_type":"Dedicated","server_os":"Linux","password":true,"vac":true,"version":"7723704","steam_id":85568392924866363,"keywords":["cp","nocrits","nodmgspread","uncletopia"],"game_id":440,"stv_port":27026,"stv_name":"Uncletopia | Chicago | 6 | All Maps | STV","players":null},{"server_id":38,"name":"Uncletopia | Chicago | 7 | Stopwatch Beta","name_short":"chi-7","host":"chi-2.us.uncletopia.com","port":27035,"enabled":true,"region":"us-central","cc":"us","latitude":41.881832,"longitude":-87.62318,"reserved":0,"last_update":"0001-01-01T00:00:00Z","name_a2s":"Uncletopia | Chicago | 7 | Stopwatch Beta","protocol":17,"map":"pl_upward","folder":"tf","game":"Team Fortress","app_id":440,"player_count":0,"max_players":24,"Bots":0,"server_type":"Dedicated","server_os":"Linux","password":true,"vac":true,"version":"7723704","steam_id":85568392924866364,"keywords":["nocrits","nodmgspread","payload","uncletopia"],"game_id":440,"stv_port":27036,"stv_name":"Uncletopia | Chicago | 7 | Stopwatch Beta | STV","players":null},{"server_id":39,"name":"Uncletopia | Chicago | 8 | Community","name_short":"chi-8","host":"chi-2.us.uncletopia.com","port":27045,"enabled":true,"region":"us-central","cc":"us","latitude":41.881832,"longitude":-87.62318,"reserved":0,"last_update":"0001-01-01T00:00:00Z","name_a2s":"Uncletopia | Chicago | 8 | Community","protocol":17,"map":"pl_frontier_final","folder":"tf","game":"Team Fortress","app_id":440,"player_count":0,"max_players":24,"Bots":0,"server_type":"Dedicated","server_os":"Linux","password":true,"vac":true,"version":"7723704","steam_id":85568392924866365,"keywords":["nocrits","nodmgspread","payload","uncletopia"],"game_id":440,"stv_port":27046,"stv_name":"Uncletopia | Chicago | 8 | Community | STV","players":null},{"server_id":8,"name":"Uncletopia | Dallas | 1 | All Maps","name_short":"dal-1","host":"dal-1.us.uncletopia.com","port":27015,"enabled":true,"region":"us-central","cc":"us","latitude":32.779167,"longitude":-96.80889,"reserved":0,"last_update":"0001-01-01T00:00:00Z","name_a2s":"Uncletopia | Dallas | 1 | All Maps","protocol":17,"map":"pl_frontier_final","folder":"tf","game":"Team Fortress","app_id":440,"player_count":0,"max_players":24,"Bots":0,"server_type":"Dedicated","server_os":"Linux","password":true,"vac":true,"version":"7723704","steam_id":85568392924469986,"keywords":["nocrits","nodmgspread","payload","uncletopia"],"game_id":440,"stv_port":27016,"stv_name":"Uncletopia | Dallas | 1 | All Maps | STV","players":null},{"server_id":108,"name":"Uncletopia | Dallas | 2 | All Maps","name_short":"dal-2","host":"dal-1.us.uncletopia.com","port":27025,"enabled":true,"region":"us-central","cc":"us","latitude":32.779167,"longitude":-96.80889,"reserved":0,"last_update":"0001-01-01T00:00:00Z","name_a2s":"Uncletopia | Dallas | 2 | All Maps","protocol":17,"map":"pl_borneo","folder":"tf","game":"Team Fortress","app_id":440,"player_count":0,"max_players":24,"Bots":0,"server_type":"Dedicated","server_os":"Linux","password":true,"vac":true,"version":"7723704","steam_id":85568392924469988,"keywords":["nocrits","nodmgspread","payload","uncletopia"],"game_id":440,"stv_port":27026,"stv_name":"Uncletopia | Dallas | 2 | All Maps | STV","players":null},{"server_id":5,"name":"Uncletopia | Frankfurt | 1 | All Maps","name_short":"frk-1","host":"frk-1.de.uncletopia.com","port":27015,"enabled":true,"region":"eu","cc":"de","latitude":50.110924,"longitude":8.682127,"reserved":0,"last_update":"0001-01-01T00:00:00Z","name_a2s":"Uncletopia | Frankfurt | 1 | All Maps","protocol":17,"map":"pl_badwater","folder":"tf","game":"Team Fortress","app_id":440,"player_count":24,"max_players":24,"Bots":0,"server_type":"Dedicated","server_os":"Linux","password":true,"vac":true,"version":"7723704","steam_id":85568392924469989,"keywords":["nocrits","nodmgspread","payload","uncletopia"],"game_id":440,"stv_port":27016,"stv_name":"Uncletopia | Frankfurt | 1 | All Maps | STV","players":[{"user_id":52,"name":"pansy","steam_id":76561199074558259,"connected_time":2773000000000,"state":"active","ping":67},{"user_id":49,"name":"Croissant au chocolatine","steam_id":76561198162063872,"connected_time":2868000000000,"state":"active","ping":64},{"user_id":78,"name":"asdgsfdaujhaswedrvjhfdwsbhk","steam_id":76561198208839507,"connected_time":422000000000,"state":"active","ping":106},{"user_id":60,"name":"linkinparkfan123","steam_id":76561199033782005,"connected_time":2216000000000,"state":"active","ping":90},{"user_id":67,"name":"Fat Pigeon","steam_id":76561198817940142,"connected_time":1386000000000,"state":"active","ping":59},{"user_id":22,"name":"Luke SpyWalker","steam_id":76561198008643276,"connected_time":3976000000000,"state":"active","ping":59},{"user_id":74,"name":"RyuFia","steam_id":76561198147961304,"connected_time":870000000000,"state":"active","ping":81},{"user_id":26,"name":"Tails Gaming","steam_id":76561198190253894,"connected_time":3798000000000,"state":"active","ping":90},{"user_id":77,"name":"Tenacity","steam_id":76561198214848887,"connected_time":529000000000,"state":"active","ping":60},{"user_id":79,"name":"wasps","steam_id":76561198049485054,"connected_time":417000000000,"state":"active","ping":88},{"user_id":53,"name":"LesaPán","steam_id":76561198158691758,"connected_time":2725000000000,"state":"active","ping":74},{"user_id":80,"name":"Fales","steam_id":76561198126124929,"connected_time":391000000000,"state":"active","ping":69},{"user_id":75,"name":"FartGoing","steam_id":76561198122284275,"connected_time":809000000000,"state":"active","ping":68},{"user_id":55,"name":"Abudabec","steam_id":76561199110975331,"connected_time":2431000000000,"state":"active","ping":119},{"user_id":84,"name":"soup","steam_id":76561198386933065,"connected_time":84000000000,"state":"active","ping":59},{"user_id":70,"name":"JeanCorben","steam_id":76561197965133561,"connected_time":988000000000,"state":"active","ping":45},{"user_id":72,"name":"sjef kef","steam_id":76561198131951354,"connected_time":942000000000,"state":"active","ping":74},{"user_id":61,"name":"Here's Johnny!","steam_id":76561198065506317,"connected_time":2197000000000,"state":"active","ping":61},{"user_id":38,"name":"emie","steam_id":76561198122380622,"connected_time":3287000000000,"state":"active","ping":87},{"user_id":73,"name":"Milk","steam_id":76561198125876588,"connected_time":941000000000,"state":"active","ping":54},{"user_id":40,"name":"I-I","steam_id":76561198267969436,"connected_time":3236000000000,"state":"active","ping":64},{"user_id":54,"name":"Smuggs","steam_id":76561197999456003,"connected_time":2470000000000,"state":"active","ping":53},{"user_id":62,"name":"tristan","steam_id":76561198096097448,"connected_time":2134000000000,"state":"active","ping":59},{"user_id":85,"name":"Yrjö Koskinen Yrjö-Koskinen","steam_id":76561198368181145,"connected_time":2000000000,"state":"spawning","ping":91}]},{"server_id":110,"name":"Uncletopia | Frankfurt | 2 | All Maps","name_short":"frk-2","host":"frk-1.de.uncletopia.com","port":27025,"enabled":true,"region":"eu","cc":"de","latitude":50.110924,"longitude":8.682127,"reserved":0,"last_update":"0001-01-01T00:00:00Z","name_a2s":"Uncletopia | Frankfurt | 2 | All Maps","protocol":17,"map":"cp_snakewater_final1","folder":"tf","game":"Team Fortress","app_id":440,"player_count":0,"max_players":24,"Bots":0,"server_type":"Dedicated","server_os":"Linux","password":true,"vac":true,"version":"7723704","steam_id":85568392924469990,"keywords":["cp","nocrits","nodmgspread","uncletopia"],"game_id":440,"stv_port":27026,"stv_name":"Uncletopia | Frankfurt | 2 | All Maps | STV","players":null},{"server_id":308,"name":"Uncletopia | Frankfurt | 3 | All Maps","name_short":"frk-3","host":"frk-1.de.uncletopia.com","port":27035,"enabled":true,"region":"eu","cc":"de","latitude":50.110924,"longitude":8.682127,"reserved":0,"last_update":"0001-01-01T00:00:00Z","name_a2s":"Uncletopia | Frankfurt | 3 | All Maps","protocol":17,"map":"pl_pier","folder":"tf","game":"Team Fortress","app_id":440,"player_count":23,"max_players":24,"Bots":0,"server_type":"Dedicated","server_os":"Linux","password":true,"vac":true,"version":"7723704","steam_id":85568392924504274,"keywords":["nocrits","nodmgspread","payload","uncletopia"],"game_id":440,"stv_port":27036,"stv_name":"Uncletopia | Frankfurt | 3 | All Maps | STV","players":[{"user_id":41,"name":"Pabs :D","steam_id":76561198000016962,"connected_time":158000000000,"state":"active","ping":61},{"user_id":29,"name":"Psychicpie","steam_id":76561198126065206,"connected_time":504000000000,"state":"active","ping":46},{"user_id":43,"name":"fiyahstorm","steam_id":76561197992574261,"connected_time":85000000000,"state":"active","ping":49},{"user_id":18,"name":"Toples","steam_id":76561198259218982,"connected_time":1125000000000,"state":"active","ping":99},{"user_id":24,"name":"Pan Pan","steam_id":76561199074670515,"connected_time":925000000000,"state":"active","ping":131},{"user_id":12,"name":"Lukero","steam_id":76561198301594341,"connected_time":1396000000000,"state":"active","ping":51},{"user_id":21,"name":"delta man","steam_id":76561198204491245,"connected_time":990000000000,"state":"active","ping":128},{"user_id":42,"name":"yeldad","steam_id":76561198447264153,"connected_time":133000000000,"state":"active","ping":132},{"user_id":20,"name":"mzorno_","steam_id":76561198135722240,"connected_time":1101000000000,"state":"active","ping":42},{"user_id":16,"name":"ashsbhop","steam_id":76561199155075476,"connected_time":1346000000000,"state":"active","ping":80},{"user_id":22,"name":"Lag","steam_id":76561198159360376,"connected_time":978000000000,"state":"active","ping":56},{"user_id":23,"name":"THE HORROR","steam_id":76561198162446976,"connected_time":962000000000,"state":"active","ping":45},{"user_id":44,"name":"Yatsuzume","steam_id":76561198059762108,"connected_time":34000000000,"state":"spawning","ping":91},{"user_id":45,"name":"Klik","steam_id":76561198891046692,"connected_time":23000000000,"state":"active","ping":60},{"user_id":27,"name":"Intheweb33","steam_id":76561198082873786,"connected_time":680000000000,"state":"active","ping":88},{"user_id":30,"name":"bart","steam_id":76561198025395216,"connected_time":480000000000,"state":"active","ping":69},{"user_id":31,"name":"WUNNA","steam_id":76561198999848273,"connected_time":466000000000,"state":"active","ping":80},{"user_id":32,"name":"heavy sings (real)","steam_id":76561199023804405,"connected_time":393000000000,"state":"active","ping":74},{"user_id":46,"name":"omnibombulator","steam_id":76561198025858897,"connected_time":0,"state":"spawning","ping":74},{"user_id":37,"name":"girth gremlin","steam_id":76561198436424012,"connected_time":283000000000,"state":"active","ping":50},{"user_id":38,"name":"drippin jimmy","steam_id":76561198219243969,"connected_time":269000000000,"state":"active","ping":51},{"user_id":39,"name":"traplover313","steam_id":76561198153611464,"connected_time":258000000000,"state":"active","ping":61},{"user_id":40,"name":"lofimonkeyjazz","steam_id":76561198117059662,"connected_time":229000000000,"state":"active","ping":77}]},{"server_id":309,"name":"Uncletopia | Frankfurt | 4 | All Maps","name_short":"frk-4","host":"frk-1.de.uncletopia.com","port":27045,"enabled":true,"region":"eu","cc":"de","latitude":50.110924,"longitude":8.682127,"reserved":0,"last_update":"0001-01-01T00:00:00Z","name_a2s":"Uncletopia | Frankfurt | 4 | All Maps","protocol":17,"map":"pl_borneo","folder":"tf","game":"Team Fortress","app_id":440,"player_count":9,"max_players":24,"Bots":0,"server_type":"Dedicated","server_os":"Linux","password":true,"vac":true,"version":"7723704","steam_id":85568392924504275,"keywords":["nocrits","nodmgspread","payload","uncletopia"],"game_id":440,"stv_port":27046,"stv_name":"Uncletopia | Frankfurt | 4 | All Maps | STV","players":[{"user_id":61,"name":"Dream (real)","steam_id":76561199013644069,"connected_time":505000000000,"state":"active","ping":77},{"user_id":62,"name":"DUCKDUDEREEE","steam_id":76561199065212407,"connected_time":303000000000,"state":"active","ping":191},{"user_id":63,"name":"FwoodoWoodo","steam_id":76561198873073673,"connected_time":110000000000,"state":"active","ping":210},{"user_id":9,"name":"winterxs","steam_id":76561199261885080,"connected_time":5046000000000,"state":"active","ping":38},{"user_id":13,"name":"WeirdCoat","steam_id":76561198910289586,"connected_time":4983000000000,"state":"active","ping":70},{"user_id":48,"name":"Pachinko Addict","steam_id":76561198034363144,"connected_time":2162000000000,"state":"active","ping":96},{"user_id":19,"name":"Ged","steam_id":76561198079288943,"connected_time":4813000000000,"state":"active","ping":102},{"user_id":28,"name":"про339","steam_id":76561198428111079,"connected_time":4608000000000,"state":"active","ping":84},{"user_id":44,"name":"xvkt","steam_id":76561199215475049,"connected_time":3220000000000,"state":"active","ping":57}]},{"server_id":310,"name":"Uncletopia | Frankfurt | 5 | All Maps","name_short":"frk-5","host":"frk-1.de.uncletopia.com","port":27055,"enabled":true,"region":"eu","cc":"de","latitude":50.110924,"longitude":8.682127,"reserved":0,"last_update":"0001-01-01T00:00:00Z","name_a2s":"Uncletopia | Frankfurt | 5 | All Maps","protocol":17,"map":"pl_upward","folder":"tf","game":"Team Fortress","app_id":440,"player_count":24,"max_players":24,"Bots":0,"server_type":"Dedicated","server_os":"Linux","password":true,"vac":true,"version":"7723704","steam_id":85568392924504277,"keywords":["nocrits","nodmgspread","payload","uncletopia"],"game_id":440,"stv_port":27056,"stv_name":"Uncletopia | Frankfurt | 5 | All Maps | STV","players":[{"user_id":10,"name":"Light601","steam_id":76561198134998492,"connected_time":3525000000000,"state":"active","ping":86},{"user_id":50,"name":"|==[шприц]\u003e--- RAMA","steam_id":76561198040423618,"connected_time":255000000000,"state":"active","ping":85},{"user_id":13,"name":"marsel","steam_id":76561198116168271,"connected_time":2883000000000,"state":"active","ping":79},{"user_id":19,"name":"Fus in Boots","steam_id":76561198053897722,"connected_time":2605000000000,"state":"active","ping":63},{"user_id":15,"name":"Aregularhuman","steam_id":76561198343319848,"connected_time":2775000000000,"state":"active","ping":44},{"user_id":16,"name":"Taпgen","steam_id":76561198120329367,"connected_time":2763000000000,"state":"active","ping":89},{"user_id":17,"name":"bubblojoe","steam_id":76561198044534119,"connected_time":2683000000000,"state":"active","ping":64},{"user_id":18,"name":"Jonas Destark","steam_id":76561198030327441,"connected_time":2636000000000,"state":"active","ping":62},{"user_id":20,"name":"snake9544","steam_id":76561198083076205,"connected_time":2604000000000,"state":"active","ping":81},{"user_id":49,"name":"UltraHOT Furry Femboy","steam_id":76561199085624224,"connected_time":343000000000,"state":"active","ping":72},{"user_id":22,"name":"Mabert","steam_id":76561198436058407,"connected_time":2497000000000,"state":"active","ping":72},{"user_id":23,"name":"guy with a family","steam_id":76561198046873337,"connected_time":2405000000000,"state":"active","ping":68},{"user_id":24,"name":"horse tranq consumer","steam_id":76561198010662796,"connected_time":2397000000000,"state":"active","ping":59},{"user_id":25,"name":"raccoon toddler","steam_id":76561198015876799,"connected_time":2393000000000,"state":"active","ping":60},{"user_id":47,"name":"N1KOS","steam_id":76561198035444701,"connected_time":370000000000,"state":"active","ping":90},{"user_id":32,"name":"froggo","steam_id":76561199438805486,"connected_time":2094000000000,"state":"active","ping":62},{"user_id":28,"name":"Greaves","steam_id":76561197977967171,"connected_time":2276000000000,"state":"active","ping":60},{"user_id":51,"name":"NoobfromHell","steam_id":76561198394221491,"connected_time":200000000000,"state":"active","ping":60},{"user_id":46,"name":"Boobs grader","steam_id":76561198062107879,"connected_time":747000000000,"state":"active","ping":81},{"user_id":31,"name":"therekter","steam_id":76561198186570307,"connected_time":2223000000000,"state":"active","ping":77},{"user_id":33,"name":"Shlyk","steam_id":76561198333387103,"connected_time":2092000000000,"state":"active","ping":102},{"user_id":48,"name":"CleanLois","steam_id":76561198133901720,"connected_time":365000000000,"state":"active","ping":68},{"user_id":37,"name":"FastAndCurious","steam_id":76561198171727325,"connected_time":1986000000000,"state":"active","ping":65},{"user_id":40,"name":"♥ Cirno ♥","steam_id":76561198834982738,"connected_time":1863000000000,"state":"active","ping":74}]},{"server_id":311,"name":"Uncletopia | Frankfurt | 6 | All Maps","name_short":"frk-6","host":"frk-1.de.uncletopia.com","port":27065,"enabled":true,"region":"eu","cc":"de","latitude":50.110924,"longitude":8.682127,"reserved":0,"last_update":"0001-01-01T00:00:00Z","name_a2s":"Uncletopia | Frankfurt | 6 | All Maps","protocol":17,"map":"koth_cascade","folder":"tf","game":"Team Fortress","app_id":440,"player_count":0,"max_players":24,"Bots":0,"server_type":"Dedicated","server_os":"Linux","password":true,"vac":true,"version":"7723704","steam_id":85568392924504278,"keywords":["cp","nocrits","nodmgspread","uncletopia"],"game_id":440,"stv_port":27066,"stv_name":"Uncletopia | Frankfurt | 6 | All Maps | STV","players":null},{"server_id":23,"name":"Uncletopia | Frankfurt | 7 | Stopwatch Beta","name_short":"frk-7","host":"frk-1.de.uncletopia.com","port":27075,"enabled":true,"region":"eu","cc":"de","latitude":50.110924,"longitude":8.682127,"reserved":0,"last_update":"0001-01-01T00:00:00Z","name_a2s":"Uncletopia | Frankfurt | 7 | Stopwatch Beta","protocol":17,"map":"koth_viaduct","folder":"tf","game":"Team Fortress","app_id":440,"player_count":0,"max_players":24,"Bots":0,"server_type":"Dedicated","server_os":"Linux","password":true,"vac":true,"version":"7723704","steam_id":85568392924742827,"keywords":["cp","nocrits","nodmgspread","uncletopia"],"game_id":440,"stv_port":27076,"stv_name":"Uncletopia | Frankfurt | 7 | Stopwatch Beta | STV","players":null},{"server_id":24,"name":"Uncletopia | Frankfurt | 8 | Community","name_short":"frk-8","host":"frk-1.de.uncletopia.com","port":27085,"enabled":true,"region":"eu","cc":"de","latitude":50.110924,"longitude":8.682127,"reserved":0,"last_update":"0001-01-01T00:00:00Z","name_a2s":"Uncletopia | Frankfurt | 8 | Community","protocol":17,"map":"workshop/koth_bagel_rc5.ugc2514036946","folder":"tf","game":"Team Fortress","app_id":440,"player_count":0,"max_players":24,"Bots":0,"server_type":"Dedicated","server_os":"Linux","password":true,"vac":true,"version":"7723704","steam_id":85568392924742828,"keywords":["cp","nocrits","nodmgspread","uncletopia"],"game_id":440,"stv_port":27086,"stv_name":"Uncletopia | Frankfurt | 8 | Community | STV","players":null},{"server_id":202,"name":"Uncletopia | Hong Kong | 1 | All Maps","name_short":"hgk-1","host":"hgk-1.hk.uncletopia.com","port":27015,"enabled":true,"region":"asia","cc":"hk","latitude":22.302711,"longitude":114.177216,"reserved":0,"last_update":"0001-01-01T00:00:00Z","name_a2s":"Uncletopia | Hong Kong | 1 | All Maps","protocol":17,"map":"pl_thundermountain","folder":"tf","game":"Team Fortress","app_id":440,"player_count":24,"max_players":24,"Bots":0,"server_type":"Dedicated","server_os":"Linux","password":true,"vac":true,"version":"7723704","steam_id":85568392924494504,"keywords":["nocrits","nodmgspread","payload","uncletopia"],"game_id":440,"stv_port":27016,"stv_name":"Uncletopia | Hong Kong | 1 | All Maps | STV","players":[{"user_id":433,"name":"RandomGuy1085","steam_id":76561199053910995,"connected_time":3923000000000,"state":"active","ping":78},{"user_id":328,"name":"Bertengkar","steam_id":76561198213031155,"connected_time":11948000000000,"state":"active","ping":98},{"user_id":418,"name":"silversol","steam_id":76561198004570036,"connected_time":5182000000000,"state":"active","ping":96},{"user_id":394,"name":"instant karma","steam_id":76561198027307933,"connected_time":7186000000000,"state":"active","ping":50},{"user_id":481,"name":"+W+","steam_id":76561197997220367,"connected_time":909000000000,"state":"active","ping":45},{"user_id":485,"name":"cellum95","steam_id":76561198172146871,"connected_time":352000000000,"state":"active","ping":73},{"user_id":425,"name":"Aiko Kanata Zhenco","steam_id":76561199262955185,"connected_time":4910000000000,"state":"active","ping":89},{"user_id":478,"name":"sett.","steam_id":76561199010718657,"connected_time":1085000000000,"state":"active","ping":78},{"user_id":409,"name":"Rev3lation","steam_id":76561198935157203,"connected_time":5227000000000,"state":"active","ping":92},{"user_id":437,"name":"the spy from tf2 and tf2 classi","steam_id":76561199113766992,"connected_time":2938000000000,"state":"active","ping":99},{"user_id":434,"name":"Corhix","steam_id":76561198968706355,"connected_time":3716000000000,"state":"active","ping":47},{"user_id":404,"name":"j_rex","steam_id":76561198132473926,"connected_time":6085000000000,"state":"active","ping":56},{"user_id":486,"name":"hpeed","steam_id":76561198808595586,"connected_time":178000000000,"state":"active","ping":74},{"user_id":477,"name":"\"SKS\"","steam_id":76561198187995386,"connected_time":1087000000000,"state":"active","ping":79},{"user_id":354,"name":"2022WEEK51","steam_id":76561198413116920,"connected_time":9759000000000,"state":"active","ping":86},{"user_id":334,"name":"A Toilet","steam_id":76561198148278657,"connected_time":11795000000000,"state":"active","ping":104},{"user_id":462,"name":"3wfFbdrjEze5d2G","steam_id":76561198435900451,"connected_time":2535000000000,"state":"active","ping":123},{"user_id":483,"name":"Banana Milk","steam_id":76561198005156257,"connected_time":374000000000,"state":"active","ping":126},{"user_id":484,"name":"lk❆","steam_id":76561199077602424,"connected_time":374000000000,"state":"active","ping":61},{"user_id":413,"name":"Lux","steam_id":76561198434985433,"connected_time":5217000000000,"state":"active","ping":101},{"user_id":319,"name":"vintage","steam_id":76561198230213828,"connected_time":13983000000000,"state":"active","ping":69},{"user_id":473,"name":"chaoticrecon","steam_id":76561199078255117,"connected_time":1109000000000,"state":"active","ping":86},{"user_id":397,"name":"mching","steam_id":76561198044327754,"connected_time":6474000000000,"state":"active","ping":132},{"user_id":480,"name":":)","steam_id":76561198437941450,"connected_time":1075000000000,"state":"active","ping":81}]},{"server_id":1,"name":"Uncletopia | Los Angeles | 1 | All Maps","name_short":"lax-1","host":"lax-1.us.uncletopia.com","port":27015,"enabled":true,"region":"us-west","cc":"us","latitude":33.94279,"longitude":-118.41004,"reserved":0,"last_update":"0001-01-01T00:00:00Z","name_a2s":"Uncletopia | Los Angeles | 1 | All Maps","protocol":17,"map":"cp_dustbowl","folder":"tf","game":"Team Fortress","app_id":440,"player_count":0,"max_players":24,"Bots":0,"server_type":"Dedicated","server_os":"Linux","password":true,"vac":true,"version":"7723704","steam_id":85568392924469991,"keywords":["cp","nocrits","nodmgspread","uncletopia"],"game_id":440,"stv_port":27016,"stv_name":"Uncletopia | Los Angeles | 1 | All Maps | STV","players":null},{"server_id":112,"name":"Uncletopia | Los Angeles | 2 | All Maps","name_short":"lax-2","host":"lax-1.us.uncletopia.com","port":27025,"enabled":true,"region":"us-west","cc":"us","latitude":33.94279,"longitude":-118.41004,"reserved":0,"last_update":"0001-01-01T00:00:00Z","name_a2s":"Uncletopia | Los Angeles | 2 | All Maps","protocol":17,"map":"cp_altitude","folder":"tf","game":"Team Fortress","app_id":440,"player_count":0,"max_players":24,"Bots":0,"server_type":"Dedicated","server_os":"Linux","password":true,"vac":true,"version":"7723704","steam_id":85568392924469992,"keywords":["cp","nocrits","nodmgspread","uncletopia"],"game_id":440,"stv_port":27026,"stv_name":"Uncletopia | Los Angeles | 2 | All Maps | STV","players":null},{"server_id":324,"name":"Uncletopia | Los Angeles | 3 | All Maps","name_short":"lax-3","host":"lax-1.us.uncletopia.com","port":27035,"enabled":true,"region":"us-west","cc":"us","latitude":33.94279,"longitude":-118.41004,"reserved":0,"last_update":"0001-01-01T00:00:00Z","name_a2s":"Uncletopia | Los Angeles | 3 | All Maps","protocol":17,"map":"cp_snakewater_final1","folder":"tf","game":"Team Fortress","app_id":440,"player_count":0,"max_players":24,"Bots":0,"server_type":"Dedicated","server_os":"Linux","password":true,"vac":true,"version":"7723704","steam_id":85568392924510198,"keywords":["cp","nocrits","nodmgspread","uncletopia"],"game_id":440,"stv_port":27036,"stv_name":"Uncletopia | Los Angeles | 3 | All Maps | STV","players":null},{"server_id":25,"name":"Uncletopia | Los Angeles | 4 | Stopwatch Beta","name_short":"lax-4","host":"lax-1.us.uncletopia.com","port":27045,"enabled":true,"region":"us-west","cc":"us","latitude":33.94279,"longitude":-118.41004,"reserved":0,"last_update":"0001-01-01T00:00:00Z","name_a2s":"Uncletopia | Los Angeles | 4 | Stopwatch Beta","protocol":17,"map":"cp_sunshine","folder":"tf","game":"Team Fortress","app_id":440,"player_count":0,"max_players":24,"Bots":0,"server_type":"Dedicated","server_os":"Linux","password":true,"vac":true,"version":"7723704","steam_id":85568392924510199,"keywords":["cp","nocrits","nodmgspread","uncletopia"],"game_id":440,"stv_port":27046,"stv_name":"Uncletopia | Los Angeles | 4 | Stopwatch Beta | STV","players":null},{"server_id":11,"name":"Uncletopia | London | 1 | All Maps","name_short":"lon-1","host":"lon-1.uk.uncletopia.com","port":27015,"enabled":true,"region":"eu","cc":"gb","latitude":51.509865,"longitude":-0.118092,"reserved":0,"last_update":"0001-01-01T00:00:00Z","name_a2s":"Uncletopia | London | 1 | All Maps","protocol":17,"map":"koth_viaduct","folder":"tf","game":"Team Fortress","app_id":440,"player_count":23,"max_players":24,"Bots":0,"server_type":"Dedicated","server_os":"Linux","password":true,"vac":true,"version":"7723704","steam_id":85568392924367362,"keywords":["cp","nocrits","nodmgspread","uncletopia"],"game_id":440,"stv_port":27016,"stv_name":"Uncletopia | London | 1 | All Maps | STV","players":[{"user_id":321,"name":"//frequeNt","steam_id":76561198087457220,"connected_time":3756000000000,"state":"active","ping":74},{"user_id":370,"name":"notsosaltyasiankid","steam_id":76561199065340798,"connected_time":168000000000,"state":"active","ping":118},{"user_id":371,"name":"Festive Yuletart","steam_id":76561198023918830,"connected_time":158000000000,"state":"active","ping":45},{"user_id":354,"name":"Bone","steam_id":76561198073117364,"connected_time":2025000000000,"state":"active","ping":117},{"user_id":364,"name":"ryftomania","steam_id":76561198429138254,"connected_time":726000000000,"state":"active","ping":70},{"user_id":372,"name":"Athena","steam_id":76561198173241341,"connected_time":158000000000,"state":"active","ping":110},{"user_id":360,"name":"jugg","steam_id":76561198144623704,"connected_time":1139000000000,"state":"active","ping":39},{"user_id":328,"name":"InsectKing","steam_id":76561199013519071,"connected_time":3200000000000,"state":"active","ping":44},{"user_id":338,"name":"Carpe diem.","steam_id":76561199065917088,"connected_time":2524000000000,"state":"active","ping":66},{"user_id":333,"name":"Spy","steam_id":76561198122074582,"connected_time":3098000000000,"state":"active","ping":88},{"user_id":367,"name":"Krispy","steam_id":76561197994783393,"connected_time":444000000000,"state":"active","ping":119},{"user_id":359,"name":"jankomit","steam_id":76561198043024857,"connected_time":1152000000000,"state":"active","ping":89},{"user_id":373,"name":"senko","steam_id":76561198002990168,"connected_time":148000000000,"state":"active","ping":53},{"user_id":251,"name":"NO end to POOTIS","steam_id":76561198144879361,"connected_time":8949000000000,"state":"active","ping":111},{"user_id":355,"name":"dorak","steam_id":76561198818037965,"connected_time":1765000000000,"state":"active","ping":108},{"user_id":342,"name":"jesus is my mother","steam_id":76561199040006648,"connected_time":2454000000000,"state":"active","ping":66},{"user_id":365,"name":"Adam Sandler","steam_id":76561198310408309,"connected_time":503000000000,"state":"active","ping":43},{"user_id":326,"name":"ciliorkun18","steam_id":76561198228942500,"connected_time":3402000000000,"state":"active","ping":90},{"user_id":334,"name":"Smag","steam_id":76561198153675141,"connected_time":2895000000000,"state":"active","ping":50},{"user_id":369,"name":"Bones","steam_id":76561198065081225,"connected_time":234000000000,"state":"active","ping":43},{"user_id":343,"name":"Nexosert","steam_id":76561198941142018,"connected_time":2438000000000,"state":"active","ping":114},{"user_id":375,"name":"Zon","steam_id":76561198819789573,"connected_time":41000000000,"state":"active","ping":153},{"user_id":363,"name":"Ziramis1234","steam_id":76561198146367476,"connected_time":952000000000,"state":"active","ping":68}]},{"server_id":114,"name":"Uncletopia | London | 2 | All Maps","name_short":"lon-2","host":"lon-1.uk.uncletopia.com","port":27025,"enabled":true,"region":"eu","cc":"gb","latitude":51.509865,"longitude":-0.118092,"reserved":0,"last_update":"0001-01-01T00:00:00Z","name_a2s":"Uncletopia | London | 2 | All Maps","protocol":17,"map":"koth_highpass","folder":"tf","game":"Team Fortress","app_id":440,"player_count":23,"max_players":24,"Bots":0,"server_type":"Dedicated","server_os":"Linux","password":true,"vac":true,"version":"7723704","steam_id":85568392924470941,"keywords":["cp","nocrits","nodmgspread","uncletopia"],"game_id":440,"stv_port":27026,"stv_name":"Uncletopia | London | 2 | All Maps | STV","players":[{"user_id":167,"name":"Le Chevalier Pingouin","steam_id":76561198221355000,"connected_time":583000000000,"state":"active","ping":38},{"user_id":176,"name":"some edgy nickname","steam_id":76561198040241299,"connected_time":419000000000,"state":"active","ping":76},{"user_id":181,"name":"Kahvi","steam_id":76561198723244199,"connected_time":100000000000,"state":"active","ping":75},{"user_id":168,"name":"Celtins","steam_id":76561198839837475,"connected_time":513000000000,"state":"active","ping":49},{"user_id":178,"name":"Exxon","steam_id":76561198997885594,"connected_time":256000000000,"state":"active","ping":127},{"user_id":128,"name":"\u003e.\u003c","steam_id":76561199216923710,"connected_time":3865000000000,"state":"active","ping":142},{"user_id":169,"name":"shenanigan","steam_id":76561198043452925,"connected_time":509000000000,"state":"active","ping":90},{"user_id":125,"name":"Saken","steam_id":76561198049075295,"connected_time":4098000000000,"state":"active","ping":64},{"user_id":163,"name":"lesbillionaire","steam_id":76561199000159394,"connected_time":635000000000,"state":"active","ping":48},{"user_id":118,"name":"invis","steam_id":76561198120668070,"connected_time":5280000000000,"state":"active","ping":69},{"user_id":165,"name":"Xiada","steam_id":76561198292624901,"connected_time":597000000000,"state":"active","ping":124},{"user_id":161,"name":"Noxifoxis","steam_id":76561198838493783,"connected_time":707000000000,"state":"active","ping":107},{"user_id":182,"name":"markus","steam_id":76561198186791643,"connected_time":79000000000,"state":"active","ping":90},{"user_id":170,"name":"Pan Piotr","steam_id":76561198140016126,"connected_time":500000000000,"state":"active","ping":78},{"user_id":179,"name":"Wuffington","steam_id":76561198033762881,"connected_time":188000000000,"state":"active","ping":46},{"user_id":183,"name":"Mimo","steam_id":76561197974221343,"connected_time":1000000000,"state":"spawning","ping":59},{"user_id":173,"name":"xXdoge gaming 42069Xx","steam_id":76561198372971096,"connected_time":478000000000,"state":"active","ping":76},{"user_id":175,"name":"1 month Big Earner challenge","steam_id":76561198799097492,"connected_time":441000000000,"state":"active","ping":45},{"user_id":177,"name":"Garfield Gaming","steam_id":76561198254539791,"connected_time":402000000000,"state":"active","ping":46},{"user_id":160,"name":"Octobella Enthusiast","steam_id":76561198199266047,"connected_time":853000000000,"state":"active","ping":109},{"user_id":133,"name":"cropping","steam_id":76561198026586456,"connected_time":3620000000000,"state":"active","ping":56},{"user_id":180,"name":"gagalak","steam_id":76561198089979108,"connected_time":174000000000,"state":"active","ping":99},{"user_id":148,"name":"Binky","steam_id":76561198116681081,"connected_time":2431000000000,"state":"active","ping":111}]},{"server_id":320,"name":"Uncletopia | London | 3 | All Maps","name_short":"lon-3","host":"lon-1.uk.uncletopia.com","port":27035,"enabled":true,"region":"eu","cc":"gb","latitude":51.509865,"longitude":-0.118092,"reserved":0,"last_update":"0001-01-01T00:00:00Z","name_a2s":"Uncletopia | London | 3 | All Maps","protocol":17,"map":"cp_altitude","folder":"tf","game":"Team Fortress","app_id":440,"player_count":21,"max_players":24,"Bots":0,"server_type":"Dedicated","server_os":"Linux","password":true,"vac":true,"version":"7723704","steam_id":85568392924510192,"keywords":["cp","nocrits","nodmgspread","uncletopia"],"game_id":440,"stv_port":27036,"stv_name":"Uncletopia | London | 3 | All Maps | STV","players":[{"user_id":112,"name":"Dangerousbros","steam_id":76561198088952519,"connected_time":2009000000000,"state":"active","ping":45},{"user_id":108,"name":"Circular","steam_id":76561198001536710,"connected_time":2423000000000,"state":"active","ping":83},{"user_id":132,"name":"Nedge","steam_id":76561197963549701,"connected_time":835000000000,"state":"active","ping":53},{"user_id":133,"name":"Fagawagawoopwap","steam_id":76561199067173157,"connected_time":831000000000,"state":"active","ping":37},{"user_id":138,"name":"►hAppser◄","steam_id":76561198255221005,"connected_time":322000000000,"state":"active","ping":90},{"user_id":130,"name":"DarthPaul8181","steam_id":76561198373050455,"connected_time":994000000000,"state":"active","ping":45},{"user_id":101,"name":"Welder","steam_id":76561198355300561,"connected_time":3065000000000,"state":"active","ping":66},{"user_id":134,"name":"simplistic","steam_id":76561198231690748,"connected_time":718000000000,"state":"active","ping":51},{"user_id":102,"name":"Svilar","steam_id":76561198828348612,"connected_time":3050000000000,"state":"active","ping":53},{"user_id":139,"name":"Jon Snuh","steam_id":76561198075298635,"connected_time":194000000000,"state":"active","ping":135},{"user_id":121,"name":"Natural Causes","steam_id":76561198880517558,"connected_time":1756000000000,"state":"active","ping":57},{"user_id":122,"name":"Cobb Salads","steam_id":76561197971140507,"connected_time":1737000000000,"state":"active","ping":90},{"user_id":54,"name":"concussion gaming","steam_id":76561198425494530,"connected_time":7091000000000,"state":"active","ping":121},{"user_id":109,"name":"pl_zławoda","steam_id":76561198040588109,"connected_time":2331000000000,"state":"active","ping":76},{"user_id":140,"name":"sumweeb","steam_id":76561198311624395,"connected_time":187000000000,"state":"active","ping":32},{"user_id":105,"name":"kipod616 | trade.tf","steam_id":76561198431183777,"connected_time":2907000000000,"state":"active","ping":91},{"user_id":124,"name":"sjerruf","steam_id":76561198078434681,"connected_time":1709000000000,"state":"active","ping":52},{"user_id":86,"name":"cow child","steam_id":76561199431003443,"connected_time":5021000000000,"state":"active","ping":45},{"user_id":29,"name":"LOBZIK","steam_id":76561198114830120,"connected_time":8748000000000,"state":"active","ping":84},{"user_id":110,"name":"jolie rouge","steam_id":76561197988085026,"connected_time":2244000000000,"state":"active","ping":75},{"user_id":107,"name":"sawburst","steam_id":76561198113143238,"connected_time":2740000000000,"state":"active","ping":127}]},{"server_id":321,"name":"Uncletopia | London | 4 | All Maps","name_short":"lon-4","host":"lon-1.uk.uncletopia.com","port":27045,"enabled":true,"region":"eu","cc":"gb","latitude":51.509865,"longitude":-0.118092,"reserved":0,"last_update":"0001-01-01T00:00:00Z","name_a2s":"Uncletopia | London | 4 | All Maps","protocol":17,"map":"koth_lakeside_final","folder":"tf","game":"Team Fortress","app_id":440,"player_count":0,"max_players":24,"Bots":0,"server_type":"Dedicated","server_os":"Linux","password":true,"vac":true,"version":"7723704","steam_id":85568392924510193,"keywords":["cp","nocrits","nodmgspread","uncletopia"],"game_id":440,"stv_port":27046,"stv_name":"Uncletopia | London | 4 | All Maps | STV","players":null},{"server_id":21,"name":"Uncletopia | London | 5 | All Maps","name_short":"lon-5","host":"lon-1.uk.uncletopia.com","port":27055,"enabled":true,"region":"eu","cc":"gb","latitude":51.509865,"longitude":-0.118092,"reserved":0,"last_update":"0001-01-01T00:00:00Z","name_a2s":"Uncletopia | London | 5 | All Maps","protocol":17,"map":"pl_upward","folder":"tf","game":"Team Fortress","app_id":440,"player_count":0,"max_players":24,"Bots":0,"server_type":"Dedicated","server_os":"Linux","password":true,"vac":true,"version":"7723704","steam_id":85568392924742829,"keywords":["nocrits","nodmgspread","payload","uncletopia"],"game_id":440,"stv_port":27056,"stv_name":"Uncletopia | London | 5 | All Maps | STV","players":null},{"server_id":22,"name":"Uncletopia | London | 6 | All Maps","name_short":"lon-6","host":"lon-1.uk.uncletopia.com","port":27065,"enabled":true,"region":"eu","cc":"gb","latitude":51.509865,"longitude":-0.118092,"reserved":0,"last_update":"0001-01-01T00:00:00Z","name_a2s":"Uncletopia | London | 6 | All Maps","protocol":17,"map":"pl_barnblitz","folder":"tf","game":"Team Fortress","app_id":440,"player_count":0,"max_players":24,"Bots":0,"server_type":"Dedicated","server_os":"Linux","password":true,"vac":true,"version":"7723704","steam_id":85568392924742830,"keywords":["nocrits","nodmgspread","payload","uncletopia"],"game_id":440,"stv_port":27066,"stv_name":"Uncletopia | London | 6 | All Maps | STV","players":null},{"server_id":40,"name":"Uncletopia | London | 7 | No Payload","name_short":"lon-7","host":"lon-1.uk.uncletopia.com","port":27075,"enabled":true,"region":"eu","cc":"gb","latitude":51.509865,"longitude":-0.118092,"reserved":0,"last_update":"0001-01-01T00:00:00Z","name_a2s":"Uncletopia | London | 7 | No Payload","protocol":17,"map":"koth_viaduct","folder":"tf","game":"Team Fortress","app_id":440,"player_count":0,"max_players":24,"Bots":0,"server_type":"Dedicated","server_os":"Linux","password":true,"vac":true,"version":"7723704","steam_id":85568392924964314,"keywords":["cp","nocrits","nodmgspread","uncletopia"],"game_id":440,"stv_port":27076,"stv_name":"Uncletopia | London | 7 | No Payload | STV","players":null},{"server_id":41,"name":"Uncletopia | London | 8 | Community","name_short":"lon-8","host":"lon-1.uk.uncletopia.com","port":27085,"enabled":true,"region":"eu","cc":"gb","latitude":51.509865,"longitude":-0.118092,"reserved":0,"last_update":"0001-01-01T00:00:00Z","name_a2s":"Uncletopia | London | 8 | Community","protocol":17,"map":"koth_highpass","folder":"tf","game":"Team Fortress","app_id":440,"player_count":0,"max_players":24,"Bots":0,"server_type":"Dedicated","server_os":"Linux","password":true,"vac":true,"version":"7723704","steam_id":85568392924964315,"keywords":["cp","nocrits","nodmgspread","uncletopia"],"game_id":440,"stv_port":27086,"stv_name":"Uncletopia | London | 8 | Community | STV","players":null},{"server_id":300,"name":"Uncletopia | Montréal | 1 | All Maps","name_short":"mtl-1","host":"mtl-1.ca.uncletopia.com","port":27015,"enabled":true,"region":"us-east","cc":"ca","latitude":45.50889,"longitude":-73.56167,"reserved":0,"last_update":"0001-01-01T00:00:00Z","name_a2s":"Uncletopia | Montréal | 1 | All Maps","protocol":17,"map":"pl_snowycoast","folder":"tf","game":"Team Fortress","app_id":440,"player_count":0,"max_players":24,"Bots":0,"server_type":"Dedicated","server_os":"Linux","password":true,"vac":true,"version":"7723704","steam_id":85568392924500087,"keywords":["nocrits","nodmgspread","payload","uncletopia"],"game_id":440,"stv_port":27016,"stv_name":"Uncletopia | Montréal | 1 | All Maps | STV","players":null},{"server_id":301,"name":"Uncletopia | Montréal | 2 | All Maps","name_short":"mtl-2","host":"mtl-1.ca.uncletopia.com","port":27025,"enabled":true,"region":"us-east","cc":"ca","latitude":45.50889,"longitude":-73.56167,"reserved":0,"last_update":"0001-01-01T00:00:00Z","name_a2s":"Uncletopia | Montréal | 2 | All Maps","protocol":17,"map":"cp_process_final","folder":"tf","game":"Team Fortress","app_id":440,"player_count":0,"max_players":24,"Bots":0,"server_type":"Dedicated","server_os":"Linux","password":true,"vac":true,"version":"7723704","steam_id":85568392924500088,"keywords":["cp","nocrits","nodmgspread","uncletopia"],"game_id":440,"stv_port":27026,"stv_name":"Uncletopia | Montréal | 2 | All Maps | STV","players":null},{"server_id":302,"name":"Uncletopia | Montréal | 3 | All Maps","name_short":"mtl-3","host":"mtl-1.ca.uncletopia.com","port":27035,"enabled":true,"region":"us-east","cc":"ca","latitude":45.50889,"longitude":-73.56167,"reserved":0,"last_update":"0001-01-01T00:00:00Z","name_a2s":"Uncletopia | Montréal | 3 | All Maps","protocol":17,"map":"pl_barnblitz","folder":"tf","game":"Team Fortress","app_id":440,"player_count":0,"max_players":24,"Bots":0,"server_type":"Dedicated","server_os":"Linux","password":true,"vac":true,"version":"7723704","steam_id":85568392924500089,"keywords":["nocrits","nodmgspread","payload","uncletopia"],"game_id":440,"stv_port":27036,"stv_name":"Uncletopia | Montréal | 3 | All Maps | STV","players":null},{"server_id":303,"name":"Uncletopia | Montréal | 4 | No Payload","name_short":"mtl-4","host":"mtl-1.ca.uncletopia.com","port":27045,"enabled":true,"region":"us-east","cc":"ca","latitude":45.50889,"longitude":-73.56167,"reserved":0,"last_update":"0001-01-01T00:00:00Z","name_a2s":"Uncletopia | Montréal | 4 | No Payload","protocol":17,"map":"koth_cascade","folder":"tf","game":"Team Fortress","app_id":440,"player_count":0,"max_players":24,"Bots":0,"server_type":"Dedicated","server_os":"Linux","password":true,"vac":true,"version":"7723704","steam_id":85568392924500090,"keywords":["cp","nocrits","nodmgspread","uncletopia"],"game_id":440,"stv_port":27046,"stv_name":"Uncletopia | Montréal | 4 | No Payload | STV","players":null},{"server_id":13,"name":"Uncletopia | New York City | 1 | All Maps","name_short":"nyc-1","host":"nyc-1.us.uncletopia.com","port":27015,"enabled":true,"region":"us-east","cc":"us","latitude":40.73061,"longitude":-73.93524,"reserved":0,"last_update":"0001-01-01T00:00:00Z","name_a2s":"Uncletopia | New York City | 1 | All Maps","protocol":17,"map":"pl_upward","folder":"tf","game":"Team Fortress","app_id":440,"player_count":0,"max_players":24,"Bots":0,"server_type":"Dedicated","server_os":"Linux","password":true,"vac":true,"version":"7723704","steam_id":85568392924469993,"keywords":["nocrits","nodmgspread","payload","uncletopia"],"game_id":440,"stv_port":27016,"stv_name":"Uncletopia | New York City | 1 | All Maps | STV","players":null},{"server_id":14,"name":"Uncletopia | New York City | 2 | All Maps","name_short":"nyc-2","host":"nyc-1.us.uncletopia.com","port":27025,"enabled":true,"region":"us-east","cc":"us","latitude":40.73061,"longitude":-73.93524,"reserved":0,"last_update":"0001-01-01T00:00:00Z","name_a2s":"Uncletopia | New York City | 2 | All Maps","protocol":17,"map":"pl_barnblitz","folder":"tf","game":"Team Fortress","app_id":440,"player_count":0,"max_players":24,"Bots":0,"server_type":"Dedicated","server_os":"Linux","password":true,"vac":true,"version":"7723704","steam_id":85568392924469994,"keywords":["nocrits","nodmgspread","payload","uncletopia"],"game_id":440,"stv_port":27026,"stv_name":"Uncletopia | New York City | 2 | All Maps | STV","players":null},{"server_id":15,"name":"Uncletopia | New York City | 3 | Stopwatch Beta","name_short":"nyc-3","host":"nyc-1.us.uncletopia.com","port":27035,"enabled":true,"region":"us-east","cc":"us","latitude":40.73061,"longitude":-73.93524,"reserved":0,"last_update":"0001-01-01T00:00:00Z","name_a2s":"Uncletopia | New York City | 3 | Stopwatch Beta","protocol":17,"map":"cp_sunshine","folder":"tf","game":"Team Fortress","app_id":440,"player_count":0,"max_players":24,"Bots":0,"server_type":"Dedicated","server_os":"Linux","password":true,"vac":true,"version":"7723704","steam_id":85568392924742820,"keywords":["cp","nocrits","nodmgspread","uncletopia"],"game_id":440,"stv_port":27036,"stv_name":"Uncletopia | New York City | 3 | Stopwatch Beta | STV","players":null},{"server_id":16,"name":"Uncletopia | New York City | 4 | Community","name_short":"nyc-4","host":"nyc-1.us.uncletopia.com","port":27045,"enabled":true,"region":"us-east","cc":"us","latitude":40.73061,"longitude":-73.93524,"reserved":0,"last_update":"0001-01-01T00:00:00Z","name_a2s":"Uncletopia | New York City | 4 | Community","protocol":17,"map":"pl_frontier_final","folder":"tf","game":"Team Fortress","app_id":440,"player_count":0,"max_players":24,"Bots":0,"server_type":"Dedicated","server_os":"Linux","password":true,"vac":true,"version":"7723704","steam_id":85568392924742821,"keywords":["nocrits","nodmgspread","payload","uncletopia"],"game_id":440,"stv_port":27046,"stv_name":"Uncletopia | New York City | 4 | Community | STV","players":null},{"server_id":142,"name":"Uncletopia | São Paulo | 1 | All Maps","name_short":"sao-1","host":"sao-1.br.uncletopia.com","port":27015,"enabled":true,"region":"sa","cc":"br","latitude":-23.533773,"longitude":-46.62529,"reserved":0,"last_update":"0001-01-01T00:00:00Z","name_a2s":"Uncletopia | São Paulo | 1 | All Maps","protocol":17,"map":"pl_pier","folder":"tf","game":"Team Fortress","app_id":440,"player_count":0,"max_players":24,"Bots":0,"server_type":"Dedicated","server_os":"Linux","password":true,"vac":true,"version":"7723704","steam_id":85568392924469996,"keywords":["nocrits","nodmgspread","payload","uncletopia"],"game_id":440,"stv_port":27016,"stv_name":"Uncletopia | São Paulo | 1 | All Maps | STV","players":null},{"server_id":143,"name":"Uncletopia | São Paulo | 2 | All Maps","name_short":"sao-2","host":"sao-2.br.uncletopia.com","port":27015,"enabled":true,"region":"sa","cc":"br","latitude":-23.533773,"longitude":-46.62529,"reserved":0,"last_update":"0001-01-01T00:00:00Z","name_a2s":"Uncletopia | São Paulo | 2 | All Maps","protocol":17,"map":"pl_frontier_final","folder":"tf","game":"Team Fortress","app_id":440,"player_count":0,"max_players":24,"Bots":0,"server_type":"Dedicated","server_os":"Linux","password":true,"vac":true,"version":"7723704","steam_id":85568392924485349,"keywords":["nocrits","nodmgspread","payload","uncletopia"],"game_id":440,"stv_port":27016,"stv_name":"Uncletopia | São Paulo | 2 | All Maps | STV","players":null},{"server_id":7,"name":"Uncletopia | Seattle | 1 | All Maps","name_short":"sea-1","host":"sea-1.us.uncletopia.com","port":27015,"enabled":true,"region":"us-west","cc":"us","latitude":47.608013,"longitude":-122.33517,"reserved":0,"last_update":"0001-01-01T00:00:00Z","name_a2s":"Uncletopia | Seattle | 1 | All Maps","protocol":17,"map":"pl_borneo","folder":"tf","game":"Team Fortress","app_id":440,"player_count":22,"max_players":24,"Bots":0,"server_type":"Dedicated","server_os":"Linux","password":true,"vac":true,"version":"7723704","steam_id":85568392924469997,"keywords":["nocrits","nodmgspread","payload","uncletopia"],"game_id":440,"stv_port":27016,"stv_name":"Uncletopia | Seattle | 1 | All Maps | STV","players":[{"user_id":909,"name":"The #1 Fan","steam_id":76561198044654399,"connected_time":787000000000,"state":"active","ping":79},{"user_id":902,"name":"blue_axolotl64","steam_id":76561199121285443,"connected_time":1105000000000,"state":"active","ping":113},{"user_id":900,"name":"drive","steam_id":76561198041818185,"connected_time":1550000000000,"state":"active","ping":99},{"user_id":882,"name":"themoose606","steam_id":76561199401468717,"connected_time":2597000000000,"state":"active","ping":107},{"user_id":869,"name":"gabberGirl99","steam_id":76561198131166135,"connected_time":3298000000000,"state":"active","ping":44},{"user_id":852,"name":"Jacasola","steam_id":76561198055460402,"connected_time":4722000000000,"state":"active","ping":63},{"user_id":762,"name":"dosimeter","steam_id":76561198039608940,"connected_time":11494000000000,"state":"active","ping":52},{"user_id":897,"name":"CoherentCarpet (ノಠ益ಠ)\ufffd\ufffd","steam_id":76561198045625360,"connected_time":1565000000000,"state":"active","ping":73},{"user_id":916,"name":"Cake Noddle","steam_id":76561198070072005,"connected_time":239000000000,"state":"active","ping":121},{"user_id":901,"name":"CassandraRC7 (She/her)","steam_id":76561198094123940,"connected_time":1460000000000,"state":"active","ping":110},{"user_id":883,"name":"demolondon the thrice","steam_id":76561198936116083,"connected_time":2542000000000,"state":"active","ping":59},{"user_id":720,"name":"aisu","steam_id":76561198043768507,"connected_time":15263000000000,"state":"active","ping":97},{"user_id":912,"name":"Seru","steam_id":76561199219827214,"connected_time":646000000000,"state":"active","ping":140},{"user_id":911,"name":"Do Moose go Moo?","steam_id":76561198073550620,"connected_time":713000000000,"state":"active","ping":93},{"user_id":918,"name":"Cylus","steam_id":76561198799748021,"connected_time":44000000000,"state":"spawning","ping":63},{"user_id":860,"name":"jimothy","steam_id":76561198982248872,"connected_time":4279000000000,"state":"active","ping":120},{"user_id":885,"name":"rorytherednosedreindeer","steam_id":76561198065825165,"connected_time":2491000000000,"state":"active","ping":84},{"user_id":887,"name":"4","steam_id":76561198009121060,"connected_time":2394000000000,"state":"active","ping":46},{"user_id":917,"name":"Phil Collins","steam_id":76561198068868644,"connected_time":232000000000,"state":"active","ping":79},{"user_id":889,"name":"Admiral Angry","steam_id":76561198058199206,"connected_time":2252000000000,"state":"active","ping":112},{"user_id":915,"name":"GenEric Nobody","steam_id":76561198835998184,"connected_time":360000000000,"state":"active","ping":107},{"user_id":874,"name":"c34843b342qv","steam_id":76561198979055220,"connected_time":3045000000000,"state":"active","ping":79}]},{"server_id":119,"name":"Uncletopia | Seattle | 2 | All Maps","name_short":"sea-2","host":"sea-1.us.uncletopia.com","port":27025,"enabled":true,"region":"us-west","cc":"us","latitude":47.608013,"longitude":-122.33517,"reserved":0,"last_update":"0001-01-01T00:00:00Z","name_a2s":"Uncletopia | Seattle | 2 | All Maps","protocol":17,"map":"koth_lakeside_final","folder":"tf","game":"Team Fortress","app_id":440,"player_count":0,"max_players":24,"Bots":0,"server_type":"Dedicated","server_os":"Linux","password":true,"vac":true,"version":"7723704","steam_id":85568392924469998,"keywords":["cp","nocrits","nodmgspread","uncletopia"],"game_id":440,"stv_port":27026,"stv_name":"Uncletopia | Seattle | 2 | All Maps | STV","players":null},{"server_id":406,"name":"Uncletopia | Seattle | 3 | Stopwatch Beta","name_short":"sea-3","host":"sea-1.us.uncletopia.com","port":27035,"enabled":true,"region":"us-west","cc":"us","latitude":47.608013,"longitude":-122.33517,"reserved":0,"last_update":"0001-01-01T00:00:00Z","name_a2s":"Uncletopia | Seattle | 3 | Stopwatch Beta","protocol":17,"map":"cp_altitude","folder":"tf","game":"Team Fortress","app_id":440,"player_count":0,"max_players":24,"Bots":0,"server_type":"Dedicated","server_os":"Linux","password":true,"vac":false,"version":"7723704","steam_id":0,"keywords":["cp","nocrits","nodmgspread","uncletopia"],"game_id":440,"stv_port":27036,"stv_name":"Uncletopia | Seattle | 3 | Stopwatch Beta | STV","players":null},{"server_id":17,"name":"Uncletopia | San Francisco | 1 | All Maps","name_short":"sfo-1","host":"sfo-1.us.uncletopia.com","port":27015,"enabled":true,"region":"us-west","cc":"us","latitude":37.77397,"longitude":-122.4313,"reserved":0,"last_update":"0001-01-01T00:00:00Z","name_a2s":"Uncletopia | San Francisco | 1 | All Maps","protocol":17,"map":"pl_borneo","folder":"tf","game":"Team Fortress","app_id":440,"player_count":0,"max_players":24,"Bots":0,"server_type":"Dedicated","server_os":"Linux","password":true,"vac":true,"version":"7723704","steam_id":85568392924469999,"keywords":["nocrits","nodmgspread","payload","uncletopia"],"game_id":440,"stv_port":27016,"stv_name":"Uncletopia | San Francisco | 1 | All Maps | STV","players":null},{"server_id":18,"name":"Uncletopia | San Francisco | 2 | All Maps","name_short":"sfo-2","host":"sfo-1.us.uncletopia.com","port":27025,"enabled":true,"region":"us-west","cc":"us","latitude":37.77397,"longitude":-122.4313,"reserved":0,"last_update":"0001-01-01T00:00:00Z","name_a2s":"Uncletopia | San Francisco | 2 | All Maps","protocol":17,"map":"pl_pier","folder":"tf","game":"Team Fortress","app_id":440,"player_count":0,"max_players":24,"Bots":0,"server_type":"Dedicated","server_os":"Linux","password":true,"vac":true,"version":"7723704","steam_id":85568392924470000,"keywords":["nocrits","nodmgspread","payload","uncletopia"],"game_id":440,"stv_port":27026,"stv_name":"Uncletopia | San Francisco | 2 | All Maps | STV","players":null},{"server_id":19,"name":"Uncletopia | San Francisco | 3 | Stopwatch Beta","name_short":"sfo-3","host":"sfo-1.us.uncletopia.com","port":27035,"enabled":true,"region":"us-west","cc":"us","latitude":37.77397,"longitude":-122.4313,"reserved":0,"last_update":"0001-01-01T00:00:00Z","name_a2s":"Uncletopia | San Francisco | 3 | Stopwatch Beta","protocol":17,"map":"pl_pier","folder":"tf","game":"Team Fortress","app_id":440,"player_count":0,"max_players":24,"Bots":0,"server_type":"Dedicated","server_os":"Linux","password":true,"vac":true,"version":"7723704","steam_id":85568392924742824,"keywords":["nocrits","nodmgspread","payload","uncletopia"],"game_id":440,"stv_port":27036,"stv_name":"Uncletopia | San Francisco | 3 | Stopwatch Beta | STV","players":null},{"server_id":20,"name":"Uncletopia | San Francisco | 4 | Community","name_short":"sfo-4","host":"sfo-1.us.uncletopia.com","port":27045,"enabled":true,"region":"us-west","cc":"us","latitude":37.77397,"longitude":-122.4313,"reserved":0,"last_update":"0001-01-01T00:00:00Z","name_a2s":"Uncletopia | San Francisco | 4 | Community","protocol":17,"map":"koth_cascade","folder":"tf","game":"Team Fortress","app_id":440,"player_count":0,"max_players":24,"Bots":0,"server_type":"Dedicated","server_os":"Linux","password":true,"vac":true,"version":"7723704","steam_id":85568392924742826,"keywords":["cp","nocrits","nodmgspread","uncletopia"],"game_id":440,"stv_port":27046,"stv_name":"Uncletopia | San Francisco | 4 | Community | STV","players":null},{"server_id":141,"name":"Uncletopia | Sydney | 1 | All Maps","name_short":"syd-1","host":"syd-1.au.uncletopia.com","port":27015,"enabled":true,"region":"au","cc":"au","latitude":-33.865143,"longitude":151.2099,"reserved":0,"last_update":"0001-01-01T00:00:00Z","name_a2s":"Uncletopia | Sydney | 1 | All Maps","protocol":17,"map":"koth_lakeside_final","folder":"tf","game":"Team Fortress","app_id":440,"player_count":0,"max_players":24,"Bots":0,"server_type":"Dedicated","server_os":"Linux","password":true,"vac":true,"version":"7723704","steam_id":85568392924470001,"keywords":["cp","nocrits","nodmgspread","uncletopia"],"game_id":440,"stv_port":27016,"stv_name":"Uncletopia | Sydney | 1 | All Maps | STV","players":null},{"server_id":123,"name":"Uncletopia | Sydney | 2 | All Maps","name_short":"syd-2","host":"syd-1.au.uncletopia.com","port":27025,"enabled":true,"region":"au","cc":"au","latitude":-33.865143,"longitude":151.2099,"reserved":0,"last_update":"0001-01-01T00:00:00Z","name_a2s":"Uncletopia | Sydney | 2 | All Maps","protocol":17,"map":"cp_process_final","folder":"tf","game":"Team Fortress","app_id":440,"player_count":9,"max_players":24,"Bots":0,"server_type":"Dedicated","server_os":"Linux","password":true,"vac":true,"version":"7723704","steam_id":85568392924470002,"keywords":["cp","nocrits","nodmgspread","uncletopia"],"game_id":440,"stv_port":27026,"stv_name":"Uncletopia | Sydney | 2 | All Maps | STV","players":[{"user_id":453,"name":"Floob","steam_id":76561198390600299,"connected_time":81000000000,"state":"active","ping":45},{"user_id":450,"name":"kweshuu","steam_id":76561199282412024,"connected_time":378000000000,"state":"active","ping":80},{"user_id":429,"name":"Teh Joelinator4","steam_id":76561198122023826,"connected_time":1948000000000,"state":"active","ping":75},{"user_id":436,"name":"A threat unbeknownst","steam_id":76561198293776102,"connected_time":1700000000000,"state":"active","ping":40},{"user_id":403,"name":"Rizeo","steam_id":76561198147901488,"connected_time":3505000000000,"state":"active","ping":63},{"user_id":409,"name":"SkoKiE","steam_id":76561198283542986,"connected_time":3219000000000,"state":"active","ping":67},{"user_id":443,"name":"renting a senpai","steam_id":76561198974405401,"connected_time":1131000000000,"state":"active","ping":54},{"user_id":442,"name":"Wudgle","steam_id":76561198300282688,"connected_time":1160000000000,"state":"active","ping":45},{"user_id":448,"name":"Merle Vandemeer","steam_id":76561198308105172,"connected_time":568000000000,"state":"active","ping":95}]},{"server_id":395,"name":"Uncletopia | Sydney | 3 | All Maps","name_short":"syd-3","host":"syd-1.au.uncletopia.com","port":27035,"enabled":true,"region":"au","cc":"au","latitude":-33.865143,"longitude":151.2099,"reserved":0,"last_update":"0001-01-01T00:00:00Z","name_a2s":"Uncletopia | Sydney | 3 | All Maps","protocol":17,"map":"cp_dustbowl","folder":"tf","game":"Team Fortress","app_id":440,"player_count":0,"max_players":24,"Bots":0,"server_type":"Dedicated","server_os":"Linux","password":true,"vac":true,"version":"7723704","steam_id":85568392925194467,"keywords":["cp","nocrits","nodmgspread","uncletopia"],"game_id":440,"stv_port":27036,"stv_name":"Uncletopia | Sydney | 3 | All Maps | STV","players":null},{"server_id":396,"name":"Uncletopia | Sydney | 4 | All Maps","name_short":"syd-4","host":"syd-1.au.uncletopia.com","port":27045,"enabled":true,"region":"au","cc":"au","latitude":-33.865143,"longitude":151.2099,"reserved":0,"last_update":"0001-01-01T00:00:00Z","name_a2s":"Uncletopia | Sydney | 4 | All Maps","protocol":17,"map":"koth_viaduct","folder":"tf","game":"Team Fortress","app_id":440,"player_count":0,"max_players":24,"Bots":0,"server_type":"Dedicated","server_os":"Linux","password":true,"vac":true,"version":"7723704","steam_id":85568392925397958,"keywords":["cp","nocrits","nodmgspread","uncletopia"],"game_id":440,"stv_port":27046,"stv_name":"Uncletopia | Sydney | 4 | All Maps | STV","players":null},{"server_id":58,"name":"Uncletopia | Sydney | 5 | Stopwatch Beta","name_short":"syd-5","host":"syd-1.au.uncletopia.com","port":27055,"enabled":true,"region":"au","cc":"au","latitude":-33.865143,"longitude":151.2099,"reserved":0,"last_update":"0001-01-01T00:00:00Z","name_a2s":"Uncletopia | Sydney | 5 | Stopwatch Beta","protocol":17,"map":"cp_altitude","folder":"tf","game":"Team Fortress","app_id":440,"player_count":0,"max_players":24,"Bots":0,"server_type":"Dedicated","server_os":"Linux","password":true,"vac":true,"version":"7723704","steam_id":85568392925397959,"keywords":["cp","nocrits","nodmgspread","uncletopia"],"game_id":440,"stv_port":27056,"stv_name":"Uncletopia | Sydney | 5 | Stopwatch Beta | STV","players":null},{"server_id":59,"name":"Uncletopia | Sydney | 6 | Community","name_short":"syd-6","host":"syd-1.au.uncletopia.com","port":27065,"enabled":true,"region":"au","cc":"au","latitude":-33.865143,"longitude":151.2099,"reserved":0,"last_update":"0001-01-01T00:00:00Z","name_a2s":"Uncletopia | Sydney | 6 | Community","protocol":17,"map":"workshop/pl_fifthcurve_rc1.ugc648227046","folder":"tf","game":"Team Fortress","app_id":440,"player_count":0,"max_players":24,"Bots":0,"server_type":"Dedicated","server_os":"Linux","password":true,"vac":true,"version":"7723704","steam_id":85568392925397960,"keywords":["nocrits","nodmgspread","payload","uncletopia"],"game_id":440,"stv_port":27066,"stv_name":"Uncletopia | Sydney | 6 | Community | STV","players":null},{"server_id":49,"name":"Uncletopia | Warsaw | 1 | All Maps","name_short":"waw-1","host":"waw-1.pl.uncletopia.com","port":27015,"enabled":true,"region":"eu","cc":"pl","latitude":52.2297,"longitude":21.017532,"reserved":0,"last_update":"0001-01-01T00:00:00Z","name_a2s":"Uncletopia | Warsaw | 1 | All Maps","protocol":17,"map":"pl_snowycoast","folder":"tf","game":"Team Fortress","app_id":440,"player_count":0,"max_players":24,"Bots":0,"server_type":"Dedicated","server_os":"Linux","password":true,"vac":true,"version":"7723704","steam_id":85568392925397850,"keywords":["nocrits","nodmgspread","payload","uncletopia"],"game_id":440,"stv_port":27016,"stv_name":"Uncletopia | Warsaw | 1 | All Maps | STV","players":null},{"server_id":50,"name":"Uncletopia | Warsaw | 2 | All Maps","name_short":"waw-2","host":"waw-1.pl.uncletopia.com","port":27025,"enabled":true,"region":"eu","cc":"pl","latitude":52.2297,"longitude":21.017532,"reserved":0,"last_update":"0001-01-01T00:00:00Z","name_a2s":"Uncletopia | Warsaw | 2 | All Maps","protocol":17,"map":"pl_barnblitz","folder":"tf","game":"Team Fortress","app_id":440,"player_count":0,"max_players":24,"Bots":0,"server_type":"Dedicated","server_os":"Linux","password":true,"vac":true,"version":"7723704","steam_id":85568392925397851,"keywords":["nocrits","nodmgspread","payload","uncletopia"],"game_id":440,"stv_port":27026,"stv_name":"Uncletopia | Warsaw | 2 | All Maps | STV","players":null},{"server_id":51,"name":"Uncletopia | Warsaw | 3 | All Maps","name_short":"waw-3","host":"waw-1.pl.uncletopia.com","port":27035,"enabled":true,"region":"eu","cc":"pl","latitude":52.2297,"longitude":21.017532,"reserved":0,"last_update":"0001-01-01T00:00:00Z","name_a2s":"Uncletopia | Warsaw | 3 | All Maps","protocol":17,"map":"pl_barnblitz","folder":"tf","game":"Team Fortress","app_id":440,"player_count":0,"max_players":24,"Bots":0,"server_type":"Dedicated","server_os":"Linux","password":true,"vac":true,"version":"7723704","steam_id":85568392925397852,"keywords":["nocrits","nodmgspread","payload","uncletopia"],"game_id":440,"stv_port":27036,"stv_name":"Uncletopia | Warsaw | 3 | All Maps | STV","players":null},{"server_id":52,"name":"Uncletopia | Warsaw | 4 | All Maps","name_short":"waw-4","host":"waw-1.pl.uncletopia.com","port":27045,"enabled":true,"region":"eu","cc":"pl","latitude":52.2297,"longitude":21.017532,"reserved":0,"last_update":"0001-01-01T00:00:00Z","name_a2s":"Uncletopia | Warsaw | 4 | All Maps","protocol":17,"map":"pl_snowycoast","folder":"tf","game":"Team Fortress","app_id":440,"player_count":0,"max_players":24,"Bots":0,"server_type":"Dedicated","server_os":"Linux","password":true,"vac":true,"version":"7723704","steam_id":85568392925397853,"keywords":["nocrits","nodmgspread","payload","uncletopia"],"game_id":440,"stv_port":27046,"stv_name":"Uncletopia | Warsaw | 4 | All Maps | STV","players":null},{"server_id":53,"name":"Uncletopia | Warsaw | 5 | Stopwatch Beta","name_short":"waw-5","host":"waw-1.pl.uncletopia.com","port":27055,"enabled":true,"region":"eu","cc":"pl","latitude":52.2297,"longitude":21.017532,"reserved":0,"last_update":"0001-01-01T00:00:00Z","name_a2s":"Uncletopia | Warsaw | 5 | Stopwatch Beta","protocol":17,"map":"cp_sunshine","folder":"tf","game":"Team Fortress","app_id":440,"player_count":0,"max_players":24,"Bots":0,"server_type":"Dedicated","server_os":"Linux","password":true,"vac":true,"version":"7723704","steam_id":85568392925397854,"keywords":["cp","nocrits","nodmgspread","uncletopia"],"game_id":440,"stv_port":27056,"stv_name":"Uncletopia | Warsaw | 5 | Stopwatch Beta | STV","players":null},{"server_id":54,"name":"Uncletopia | Warsaw | 6 | Community","name_short":"waw-6","host":"waw-1.pl.uncletopia.com","port":27065,"enabled":true,"region":"eu","cc":"pl","latitude":52.2297,"longitude":21.017532,"reserved":0,"last_update":"0001-01-01T00:00:00Z","name_a2s":"Uncletopia | Warsaw | 6 | Community","protocol":17,"map":"workshop/koth_synthetic_rc6a.ugc1549817316","folder":"tf","game":"Team Fortress","app_id":440,"player_count":0,"max_players":24,"Bots":0,"server_type":"Dedicated","server_os":"Linux","password":true,"vac":true,"version":"7723704","steam_id":85568392925397856,"keywords":["cp","nocrits","nodmgspread","uncletopia"],"game_id":440,"stv_port":27066,"stv_name":"Uncletopia | Warsaw | 6 | Community | STV","players":null}]}