{"status":true,"message":"","result":[{"server_id":9,"name":"Uncletopia | Atlanta | 1 | All Maps","name_short":"atl-1","host":"atl-1.us.uncletopia.com","port":27015,"enabled":true,"region":"us-east","cc":"us","latitude":33.753746,"longitude":-84.38633,"reserved":0,"last_update":"0001-01-01T00:00:00Z","name_a2s":"Uncletopia | Atlanta | 1 | All Maps","protocol":17,"map":"pl_borneo","folder":"tf","game":"Team Fortress","app_id":440,"player_count":24,"max_players":24,"Bots":0,"server_type":"Dedicated","server_os":"Linux","password":true,"vac":true,"version":"7742253","steam_id":85568392924469982,"keywords":["nocrits","nodmgspread","payload","uncletopia"],"game_id":440,"stv_port":27016,"stv_name":"Uncletopia | Atlanta | 1 | All Maps | STV","players":[{"user_id":54,"name":"floppy muppet","steam_id":76561198003076261,"connected_time":1346000000000,"state":"active","ping":62},{"user_id":7,"name":"JimmySquid","steam_id":76561198254242530,"connected_time":4139000000000,"state":"active","ping":68},{"user_id":47,"name":"Mr. Cheesey","steam_id":76561198153462183,"connected_time":1651000000000,"state":"active","ping":67},{"user_id":11,"name":"luxin","steam_id":76561198399383047,"connected_time":3910000000000,"state":"active","ping":39},{"user_id":50,"name":"im nyat faceplant","steam_id":76561198249206656,"connected_time":1380000000000,"state":"active","ping":78},{"user_id":66,"name":"hoboways","steam_id":76561198168035195,"connected_time":285000000000,"state":"active","ping":81},{"user_id":49,"name":"Chaotic Rushu","steam_id":76561198170054407,"connected_time":1393000000000,"state":"active","ping":77},{"user_id":14,"name":"1.3 ANGRY Gorillas in Uncletopi","steam_id":76561198829607485,"connected_time":3847000000000,"state":"active","ping":45},{"user_id":55,"name":"LUKS :3","steam_id":76561199178556785,"connected_time":1256000000000,"state":"active","ping":93},{"user_id":56,"name":"Epifiny","steam_id":76561198027958086,"connected_time":614000000000,"state":"active","ping":77},{"user_id":70,"name":"Im High","steam_id":76561198049954886,"connected_time":20000000000,"state":"active","ping":56},{"user_id":37,"name":"RoboWarrior0410a","steam_id":76561199106531261,"connected_time":3243000000000,"state":"active","ping":64},{"user_id":68,"name":"Spicy Duck","steam_id":76561198065905730,"connected_time":125000000000,"state":"active","ping":74},{"user_id":22,"name":"300,000 monkeys in Uncletopia","steam_id":76561198130772096,"connected_time":3743000000000,"state":"active","ping":75},{"user_id":48,"name":"YourBoiCoy330","steam_id":76561199123709099,"connected_time":1405000000000,"state":"active","ping":103},{"user_id":61,"name":"-|FG|- Hamilkar Barca","steam_id":76561198091666474,"connected_time":414000000000,"state":"active","ping":68},{"user_id":65,"name":"Shturman","steam_id":76561198165437987,"connected_time":310000000000,"state":"active","ping":67},{"user_id":58,"name":"terrorist from cs 1.6","steam_id":76561199097909603,"connected_time":607000000000,"state":"active","ping":127},{"user_id":41,"name":"Adolf Critler","steam_id":76561199099633054,"connected_time":2915000000000,"state":"active","ping":67},{"user_id":69,"name":"mr falls down the stairs","steam_id":76561199156428309,"connected_time":48000000000,"state":"active","ping":44},{"user_id":29,"name":"garmonbozia","steam_id":76561198287124402,"connected_time":3646000000000,"state":"active","ping":63},{"user_id":44,"name":"Yimi","steam_id":76561198097984345,"connected_time":2593000000000,"state":"active","ping":85},{"user_id":53,"name":"Salt","steam_id":76561198418001135,"connected_time":1378000000000,"state":"active","ping":72},{"user_id":39,"name":"alopez","steam_id":76561199070225059,"connected_time":3158000000000,"state":"active","ping":60}]},{"server_id":400,"name":"Uncletopia | Atlanta | 3 | Stopwatch Beta","name_short":"atl-3","host":"atl-1.us.uncletopia.com","port":27035,"enabled":true,"region":"us-east","cc":"us","latitude":33.753746,"longitude":-84.38633,"reserved":0,"last_update":"0001-01-01T00:00:00Z","name_a2s":"Uncletopia | Atlanta | 3 | Stopwatch Beta","protocol":17,"map":"pl_pier","folder":"tf","game":"Team Fortress","app_id":440,"player_count":0,"max_players":24,"Bots":0,"server_type":"Dedicated","server_os":"Linux","password":true,"vac":true,"version":"7742253","steam_id":85568392924515187,"keywords":["nocrits","nodmgspread","payload","uncletopia"],"game_id":440,"stv_port":27036,"stv_name":"Uncletopia | Atlanta | 3 | Stopwatch Beta | STV","players":null},{"server_id":401,"name":"Uncletopia | Atlanta | 4 | No Payload","name_short":"atl-4","host":"atl-1.us.uncletopia.com","port":27045,"enabled":true,"region":"us-east","cc":"us","latitude":33.753746,"longitude":-84.38633,"reserved":0,"last_update":"0001-01-01T00:00:00Z","name_a2s":"Uncletopia | Atlanta | 4 | No Payload","protocol":17,"map":"pl_pier","folder":"tf","game":"Team Fortress","app_id":440,"player_count":0,"max_players":24,"Bots":0,"server_type":"Dedicated","server_os":"Linux","password":true,"vac":true,"version":"7723704","steam_id":85568392924515188,"keywords":["nocrits","nodmgspread","payload","uncletopia"],"game_id":440,"stv_port":27046,"stv_name":"Uncletopia | Atlanta | 4 | No Payload | STV","players":null},{"server_id":2,"name":"Uncletopia | Chicago | 1 | All Maps","name_short":"chi-1","host":"chi-1.us.uncletopia.com","port":27015,"enabled":true,"region":"us-central","cc":"us","latitude":41.881832,"longitude":-87.62318,"reserved":0,"last_update":"0001-01-01T00:00:00Z","name_a2s":"Uncletopia | Chicago | 1 | All Maps","protocol":17,"map":"koth_viaduct","folder":"tf","game":"Team Fortress","app_id":440,"player_count":0,"max_players":24,"Bots":0,"server_type":"Dedicated","server_os":"Linux","password":true,"vac":true,"version":"7742253","steam_id":85568392924469984,"keywords":["cp","nocrits","nodmgspread","uncletopia"],"game_id":440,"stv_port":27016,"stv_name":"Uncletopia | Chicago | 1 | All Maps | STV","players":null},{"server_id":106,"name":"Uncletopia | Chicago | 2 | All Maps","name_short":"chi-2","host":"chi-1.us.uncletopia.com","port":27025,"enabled":true,"region":"us-central","cc":"us","latitude":41.881832,"longitude":-87.62318,"reserved":0,"last_update":"0001-01-01T00:00:00Z","name_a2s":"Uncletopia | Chicago | 2 | All Maps","protocol":17,"map":"pl_badwater","folder":"tf","game":"Team Fortress","app_id":440,"player_count":4,"max_players":24,"Bots":0,"server_type":"Dedicated","server_os":"Linux","password":true,"vac":true,"version":"7742253","steam_id":85568392924469985,"keywords":["nocrits","nodmgspread","payload","uncletopia"],"game_id":440,"stv_port":27026,"stv_name":"Uncletopia | Chicago | 2 | All Maps | STV","players":[{"user_id":6,"name":"Super Noob","steam_id":76561199179611350,"connected_time":988000000000,"state":"active","ping":55},{"user_id":9,"name":"Sleepy","steam_id":76561198189867377,"connected_time":490000000000,"state":"active","ping":89},{"user_id":11,"name":"Len","steam_id":76561199141913673,"connected_time":441000000000,"state":"active","ping":76},{"user_id":14,"name":"artemisjackson2","steam_id":76561199094686268,"connected_time":306000000000,"state":"active","ping":69}]},{"server_id":402,"name":"Uncletopia | Chicago | 3 | All Maps","name_short":"chi-3","host":"chi-1.us.uncletopia.com","port":27035,"enabled":true,"region":"us-central","cc":"us","latitude":41.881832,"longitude":-87.62318,"reserved":0,"last_update":"0001-01-01T00:00:00Z","name_a2s":"Uncletopia | Chicago | 3 | All Maps","protocol":17,"map":"cp_gorge","folder":"tf","game":"Team Fortress","app_id":440,"player_count":24,"max_players":24,"Bots":0,"server_type":"Dedicated","server_os":"Linux","password":true,"vac":true,"version":"7742253","steam_id":85568392924515191,"keywords":["cp","nocrits","nodmgspread","uncletopia"],"game_id":440,"stv_port":27036,"stv_name":"Uncletopia | Chicago | 3 | All Maps | STV","players":[{"user_id":3,"name":"Sir Loincloth","steam_id":76561198033073991,"connected_time":2993000000000,"state":"active","ping":72},{"user_id":48,"name":"RingAroundMe she/they","steam_id":76561199010126042,"connected_time":813000000000,"state":"active","ping":112},{"user_id":49,"name":"Qball","steam_id":76561198179016466,"connected_time":801000000000,"state":"active","ping":53},{"user_id":58,"name":"Axolotl23","steam_id":76561198982310389,"connected_time":47000000000,"state":"active","ping":46},{"user_id":34,"name":"Purgatory","steam_id":76561198374795958,"connected_time":1811000000000,"state":"active","ping":81},{"user_id":11,"name":"Space‚≠êTaffy","steam_id":76561198002271720,"connected_time":2388000000000,"state":"active","ping":47},{"user_id":56,"name":"Argon","steam_id":76561198091133177,"connected_time":330000000000,"state":"active","ping":52},{"user_id":12,"name":"DarthSpaghettus","steam_id":76561198834548542,"connected_time":2385000000000,"state":"active","ping":90},{"user_id":13,"name":"SawdusticPQ","steam_id":76561198815127418,"connected_time":2365000000000,"state":"active","ping":166},{"user_id":15,"name":"F0rest","steam_id":76561199112458876,"connected_time":2283000000000,"state":"active","ping":58},{"user_id":43,"name":"KYNE","steam_id":76561198341567222,"connected_time":1213000000000,"state":"active","ping":54},{"user_id":17,"name":"who ate the cheese","steam_id":76561198275408467,"connected_time":2223000000000,"state":"active","ping":45},{"user_id":55,"name":"blue sweater","steam_id":76561198986175272,"connected_time":371000000000,"state":"active","ping":67},{"user_id":20,"name":"Sharper Spoon","steam_id":76561198877130687,"connected_time":2197000000000,"state":"active","ping":59},{"user_id":45,"name":"King Baldski","steam_id":76561198359568400,"connected_time":1004000000000,"state":"active","ping":143},{"user_id":53,"name":"matchstick","steam_id":76561198190100027,"connected_time":404000000000,"state":"active","ping":57},{"user_id":41,"name":"PorkTheChop","steam_id":76561198008883658,"connected_time":1383000000000,"state":"active","ping":57},{"user_id":24,"name":"Pisser12434","steam_id":76561198835144780,"connected_time":2156000000000,"state":"active","ping":74},{"user_id":39,"name":"ThrownMoney1758","steam_id":76561199382597407,"connected_time":1486000000000,"state":"active","ping":95},{"user_id":26,"name":"obbeymaster19","steam_id":76561199197244143,"connected_time":2115000000000,"state":"active","ping":80},{"user_id":27,"name":"River Rat","steam_id":76561198116383976,"connected_time":2110000000000,"state":"active","ping":96},{"user_id":37,"name":"sentry turret","steam_id":76561198327057433,"connected_time":1718000000000,"state":"active","ping":82},{"user_id":31,"name":"ECCO","steam_id":76561198002821513,"connected_time":2009000000000,"state":"active","ping":50},{"user_id":52,"name":"Stew Eater","steam_id":76561198978307159,"connected_time":785000000000,"state":"active","ping":65}]},{"server_id":403,"name":"Uncletopia | Chicago | 4 | All Maps","name_short":"chi-4","host":"chi-1.us.uncletopia.com","port":27045,"enabled":true,"region":"us-central","cc":"us","latitude":41.881832,"longitude":-87.62318,"reserved":0,"last_update":"0001-01-01T00:00:00Z","name_a2s":"Uncletopia | Chicago | 4 | All Maps","protocol":17,"map":"koth_lakeside_final","folder":"tf","game":"Team Fortress","app_id":440,"player_count":0,"max_players":24,"Bots":0,"server_type":"Dedicated","server_os":"Linux","password":true,"vac":true,"version":"7742253","steam_id":85568392924515193,"keywords":["cp","nocrits","nodmgspread","uncletopia"],"game_id":440,"stv_port":27046,"stv_name":"Uncletopia | Chicago | 4 | All Maps | STV","players":null},{"server_id":36,"name":"Uncletopia | Chicago | 5 | All Maps","name_short":"chi-5","host":"chi-2.us.uncletopia.com","port":27015,"enabled":true,"region":"us-central","cc":"us","latitude":41.881832,"longitude":-87.62318,"reserved":0,"last_update":"0001-01-01T00:00:00Z","name_a2s":"Uncletopia | Chicago | 5 | All Maps","protocol":17,"map":"pl_badwater","folder":"tf","game":"Team Fortress","app_id":440,"player_count":23,"max_players":24,"Bots":0,"server_type":"Dedicated","server_os":"Linux","password":true,"vac":true,"version":"7742253","steam_id":85568392924866362,"keywords":["nocrits","nodmgspread","payload","uncletopia"],"game_id":440,"stv_port":27016,"stv_name":"Uncletopia | Chicago | 5 | All Maps | STV","players":[{"user_id":290,"name":"extinct111","steam_id":76561199013696367,"connected_time":209000000000,"state":"active","ping":58},{"user_id":288,"name":"nalezinik","steam_id":76561198030026119,"connected_time":341000000000,"state":"active","ping":61},{"user_id":295,"name":"Koishi","steam_id":76561198054541054,"connected_time":147000000000,"state":"active","ping":49},{"user_id":272,"name":"ItzzDibly","steam_id":76561197970733021,"connected_time":1642000000000,"state":"active","ping":43},{"user_id":251,"name":"moodi catgirl","steam_id":76561198124028045,"connected_time":4221000000000,"state":"active","ping":67},{"user_id":298,"name":"della","steam_id":76561198118877005,"connected_time":70000000000,"state":"active","ping":61},{"user_id":267,"name":"no","steam_id":76561198248853140,"connected_time":2098000000000,"state":"active","ping":82},{"user_id":292,"name":"GrummBlumm","steam_id":76561198243035656,"connected_time":186000000000,"state":"active","ping":58},{"user_id":142,"name":"dan","steam_id":76561197984998426,"connected_time":6194000000000,"state":"active","ping":95},{"user_id":283,"name":"Gibby","steam_id":76561198162912439,"connected_time":585000000000,"state":"active","ping":73},{"user_id":293,"name":"Camfour","steam_id":76561198083090140,"connected_time":177000000000,"state":"active","ping":101},{"user_id":270,"name":"tommy2007sc","steam_id":76561199422829981,"connected_time":2071000000000,"state":"active","ping":69},{"user_id":294,"name":"SuperFresh","steam_id":76561198200723198,"connected_time":158000000000,"state":"active","ping":45},{"user_id":299,"name":"fac","steam_id":76561198009818412,"connected_time":63000000000,"state":"active","ping":65},{"user_id":289,"name":"MS Paint Gamer","steam_id":76561198964527916,"connected_time":336000000000,"state":"active","ping":96},{"user_id":271,"name":"JesterBoyo","steam_id":76561198024991531,"connected_time":2051000000000,"state":"active","ping":60},{"user_id":297,"name":"RedMustrd","steam_id":76561199246218857,"connected_time":116000000000,"state":"active","ping":65},{"user_id":286,"name":"lostos","steam_id":76561197983869145,"connected_time":474000000000,"state":"active","ping":118},{"user_id":274,"name":"evan_is_sauce","steam_id":76561199086802383,"connected_time":1580000000000,"state":"active","ping":104},{"user_id":275,"name":"The Minister of Party City","steam_id":76561199219790713,"connected_time":1190000000000,"state":"active","ping":63},{"user_id":260,"name":"Drachma","steam_id":76561198007310514,"connected_time":3130000000000,"state":"active","ping":51},{"user_id":300,"name":"Fantastibad","steam_id":76561199087329262,"connected_time":28000000000,"state":"active","ping":84},{"user_id":287,"name":"Frank","steam_id":76561198034858550,"connected_time":360000000000,"state":"active","ping":50}]},{"server_id":37,"name":"Uncletopia | Chicago | 6 | All Maps","name_short":"chi-6","host":"chi-2.us.uncletopia.com","port":27025,"enabled":true,"region":"us-central","cc":"us","latitude":41.881832,"longitude":-87.62318,"reserved":0,"last_update":"0001-01-01T00:00:00Z","name_a2s":"Uncletopia | Chicago | 6 | All Maps","protocol":17,"map":"pl_barnblitz","folder":"tf","game":"Team Fortress","app_id":440,"player_count":0,"max_players":24,"Bots":0,"server_type":"Dedicated","server_os":"Linux","password":true,"vac":true,"version":"7742253","steam_id":85568392924866363,"keywords":["nocrits","nodmgspread","payload","uncletopia"],"game_id":440,"stv_port":27026,"stv_name":"Uncletopia | Chicago | 6 | All Maps | STV","players":null},{"server_id":38,"name":"Uncletopia | Chicago | 7 | Stopwatch Beta","name_short":"chi-7","host":"chi-2.us.uncletopia.com","port":27035,"enabled":true,"region":"us-central","cc":"us","latitude":41.881832,"longitude":-87.62318,"reserved":0,"last_update":"0001-01-01T00:00:00Z","name_a2s":"Uncletopia | Chicago | 7 | Stopwatch Beta","protocol":17,"map":"koth_lakeside_final","folder":"tf","game":"Team Fortress","app_id":440,"player_count":0,"max_players":24,"Bots":0,"server_type":"Dedicated","server_os":"Linux","password":true,"vac":true,"version":"7742253","steam_id":85568392924866364,"keywords":["cp","nocrits","nodmgspread","uncletopia"],"game_id":440,"stv_port":27036,"stv_name":"Uncletopia | Chicago | 7 | Stopwatch Beta | STV","players":null},{"server_id":39,"name":"Uncletopia | Chicago | 8 | Community","name_short":"chi-8","host":"chi-2.us.uncletopia.com","port":27045,"enabled":true,"region":"us-central","cc":"us","latitude":41.881832,"longitude":-87.62318,"reserved":0,"last_update":"0001-01-01T00:00:00Z","name_a2s":"Uncletopia | Chicago | 8 | Community","protocol":17,"map":"koth_lakeside_final","folder":"tf","game":"Team Fortress","app_id":440,"player_count":0,"max_players":24,"Bots":0,"server_type":"Dedicated","server_os":"Linux","password":true,"vac":true,"version":"7742253","steam_id":85568392924866365,"keywords":["cp","nocrits","nodmgspread","uncletopia"],"game_id":440,"stv_port":27046,"stv_name":"Uncletopia | Chicago | 8 | Community | STV","players":null},{"server_id":8,"name":"Uncletopia | Dallas | 1 | All Maps","name_short":"dal-1","host":"dal-1.us.uncletopia.com","port":27015,"enabled":true,"region":"us-central","cc":"us","latitude":32.779167,"longitude":-96.80889,"reserved":0,"last_update":"0001-01-01T00:00:00Z","name_a2s":"Uncletopia | Dallas | 1 | All Maps","protocol":17,"map":"pl_hoodoo_final","folder":"tf","game":"Team Fortress","app_id":440,"player_count":24,"max_players":24,"Bots":0,"server_type":"Dedicated","server_os":"Linux","password":true,"vac":true,"version":"7742253","steam_id":85568392924469986,"keywords":["nocrits","nodmgspread","payload","uncletopia"],"game_id":440,"stv_port":27016,"stv_name":"Uncletopia | Dallas | 1 | All Maps | STV","players":[{"user_id":195,"name":"Coffeemelon","steam_id":76561198285891257,"connected_time":1456000000000,"state":"active","ping":87},{"user_id":205,"name":"[LINUX] F2P=S*(M/B)+H || Spy!","steam_id":76561198093538786,"connected_time":469000000000,"state":"active","ping":45},{"user_id":171,"name":"‚ô•Stephiebees‚ô•","steam_id":76561198021529860,"connected_time":4128000000000,"state":"active","ping":93},{"user_id":168,"name":"bass97","steam_id":76561198849018884,"connected_time":4493000000000,"state":"active","ping":78},{"user_id":165,"name":"carrot cake","steam_id":76561198055174915,"connected_time":5326000000000,"state":"active","ping":79},{"user_id":156,"name":"Pleple895","steam_id":76561198085556553,"connected_time":5810000000000,"state":"active","ping":89},{"user_id":192,"name":"Pixler544","steam_id":76561198240575132,"connected_time":1497000000000,"state":"active","ping":68},{"user_id":133,"name":"Fishstall","steam_id":76561198038126034,"connected_time":6206000000000,"state":"active","ping":69},{"user_id":193,"name":"FG7","steam_id":76561198381197197,"connected_time":1487000000000,"state":"active","ping":104},{"user_id":204,"name":"gritty 2024","steam_id":76561198165567310,"connected_time":622000000000,"state":"active","ping":75},{"user_id":154,"name":"twitch.tv/fembotomy","steam_id":76561198102681457,"connected_time":5829000000000,"state":"active","ping":75},{"user_id":194,"name":"‚õßAlkahestry","steam_id":76561198109641497,"connected_time":1480000000000,"state":"active","ping":74},{"user_id":173,"name":"A Gallon of PCP","steam_id":76561198958460901,"connected_time":3874000000000,"state":"active","ping":67},{"user_id":199,"name":"Commodore_Perry","steam_id":76561197986675784,"connected_time":1011000000000,"state":"active","ping":97},{"user_id":179,"name":"skidzz","steam_id":76561198257068611,"connected_time":3458000000000,"state":"active","ping":58},{"user_id":189,"name":"paint thinner victim","steam_id":76561198176069217,"connected_time":1523000000000,"state":"active","ping":104},{"user_id":206,"name":"Big Cucc","steam_id":76561198087503796,"connected_time":441000000000,"state":"active","ping":71},{"user_id":144,"name":"Yoru","steam_id":76561198119698950,"connected_time":6122000000000,"state":"active","ping":126},{"user_id":208,"name":"Faust main","steam_id":76561198971799149,"connected_time":250000000000,"state":"active","ping":68},{"user_id":196,"name":"CreeperCatBengal","steam_id":76561198213193221,"connected_time":1411000000000,"state":"active","ping":83},{"user_id":169,"name":"Tyler\u0026Fingers","steam_id":76561198085154485,"connected_time":4429000000000,"state":"active","ping":87},{"user_id":185,"name":"ccat","steam_id":76561198281773224,"connected_time":2718000000000,"state":"active","ping":81},{"user_id":163,"name":"soup time","steam_id":76561197961488590,"connected_time":5639000000000,"state":"active","ping":67},{"user_id":187,"name":"SmokeyGalaxy","steam_id":76561198118780516,"connected_time":2428000000000,"state":"active","ping":62}]},{"server_id":108,"name":"Uncletopia | Dallas | 2 | All Maps","name_short":"dal-2","host":"dal-1.us.uncletopia.com","port":27025,"enabled":true,"region":"us-central","cc":"us","latitude":32.779167,"longitude":-96.80889,"reserved":0,"last_update":"0001-01-01T00:00:00Z","name_a2s":"Uncletopia | Dallas | 2 | All Maps","protocol":17,"map":"pl_barnblitz","folder":"tf","game":"Team Fortress","app_id":440,"player_count":4,"max_players":24,"Bots":0,"server_type":"Dedicated","server_os":"Linux","password":true,"vac":true,"version":"7742253","steam_id":85568392924469988,"keywords":["nocrits","nodmgspread","payload","uncletopia"],"game_id":440,"stv_port":27026,"stv_name":"Uncletopia | Dallas | 2 | All Maps | STV","players":[{"user_id":5,"name":"Quickstein","steam_id":76561198421331216,"connected_time":1510000000000,"state":"active","ping":89},{"user_id":11,"name":"Jailbreak","steam_id":76561198802085218,"connected_time":61000000000,"state":"active","ping":53},{"user_id":10,"name":"ebbaxter13","steam_id":76561198839647688,"connected_time":416000000000,"state":"active","ping":90},{"user_id":9,"name":"Viperbro_FGC #SaveTF2","steam_id":76561198140863068,"connected_time":490000000000,"state":"active","ping":59}]},{"server_id":5,"name":"Uncletopia | Frankfurt | 1 | All Maps","name_short":"frk-1","host":"frk-1.de.uncletopia.com","port":27015,"enabled":true,"region":"eu","cc":"de","latitude":50.110924,"longitude":8.682127,"reserved":0,"last_update":"0001-01-01T00:00:00Z","name_a2s":"Uncletopia | Frankfurt | 1 | All Maps","protocol":17,"map":"cp_dustbowl","folder":"tf","game":"Team Fortress","app_id":440,"player_count":26,"max_players":24,"Bots":0,"server_type":"Dedicated","server_os":"Linux","password":true,"vac":true,"version":"7742253","steam_id":85568392924469989,"keywords":["cp","nocrits","nodmgspread","uncletopia"],"game_id":440,"stv_port":27016,"stv_name":"Uncletopia | Frankfurt | 1 | All Maps | STV","players":[{"user_id":406,"name":"AwterSix","steam_id":76561198042561678,"connected_time":1177000000000,"state":"active","ping":46},{"user_id":446,"name":"Pyromainiac","steam_id":76561199259867180,"connected_time":207000000000,"state":"connecting","ping":0},{"user_id":422,"name":"hootamy (she/her)","steam_id":76561198044018378,"connected_time":955000000000,"state":"active","ping":60},{"user_id":395,"name":"Kappa ‚òÇ","steam_id":76561198000402582,"connected_time":1662000000000,"state":"active","ping":67},{"user_id":419,"name":"mountaindrill","steam_id":76561198864327475,"connected_time":1011000000000,"state":"active","ping":44},{"user_id":407,"name":"Grunf","steam_id":76561199006140585,"connected_time":1155000000000,"state":"active","ping":85},{"user_id":425,"name":"Suichtaak","steam_id":76561197987517516,"connected_time":836000000000,"state":"active","ping":76},{"user_id":410,"name":"r06u3","steam_id":76561198254099253,"connected_time":1136000000000,"state":"active","ping":171},{"user_id":409,"name":"where is my egg?","steam_id":76561198172542535,"connected_time":1148000000000,"state":"active","ping":71},{"user_id":379,"name":"Fraps","steam_id":76561198309828714,"connected_time":2796000000000,"state":"active","ping":53},{"user_id":411,"name":"dempsey","steam_id":76561198049405872,"connected_time":1136000000000,"state":"active","ping":42},{"user_id":400,"name":"11037","steam_id":76561198351154533,"connected_time":1398000000000,"state":"active","ping":69},{"user_id":429,"name":"Equinox","steam_id":76561199055592635,"connected_time":635000000000,"state":"active","ping":61},{"user_id":413,"name":"catgirl (real)","steam_id":76561199045736884,"connected_time":1095000000000,"state":"active","ping":60},{"user_id":386,"name":"NaN","steam_id":76561198071098413,"connected_time":2308000000000,"state":"active","ping":47},{"user_id":430,"name":"eeeeee","steam_id":76561198427092596,"connected_time":544000000000,"state":"active","ping":115},{"user_id":414,"name":"Ducky[WADZ]üê§","steam_id":76561198060341245,"connected_time":1087000000000,"state":"active","ping":41},{"user_id":442,"name":"Burpman","steam_id":76561198022897937,"connected_time":292000000000,"state":"active","ping":64},{"user_id":433,"name":"\u003e////\u003c","steam_id":76561199216923710,"connected_time":520000000000,"state":"active","ping":138},{"user_id":438,"name":"nexus","steam_id":76561198445936642,"connected_time":409000000000,"state":"active","ping":75},{"user_id":417,"name":"lulu","steam_id":76561199147764133,"connected_time":1063000000000,"state":"active","ping":71},{"user_id":427,"name":"nobody","steam_id":76561198180637374,"connected_time":734000000000,"state":"active","ping":88},{"user_id":391,"name":"Anti_Dragon","steam_id":76561198969060607,"connected_time":2208000000000,"state":"active","ping":119},{"user_id":404,"name":"wise ukrainian shaman","steam_id":76561198989398023,"connected_time":1259000000000,"state":"active","ping":91},{"user_id":424,"name":"≈Ωgr√¶√êek113","steam_id":76561198306883632,"connected_time":929000000000,"state":"active","ping":66},{"user_id":451,"name":"Yony","steam_id":76561199070569941,"connected_time":3000000000,"state":"spawning","ping":62}]},{"server_id":110,"name":"Uncletopia | Frankfurt | 2 | All Maps","name_short":"frk-2","host":"frk-1.de.uncletopia.com","port":27025,"enabled":true,"region":"eu","cc":"de","latitude":50.110924,"longitude":8.682127,"reserved":0,"last_update":"0001-01-01T00:00:00Z","name_a2s":"Uncletopia | Frankfurt | 2 | All Maps","protocol":17,"map":"koth_harvest_final","folder":"tf","game":"Team Fortress","app_id":440,"player_count":24,"max_players":24,"Bots":0,"server_type":"Dedicated","server_os":"Linux","password":true,"vac":true,"version":"7742253","steam_id":85568392924469990,"keywords":["cp","nocrits","nodmgspread","uncletopia"],"game_id":440,"stv_port":27026,"stv_name":"Uncletopia | Frankfurt | 2 | All Maps | STV","players":[{"user_id":132,"name":"0PeKyN","steam_id":76561199027244825,"connected_time":822000000000,"state":"active","ping":73},{"user_id":133,"name":"ivanmixo","steam_id":76561198160213989,"connected_time":822000000000,"state":"active","ping":72},{"user_id":87,"name":"Micha≈Ç","steam_id":76561198320346362,"connected_time":3166000000000,"state":"active","ping":63},{"user_id":147,"name":"baro.ricky","steam_id":76561198172204039,"connected_time":160000000000,"state":"active","ping":62},{"user_id":134,"name":"0xDEADBEEF","steam_id":76561199075416111,"connected_time":766000000000,"state":"active","ping":87},{"user_id":135,"name":"Infantile Pillock","steam_id":76561198283851362,"connected_time":729000000000,"state":"active","ping":58},{"user_id":24,"name":"real toilet (not a human)","steam_id":76561198131423661,"connected_time":6791000000000,"state":"active","ping":62},{"user_id":23,"name":"onku","steam_id":76561199230709660,"connected_time":6914000000000,"state":"active","ping":53},{"user_id":150,"name":"Lewylow","steam_id":76561198005425686,"connected_time":56000000000,"state":"active","ping":66},{"user_id":129,"name":"Pabs :D","steam_id":76561198000016962,"connected_time":1074000000000,"state":"active","ping":55},{"user_id":59,"name":"real oowa (not a human)","steam_id":76561198799953945,"connected_time":4919000000000,"state":"active","ping":61},{"user_id":89,"name":"G/3","steam_id":76561198234844188,"connected_time":3115000000000,"state":"active","ping":59},{"user_id":128,"name":"Tarixxiv","steam_id":76561198084365415,"connected_time":1121000000000,"state":"active","ping":79},{"user_id":136,"name":"(1):)","steam_id":76561198039964082,"connected_time":721000000000,"state":"active","ping":54},{"user_id":138,"name":"living in an asylum","steam_id":76561198925777429,"connected_time":688000000000,"state":"active","ping":142},{"user_id":105,"name":"[Insert Oneshot refrence]","steam_id":76561198951206047,"connected_time":2513000000000,"state":"active","ping":72},{"user_id":139,"name":"Xydran","steam_id":76561198042397402,"connected_time":687000000000,"state":"active","ping":88},{"user_id":141,"name":"Gandalf","steam_id":76561199072668363,"connected_time":450000000000,"state":"active","ping":72},{"user_id":93,"name":"waluigi","steam_id":76561198215809251,"connected_time":3046000000000,"state":"active","ping":55},{"user_id":148,"name":"WeaponizingArchitecture","steam_id":76561199015429785,"connected_time":144000000000,"state":"active","ping":165},{"user_id":100,"name":":)","steam_id":76561198103988618,"connected_time":2818000000000,"state":"active","ping":75},{"user_id":152,"name":"Jyghc\u003c/3","steam_id":76561198405980575,"connected_time":22000000000,"state":"active","ping":64},{"user_id":127,"name":"Coac","steam_id":76561198085265740,"connected_time":1140000000000,"state":"active","ping":59},{"user_id":146,"name":"Leibeigener","steam_id":76561199275478305,"connected_time":186000000000,"state":"active","ping":41}]},{"server_id":308,"name":"Uncletopia | Frankfurt | 3 | All Maps","name_short":"frk-3","host":"frk-1.de.uncletopia.com","port":27035,"enabled":true,"region":"eu","cc":"de","latitude":50.110924,"longitude":8.682127,"reserved":0,"last_update":"0001-01-01T00:00:00Z","name_a2s":"Uncletopia | Frankfurt | 3 | All Maps","protocol":17,"map":"pl_frontier_final","folder":"tf","game":"Team Fortress","app_id":440,"player_count":0,"max_players":24,"Bots":0,"server_type":"Dedicated","server_os":"Linux","password":true,"vac":true,"version":"7742253","steam_id":85568392924504274,"keywords":["nocrits","nodmgspread","payload","uncletopia"],"game_id":440,"stv_port":27036,"stv_name":"Uncletopia | Frankfurt | 3 | All Maps | STV","players":null},{"server_id":309,"name":"Uncletopia | Frankfurt | 4 | All Maps","name_short":"frk-4","host":"frk-1.de.uncletopia.com","port":27045,"enabled":true,"region":"eu","cc":"de","latitude":50.110924,"longitude":8.682127,"reserved":0,"last_update":"0001-01-01T00:00:00Z","name_a2s":"Uncletopia | Frankfurt | 4 | All Maps","protocol":17,"map":"pl_upward","folder":"tf","game":"Team Fortress","app_id":440,"player_count":24,"max_players":24,"Bots":0,"server_type":"Dedicated","server_os":"Linux","password":true,"vac":true,"version":"7742253","steam_id":85568392924504275,"keywords":["nocrits","nodmgspread","payload","uncletopia"],"game_id":440,"stv_port":27046,"stv_name":"Uncletopia | Frankfurt | 4 | All Maps | STV","players":[{"user_id":202,"name":"Virtual Turtle","steam_id":76561198056255236,"connected_time":616000000000,"state":"active","ping":45},{"user_id":172,"name":"Hugz","steam_id":76561198069572147,"connected_time":2678000000000,"state":"active","ping":62},{"user_id":195,"name":"dafydd","steam_id":76561198052200325,"connected_time":710000000000,"state":"active","ping":74},{"user_id":207,"name":"Rask","steam_id":76561198052934944,"connected_time":471000000000,"state":"active","ping":89},{"user_id":192,"name":"hubbles","steam_id":76561197961142646,"connected_time":735000000000,"state":"active","ping":48},{"user_id":211,"name":"RADARI","steam_id":76561198163028791,"connected_time":277000000000,"state":"active","ping":106},{"user_id":194,"name":"Axter","steam_id":76561198118747192,"connected_time":722000000000,"state":"active","ping":76},{"user_id":189,"name":"Garduuk","steam_id":76561198010745965,"connected_time":751000000000,"state":"active","ping":134},{"user_id":196,"name":"Family guy try not to laugh","steam_id":76561198031455800,"connected_time":710000000000,"state":"active","ping":77},{"user_id":205,"name":"Zero (Orbital Gear Mastermind)","steam_id":76561198017416816,"connected_time":494000000000,"state":"active","ping":60},{"user_id":206,"name":"Jesse Pinkman","steam_id":76561198153488940,"connected_time":490000000000,"state":"active","ping":81},{"user_id":203,"name":"Lukas","steam_id":76561198009118452,"connected_time":601000000000,"state":"active","ping":49},{"user_id":197,"name":"Miton","steam_id":76561197970323209,"connected_time":709000000000,"state":"active","ping":79},{"user_id":133,"name":"Daddy Donovan","steam_id":76561198140938904,"connected_time":5675000000000,"state":"active","ping":63},{"user_id":188,"name":"PlebCord","steam_id":76561198120685803,"connected_time":837000000000,"state":"active","ping":77},{"user_id":182,"name":"citronous","steam_id":76561198093290934,"connected_time":1615000000000,"state":"active","ping":56},{"user_id":179,"name":"Big Trader","steam_id":76561197992364667,"connected_time":1812000000000,"state":"active","ping":62},{"user_id":193,"name":"KNARRER","steam_id":76561199130777953,"connected_time":734000000000,"state":"active","ping":46},{"user_id":199,"name":"Karol i Milena","steam_id":76561198291575048,"connected_time":681000000000,"state":"active","ping":60},{"user_id":204,"name":"f–∞t c’Ω’∏t","steam_id":76561198845550388,"connected_time":512000000000,"state":"active","ping":113},{"user_id":169,"name":"Sir Skyber","steam_id":76561198064440004,"connected_time":2883000000000,"state":"active","ping":104},{"user_id":185,"name":"Tywhip","steam_id":76561199207545191,"connected_time":1168000000000,"state":"active","ping":58},{"user_id":200,"name":"reltsiN","steam_id":76561198332566913,"connected_time":679000000000,"state":"active","ping":86},{"user_id":210,"name":"uNem0_","steam_id":76561198836442412,"connected_time":287000000000,"state":"active","ping":95}]},{"server_id":310,"name":"Uncletopia | Frankfurt | 5 | All Maps","name_short":"frk-5","host":"frk-1.de.uncletopia.com","port":27055,"enabled":true,"region":"eu","cc":"de","latitude":50.110924,"longitude":8.682127,"reserved":0,"last_update":"0001-01-01T00:00:00Z","name_a2s":"Uncletopia | Frankfurt | 5 | All Maps","protocol":17,"map":"koth_highpass","folder":"tf","game":"Team Fortress","app_id":440,"player_count":0,"max_players":24,"Bots":0,"server_type":"Dedicated","server_os":"Linux","password":true,"vac":true,"version":"7742253","steam_id":85568392924504277,"keywords":["cp","nocrits","nodmgspread","uncletopia"],"game_id":440,"stv_port":27056,"stv_name":"Uncletopia | Frankfurt | 5 | All Maps | STV","players":null},{"server_id":311,"name":"Uncletopia | Frankfurt | 6 | All Maps","name_short":"frk-6","host":"frk-1.de.uncletopia.com","port":27065,"enabled":true,"region":"eu","cc":"de","latitude":50.110924,"longitude":8.682127,"reserved":0,"last_update":"0001-01-01T00:00:00Z","name_a2s":"Uncletopia | Frankfurt | 6 | All Maps","protocol":17,"map":"cp_process_final","folder":"tf","game":"Team Fortress","app_id":440,"player_count":23,"max_players":24,"Bots":0,"server_type":"Dedicated","server_os":"Linux","password":true,"vac":true,"version":"7742253","steam_id":85568392924504278,"keywords":["cp","nocrits","nodmgspread","uncletopia"],"game_id":440,"stv_port":27066,"stv_name":"Uncletopia | Frankfurt | 6 | All Maps | STV","players":[{"user_id":365,"name":"tealoverr.190","steam_id":76561199028497703,"connected_time":352000000000,"state":"spawning","ping":175},{"user_id":358,"name":"Jamie Hyneman","steam_id":76561198364121077,"connected_time":1022000000000,"state":"spawning","ping":152},{"user_id":297,"name":"d00bie","steam_id":76561198025295218,"connected_time":4690000000000,"state":"spawning","ping":63},{"user_id":317,"name":"NotFionn","steam_id":76561198890525176,"connected_time":3250000000000,"state":"spawning","ping":116},{"user_id":326,"name":"PLUTO","steam_id":76561198312436128,"connected_time":2798000000000,"state":"spawning","ping":211},{"user_id":342,"name":"Kiwi","steam_id":76561198853316060,"connected_time":1936000000000,"state":"spawning","ping":114},{"user_id":347,"name":"Tanza -","steam_id":76561197961335217,"connected_time":1829000000000,"state":"spawning","ping":89},{"user_id":368,"name":"Œ©megA","steam_id":76561198305108990,"connected_time":283000000000,"state":"spawning","ping":138},{"user_id":343,"name":"mylooooooo","steam_id":76561198154714698,"connected_time":1929000000000,"state":"spawning","ping":103},{"user_id":328,"name":"Fat Pigeon","steam_id":76561198817940142,"connected_time":2771000000000,"state":"spawning","ping":87},{"user_id":366,"name":"Shlyk","steam_id":76561198333387103,"connected_time":331000000000,"state":"spawning","ping":173},{"user_id":335,"name":"non_ai","steam_id":76561198270951938,"connected_time":2612000000000,"state":"spawning","ping":226},{"user_id":360,"name":"Û†Ä°Û†Ä°","steam_id":76561198015585266,"connected_time":1011000000000,"state":"spawning","ping":111},{"user_id":336,"name":"SirNeeco \u003c3","steam_id":76561198103014203,"connected_time":2588000000000,"state":"spawning","ping":100},{"user_id":354,"name":"donal rump","steam_id":76561198136239861,"connected_time":1241000000000,"state":"spawning","ping":84},{"user_id":337,"name":"TrueDeadPool","steam_id":76561198060378867,"connected_time":2558000000000,"state":"spawning","ping":116},{"user_id":362,"name":"Iseq Pleaslent","steam_id":76561198932438866,"connected_time":985000000000,"state":"connecting","ping":100},{"user_id":331,"name":"0______0","steam_id":76561198118695421,"connected_time":2741000000000,"state":"spawning","ping":137},{"user_id":370,"name":"Noob_with_source","steam_id":76561198870362103,"connected_time":127000000000,"state":"spawning","ping":96},{"user_id":372,"name":"askulap","steam_id":76561197992018795,"connected_time":31000000000,"state":"spawning","ping":137},{"user_id":344,"name":"Thyme","steam_id":76561198904910888,"connected_time":1923000000000,"state":"spawning","ping":205},{"user_id":352,"name":"Mingo","steam_id":76561199191245650,"connected_time":1501000000000,"state":"spawning","ping":152},{"user_id":369,"name":"ŸÖ€åÿÆŸàÿßŸÖ","steam_id":76561198327135462,"connected_time":211000000000,"state":"spawning","ping":220}]},{"server_id":23,"name":"Uncletopia | Frankfurt | 7 | Stopwatch Beta","name_short":"frk-7","host":"frk-1.de.uncletopia.com","port":27075,"enabled":true,"region":"eu","cc":"de","latitude":50.110924,"longitude":8.682127,"reserved":0,"last_update":"0001-01-01T00:00:00Z","name_a2s":"Uncletopia | Frankfurt | 7 | Stopwatch Beta","protocol":17,"map":"pl_upward","folder":"tf","game":"Team Fortress","app_id":440,"player_count":0,"max_players":24,"Bots":0,"server_type":"Dedicated","server_os":"Linux","password":true,"vac":true,"version":"7742253","steam_id":85568392924742827,"keywords":["nocrits","nodmgspread","payload","uncletopia"],"game_id":440,"stv_port":27076,"stv_name":"Uncletopia | Frankfurt | 7 | Stopwatch Beta | STV","players":null},{"server_id":24,"name":"Uncletopia | Frankfurt | 8 | Community","name_short":"frk-8","host":"frk-1.de.uncletopia.com","port":27085,"enabled":true,"region":"eu","cc":"de","latitude":50.110924,"longitude":8.682127,"reserved":0,"last_update":"0001-01-01T00:00:00Z","name_a2s":"Uncletopia | Frankfurt | 8 | Community","protocol":17,"map":"workshop/pl_barnblitz_pro7.ugc582280235","folder":"tf","game":"Team Fortress","app_id":440,"player_count":0,"max_players":24,"Bots":0,"server_type":"Dedicated","server_os":"Linux","password":true,"vac":true,"version":"7742253","steam_id":85568392924742828,"keywords":["nocrits","nodmgspread","payload","uncletopia"],"game_id":440,"stv_port":27086,"stv_name":"Uncletopia | Frankfurt | 8 | Community | STV","players":null},{"server_id":202,"name":"Uncletopia | Hong Kong | 1 | All Maps","name_short":"hgk-1","host":"hgk-1.hk.uncletopia.com","port":27015,"enabled":true,"region":"asia","cc":"hk","latitude":22.302711,"longitude":114.177216,"reserved":0,"last_update":"0001-01-01T00:00:00Z","name_a2s":"Uncletopia | Hong Kong | 1 | All Maps","protocol":17,"map":"pl_snowycoast","folder":"tf","game":"Team Fortress","app_id":440,"player_count":4,"max_players":24,"Bots":0,"server_type":"Dedicated","server_os":"Linux","password":true,"vac":true,"version":"7742253","steam_id":85568392924494504,"keywords":["nocrits","nodmgspread","payload","uncletopia"],"game_id":440,"stv_port":27016,"stv_name":"Uncletopia | Hong Kong | 1 | All Maps | STV","players":[{"user_id":1300,"name":"CroJio","steam_id":76561198334634172,"connected_time":1813000000000,"state":"active","ping":140},{"user_id":1297,"name":"PINKMAN!!!","steam_id":76561198347997204,"connected_time":2165000000000,"state":"active","ping":160},{"user_id":1309,"name":"real sex","steam_id":76561199113766992,"connected_time":339000000000,"state":"active","ping":99},{"user_id":1301,"name":"fuck you ^.^","steam_id":76561198141630395,"connected_time":1690000000000,"state":"active","ping":122}]},{"server_id":1,"name":"Uncletopia | Los Angeles | 1 | All Maps","name_short":"lax-1","host":"lax-1.us.uncletopia.com","port":27015,"enabled":true,"region":"us-west","cc":"us","latitude":33.94279,"longitude":-118.41004,"reserved":0,"last_update":"0001-01-01T00:00:00Z","name_a2s":"Uncletopia | Los Angeles | 1 | All Maps","protocol":17,"map":"cp_dustbowl","folder":"tf","game":"Team Fortress","app_id":440,"player_count":0,"max_players":24,"Bots":0,"server_type":"Dedicated","server_os":"Linux","password":true,"vac":true,"version":"7742253","steam_id":85568392924469991,"keywords":["cp","nocrits","nodmgspread","uncletopia"],"game_id":440,"stv_port":27016,"stv_name":"Uncletopia | Los Angeles | 1 | All Maps | STV","players":null},{"server_id":112,"name":"Uncletopia | Los Angeles | 2 | All Maps","name_short":"lax-2","host":"lax-1.us.uncletopia.com","port":27025,"enabled":true,"region":"us-west","cc":"us","latitude":33.94279,"longitude":-118.41004,"reserved":0,"last_update":"0001-01-01T00:00:00Z","name_a2s":"Uncletopia | Los Angeles | 2 | All Maps","protocol":17,"map":"pl_frontier_final","folder":"tf","game":"Team Fortress","app_id":440,"player_count":0,"max_players":24,"Bots":0,"server_type":"Dedicated","server_os":"Linux","password":true,"vac":true,"version":"7742253","steam_id":85568392924469992,"keywords":["nocrits","nodmgspread","payload","uncletopia"],"game_id":440,"stv_port":27026,"stv_name":"Uncletopia | Los Angeles | 2 | All Maps | STV","players":null},{"server_id":324,"name":"Uncletopia | Los Angeles | 3 | All Maps","name_short":"lax-3","host":"lax-1.us.uncletopia.com","port":27035,"enabled":true,"region":"us-west","cc":"us","latitude":33.94279,"longitude":-118.41004,"reserved":0,"last_update":"0001-01-01T00:00:00Z","name_a2s":"Uncletopia | Los Angeles | 3 | All Maps","protocol":17,"map":"cp_snakewater_final1","folder":"tf","game":"Team Fortress","app_id":440,"player_count":0,"max_players":24,"Bots":0,"server_type":"Dedicated","server_os":"Linux","password":true,"vac":true,"version":"7742253","steam_id":85568392924510198,"keywords":["cp","nocrits","nodmgspread","uncletopia"],"game_id":440,"stv_port":27036,"stv_name":"Uncletopia | Los Angeles | 3 | All Maps | STV","players":null},{"server_id":25,"name":"Uncletopia | Los Angeles | 4 | Stopwatch Beta","name_short":"lax-4","host":"lax-1.us.uncletopia.com","port":27045,"enabled":true,"region":"us-west","cc":"us","latitude":33.94279,"longitude":-118.41004,"reserved":0,"last_update":"0001-01-01T00:00:00Z","name_a2s":"Uncletopia | Los Angeles | 4 | Stopwatch Beta","protocol":17,"map":"cp_snakewater_final1","folder":"tf","game":"Team Fortress","app_id":440,"player_count":0,"max_players":24,"Bots":0,"server_type":"Dedicated","server_os":"Linux","password":true,"vac":true,"version":"7742253","steam_id":85568392924510199,"keywords":["cp","nocrits","nodmgspread","uncletopia"],"game_id":440,"stv_port":27046,"stv_name":"Uncletopia | Los Angeles | 4 | Stopwatch Beta | STV","players":null},{"server_id":11,"name":"Uncletopia | London | 1 | All Maps","name_short":"lon-1","host":"lon-1.uk.uncletopia.com","port":27015,"enabled":true,"region":"eu","cc":"gb","latitude":51.509865,"longitude":-0.118092,"reserved":0,"last_update":"0001-01-01T00:00:00Z","name_a2s":"Uncletopia | London | 1 | All Maps","protocol":17,"map":"pl_borneo","folder":"tf","game":"Team Fortress","app_id":440,"player_count":24,"max_players":24,"Bots":0,"server_type":"Dedicated","server_os":"Linux","password":true,"vac":true,"version":"7742253","steam_id":85568392924367362,"keywords":["nocrits","nodmgspread","payload","uncletopia"],"game_id":440,"stv_port":27016,"stv_name":"Uncletopia | London | 1 | All Maps | STV","players":[{"user_id":388,"name":"Alin","steam_id":76561198059679991,"connected_time":1746000000000,"state":"active","ping":92},{"user_id":389,"name":"bikerkid207","steam_id":76561198390782783,"connected_time":1731000000000,"state":"active","ping":116},{"user_id":417,"name":"Pyrolander","steam_id":76561198050785450,"connected_time":530000000000,"state":"active","ping":47},{"user_id":419,"name":"your dads bald spot","steam_id":76561199383437138,"connected_time":349000000000,"state":"active","ping":116},{"user_id":403,"name":"twitch.tv/vision515","steam_id":76561198065293729,"connected_time":1285000000000,"state":"active","ping":165},{"user_id":420,"name":"Vice","steam_id":76561198163603038,"connected_time":247000000000,"state":"active","ping":143},{"user_id":398,"name":"Fluff","steam_id":76561198010195831,"connected_time":1616000000000,"state":"active","ping":50},{"user_id":411,"name":"Chad IV","steam_id":76561198107767058,"connected_time":852000000000,"state":"active","ping":85},{"user_id":84,"name":"BarrackOmaha","steam_id":76561198027922724,"connected_time":16865000000000,"state":"active","ping":69},{"user_id":416,"name":"Tasukeru","steam_id":76561198011909704,"connected_time":639000000000,"state":"active","ping":55},{"user_id":422,"name":"Dolcelatte","steam_id":76561198038501770,"connected_time":216000000000,"state":"active","ping":61},{"user_id":425,"name":"hello my name is devil may cry","steam_id":76561198115106008,"connected_time":97000000000,"state":"spawning","ping":97},{"user_id":401,"name":"Pain in a Box","steam_id":76561197990777173,"connected_time":1319000000000,"state":"active","ping":67},{"user_id":131,"name":"[Mg] Z√© P√©qu√©no","steam_id":76561198000927489,"connected_time":12579000000000,"state":"active","ping":56},{"user_id":414,"name":"ralph62x","steam_id":76561198865294231,"connected_time":822000000000,"state":"active","ping":52},{"user_id":410,"name":"Vezage","steam_id":76561198064916164,"connected_time":935000000000,"state":"active","ping":79},{"user_id":402,"name":"SuperBob103","steam_id":76561199175360012,"connected_time":1314000000000,"state":"active","ping":51},{"user_id":423,"name":"xiiski","steam_id":76561198152387747,"connected_time":164000000000,"state":"active","ping":104},{"user_id":318,"name":"Real (Real)","steam_id":76561198323425034,"connected_time":3262000000000,"state":"active","ping":77},{"user_id":301,"name":"Nyarley","steam_id":76561197961152751,"connected_time":3773000000000,"state":"active","ping":59},{"user_id":412,"name":"insanitY","steam_id":76561198055666742,"connected_time":852000000000,"state":"active","ping":105},{"user_id":321,"name":"galad.game","steam_id":76561198336324159,"connected_time":3221000000000,"state":"active","ping":62},{"user_id":424,"name":"NALA","steam_id":76561198039806469,"connected_time":160000000000,"state":"active","ping":76},{"user_id":421,"name":"majora's boostio","steam_id":76561198392628642,"connected_time":224000000000,"state":"active","ping":47}]},{"server_id":114,"name":"Uncletopia | London | 2 | All Maps","name_short":"lon-2","host":"lon-1.uk.uncletopia.com","port":27025,"enabled":true,"region":"eu","cc":"gb","latitude":51.509865,"longitude":-0.118092,"reserved":0,"last_update":"0001-01-01T00:00:00Z","name_a2s":"Uncletopia | London | 2 | All Maps","protocol":17,"map":"cp_snakewater_final1","folder":"tf","game":"Team Fortress","app_id":440,"player_count":24,"max_players":24,"Bots":0,"server_type":"Dedicated","server_os":"Linux","password":true,"vac":true,"version":"7742253","steam_id":85568392924470941,"keywords":["cp","nocrits","nodmgspread","uncletopia"],"game_id":440,"stv_port":27026,"stv_name":"Uncletopia | London | 2 | All Maps | STV","players":[{"user_id":150,"name":"SilloGamer","steam_id":76561198840129251,"connected_time":6074000000000,"state":"active","ping":94},{"user_id":218,"name":"mrbeast109385079350229083479082","steam_id":76561198370687830,"connected_time":1243000000000,"state":"active","ping":126},{"user_id":181,"name":"TTB","steam_id":76561198839462063,"connected_time":3982000000000,"state":"active","ping":98},{"user_id":214,"name":"My Friend Deagol","steam_id":76561198450859507,"connected_time":1319000000000,"state":"active","ping":60},{"user_id":187,"name":"Sipsu","steam_id":76561198059424107,"connected_time":3183000000000,"state":"active","ping":88},{"user_id":204,"name":"Vectillion","steam_id":76561198074292454,"connected_time":2087000000000,"state":"active","ping":65},{"user_id":211,"name":"Rudebwoyyy","steam_id":76561199387956486,"connected_time":1467000000000,"state":"active","ping":62},{"user_id":198,"name":"Lightbulb Monkey","steam_id":76561198045033173,"connected_time":2380000000000,"state":"active","ping":45},{"user_id":156,"name":"NormalMan","steam_id":76561198411005486,"connected_time":5107000000000,"state":"active","ping":130},{"user_id":215,"name":"ECS","steam_id":76561198058910121,"connected_time":1292000000000,"state":"active","ping":46},{"user_id":220,"name":"ghost","steam_id":76561198189940229,"connected_time":1182000000000,"state":"active","ping":57},{"user_id":173,"name":"InfamousAxe","steam_id":76561198099504739,"connected_time":4625000000000,"state":"active","ping":119},{"user_id":201,"name":"toothpaste vaper","steam_id":76561198078458780,"connected_time":2230000000000,"state":"active","ping":51},{"user_id":167,"name":"Falke117","steam_id":76561198101988594,"connected_time":4982000000000,"state":"active","ping":65},{"user_id":225,"name":"Man of Testicular Proportions","steam_id":76561198055949151,"connected_time":52000000000,"state":"active","ping":45},{"user_id":96,"name":"Dark Lord","steam_id":76561198047359132,"connected_time":8847000000000,"state":"active","ping":74},{"user_id":226,"name":"Fatcunt","steam_id":76561198207306420,"connected_time":19000000000,"state":"active","ping":72},{"user_id":209,"name":"=flashpoint=","steam_id":76561197976774456,"connected_time":1863000000000,"state":"active","ping":41},{"user_id":203,"name":"Mega Man Legends 3","steam_id":76561198014110199,"connected_time":2131000000000,"state":"active","ping":44},{"user_id":128,"name":"Dr. Funkenstein","steam_id":76561197977816210,"connected_time":6779000000000,"state":"active","ping":63},{"user_id":217,"name":"Butt Hurling","steam_id":76561198093229786,"connected_time":1272000000000,"state":"active","ping":79},{"user_id":213,"name":"Bones","steam_id":76561198065081225,"connected_time":1409000000000,"state":"active","ping":44},{"user_id":89,"name":"Sneaky boi","steam_id":76561199195985387,"connected_time":9448000000000,"state":"active","ping":91},{"user_id":210,"name":"Tort","steam_id":76561198329646769,"connected_time":1847000000000,"state":"active","ping":51}]},{"server_id":320,"name":"Uncletopia | London | 3 | All Maps","name_short":"lon-3","host":"lon-1.uk.uncletopia.com","port":27035,"enabled":true,"region":"eu","cc":"gb","latitude":51.509865,"longitude":-0.118092,"reserved":0,"last_update":"0001-01-01T00:00:00Z","name_a2s":"Uncletopia | London | 3 | All Maps","protocol":17,"map":"cp_mountainlab","folder":"tf","game":"Team Fortress","app_id":440,"player_count":0,"max_players":24,"Bots":0,"server_type":"Dedicated","server_os":"Linux","password":true,"vac":true,"version":"7742253","steam_id":85568392924510192,"keywords":["cp","nocrits","nodmgspread","uncletopia"],"game_id":440,"stv_port":27036,"stv_name":"Uncletopia | London | 3 | All Maps | STV","players":null},{"server_id":321,"name":"Uncletopia | London | 4 | All Maps","name_short":"lon-4","host":"lon-1.uk.uncletopia.com","port":27045,"enabled":true,"region":"eu","cc":"gb","latitude":51.509865,"longitude":-0.118092,"reserved":0,"last_update":"0001-01-01T00:00:00Z","name_a2s":"Uncletopia | London | 4 | All Maps","protocol":17,"map":"cp_process_final","folder":"tf","game":"Team Fortress","app_id":440,"player_count":24,"max_players":24,"Bots":0,"server_type":"Dedicated","server_os":"Linux","password":true,"vac":true,"version":"7742253","steam_id":85568392924510193,"keywords":["cp","nocrits","nodmgspread","uncletopia"],"game_id":440,"stv_port":27046,"stv_name":"Uncletopia | London | 4 | All Maps | STV","players":[{"user_id":551,"name":"Pvt. Grichmann","steam_id":76561197977589522,"connected_time":578000000000,"state":"active","ping":92},{"user_id":536,"name":"blstd","steam_id":76561199224409545,"connected_time":963000000000,"state":"active","ping":60},{"user_id":564,"name":"battlekruiser","steam_id":76561198061907053,"connected_time":310000000000,"state":"active","ping":90},{"user_id":566,"name":"ViktorYoshi","steam_id":76561199157555246,"connected_time":280000000000,"state":"active","ping":66},{"user_id":556,"name":"Henk_de_Patatman","steam_id":76561198070103191,"connected_time":413000000000,"state":"active","ping":42},{"user_id":573,"name":"Dithmarschen","steam_id":76561198068917140,"connected_time":69000000000,"state":"active","ping":92},{"user_id":558,"name":"average f2p","steam_id":76561199136308055,"connected_time":383000000000,"state":"active","ping":59},{"user_id":567,"name":"green drink","steam_id":76561199260739414,"connected_time":278000000000,"state":"active","ping":146},{"user_id":557,"name":"Krabs","steam_id":76561198161679477,"connected_time":406000000000,"state":"active","ping":38},{"user_id":568,"name":"LasagnaLarry22","steam_id":76561198089478290,"connected_time":242000000000,"state":"active","ping":40},{"user_id":569,"name":"tan","steam_id":76561198273479170,"connected_time":235000000000,"state":"active","ping":138},{"user_id":553,"name":"Dominus.","steam_id":76561199065917088,"connected_time":505000000000,"state":"active","ping":71},{"user_id":554,"name":"alraimbault7","steam_id":76561199447243275,"connected_time":491000000000,"state":"active","ping":46},{"user_id":560,"name":"brtaba","steam_id":76561198796334790,"connected_time":363000000000,"state":"active","ping":72},{"user_id":561,"name":"12Adam12","steam_id":76561198037882443,"connected_time":351000000000,"state":"active","ping":48},{"user_id":421,"name":"ne malediction","steam_id":76561199042453638,"connected_time":9912000000000,"state":"active","ping":85},{"user_id":562,"name":"zinzyk","steam_id":76561198128011822,"connected_time":328000000000,"state":"active","ping":64},{"user_id":563,"name":"Urantij","steam_id":76561198047920299,"connected_time":320000000000,"state":"active","ping":127},{"user_id":565,"name":"Haru","steam_id":76561198201880564,"connected_time":296000000000,"state":"active","ping":46},{"user_id":533,"name":"Soldier","steam_id":76561198970762992,"connected_time":1379000000000,"state":"active","ping":77},{"user_id":570,"name":"SoupER","steam_id":76561198063056668,"connected_time":223000000000,"state":"active","ping":39},{"user_id":571,"name":"sw4ner","steam_id":76561198892353432,"connected_time":213000000000,"state":"active","ping":50},{"user_id":535,"name":"Minimi","steam_id":76561198873850443,"connected_time":1224000000000,"state":"active","ping":61},{"user_id":572,"name":"MR_JONHSON","steam_id":76561199198894168,"connected_time":139000000000,"state":"active","ping":71}]},{"server_id":21,"name":"Uncletopia | London | 5 | All Maps","name_short":"lon-5","host":"lon-1.uk.uncletopia.com","port":27055,"enabled":true,"region":"eu","cc":"gb","latitude":51.509865,"longitude":-0.118092,"reserved":0,"last_update":"0001-01-01T00:00:00Z","name_a2s":"Uncletopia | London | 5 | All Maps","protocol":17,"map":"pl_frontier_final","folder":"tf","game":"Team Fortress","app_id":440,"player_count":1,"max_players":24,"Bots":0,"server_type":"Dedicated","server_os":"Linux","password":true,"vac":true,"version":"7742253","steam_id":85568392924742829,"keywords":["nocrits","nodmgspread","payload","uncletopia"],"game_id":440,"stv_port":27056,"stv_name":"Uncletopia | London | 5 | All Maps | STV","players":[{"user_id":14,"name":"muppetmaster906","steam_id":76561199447322075,"connected_time":169000000000,"state":"active","ping":49}]},{"server_id":22,"name":"Uncletopia | London | 6 | All Maps","name_short":"lon-6","host":"lon-1.uk.uncletopia.com","port":27065,"enabled":true,"region":"eu","cc":"gb","latitude":51.509865,"longitude":-0.118092,"reserved":0,"last_update":"0001-01-01T00:00:00Z","name_a2s":"Uncletopia | London | 6 | All Maps","protocol":17,"map":"pl_frontier_final","folder":"tf","game":"Team Fortress","app_id":440,"player_count":24,"max_players":24,"Bots":0,"server_type":"Dedicated","server_os":"Linux","password":true,"vac":true,"version":"7742253","steam_id":85568392924742830,"keywords":["nocrits","nodmgspread","payload","uncletopia"],"game_id":440,"stv_port":27066,"stv_name":"Uncletopia | London | 6 | All Maps | STV","players":[{"user_id":161,"name":"G.R.E","steam_id":76561197979806514,"connected_time":1944000000000,"state":"active","ping":38},{"user_id":166,"name":"groelb","steam_id":76561199243984376,"connected_time":1172000000000,"state":"active","ping":78},{"user_id":165,"name":"deflox","steam_id":76561198087450635,"connected_time":1411000000000,"state":"active","ping":58},{"user_id":136,"name":"Dr.Sees [F2P]","steam_id":76561199219233587,"connected_time":4163000000000,"state":"active","ping":79},{"user_id":146,"name":"Evgeny","steam_id":76561198039453740,"connected_time":3787000000000,"state":"active","ping":63},{"user_id":147,"name":"Joehncey","steam_id":76561198150384170,"connected_time":3430000000000,"state":"active","ping":60},{"user_id":154,"name":"i am bread","steam_id":76561199180277321,"connected_time":2495000000000,"state":"active","ping":38},{"user_id":54,"name":"JeanCorben","steam_id":76561197965133561,"connected_time":6801000000000,"state":"active","ping":40},{"user_id":140,"name":"noob_STALIN","steam_id":76561198273030727,"connected_time":3968000000000,"state":"active","ping":45},{"user_id":167,"name":"Blink","steam_id":76561198144033005,"connected_time":1167000000000,"state":"active","ping":49},{"user_id":168,"name":"Hedgehogdude‚Ö¢","steam_id":76561198305290568,"connected_time":1142000000000,"state":"active","ping":109},{"user_id":169,"name":"glyph","steam_id":76561197980736364,"connected_time":1136000000000,"state":"active","ping":81},{"user_id":21,"name":"TheBeardedM1G","steam_id":76561198040208946,"connected_time":9094000000000,"state":"active","ping":45},{"user_id":174,"name":"pablo","steam_id":76561198089285014,"connected_time":471000000000,"state":"active","ping":88},{"user_id":149,"name":"Lewee","steam_id":76561198058828018,"connected_time":3274000000000,"state":"active","ping":46},{"user_id":157,"name":"Penis Contortionist","steam_id":76561198073663784,"connected_time":2204000000000,"state":"active","ping":44},{"user_id":48,"name":"Smag","steam_id":76561198153675141,"connected_time":7208000000000,"state":"active","ping":47},{"user_id":175,"name":"System","steam_id":76561199442503973,"connected_time":220000000000,"state":"active","ping":58},{"user_id":57,"name":"PhantomStriker","steam_id":76561199116689935,"connected_time":6476000000000,"state":"active","ping":107},{"user_id":145,"name":"200lb pitbull","steam_id":76561199177668753,"connected_time":3854000000000,"state":"active","ping":45},{"user_id":84,"name":"Vince","steam_id":76561199103000131,"connected_time":5743000000000,"state":"active","ping":45},{"user_id":159,"name":"mordecai","steam_id":76561198000689264,"connected_time":2169000000000,"state":"active","ping":97},{"user_id":142,"name":"CrazyRandomStuff","steam_id":76561198152924135,"connected_time":3956000000000,"state":"active","ping":48},{"user_id":170,"name":"Francis","steam_id":76561198987134265,"connected_time":1085000000000,"state":"active","ping":61}]},{"server_id":40,"name":"Uncletopia | London | 7 | No Payload","name_short":"lon-7","host":"lon-1.uk.uncletopia.com","port":27075,"enabled":true,"region":"eu","cc":"gb","latitude":51.509865,"longitude":-0.118092,"reserved":0,"last_update":"0001-01-01T00:00:00Z","name_a2s":"Uncletopia | London | 7 | No Payload","protocol":17,"map":"cp_metalworks","folder":"tf","game":"Team Fortress","app_id":440,"player_count":19,"max_players":24,"Bots":0,"server_type":"Dedicated","server_os":"Linux","password":true,"vac":true,"version":"7742253","steam_id":85568392924964314,"keywords":["cp","nocrits","nodmgspread","uncletopia"],"game_id":440,"stv_port":27076,"stv_name":"Uncletopia | London | 7 | No Payload | STV","players":[{"user_id":56,"name":"I Love Coffee","steam_id":76561199028651017,"connected_time":2807000000000,"state":"active","ping":68},{"user_id":104,"name":"GeraldyJones65","steam_id":76561199122297098,"connected_time":580000000000,"state":"active","ping":122},{"user_id":108,"name":"SODA!!!!!!!","steam_id":76561198107362485,"connected_time":444000000000,"state":"active","ping":60},{"user_id":94,"name":"favazzaluca2","steam_id":76561199453766950,"connected_time":1333000000000,"state":"active","ping":142},{"user_id":106,"name":"Redbows22","steam_id":76561199452479390,"connected_time":503000000000,"state":"active","ping":154},{"user_id":107,"name":"jge","steam_id":76561198123186387,"connected_time":454000000000,"state":"active","ping":55},{"user_id":115,"name":"jaMie","steam_id":76561198170148783,"connected_time":31000000000,"state":"active","ping":41},{"user_id":109,"name":"AlexLovesYou","steam_id":76561199163263543,"connected_time":207000000000,"state":"active","ping":145},{"user_id":61,"name":"Welder","steam_id":76561198355300561,"connected_time":2645000000000,"state":"active","ping":72},{"user_id":90,"name":"torn","steam_id":76561198223003236,"connected_time":1441000000000,"state":"active","ping":57},{"user_id":110,"name":"thebadgerzoo","steam_id":76561198811205360,"connected_time":178000000000,"state":"active","ping":163},{"user_id":113,"name":"marsel","steam_id":76561198116168271,"connected_time":64000000000,"state":"active","ping":89},{"user_id":79,"name":"zek","steam_id":76561198862763731,"connected_time":1946000000000,"state":"active","ping":60},{"user_id":93,"name":"sandwhich","steam_id":76561199207900264,"connected_time":1345000000000,"state":"active","ping":157},{"user_id":66,"name":"holmes6007","steam_id":76561198200075734,"connected_time":2553000000000,"state":"active","ping":68},{"user_id":70,"name":"Avitz","steam_id":76561197986150359,"connected_time":2413000000000,"state":"active","ping":44},{"user_id":72,"name":"snail","steam_id":76561198312155722,"connected_time":2394000000000,"state":"active","ping":69},{"user_id":86,"name":"waffle toaster","steam_id":76561198799089628,"connected_time":1551000000000,"state":"active","ping":50},{"user_id":101,"name":"nothing to smile about","steam_id":76561199062586342,"connected_time":741000000000,"state":"active","ping":64}]},{"server_id":41,"name":"Uncletopia | London | 8 | Community","name_short":"lon-8","host":"lon-1.uk.uncletopia.com","port":27085,"enabled":true,"region":"eu","cc":"gb","latitude":51.509865,"longitude":-0.118092,"reserved":0,"last_update":"0001-01-01T00:00:00Z","name_a2s":"Uncletopia | London | 8 | Community","protocol":17,"map":"workshop/koth_ashville_final.ugc2130459942","folder":"tf","game":"Team Fortress","app_id":440,"player_count":0,"max_players":24,"Bots":0,"server_type":"Dedicated","server_os":"Linux","password":true,"vac":true,"version":"7742253","steam_id":85568392924964315,"keywords":["cp","nocrits","nodmgspread","uncletopia"],"game_id":440,"stv_port":27086,"stv_name":"Uncletopia | London | 8 | Community | STV","players":null},{"server_id":300,"name":"Uncletopia | Montr√©al | 1 | All Maps","name_short":"mtl-1","host":"mtl-1.ca.uncletopia.com","port":27015,"enabled":true,"region":"us-east","cc":"ca","latitude":45.50889,"longitude":-73.56167,"reserved":0,"last_update":"0001-01-01T00:00:00Z","name_a2s":"Uncletopia | Montr√©al | 1 | All Maps","protocol":17,"map":"cp_snakewater_final1","folder":"tf","game":"Team Fortress","app_id":440,"player_count":0,"max_players":24,"Bots":0,"server_type":"Dedicated","server_os":"Linux","password":true,"vac":true,"version":"7742253","steam_id":85568392924500087,"keywords":["cp","nocrits","nodmgspread","uncletopia"],"game_id":440,"stv_port":27016,"stv_name":"Uncletopia | Montr√©al | 1 | All Maps | STV","players":null},{"server_id":301,"name":"Uncletopia | Montr√©al | 2 | All Maps","name_short":"mtl-2","host":"mtl-1.ca.uncletopia.com","port":27025,"enabled":true,"region":"us-east","cc":"ca","latitude":45.50889,"longitude":-73.56167,"reserved":0,"last_update":"0001-01-01T00:00:00Z","name_a2s":"Uncletopia | Montr√©al | 2 | All Maps","protocol":17,"map":"koth_highpass","folder":"tf","game":"Team Fortress","app_id":440,"player_count":0,"max_players":24,"Bots":0,"server_type":"Dedicated","server_os":"Linux","password":true,"vac":true,"version":"7742253","steam_id":85568392924500088,"keywords":["cp","nocrits","nodmgspread","uncletopia"],"game_id":440,"stv_port":27026,"stv_name":"Uncletopia | Montr√©al | 2 | All Maps | STV","players":null},{"server_id":302,"name":"Uncletopia | Montr√©al | 3 | All Maps","name_short":"mtl-3","host":"mtl-1.ca.uncletopia.com","port":27035,"enabled":true,"region":"us-east","cc":"ca","latitude":45.50889,"longitude":-73.56167,"reserved":0,"last_update":"0001-01-01T00:00:00Z","name_a2s":"Uncletopia | Montr√©al | 3 | All Maps","protocol":17,"map":"cp_mountainlab","folder":"tf","game":"Team Fortress","app_id":440,"player_count":0,"max_players":24,"Bots":0,"server_type":"Dedicated","server_os":"Linux","password":true,"vac":true,"version":"7742253","steam_id":85568392924500089,"keywords":["cp","nocrits","nodmgspread","uncletopia"],"game_id":440,"stv_port":27036,"stv_name":"Uncletopia | Montr√©al | 3 | All Maps | STV","players":null},{"server_id":303,"name":"Uncletopia | Montr√©al | 4 | No Payload","name_short":"mtl-4","host":"mtl-1.ca.uncletopia.com","port":27045,"enabled":true,"region":"us-east","cc":"ca","latitude":45.50889,"longitude":-73.56167,"reserved":0,"last_update":"0001-01-01T00:00:00Z","name_a2s":"Uncletopia | Montr√©al | 4 | No Payload","protocol":17,"map":"cp_snakewater_final1","folder":"tf","game":"Team Fortress","app_id":440,"player_count":0,"max_players":24,"Bots":0,"server_type":"Dedicated","server_os":"Linux","password":true,"vac":true,"version":"7742253","steam_id":85568392924500090,"keywords":["cp","nocrits","nodmgspread","uncletopia"],"game_id":440,"stv_port":27046,"stv_name":"Uncletopia | Montr√©al | 4 | No Payload | STV","players":null},{"server_id":13,"name":"Uncletopia | New York City | 1 | All Maps","name_short":"nyc-1","host":"nyc-1.us.uncletopia.com","port":27015,"enabled":true,"region":"us-east","cc":"us","latitude":40.73061,"longitude":-73.93524,"reserved":0,"last_update":"0001-01-01T00:00:00Z","name_a2s":"Uncletopia | New York City | 1 | All Maps","protocol":17,"map":"koth_highpass","folder":"tf","game":"Team Fortress","app_id":440,"player_count":2,"max_players":24,"Bots":0,"server_type":"Dedicated","server_os":"Linux","password":true,"vac":true,"version":"7742253","steam_id":85568392924469993,"keywords":["cp","nocrits","nodmgspread","uncletopia"],"game_id":440,"stv_port":27016,"stv_name":"Uncletopia | New York City | 1 | All Maps | STV","players":[{"user_id":13,"name":"SkarloeyFell","steam_id":76561199183127174,"connected_time":470000000000,"state":"active","ping":40},{"user_id":14,"name":"ZodiacThundaga","steam_id":76561199025117814,"connected_time":164000000000,"state":"active","ping":73}]},{"server_id":14,"name":"Uncletopia | New York City | 2 | All Maps","name_short":"nyc-2","host":"nyc-1.us.uncletopia.com","port":27025,"enabled":true,"region":"us-east","cc":"us","latitude":40.73061,"longitude":-73.93524,"reserved":0,"last_update":"0001-01-01T00:00:00Z","name_a2s":"Uncletopia | New York City | 2 | All Maps","protocol":17,"map":"cp_altitude","folder":"tf","game":"Team Fortress","app_id":440,"player_count":0,"max_players":24,"Bots":0,"server_type":"Dedicated","server_os":"Linux","password":true,"vac":true,"version":"7742253","steam_id":85568392924469994,"keywords":["cp","nocrits","nodmgspread","uncletopia"],"game_id":440,"stv_port":27026,"stv_name":"Uncletopia | New York City | 2 | All Maps | STV","players":null},{"server_id":15,"name":"Uncletopia | New York City | 3 | Stopwatch Beta","name_short":"nyc-3","host":"nyc-1.us.uncletopia.com","port":27035,"enabled":true,"region":"us-east","cc":"us","latitude":40.73061,"longitude":-73.93524,"reserved":0,"last_update":"0001-01-01T00:00:00Z","name_a2s":"Uncletopia | New York City | 3 | Stopwatch Beta","protocol":17,"map":"pl_pier","folder":"tf","game":"Team Fortress","app_id":440,"player_count":0,"max_players":24,"Bots":0,"server_type":"Dedicated","server_os":"Linux","password":true,"vac":true,"version":"7742253","steam_id":85568392924742820,"keywords":["nocrits","nodmgspread","payload","uncletopia"],"game_id":440,"stv_port":27036,"stv_name":"Uncletopia | New York City | 3 | Stopwatch Beta | STV","players":null},{"server_id":16,"name":"Uncletopia | New York City | 4 | Community","name_short":"nyc-4","host":"nyc-1.us.uncletopia.com","port":27045,"enabled":true,"region":"us-east","cc":"us","latitude":40.73061,"longitude":-73.93524,"reserved":0,"last_update":"0001-01-01T00:00:00Z","name_a2s":"Uncletopia | New York City | 4 | Community","protocol":17,"map":"koth_viaduct","folder":"tf","game":"Team Fortress","app_id":440,"player_count":0,"max_players":24,"Bots":0,"server_type":"Dedicated","server_os":"Linux","password":true,"vac":true,"version":"7742253","steam_id":85568392924742821,"keywords":["cp","nocrits","nodmgspread","uncletopia"],"game_id":440,"stv_port":27046,"stv_name":"Uncletopia | New York City | 4 | Community | STV","players":null},{"server_id":142,"name":"Uncletopia | S√£o Paulo | 1 | All Maps","name_short":"sao-1","host":"sao-1.br.uncletopia.com","port":27015,"enabled":true,"region":"sa","cc":"br","latitude":-23.533773,"longitude":-46.62529,"reserved":0,"last_update":"0001-01-01T00:00:00Z","name_a2s":"Uncletopia | S√£o Paulo | 1 | All Maps","protocol":17,"map":"koth_viaduct","folder":"tf","game":"Team Fortress","app_id":440,"player_count":0,"max_players":24,"Bots":0,"server_type":"Dedicated","server_os":"Linux","password":true,"vac":true,"version":"7742253","steam_id":85568392924469996,"keywords":["cp","nocrits","nodmgspread","uncletopia"],"game_id":440,"stv_port":27016,"stv_name":"Uncletopia | S√£o Paulo | 1 | All Maps | STV","players":null},{"server_id":143,"name":"Uncletopia | S√£o Paulo | 2 | All Maps","name_short":"sao-2","host":"sao-2.br.uncletopia.com","port":27015,"enabled":true,"region":"sa","cc":"br","latitude":-23.533773,"longitude":-46.62529,"reserved":0,"last_update":"0001-01-01T00:00:00Z","name_a2s":"Uncletopia | S√£o Paulo | 2 | All Maps","protocol":17,"map":"koth_viaduct","folder":"tf","game":"Team Fortress","app_id":440,"player_count":0,"max_players":24,"Bots":0,"server_type":"Dedicated","server_os":"Linux","password":true,"vac":true,"version":"7742253","steam_id":85568392924485349,"keywords":["cp","nocrits","nodmgspread","uncletopia"],"game_id":440,"stv_port":27016,"stv_name":"Uncletopia | S√£o Paulo | 2 | All Maps | STV","players":null},{"server_id":7,"name":"Uncletopia | Seattle | 1 | All Maps","name_short":"sea-1","host":"sea-1.us.uncletopia.com","port":27015,"enabled":true,"region":"us-west","cc":"us","latitude":47.608013,"longitude":-122.33517,"reserved":0,"last_update":"0001-01-01T00:00:00Z","name_a2s":"Uncletopia | Seattle | 1 | All Maps","protocol":17,"map":"pl_frontier_final","folder":"tf","game":"Team Fortress","app_id":440,"player_count":0,"max_players":24,"Bots":0,"server_type":"Dedicated","server_os":"Linux","password":true,"vac":true,"version":"7742253","steam_id":85568392924469997,"keywords":["nocrits","nodmgspread","payload","uncletopia"],"game_id":440,"stv_port":27016,"stv_name":"Uncletopia | Seattle | 1 | All Maps | STV","players":null},{"server_id":119,"name":"Uncletopia | Seattle | 2 | All Maps","name_short":"sea-2","host":"sea-1.us.uncletopia.com","port":27025,"enabled":true,"region":"us-west","cc":"us","latitude":47.608013,"longitude":-122.33517,"reserved":0,"last_update":"0001-01-01T00:00:00Z","name_a2s":"Uncletopia | Seattle | 2 | All Maps","protocol":17,"map":"cp_sunshine","folder":"tf","game":"Team Fortress","app_id":440,"player_count":0,"max_players":24,"Bots":0,"server_type":"Dedicated","server_os":"Linux","password":true,"vac":true,"version":"7742253","steam_id":85568392924469998,"keywords":["cp","nocrits","nodmgspread","uncletopia"],"game_id":440,"stv_port":27026,"stv_name":"Uncletopia | Seattle | 2 | All Maps | STV","players":null},{"server_id":406,"name":"Uncletopia | Seattle | 3 | Stopwatch Beta","name_short":"sea-3","host":"sea-1.us.uncletopia.com","port":27035,"enabled":true,"region":"us-west","cc":"us","latitude":47.608013,"longitude":-122.33517,"reserved":0,"last_update":"0001-01-01T00:00:00Z","name_a2s":"Uncletopia | Seattle | 3 | Stopwatch Beta","protocol":17,"map":"cp_altitude","folder":"tf","game":"Team Fortress","app_id":440,"player_count":0,"max_players":24,"Bots":0,"server_type":"Dedicated","server_os":"Linux","password":true,"vac":true,"version":"7742253","steam_id":85568392924515217,"keywords":["cp","nocrits","nodmgspread","uncletopia"],"game_id":440,"stv_port":27036,"stv_name":"Uncletopia | Seattle | 3 | Stopwatch Beta | STV","players":null},{"server_id":17,"name":"Uncletopia | San Francisco | 1 | All Maps","name_short":"sfo-1","host":"sfo-1.us.uncletopia.com","port":27015,"enabled":true,"region":"us-west","cc":"us","latitude":37.77397,"longitude":-122.4313,"reserved":0,"last_update":"0001-01-01T00:00:00Z","name_a2s":"Uncletopia | San Francisco | 1 | All Maps","protocol":17,"map":"pl_snowycoast","folder":"tf","game":"Team Fortress","app_id":440,"player_count":0,"max_players":24,"Bots":0,"server_type":"Dedicated","server_os":"Linux","password":true,"vac":true,"version":"7742253","steam_id":85568392924469999,"keywords":["nocrits","nodmgspread","payload","uncletopia"],"game_id":440,"stv_port":27016,"stv_name":"Uncletopia | San Francisco | 1 | All Maps | STV","players":null},{"server_id":18,"name":"Uncletopia | San Francisco | 2 | All Maps","name_short":"sfo-2","host":"sfo-1.us.uncletopia.com","port":27025,"enabled":true,"region":"us-west","cc":"us","latitude":37.77397,"longitude":-122.4313,"reserved":0,"last_update":"0001-01-01T00:00:00Z","name_a2s":"Uncletopia | San Francisco | 2 | All Maps","protocol":17,"map":"cp_mountainlab","folder":"tf","game":"Team Fortress","app_id":440,"player_count":0,"max_players":24,"Bots":0,"server_type":"Dedicated","server_os":"Linux","password":true,"vac":true,"version":"7742253","steam_id":85568392924470000,"keywords":["cp","nocrits","nodmgspread","uncletopia"],"game_id":440,"stv_port":27026,"stv_name":"Uncletopia | San Francisco | 2 | All Maps | STV","players":null},{"server_id":19,"name":"Uncletopia | San Francisco | 3 | Stopwatch Beta","name_short":"sfo-3","host":"sfo-1.us.uncletopia.com","port":27035,"enabled":true,"region":"us-west","cc":"us","latitude":37.77397,"longitude":-122.4313,"reserved":0,"last_update":"0001-01-01T00:00:00Z","name_a2s":"Uncletopia | San Francisco | 3 | Stopwatch Beta","protocol":17,"map":"koth_lakeside_final","folder":"tf","game":"Team Fortress","app_id":440,"player_count":0,"max_players":24,"Bots":0,"server_type":"Dedicated","server_os":"Linux","password":true,"vac":true,"version":"7742253","steam_id":85568392924742824,"keywords":["cp","nocrits","nodmgspread","uncletopia"],"game_id":440,"stv_port":27036,"stv_name":"Uncletopia | San Francisco | 3 | Stopwatch Beta | STV","players":null},{"server_id":20,"name":"Uncletopia | San Francisco | 4 | Community","name_short":"sfo-4","host":"sfo-1.us.uncletopia.com","port":27045,"enabled":true,"region":"us-west","cc":"us","latitude":37.77397,"longitude":-122.4313,"reserved":0,"last_update":"0001-01-01T00:00:00Z","name_a2s":"Uncletopia | San Francisco | 4 | Community","protocol":17,"map":"cp_dustbowl","folder":"tf","game":"Team Fortress","app_id":440,"player_count":0,"max_players":24,"Bots":0,"server_type":"Dedicated","server_os":"Linux","password":true,"vac":true,"version":"7742253","steam_id":85568392924742826,"keywords":["cp","nocrits","nodmgspread","uncletopia"],"game_id":440,"stv_port":27046,"stv_name":"Uncletopia | San Francisco | 4 | Community | STV","players":null},{"server_id":141,"name":"Uncletopia | Sydney | 1 | All Maps","name_short":"syd-1","host":"syd-1.au.uncletopia.com","port":27015,"enabled":true,"region":"au","cc":"au","latitude":-33.865143,"longitude":151.2099,"reserved":0,"last_update":"0001-01-01T00:00:00Z","name_a2s":"Uncletopia | Sydney | 1 | All Maps","protocol":17,"map":"pl_badwater","folder":"tf","game":"Team Fortress","app_id":440,"player_count":0,"max_players":24,"Bots":0,"server_type":"Dedicated","server_os":"Linux","password":true,"vac":true,"version":"7742253","steam_id":85568392924470001,"keywords":["nocrits","nodmgspread","payload","uncletopia"],"game_id":440,"stv_port":27016,"stv_name":"Uncletopia | Sydney | 1 | All Maps | STV","players":null},{"server_id":123,"name":"Uncletopia | Sydney | 2 | All Maps","name_short":"syd-2","host":"syd-1.au.uncletopia.com","port":27025,"enabled":true,"region":"au","cc":"au","latitude":-33.865143,"longitude":151.2099,"reserved":0,"last_update":"0001-01-01T00:00:00Z","name_a2s":"Uncletopia | Sydney | 2 | All Maps","protocol":17,"map":"koth_viaduct","folder":"tf","game":"Team Fortress","app_id":440,"player_count":0,"max_players":24,"Bots":0,"server_type":"Dedicated","server_os":"Linux","password":true,"vac":true,"version":"7742253","steam_id":85568392924470002,"keywords":["cp","nocrits","nodmgspread","uncletopia"],"game_id":440,"stv_port":27026,"stv_name":"Uncletopia | Sydney | 2 | All Maps | STV","players":null},{"server_id":395,"name":"Uncletopia | Sydney | 3 | All Maps","name_short":"syd-3","host":"syd-1.au.uncletopia.com","port":27035,"enabled":true,"region":"au","cc":"au","latitude":-33.865143,"longitude":151.2099,"reserved":0,"last_update":"0001-01-01T00:00:00Z","name_a2s":"Uncletopia | Sydney | 3 | All Maps","protocol":17,"map":"cp_snakewater_final1","folder":"tf","game":"Team Fortress","app_id":440,"player_count":0,"max_players":24,"Bots":0,"server_type":"Dedicated","server_os":"Linux","password":true,"vac":true,"version":"7742253","steam_id":85568392925194467,"keywords":["cp","nocrits","nodmgspread","uncletopia"],"game_id":440,"stv_port":27036,"stv_name":"Uncletopia | Sydney | 3 | All Maps | STV","players":null},{"server_id":396,"name":"Uncletopia | Sydney | 4 | All Maps","name_short":"syd-4","host":"syd-1.au.uncletopia.com","port":27045,"enabled":true,"region":"au","cc":"au","latitude":-33.865143,"longitude":151.2099,"reserved":0,"last_update":"0001-01-01T00:00:00Z","name_a2s":"Uncletopia | Sydney | 4 | All Maps","protocol":17,"map":"ctf_2fort","folder":"tf","game":"Team Fortress","app_id":440,"player_count":0,"max_players":24,"Bots":0,"server_type":"Dedicated","server_os":"Linux","password":true,"vac":true,"version":"7742253","steam_id":85568392925397958,"keywords":["ctf","nocrits","nodmgspread","uncletopia"],"game_id":440,"stv_port":27046,"stv_name":"Uncletopia | Sydney | 4 | All Maps | STV","players":null},{"server_id":58,"name":"Uncletopia | Sydney | 5 | Stopwatch Beta","name_short":"syd-5","host":"syd-1.au.uncletopia.com","port":27055,"enabled":true,"region":"au","cc":"au","latitude":-33.865143,"longitude":151.2099,"reserved":0,"last_update":"0001-01-01T00:00:00Z","name_a2s":"Uncletopia | Sydney | 5 | Stopwatch Beta","protocol":17,"map":"workshop/koth_bagel_rc5.ugc2514036946","folder":"tf","game":"Team Fortress","app_id":440,"player_count":0,"max_players":24,"Bots":0,"server_type":"Dedicated","server_os":"Linux","password":true,"vac":true,"version":"7742253","steam_id":85568392925397959,"keywords":["cp","nocrits","nodmgspread","uncletopia"],"game_id":440,"stv_port":27056,"stv_name":"Uncletopia | Sydney | 5 | Stopwatch Beta | STV","players":null},{"server_id":59,"name":"Uncletopia | Sydney | 6 | Community","name_short":"syd-6","host":"syd-1.au.uncletopia.com","port":27065,"enabled":true,"region":"au","cc":"au","latitude":-33.865143,"longitude":151.2099,"reserved":0,"last_update":"0001-01-01T00:00:00Z","name_a2s":"Uncletopia | Sydney | 6 | Community","protocol":17,"map":"workshop/pl_cactuscanyon_redux_rc4b.ugc2579644293","folder":"tf","game":"Team Fortress","app_id":440,"player_count":0,"max_players":24,"Bots":0,"server_type":"Dedicated","server_os":"Linux","password":true,"vac":true,"version":"7742253","steam_id":85568392925397960,"keywords":["nocrits","nodmgspread","payload","uncletopia"],"game_id":440,"stv_port":27066,"stv_name":"Uncletopia | Sydney | 6 | Community | STV","players":null},{"server_id":49,"name":"Uncletopia | Warsaw | 1 | All Maps","name_short":"waw-1","host":"waw-1.pl.uncletopia.com","port":27015,"enabled":true,"region":"eu","cc":"pl","latitude":52.2297,"longitude":21.017532,"reserved":0,"last_update":"0001-01-01T00:00:00Z","name_a2s":"","protocol":0,"map":"","folder":"","game":"","app_id":0,"player_count":0,"max_players":0,"Bots":0,"server_type":"","server_os":"","password":false,"vac":false,"version":"","steam_id":0,"keywords":null,"game_id":0,"stv_port":0,"stv_name":"","players":null},{"server_id":50,"name":"Uncletopia | Warsaw | 2 | All Maps","name_short":"waw-2","host":"waw-1.pl.uncletopia.com","port":27025,"enabled":true,"region":"eu","cc":"pl","latitude":52.2297,"longitude":21.017532,"reserved":0,"last_update":"0001-01-01T00:00:00Z","name_a2s":"Uncletopia | Warsaw | 2 | All Maps","protocol":17,"map":"koth_lakeside_final","folder":"tf","game":"Team Fortress","app_id":440,"player_count":2,"max_players":24,"Bots":0,"server_type":"Dedicated","server_os":"Linux","password":true,"vac":true,"version":"7742253","steam_id":85568392925397851,"keywords":["cp","nocrits","nodmgspread","uncletopia"],"game_id":440,"stv_port":27026,"stv_name":"Uncletopia | Warsaw | 2 | All Maps | STV","players":[{"user_id":8,"name":"GregerUlander","steam_id":76561198152375055,"connected_time":2022000000000,"state":"active","ping":83},{"user_id":10,"name":"odagroda","steam_id":76561198446924076,"connected_time":1595000000000,"state":"active","ping":80}]},{"server_id":51,"name":"Uncletopia | Warsaw | 3 | All Maps","name_short":"waw-3","host":"waw-1.pl.uncletopia.com","port":27035,"enabled":true,"region":"eu","cc":"pl","latitude":52.2297,"longitude":21.017532,"reserved":0,"last_update":"0001-01-01T00:00:00Z","name_a2s":"Uncletopia | Warsaw | 3 | All Maps","protocol":17,"map":"pl_pier","folder":"tf","game":"Team Fortress","app_id":440,"player_count":0,"max_players":24,"Bots":0,"server_type":"Dedicated","server_os":"Linux","password":true,"vac":true,"version":"7742253","steam_id":85568392925397852,"keywords":["nocrits","nodmgspread","payload","uncletopia"],"game_id":440,"stv_port":27036,"stv_name":"Uncletopia | Warsaw | 3 | All Maps | STV","players":null},{"server_id":52,"name":"Uncletopia | Warsaw | 4 | All Maps","name_short":"waw-4","host":"waw-1.pl.uncletopia.com","port":27045,"enabled":true,"region":"eu","cc":"pl","latitude":52.2297,"longitude":21.017532,"reserved":0,"last_update":"0001-01-01T00:00:00Z","name_a2s":"Uncletopia | Warsaw | 4 | All Maps","protocol":17,"map":"pl_swiftwater_final1","folder":"tf","game":"Team Fortress","app_id":440,"player_count":0,"max_players":24,"Bots":0,"server_type":"Dedicated","server_os":"Linux","password":true,"vac":true,"version":"7742253","steam_id":85568392925397853,"keywords":["nocrits","nodmgspread","payload","uncletopia"],"game_id":440,"stv_port":27046,"stv_name":"Uncletopia | Warsaw | 4 | All Maps | STV","players":null},{"server_id":53,"name":"Uncletopia | Warsaw | 5 | Stopwatch Beta","name_short":"waw-5","host":"waw-1.pl.uncletopia.com","port":27055,"enabled":true,"region":"eu","cc":"pl","latitude":52.2297,"longitude":21.017532,"reserved":0,"last_update":"0001-01-01T00:00:00Z","name_a2s":"Uncletopia | Warsaw | 5 | Stopwatch Beta","protocol":17,"map":"pl_swiftwater_final1","folder":"tf","game":"Team Fortress","app_id":440,"player_count":0,"max_players":24,"Bots":0,"server_type":"Dedicated","server_os":"Linux","password":true,"vac":true,"version":"7742253","steam_id":85568392925397854,"keywords":["nocrits","nodmgspread","payload","uncletopia"],"game_id":440,"stv_port":27056,"stv_name":"Uncletopia | Warsaw | 5 | Stopwatch Beta | STV","players":null},{"server_id":54,"name":"Uncletopia | Warsaw | 6 | Community","name_short":"waw-6","host":"waw-1.pl.uncletopia.com","port":27065,"enabled":true,"region":"eu","cc":"pl","latitude":52.2297,"longitude":21.017532,"reserved":0,"last_update":"0001-01-01T00:00:00Z","name_a2s":"Uncletopia | Warsaw | 6 | Community","protocol":17,"map":"workshop/koth_ashville_final.ugc2130459942","folder":"tf","game":"Team Fortress","app_id":440,"player_count":0,"max_players":24,"Bots":0,"server_type":"Dedicated","server_os":"Linux","password":true,"vac":true,"version":"7742253","steam_id":85568392925397856,"keywords":["cp","nocrits","nodmgspread","uncletopia"],"game_id":440,"stv_port":27066,"stv_name":"Uncletopia | Warsaw | 6 | Community | STV","players":null}]}