{"status":true,"message":"","result":[{"server_id":9,"name":"Uncletopia | Atlanta | 1 | All Maps","name_short":"atl-1","host":"atl-1.us.uncletopia.com","port":27015,"enabled":true,"region":"us-east","cc":"us","latitude":33.753746,"longitude":-84.38633,"reserved":0,"last_update":"0001-01-01T00:00:00Z","name_a2s":"Uncletopia | Atlanta | 1 | All Maps","protocol":17,"map":"cp_mossrock","folder":"tf","game":"Team Fortress","app_id":440,"player_count":23,"max_players":24,"Bots":0,"server_type":"Dedicated","server_os":"Linux","password":true,"vac":true,"version":"7757534","steam_id":85568392924469982,"keywords":["cp","nocrits","nodmgspread","uncletopia"],"game_id":440,"stv_port":27016,"stv_name":"Uncletopia | Atlanta | 1 | All Maps | STV","players":[{"user_id":128,"name":"ATL1 | Pango","steam_id":76561198069811545,"connected_time":601000000000,"state":"active","ping":43},{"user_id":120,"name":"goober","steam_id":76561198943598378,"connected_time":1230000000000,"state":"active","ping":47},{"user_id":109,"name":"Five Layer burrio from tacobell","steam_id":76561198982810452,"connected_time":2303000000000,"state":"active","ping":77},{"user_id":83,"name":"gallowsCalibrator","steam_id":76561198404707578,"connected_time":4442000000000,"state":"active","ping":43},{"user_id":119,"name":"Kevin","steam_id":76561198035625423,"connected_time":1232000000000,"state":"active","ping":184},{"user_id":91,"name":"Brown_Dream","steam_id":76561198975766145,"connected_time":3388000000000,"state":"active","ping":68},{"user_id":121,"name":"Princessie Matifina","steam_id":76561198060498180,"connected_time":1104000000000,"state":"active","ping":59},{"user_id":100,"name":"Thurricane","steam_id":76561198410724666,"connected_time":2554000000000,"state":"active","ping":65},{"user_id":134,"name":"purple","steam_id":76561198239286750,"connected_time":176000000000,"state":"active","ping":68},{"user_id":98,"name":"living in mushroom park","steam_id":76561198249206656,"connected_time":2835000000000,"state":"active","ping":85},{"user_id":115,"name":"Sworddemonboggle","steam_id":76561198295526535,"connected_time":1516000000000,"state":"active","ping":88},{"user_id":65,"name":"You Want Me","steam_id":76561198135492119,"connected_time":6723000000000,"state":"active","ping":69},{"user_id":135,"name":"A Getaway Submarine","steam_id":76561199145662306,"connected_time":137000000000,"state":"active","ping":81},{"user_id":133,"name":"ATL1 | Chance","steam_id":76561198122256825,"connected_time":177000000000,"state":"active","ping":61},{"user_id":66,"name":"G_Bob","steam_id":76561198098133233,"connected_time":6722000000000,"state":"active","ping":56},{"user_id":122,"name":"frozenwasanokmovie","steam_id":76561198157407952,"connected_time":1095000000000,"state":"active","ping":102},{"user_id":94,"name":"6t26j","steam_id":76561198278282836,"connected_time":3100000000000,"state":"active","ping":66},{"user_id":124,"name":"qjkxkcd","steam_id":76561198035922283,"connected_time":856000000000,"state":"active","ping":69},{"user_id":127,"name":"Claymore18","steam_id":76561198328211099,"connected_time":813000000000,"state":"active","ping":91},{"user_id":111,"name":"Master Of Whales","steam_id":76561198349104889,"connected_time":2173000000000,"state":"active","ping":105},{"user_id":136,"name":"darkjustin54","steam_id":76561198060056280,"connected_time":124000000000,"state":"active","ping":55},{"user_id":137,"name":"ඞF-Colombianඞ","steam_id":76561198257720165,"connected_time":108000000000,"state":"active","ping":128},{"user_id":132,"name":"Epifiny","steam_id":76561198027958086,"connected_time":198000000000,"state":"active","ping":91}]},{"server_id":400,"name":"Uncletopia | Atlanta | 3 | Stopwatch Beta","name_short":"atl-3","host":"atl-1.us.uncletopia.com","port":27035,"enabled":true,"region":"us-east","cc":"us","latitude":33.753746,"longitude":-84.38633,"reserved":0,"last_update":"0001-01-01T00:00:00Z","name_a2s":"Uncletopia | Atlanta | 3 | Stopwatch Beta","protocol":17,"map":"koth_highpass","folder":"tf","game":"Team Fortress","app_id":440,"player_count":0,"max_players":24,"Bots":0,"server_type":"Dedicated","server_os":"Linux","password":true,"vac":true,"version":"7757534","steam_id":85568392924515187,"keywords":["cp","nocrits","nodmgspread","uncletopia"],"game_id":440,"stv_port":27036,"stv_name":"Uncletopia | Atlanta | 3 | Stopwatch Beta | STV","players":null},{"server_id":401,"name":"Uncletopia | Atlanta | 4 | No Payload","name_short":"atl-4","host":"atl-1.us.uncletopia.com","port":27045,"enabled":true,"region":"us-east","cc":"us","latitude":33.753746,"longitude":-84.38633,"reserved":0,"last_update":"0001-01-01T00:00:00Z","name_a2s":"Uncletopia | Atlanta | 4 | No Payload","protocol":17,"map":"pl_pier","folder":"tf","game":"Team Fortress","app_id":440,"player_count":0,"max_players":24,"Bots":0,"server_type":"Dedicated","server_os":"Linux","password":true,"vac":true,"version":"7723704","steam_id":85568392924515188,"keywords":["nocrits","nodmgspread","payload","uncletopia"],"game_id":440,"stv_port":27046,"stv_name":"Uncletopia | Atlanta | 4 | No Payload | STV","players":null},{"server_id":2,"name":"Uncletopia | Chicago | 1 | All Maps","name_short":"chi-1","host":"chi-1.us.uncletopia.com","port":27015,"enabled":true,"region":"us-central","cc":"us","latitude":41.881832,"longitude":-87.62318,"reserved":0,"last_update":"0001-01-01T00:00:00Z","name_a2s":"Uncletopia | Chicago | 1 | All Maps","protocol":17,"map":"plr_pipeline","folder":"tf","game":"Team Fortress","app_id":440,"player_count":24,"max_players":24,"Bots":0,"server_type":"Dedicated","server_os":"Linux","password":true,"vac":true,"version":"7757534","steam_id":85568392924469984,"keywords":["nocrits","nodmgspread","payload","uncletopia"],"game_id":440,"stv_port":27016,"stv_name":"Uncletopia | Chicago | 1 | All Maps | STV","players":[{"user_id":252,"name":"PKBEAST_7","steam_id":76561198177136537,"connected_time":222000000000,"state":"active","ping":90},{"user_id":245,"name":"The Drunk Clown","steam_id":76561197986850426,"connected_time":918000000000,"state":"active","ping":72},{"user_id":246,"name":"Thog","steam_id":76561198093699060,"connected_time":848000000000,"state":"active","ping":69},{"user_id":249,"name":"Xuey","steam_id":76561199120960187,"connected_time":637000000000,"state":"active","ping":67},{"user_id":251,"name":"Knuckles","steam_id":76561198000704259,"connected_time":275000000000,"state":"active","ping":48},{"user_id":118,"name":"ch","steam_id":76561198012566405,"connected_time":12330000000000,"state":"active","ping":61},{"user_id":159,"name":"♥ Femboy♥Ventily ♥","steam_id":76561198157260335,"connected_time":8450000000000,"state":"active","ping":54},{"user_id":183,"name":"Errrmmett","steam_id":76561198041314051,"connected_time":6182000000000,"state":"active","ping":87},{"user_id":247,"name":"UncLe_NuTzY","steam_id":76561199039829532,"connected_time":750000000000,"state":"active","ping":70},{"user_id":216,"name":"RedToast™","steam_id":76561198372885712,"connected_time":2983000000000,"state":"active","ping":60},{"user_id":206,"name":"TeeTree","steam_id":76561198862307874,"connected_time":3651000000000,"state":"active","ping":75},{"user_id":236,"name":"Astoriae!","steam_id":76561199090168858,"connected_time":1661000000000,"state":"active","ping":74},{"user_id":243,"name":"blob","steam_id":76561198122375328,"connected_time":1063000000000,"state":"active","ping":63},{"user_id":202,"name":"mossy_woods","steam_id":76561198284350370,"connected_time":3667000000000,"state":"active","ping":69},{"user_id":253,"name":"Owen","steam_id":76561198025446908,"connected_time":206000000000,"state":"active","ping":68},{"user_id":242,"name":"hi","steam_id":76561198809577048,"connected_time":1283000000000,"state":"active","ping":96},{"user_id":238,"name":"TheToastingToaster","steam_id":76561198439391966,"connected_time":1432000000000,"state":"active","ping":60},{"user_id":137,"name":"Snale","steam_id":76561198039517965,"connected_time":10879000000000,"state":"active","ping":130},{"user_id":184,"name":"catboy phroliax","steam_id":76561198207075529,"connected_time":6178000000000,"state":"active","ping":85},{"user_id":234,"name":"primordialheath","steam_id":76561199386942638,"connected_time":1922000000000,"state":"active","ping":68},{"user_id":241,"name":"Tots","steam_id":76561198027485007,"connected_time":1405000000000,"state":"active","ping":51},{"user_id":244,"name":"PrinceGrotle","steam_id":76561198206131603,"connected_time":1063000000000,"state":"active","ping":80},{"user_id":222,"name":"the deadliest pyroshark","steam_id":76561198374227766,"connected_time":2435000000000,"state":"active","ping":69},{"user_id":233,"name":"GIGANTO","steam_id":76561198285225189,"connected_time":2031000000000,"state":"active","ping":72}]},{"server_id":106,"name":"Uncletopia | Chicago | 2 | All Maps","name_short":"chi-2","host":"chi-1.us.uncletopia.com","port":27025,"enabled":true,"region":"us-central","cc":"us","latitude":41.881832,"longitude":-87.62318,"reserved":0,"last_update":"0001-01-01T00:00:00Z","name_a2s":"Uncletopia | Chicago | 2 | All Maps","protocol":17,"map":"koth_highpass","folder":"tf","game":"Team Fortress","app_id":440,"player_count":5,"max_players":24,"Bots":0,"server_type":"Dedicated","server_os":"Linux","password":true,"vac":true,"version":"7757534","steam_id":85568392924469985,"keywords":["cp","nocrits","nodmgspread","uncletopia"],"game_id":440,"stv_port":27026,"stv_name":"Uncletopia | Chicago | 2 | All Maps | STV","players":[{"user_id":14,"name":"Skeedie","steam_id":76561198268591634,"connected_time":305000000000,"state":"active","ping":70},{"user_id":15,"name":"Fellow Paisano","steam_id":76561198097847998,"connected_time":299000000000,"state":"active","ping":50},{"user_id":16,"name":"Malleo777","steam_id":76561198097995505,"connected_time":290000000000,"state":"active","ping":98},{"user_id":17,"name":"steelborg","steam_id":76561198427292802,"connected_time":186000000000,"state":"active","ping":76},{"user_id":18,"name":"Sicko Mode (Chris Pratt Cover)","steam_id":76561198315786174,"connected_time":125000000000,"state":"active","ping":79}]},{"server_id":402,"name":"Uncletopia | Chicago | 3 | All Maps","name_short":"chi-3","host":"chi-1.us.uncletopia.com","port":27035,"enabled":true,"region":"us-central","cc":"us","latitude":41.881832,"longitude":-87.62318,"reserved":0,"last_update":"0001-01-01T00:00:00Z","name_a2s":"Uncletopia | Chicago | 3 | All Maps","protocol":17,"map":"pl_borneo","folder":"tf","game":"Team Fortress","app_id":440,"player_count":24,"max_players":24,"Bots":0,"server_type":"Dedicated","server_os":"Linux","password":true,"vac":true,"version":"7757534","steam_id":85568392924515191,"keywords":["nocrits","nodmgspread","payload","uncletopia"],"game_id":440,"stv_port":27036,"stv_name":"Uncletopia | Chicago | 3 | All Maps | STV","players":[{"user_id":21,"name":"i like team fortress 2 :)","steam_id":76561198358777210,"connected_time":1948000000000,"state":"active","ping":39},{"user_id":20,"name":"azhapollux","steam_id":76561198892164960,"connected_time":1976000000000,"state":"active","ping":71},{"user_id":22,"name":"Drake","steam_id":76561198962415829,"connected_time":1929000000000,"state":"active","ping":83},{"user_id":59,"name":"axjf","steam_id":76561199096646526,"connected_time":95000000000,"state":"active","ping":159},{"user_id":24,"name":"Pot Head Pixie","steam_id":76561198083024504,"connected_time":1090000000000,"state":"active","ping":53},{"user_id":26,"name":"Cade","steam_id":76561199076193300,"connected_time":1063000000000,"state":"active","ping":73},{"user_id":28,"name":"CreeperCatBengal","steam_id":76561198213193221,"connected_time":1027000000000,"state":"active","ping":82},{"user_id":31,"name":"frap","steam_id":76561199252274031,"connected_time":942000000000,"state":"active","ping":59},{"user_id":57,"name":"wahooka","steam_id":76561197981211922,"connected_time":257000000000,"state":"active","ping":70},{"user_id":34,"name":"Rappitor","steam_id":76561198105613110,"connected_time":850000000000,"state":"active","ping":50},{"user_id":35,"name":"scrapheap","steam_id":76561198202407087,"connected_time":835000000000,"state":"active","ping":74},{"user_id":36,"name":"sork","steam_id":76561198082446459,"connected_time":824000000000,"state":"active","ping":75},{"user_id":49,"name":"its ben okay","steam_id":76561198254708420,"connected_time":513000000000,"state":"active","ping":90},{"user_id":38,"name":"really hot pocket","steam_id":76561198239297686,"connected_time":811000000000,"state":"active","ping":66},{"user_id":39,"name":"SneakMan","steam_id":76561198822271699,"connected_time":799000000000,"state":"active","ping":55},{"user_id":53,"name":"deskmedic","steam_id":76561198295640486,"connected_time":452000000000,"state":"active","ping":99},{"user_id":43,"name":"MasterDoge17","steam_id":76561198917443549,"connected_time":656000000000,"state":"active","ping":75},{"user_id":54,"name":"BUH ROCCO BAMA","steam_id":76561198095200248,"connected_time":444000000000,"state":"active","ping":80},{"user_id":58,"name":"Ursus Ludius","steam_id":76561198025470722,"connected_time":143000000000,"state":"active","ping":86},{"user_id":46,"name":"Gitgudgame","steam_id":76561198354761942,"connected_time":638000000000,"state":"active","ping":79},{"user_id":47,"name":"_DrunkenGibberish_","steam_id":76561199123070071,"connected_time":629000000000,"state":"active","ping":102},{"user_id":48,"name":"grzybiarz2022","steam_id":76561199409218561,"connected_time":612000000000,"state":"active","ping":172},{"user_id":56,"name":"abomination","steam_id":76561198167974713,"connected_time":334000000000,"state":"active","ping":68},{"user_id":51,"name":"kallen","steam_id":76561198838043440,"connected_time":494000000000,"state":"active","ping":60}]},{"server_id":403,"name":"Uncletopia | Chicago | 4 | All Maps","name_short":"chi-4","host":"chi-1.us.uncletopia.com","port":27045,"enabled":true,"region":"us-central","cc":"us","latitude":41.881832,"longitude":-87.62318,"reserved":0,"last_update":"0001-01-01T00:00:00Z","name_a2s":"Uncletopia | Chicago | 4 | All Maps","protocol":17,"map":"pl_pier","folder":"tf","game":"Team Fortress","app_id":440,"player_count":24,"max_players":24,"Bots":0,"server_type":"Dedicated","server_os":"Linux","password":true,"vac":true,"version":"7757534","steam_id":85568392924515193,"keywords":["nocrits","nodmgspread","payload","uncletopia"],"game_id":440,"stv_port":27046,"stv_name":"Uncletopia | Chicago | 4 | All Maps | STV","players":[{"user_id":319,"name":"Squidward","steam_id":76561198189429665,"connected_time":1053000000000,"state":"active","ping":74},{"user_id":303,"name":"D7NAMM0","steam_id":76561198356245658,"connected_time":1477000000000,"state":"active","ping":61},{"user_id":322,"name":"Cassini","steam_id":76561198318526294,"connected_time":713000000000,"state":"active","ping":74},{"user_id":328,"name":"SnowBerry","steam_id":76561199002635831,"connected_time":305000000000,"state":"active","ping":61},{"user_id":272,"name":"Kasane","steam_id":76561198209006780,"connected_time":4436000000000,"state":"active","ping":86},{"user_id":329,"name":"The Great Karizma!","steam_id":76561198346191193,"connected_time":300000000000,"state":"active","ping":99},{"user_id":321,"name":"Mada","steam_id":76561198998349131,"connected_time":743000000000,"state":"active","ping":58},{"user_id":292,"name":"Cthulhu","steam_id":76561198326381898,"connected_time":2868000000000,"state":"active","ping":78},{"user_id":306,"name":"bitma","steam_id":76561199000786530,"connected_time":1439000000000,"state":"active","ping":74},{"user_id":310,"name":"Amogous Supreme","steam_id":76561198025476774,"connected_time":1293000000000,"state":"active","ping":106},{"user_id":250,"name":"Yukihana","steam_id":76561198348354629,"connected_time":6299000000000,"state":"active","ping":88},{"user_id":327,"name":"floppy muppet","steam_id":76561198003076261,"connected_time":457000000000,"state":"active","ping":89},{"user_id":295,"name":"[LINUX] Purple Penguin Pybro","steam_id":76561198093538786,"connected_time":2258000000000,"state":"active","ping":73},{"user_id":330,"name":"King Kinyon","steam_id":76561198080525234,"connected_time":293000000000,"state":"active","ping":75},{"user_id":309,"name":"carrion goat she/it","steam_id":76561198262064871,"connected_time":1313000000000,"state":"active","ping":62},{"user_id":311,"name":"Vobo","steam_id":76561199159418598,"connected_time":1286000000000,"state":"active","ping":138},{"user_id":234,"name":"Anon","steam_id":76561198109740776,"connected_time":7354000000000,"state":"active","ping":116},{"user_id":312,"name":"Aztex","steam_id":76561198258479922,"connected_time":1219000000000,"state":"active","ping":57},{"user_id":242,"name":"shadow6","steam_id":76561197979807910,"connected_time":6620000000000,"state":"active","ping":84},{"user_id":323,"name":"Astro","steam_id":76561198035676106,"connected_time":689000000000,"state":"active","ping":85},{"user_id":261,"name":"Wwaz","steam_id":76561198000240092,"connected_time":5623000000000,"state":"active","ping":50},{"user_id":313,"name":"ApertureCity","steam_id":76561198004153607,"connected_time":1203000000000,"state":"active","ping":83},{"user_id":193,"name":"Cuttle's Fish","steam_id":76561198280483257,"connected_time":10121000000000,"state":"active","ping":59},{"user_id":315,"name":"Drako","steam_id":76561198331980026,"connected_time":1198000000000,"state":"active","ping":84}]},{"server_id":36,"name":"Uncletopia | Chicago | 5 | All Maps","name_short":"chi-5","host":"chi-2.us.uncletopia.com","port":27015,"enabled":true,"region":"us-central","cc":"us","latitude":41.881832,"longitude":-87.62318,"reserved":0,"last_update":"0001-01-01T00:00:00Z","name_a2s":"Uncletopia | Chicago | 5 | All Maps","protocol":17,"map":"cp_powerhouse","folder":"tf","game":"Team Fortress","app_id":440,"player_count":18,"max_players":24,"Bots":0,"server_type":"Dedicated","server_os":"Linux","password":true,"vac":true,"version":"7757534","steam_id":85568392924866362,"keywords":["cp","nocrits","nodmgspread","uncletopia"],"game_id":440,"stv_port":27016,"stv_name":"Uncletopia | Chicago | 5 | All Maps | STV","players":[{"user_id":119,"name":"That Sounds Serious","steam_id":76561198247719128,"connected_time":634000000000,"state":"active","ping":120},{"user_id":125,"name":"Huntpk","steam_id":76561198340591674,"connected_time":84000000000,"state":"active","ping":35},{"user_id":92,"name":"Zicky Nee","steam_id":76561198042601111,"connected_time":2903000000000,"state":"active","ping":71},{"user_id":124,"name":"Scorpie Doodle","steam_id":76561198021845763,"connected_time":112000000000,"state":"active","ping":55},{"user_id":126,"name":"Momki","steam_id":76561198072944509,"connected_time":75000000000,"state":"active","ping":81},{"user_id":116,"name":"frid","steam_id":76561198005806915,"connected_time":904000000000,"state":"active","ping":59},{"user_id":89,"name":"rlen","steam_id":76561197996132951,"connected_time":3218000000000,"state":"active","ping":75},{"user_id":57,"name":"classically tua","steam_id":76561198034955422,"connected_time":5233000000000,"state":"active","ping":135},{"user_id":58,"name":"Joey Lemons","steam_id":76561198068104187,"connected_time":5220000000000,"state":"active","ping":37},{"user_id":93,"name":"mao zaddy","steam_id":76561198283687382,"connected_time":2741000000000,"state":"active","ping":74},{"user_id":84,"name":"underscore_","steam_id":76561198242183264,"connected_time":3471000000000,"state":"active","ping":67},{"user_id":78,"name":"ShermanJumbo","steam_id":76561198020054307,"connected_time":3730000000000,"state":"active","ping":45},{"user_id":65,"name":"Strawburrr","steam_id":76561199208694620,"connected_time":4935000000000,"state":"active","ping":91},{"user_id":118,"name":"loyaldandan0764","steam_id":76561199231020424,"connected_time":815000000000,"state":"active","ping":102},{"user_id":120,"name":"garfield","steam_id":76561198114119308,"connected_time":629000000000,"state":"active","ping":60},{"user_id":85,"name":"kieran","steam_id":76561198115357403,"connected_time":3452000000000,"state":"active","ping":150},{"user_id":100,"name":"cringeass nae-nae girl","steam_id":76561198108753857,"connected_time":1927000000000,"state":"active","ping":91},{"user_id":113,"name":"skrt","steam_id":76561198233984300,"connected_time":1329000000000,"state":"active","ping":53}]},{"server_id":37,"name":"Uncletopia | Chicago | 6 | All Maps","name_short":"chi-6","host":"chi-2.us.uncletopia.com","port":27025,"enabled":true,"region":"us-central","cc":"us","latitude":41.881832,"longitude":-87.62318,"reserved":0,"last_update":"0001-01-01T00:00:00Z","name_a2s":"Uncletopia | Chicago | 6 | All Maps","protocol":17,"map":"koth_viaduct","folder":"tf","game":"Team Fortress","app_id":440,"player_count":0,"max_players":24,"Bots":0,"server_type":"Dedicated","server_os":"Linux","password":true,"vac":true,"version":"7757534","steam_id":85568392924866363,"keywords":["cp","nocrits","nodmgspread","uncletopia"],"game_id":440,"stv_port":27026,"stv_name":"Uncletopia | Chicago | 6 | All Maps | STV","players":null},{"server_id":38,"name":"Uncletopia | Chicago | 7 | Stopwatch Beta","name_short":"chi-7","host":"chi-2.us.uncletopia.com","port":27035,"enabled":true,"region":"us-central","cc":"us","latitude":41.881832,"longitude":-87.62318,"reserved":0,"last_update":"0001-01-01T00:00:00Z","name_a2s":"Uncletopia | Chicago | 7 | Stopwatch Beta","protocol":17,"map":"cp_metalworks","folder":"tf","game":"Team Fortress","app_id":440,"player_count":0,"max_players":24,"Bots":0,"server_type":"Dedicated","server_os":"Linux","password":true,"vac":true,"version":"7757534","steam_id":85568392924866364,"keywords":["cp","nocrits","nodmgspread","uncletopia"],"game_id":440,"stv_port":27036,"stv_name":"Uncletopia | Chicago | 7 | Stopwatch Beta | STV","players":null},{"server_id":39,"name":"Uncletopia | Chicago | 8 | Community","name_short":"chi-8","host":"chi-2.us.uncletopia.com","port":27045,"enabled":true,"region":"us-central","cc":"us","latitude":41.881832,"longitude":-87.62318,"reserved":0,"last_update":"0001-01-01T00:00:00Z","name_a2s":"Uncletopia | Chicago | 8 | Community","protocol":17,"map":"workshop/koth_product_final.ugc454272353","folder":"tf","game":"Team Fortress","app_id":440,"player_count":0,"max_players":24,"Bots":0,"server_type":"Dedicated","server_os":"Linux","password":true,"vac":true,"version":"7757534","steam_id":85568392924866365,"keywords":["cp","nocrits","nodmgspread","uncletopia"],"game_id":440,"stv_port":27046,"stv_name":"Uncletopia | Chicago | 8 | Community | STV","players":null},{"server_id":8,"name":"Uncletopia | Dallas | 1 | All Maps","name_short":"dal-1","host":"dal-1.us.uncletopia.com","port":27015,"enabled":true,"region":"us-central","cc":"us","latitude":32.779167,"longitude":-96.80889,"reserved":0,"last_update":"0001-01-01T00:00:00Z","name_a2s":"Uncletopia | Dallas | 1 | All Maps","protocol":17,"map":"pl_swiftwater_final1","folder":"tf","game":"Team Fortress","app_id":440,"player_count":24,"max_players":24,"Bots":0,"server_type":"Dedicated","server_os":"Linux","password":true,"vac":true,"version":"7757534","steam_id":85568392924469986,"keywords":["nocrits","nodmgspread","payload","uncletopia"],"game_id":440,"stv_port":27016,"stv_name":"Uncletopia | Dallas | 1 | All Maps | STV","players":[{"user_id":233,"name":"twitch.tv/kegaman_","steam_id":76561198043632775,"connected_time":600000000000,"state":"active","ping":78},{"user_id":213,"name":"Literally a Trans Woman","steam_id":76561198054639925,"connected_time":2410000000000,"state":"active","ping":78},{"user_id":225,"name":"GrantTheMedicYT","steam_id":76561199077176696,"connected_time":1699000000000,"state":"active","ping":102},{"user_id":218,"name":"Randy \"the Man\" Johnson","steam_id":76561198039124445,"connected_time":1755000000000,"state":"active","ping":92},{"user_id":234,"name":"mr ploobmeister","steam_id":76561198128908529,"connected_time":556000000000,"state":"active","ping":55},{"user_id":235,"name":"johnman gooberguy","steam_id":76561199014859764,"connected_time":553000000000,"state":"active","ping":115},{"user_id":227,"name":"HeroOfTime","steam_id":76561199096218001,"connected_time":1455000000000,"state":"active","ping":82},{"user_id":204,"name":"Proto","steam_id":76561198053602795,"connected_time":2732000000000,"state":"active","ping":101},{"user_id":228,"name":"DOMO_MR_ROBOTO","steam_id":76561198077108345,"connected_time":1322000000000,"state":"active","ping":93},{"user_id":236,"name":"Billybob7712","steam_id":76561199000291076,"connected_time":539000000000,"state":"active","ping":119},{"user_id":186,"name":"Emma","steam_id":76561198318093783,"connected_time":3771000000000,"state":"active","ping":61},{"user_id":231,"name":"[chef] iron","steam_id":76561197970888616,"connected_time":840000000000,"state":"active","ping":60},{"user_id":237,"name":"gretchling","steam_id":76561198046111695,"connected_time":514000000000,"state":"active","ping":45},{"user_id":210,"name":"kerdo","steam_id":76561199195205705,"connected_time":2562000000000,"state":"active","ping":62},{"user_id":238,"name":"Fresh Lychee","steam_id":76561198045399559,"connected_time":482000000000,"state":"active","ping":77},{"user_id":194,"name":"SAKO","steam_id":76561198010041361,"connected_time":3624000000000,"state":"active","ping":44},{"user_id":202,"name":"trilobita","steam_id":76561198428215606,"connected_time":2910000000000,"state":"active","ping":82},{"user_id":239,"name":"Riff","steam_id":76561198066921423,"connected_time":472000000000,"state":"active","ping":66},{"user_id":232,"name":"KittyCatMeowMeow","steam_id":76561198211632819,"connected_time":697000000000,"state":"active","ping":60},{"user_id":198,"name":"Emprial","steam_id":76561198195574594,"connected_time":3492000000000,"state":"active","ping":63},{"user_id":222,"name":"Chunts up with that?","steam_id":76561198063808137,"connected_time":1735000000000,"state":"active","ping":71},{"user_id":161,"name":"bendera","steam_id":76561197965486503,"connected_time":5775000000000,"state":"active","ping":84},{"user_id":226,"name":"Quietsharp","steam_id":76561198277968438,"connected_time":1679000000000,"state":"active","ping":89},{"user_id":177,"name":"TheBrocklobster","steam_id":76561198039682984,"connected_time":4437000000000,"state":"active","ping":88}]},{"server_id":108,"name":"Uncletopia | Dallas | 2 | All Maps","name_short":"dal-2","host":"dal-1.us.uncletopia.com","port":27025,"enabled":true,"region":"us-central","cc":"us","latitude":32.779167,"longitude":-96.80889,"reserved":0,"last_update":"0001-01-01T00:00:00Z","name_a2s":"Uncletopia | Dallas | 2 | All Maps","protocol":17,"map":"pl_borneo","folder":"tf","game":"Team Fortress","app_id":440,"player_count":24,"max_players":24,"Bots":0,"server_type":"Dedicated","server_os":"Linux","password":true,"vac":true,"version":"7757534","steam_id":85568392924469988,"keywords":["nocrits","nodmgspread","payload","uncletopia"],"game_id":440,"stv_port":27026,"stv_name":"Uncletopia | Dallas | 2 | All Maps | STV","players":[{"user_id":131,"name":"Boxxed","steam_id":76561198255787237,"connected_time":1055000000000,"state":"active","ping":55},{"user_id":149,"name":"Owl Pacino","steam_id":76561197979970666,"connected_time":196000000000,"state":"active","ping":75},{"user_id":148,"name":"TrustyGun","steam_id":76561198022854020,"connected_time":240000000000,"state":"active","ping":78},{"user_id":132,"name":"Darknile55","steam_id":76561198042029359,"connected_time":1055000000000,"state":"active","ping":79},{"user_id":133,"name":"Tophu","steam_id":76561198380229671,"connected_time":1046000000000,"state":"active","ping":96},{"user_id":151,"name":"webaline","steam_id":76561199052450127,"connected_time":162000000000,"state":"active","ping":73},{"user_id":150,"name":"xiPoison","steam_id":76561198064961659,"connected_time":186000000000,"state":"active","ping":75},{"user_id":147,"name":"concussion","steam_id":76561198273481187,"connected_time":334000000000,"state":"active","ping":73},{"user_id":152,"name":"leumas","steam_id":76561198240408540,"connected_time":154000000000,"state":"active","ping":87},{"user_id":153,"name":"zig","steam_id":76561199020345303,"connected_time":153000000000,"state":"active","ping":114},{"user_id":146,"name":"hedahman","steam_id":76561198052398134,"connected_time":369000000000,"state":"active","ping":91},{"user_id":92,"name":"Rat Smacker","steam_id":76561199090197628,"connected_time":4316000000000,"state":"active","ping":66},{"user_id":154,"name":"Hobbes","steam_id":76561198059652226,"connected_time":132000000000,"state":"active","ping":67},{"user_id":134,"name":"Starslinger","steam_id":76561198285216510,"connected_time":1045000000000,"state":"active","ping":75},{"user_id":144,"name":"Onyx","steam_id":76561198275349640,"connected_time":496000000000,"state":"active","ping":57},{"user_id":155,"name":"DudeTheNinja","steam_id":76561198118954275,"connected_time":109000000000,"state":"active","ping":196},{"user_id":142,"name":"Reno Gato","steam_id":76561198048417246,"connected_time":684000000000,"state":"active","ping":97},{"user_id":129,"name":"Carsen","steam_id":76561198225481404,"connected_time":1684000000000,"state":"active","ping":87},{"user_id":73,"name":"Temujin","steam_id":76561198030936583,"connected_time":5544000000000,"state":"active","ping":84},{"user_id":156,"name":"Raptor","steam_id":76561198061638593,"connected_time":105000000000,"state":"active","ping":75},{"user_id":157,"name":"ano sono etto","steam_id":76561197965022076,"connected_time":95000000000,"state":"active","ping":87},{"user_id":143,"name":"Buuw","steam_id":76561198085707714,"connected_time":673000000000,"state":"active","ping":61},{"user_id":158,"name":"gnome","steam_id":76561198262275475,"connected_time":79000000000,"state":"active","ping":97},{"user_id":159,"name":"shield guy","steam_id":76561198036162718,"connected_time":74000000000,"state":"active","ping":78}]},{"server_id":5,"name":"Uncletopia | Frankfurt | 1 | All Maps","name_short":"frk-1","host":"frk-1.de.uncletopia.com","port":27015,"enabled":true,"region":"eu","cc":"de","latitude":50.110924,"longitude":8.682127,"reserved":0,"last_update":"0001-01-01T00:00:00Z","name_a2s":"Uncletopia | Frankfurt | 1 | All Maps","protocol":17,"map":"cp_sunshine","folder":"tf","game":"Team Fortress","app_id":440,"player_count":24,"max_players":24,"Bots":0,"server_type":"Dedicated","server_os":"Linux","password":true,"vac":true,"version":"7757534","steam_id":85568392924469989,"keywords":["cp","nocrits","nodmgspread","uncletopia"],"game_id":440,"stv_port":27016,"stv_name":"Uncletopia | Frankfurt | 1 | All Maps | STV","players":[{"user_id":555,"name":"glyphoglossus molossus","steam_id":76561198191291749,"connected_time":1782000000000,"state":"active","ping":75},{"user_id":534,"name":"L.A. Palm Tree","steam_id":76561199289526521,"connected_time":3051000000000,"state":"active","ping":92},{"user_id":549,"name":"Bobo","steam_id":76561198052308399,"connected_time":2684000000000,"state":"active","ping":56},{"user_id":535,"name":"ᗜ˰ᗜ","steam_id":76561198148074472,"connected_time":3026000000000,"state":"active","ping":39},{"user_id":550,"name":"esteebangus","steam_id":76561198203962355,"connected_time":2310000000000,"state":"active","ping":111},{"user_id":464,"name":"RadialMount","steam_id":76561198063002562,"connected_time":6778000000000,"state":"active","ping":65},{"user_id":567,"name":"Amadeus","steam_id":76561198030958226,"connected_time":685000000000,"state":"active","ping":80},{"user_id":559,"name":"playing shogi with the Minister","steam_id":76561198163244605,"connected_time":1144000000000,"state":"active","ping":62},{"user_id":530,"name":"Sacreshiea","steam_id":76561198169853697,"connected_time":3758000000000,"state":"active","ping":58},{"user_id":528,"name":"Home Depot","steam_id":76561198108904214,"connected_time":3909000000000,"state":"active","ping":85},{"user_id":539,"name":"LarsInABox","steam_id":76561198028329262,"connected_time":2900000000000,"state":"active","ping":75},{"user_id":487,"name":"EdSuedi","steam_id":76561199387956486,"connected_time":5028000000000,"state":"active","ping":59},{"user_id":523,"name":"bmbmbm","steam_id":76561199064350902,"connected_time":4017000000000,"state":"active","ping":107},{"user_id":540,"name":"abcdefg","steam_id":76561198147277460,"connected_time":2886000000000,"state":"active","ping":54},{"user_id":541,"name":"The","steam_id":76561198359311605,"connected_time":2863000000000,"state":"active","ping":80},{"user_id":556,"name":"vosikos","steam_id":76561198298576765,"connected_time":1718000000000,"state":"active","ping":89},{"user_id":552,"name":"my hick is DUGE","steam_id":76561198023211417,"connected_time":1924000000000,"state":"active","ping":60},{"user_id":544,"name":"|20BB)\u003eMach","steam_id":76561198952487564,"connected_time":2798000000000,"state":"active","ping":84},{"user_id":562,"name":"iPhone 4S","steam_id":76561198281913312,"connected_time":964000000000,"state":"active","ping":64},{"user_id":545,"name":"tm","steam_id":76561198256619964,"connected_time":2797000000000,"state":"active","ping":75},{"user_id":551,"name":"dn4k","steam_id":76561199221755690,"connected_time":2124000000000,"state":"active","ping":74},{"user_id":569,"name":"TidB","steam_id":76561198055342304,"connected_time":129000000000,"state":"active","ping":47},{"user_id":558,"name":"Major Tom","steam_id":76561198117525443,"connected_time":1158000000000,"state":"active","ping":58},{"user_id":560,"name":"Cippo95","steam_id":76561198255311582,"connected_time":1143000000000,"state":"active","ping":68}]},{"server_id":110,"name":"Uncletopia | Frankfurt | 2 | All Maps","name_short":"frk-2","host":"frk-1.de.uncletopia.com","port":27025,"enabled":true,"region":"eu","cc":"de","latitude":50.110924,"longitude":8.682127,"reserved":0,"last_update":"0001-01-01T00:00:00Z","name_a2s":"Uncletopia | Frankfurt | 2 | All Maps","protocol":17,"map":"pl_hoodoo_final","folder":"tf","game":"Team Fortress","app_id":440,"player_count":24,"max_players":24,"Bots":0,"server_type":"Dedicated","server_os":"Linux","password":true,"vac":true,"version":"7757534","steam_id":85568392924469990,"keywords":["nocrits","nodmgspread","payload","uncletopia"],"game_id":440,"stv_port":27026,"stv_name":"Uncletopia | Frankfurt | 2 | All Maps | STV","players":[{"user_id":590,"name":"Zippo","steam_id":76561198056773656,"connected_time":776000000000,"state":"active","ping":71},{"user_id":572,"name":"☩ Knightz ☩","steam_id":76561198040936414,"connected_time":2433000000000,"state":"active","ping":119},{"user_id":573,"name":"SaiyaBoy","steam_id":76561197995674205,"connected_time":2430000000000,"state":"active","ping":68},{"user_id":589,"name":"X45Y","steam_id":76561198112534025,"connected_time":798000000000,"state":"active","ping":44},{"user_id":595,"name":"el_ronia","steam_id":76561199203435546,"connected_time":429000000000,"state":"active","ping":65},{"user_id":557,"name":"Mariachi Dave","steam_id":76561198074274900,"connected_time":3221000000000,"state":"active","ping":56},{"user_id":600,"name":"sesw","steam_id":76561198057332404,"connected_time":133000000000,"state":"active","ping":53},{"user_id":587,"name":"day","steam_id":76561198260265302,"connected_time":832000000000,"state":"active","ping":60},{"user_id":563,"name":"Wardruna96","steam_id":76561199057083828,"connected_time":2831000000000,"state":"active","ping":75},{"user_id":586,"name":"Dragon","steam_id":76561198163255365,"connected_time":854000000000,"state":"active","ping":101},{"user_id":558,"name":"irem eating tuna","steam_id":76561198142183478,"connected_time":3049000000000,"state":"active","ping":82},{"user_id":559,"name":"Banana","steam_id":76561198155118706,"connected_time":2904000000000,"state":"active","ping":97},{"user_id":520,"name":"Misty","steam_id":76561198863357531,"connected_time":5975000000000,"state":"active","ping":106},{"user_id":569,"name":"DrExplosive","steam_id":76561198063678579,"connected_time":2489000000000,"state":"active","ping":52},{"user_id":599,"name":"VLADIM:IR","steam_id":76561198070275802,"connected_time":212000000000,"state":"active","ping":75},{"user_id":500,"name":"Albert Einstein","steam_id":76561198351190006,"connected_time":6716000000000,"state":"active","ping":93},{"user_id":598,"name":"ass","steam_id":76561198154410933,"connected_time":402000000000,"state":"active","ping":150},{"user_id":582,"name":"Lil StinGa","steam_id":76561198069444222,"connected_time":1108000000000,"state":"active","ping":62},{"user_id":594,"name":"moser23","steam_id":76561197960543171,"connected_time":576000000000,"state":"active","ping":48},{"user_id":576,"name":"Charles Darwin","steam_id":76561197973496139,"connected_time":2176000000000,"state":"active","ping":73},{"user_id":578,"name":"Kiwimpediment","steam_id":76561198322781400,"connected_time":2026000000000,"state":"active","ping":159},{"user_id":584,"name":"VEH-DEH-VEH","steam_id":76561198010978989,"connected_time":996000000000,"state":"active","ping":66},{"user_id":555,"name":"Mr.Cupcake","steam_id":76561198152711174,"connected_time":3369000000000,"state":"active","ping":69},{"user_id":566,"name":"SirBacon","steam_id":76561198152177773,"connected_time":2597000000000,"state":"active","ping":77}]},{"server_id":308,"name":"Uncletopia | Frankfurt | 3 | All Maps","name_short":"frk-3","host":"frk-1.de.uncletopia.com","port":27035,"enabled":true,"region":"eu","cc":"de","latitude":50.110924,"longitude":8.682127,"reserved":0,"last_update":"0001-01-01T00:00:00Z","name_a2s":"Uncletopia | Frankfurt | 3 | All Maps","protocol":17,"map":"pl_borneo","folder":"tf","game":"Team Fortress","app_id":440,"player_count":24,"max_players":24,"Bots":0,"server_type":"Dedicated","server_os":"Linux","password":true,"vac":true,"version":"7757534","steam_id":85568392924504274,"keywords":["nocrits","nodmgspread","payload","uncletopia"],"game_id":440,"stv_port":27036,"stv_name":"Uncletopia | Frankfurt | 3 | All Maps | STV","players":[{"user_id":407,"name":"Abaddon","steam_id":76561199205559813,"connected_time":4055000000000,"state":"active","ping":45},{"user_id":459,"name":"Captain Lipwalker","steam_id":76561198013066430,"connected_time":531000000000,"state":"active","ping":96},{"user_id":341,"name":"Hexagon","steam_id":76561198151205758,"connected_time":7908000000000,"state":"active","ping":45},{"user_id":434,"name":"john fortress","steam_id":76561198013237629,"connected_time":2206000000000,"state":"active","ping":89},{"user_id":451,"name":"dunduu","steam_id":76561198875240717,"connected_time":742000000000,"state":"active","ping":61},{"user_id":454,"name":"whoever threw that paper","steam_id":76561198992148678,"connected_time":697000000000,"state":"active","ping":45},{"user_id":393,"name":"Wyro","steam_id":76561199176835169,"connected_time":5061000000000,"state":"active","ping":66},{"user_id":462,"name":"T1 (ted1)","steam_id":76561199229022826,"connected_time":38000000000,"state":"active","ping":105},{"user_id":463,"name":"Nakano","steam_id":76561198866569125,"connected_time":33000000000,"state":"spawning","ping":77},{"user_id":438,"name":"Light601","steam_id":76561198134998492,"connected_time":1961000000000,"state":"active","ping":97},{"user_id":442,"name":"TirN","steam_id":76561198113262166,"connected_time":1751000000000,"state":"active","ping":76},{"user_id":415,"name":"Hey, I´m Andy!","steam_id":76561198060337777,"connected_time":3304000000000,"state":"active","ping":68},{"user_id":331,"name":"BAD BALD \u0026 BEYOND","steam_id":76561198029873185,"connected_time":9422000000000,"state":"active","ping":59},{"user_id":446,"name":"Jess","steam_id":76561198015022965,"connected_time":1075000000000,"state":"active","ping":59},{"user_id":448,"name":"kpn","steam_id":76561198063512694,"connected_time":765000000000,"state":"active","ping":63},{"user_id":414,"name":"Rops","steam_id":76561198031608011,"connected_time":3333000000000,"state":"active","ping":78},{"user_id":460,"name":"Cliff Barnes","steam_id":76561198032213783,"connected_time":65000000000,"state":"active","ping":60},{"user_id":461,"name":"XXDANTEFANXX","steam_id":76561198197910725,"connected_time":60000000000,"state":"active","ping":118},{"user_id":402,"name":"Pico","steam_id":76561198063552545,"connected_time":4753000000000,"state":"active","ping":100},{"user_id":437,"name":"aisu","steam_id":76561198043768507,"connected_time":1985000000000,"state":"active","ping":172},{"user_id":436,"name":"tf2 snake","steam_id":76561198193971167,"connected_time":2074000000000,"state":"active","ping":51},{"user_id":369,"name":"poliakov.noam","steam_id":76561199259322961,"connected_time":5913000000000,"state":"active","ping":102},{"user_id":458,"name":"Pyr0s_Fx","steam_id":76561198057201503,"connected_time":584000000000,"state":"active","ping":68},{"user_id":441,"name":"Biscuitbox","steam_id":76561198448396620,"connected_time":1813000000000,"state":"active","ping":72}]},{"server_id":309,"name":"Uncletopia | Frankfurt | 4 | All Maps","name_short":"frk-4","host":"frk-1.de.uncletopia.com","port":27045,"enabled":true,"region":"eu","cc":"de","latitude":50.110924,"longitude":8.682127,"reserved":0,"last_update":"0001-01-01T00:00:00Z","name_a2s":"Uncletopia | Frankfurt | 4 | All Maps","protocol":17,"map":"cp_snakewater_final1","folder":"tf","game":"Team Fortress","app_id":440,"player_count":24,"max_players":24,"Bots":0,"server_type":"Dedicated","server_os":"Linux","password":true,"vac":true,"version":"7757534","steam_id":85568392924504275,"keywords":["cp","nocrits","nodmgspread","uncletopia"],"game_id":440,"stv_port":27046,"stv_name":"Uncletopia | Frankfurt | 4 | All Maps | STV","players":[{"user_id":599,"name":"bugpov","steam_id":76561198104896547,"connected_time":224000000000,"state":"active","ping":63},{"user_id":576,"name":"where is my egg?","steam_id":76561198172542535,"connected_time":2425000000000,"state":"active","ping":92},{"user_id":601,"name":"proph","steam_id":76561197998803950,"connected_time":80000000000,"state":"active","ping":57},{"user_id":568,"name":"sPork","steam_id":76561198056880331,"connected_time":3273000000000,"state":"active","ping":74},{"user_id":585,"name":"elvin","steam_id":76561198161098266,"connected_time":1387000000000,"state":"active","ping":69},{"user_id":536,"name":"ypsvlq","steam_id":76561199015433909,"connected_time":4507000000000,"state":"active","ping":71},{"user_id":586,"name":"dan.","steam_id":76561198098572024,"connected_time":1387000000000,"state":"active","ping":67},{"user_id":587,"name":"schmick","steam_id":76561198039537958,"connected_time":1263000000000,"state":"active","ping":71},{"user_id":554,"name":"Kelpy G gaming","steam_id":76561198056995633,"connected_time":3927000000000,"state":"active","ping":72},{"user_id":600,"name":"Brinier","steam_id":76561199012604288,"connected_time":104000000000,"state":"active","ping":63},{"user_id":563,"name":"LionKing","steam_id":76561198023399545,"connected_time":3380000000000,"state":"active","ping":47},{"user_id":582,"name":"ambatukam","steam_id":76561198175433731,"connected_time":1437000000000,"state":"active","ping":69},{"user_id":583,"name":"Penis Contortionist","steam_id":76561198073663784,"connected_time":1436000000000,"state":"active","ping":57},{"user_id":588,"name":"juan","steam_id":76561199098499873,"connected_time":1179000000000,"state":"active","ping":72},{"user_id":556,"name":"Shromide","steam_id":76561198140382935,"connected_time":3862000000000,"state":"active","ping":68},{"user_id":589,"name":"Koli","steam_id":76561197992428783,"connected_time":1176000000000,"state":"active","ping":58},{"user_id":590,"name":"Hmm","steam_id":76561198044277314,"connected_time":1170000000000,"state":"active","ping":74},{"user_id":566,"name":"sup3rfr3ddy.","steam_id":76561198119371683,"connected_time":3314000000000,"state":"active","ping":47},{"user_id":594,"name":"Yassine","steam_id":76561198140565712,"connected_time":1135000000000,"state":"active","ping":56},{"user_id":552,"name":"Ostarr","steam_id":76561198200054489,"connected_time":3988000000000,"state":"active","ping":71},{"user_id":596,"name":"all snipers are edgy cowards","steam_id":76561198060200599,"connected_time":1110000000000,"state":"active","ping":101},{"user_id":569,"name":"beckler","steam_id":76561198029266963,"connected_time":3137000000000,"state":"active","ping":45},{"user_id":573,"name":"thin ahh pizza","steam_id":76561198133532980,"connected_time":2968000000000,"state":"active","ping":61},{"user_id":598,"name":"Andres Carolinho","steam_id":76561198049312442,"connected_time":265000000000,"state":"active","ping":67}]},{"server_id":310,"name":"Uncletopia | Frankfurt | 5 | All Maps","name_short":"frk-5","host":"frk-1.de.uncletopia.com","port":27055,"enabled":true,"region":"eu","cc":"de","latitude":50.110924,"longitude":8.682127,"reserved":0,"last_update":"0001-01-01T00:00:00Z","name_a2s":"Uncletopia | Frankfurt | 5 | All Maps","protocol":17,"map":"pl_upward","folder":"tf","game":"Team Fortress","app_id":440,"player_count":23,"max_players":24,"Bots":0,"server_type":"Dedicated","server_os":"Linux","password":true,"vac":true,"version":"7757534","steam_id":85568392924504277,"keywords":["nocrits","nodmgspread","payload","uncletopia"],"game_id":440,"stv_port":27056,"stv_name":"Uncletopia | Frankfurt | 5 | All Maps | STV","players":[{"user_id":498,"name":"QR-M5TR","steam_id":76561198197626135,"connected_time":470000000000,"state":"active","ping":50},{"user_id":437,"name":"g1 = noob-_","steam_id":76561198081559669,"connected_time":4174000000000,"state":"active","ping":73},{"user_id":499,"name":"lawrencefishdom","steam_id":76561199190918059,"connected_time":440000000000,"state":"active","ping":70},{"user_id":496,"name":"Сеппо Рäты","steam_id":76561198034585764,"connected_time":536000000000,"state":"active","ping":84},{"user_id":482,"name":"Laxslow","steam_id":76561198065361846,"connected_time":1173000000000,"state":"active","ping":59},{"user_id":480,"name":"makin' piss","steam_id":76561198052136478,"connected_time":1319000000000,"state":"active","ping":74},{"user_id":421,"name":"sharty in my head","steam_id":76561198106049954,"connected_time":5625000000000,"state":"active","ping":81},{"user_id":439,"name":"fring said what?!?!","steam_id":76561198074917015,"connected_time":4142000000000,"state":"active","ping":71},{"user_id":490,"name":"Dr Sex","steam_id":76561198029044617,"connected_time":952000000000,"state":"active","ping":61},{"user_id":403,"name":"clouds","steam_id":76561198111134021,"connected_time":6938000000000,"state":"active","ping":75},{"user_id":475,"name":"help","steam_id":76561199056338917,"connected_time":1690000000000,"state":"active","ping":171},{"user_id":495,"name":"ScarredPixel123","steam_id":76561199165112703,"connected_time":635000000000,"state":"active","ping":81},{"user_id":501,"name":"lobzade","steam_id":76561198195685370,"connected_time":266000000000,"state":"active","ping":59},{"user_id":491,"name":"timon.ua gaming","steam_id":76561198916306059,"connected_time":810000000000,"state":"active","ping":69},{"user_id":483,"name":"VibeCheck","steam_id":76561198425961218,"connected_time":1158000000000,"state":"active","ping":115},{"user_id":493,"name":"Michał","steam_id":76561198320346362,"connected_time":800000000000,"state":"active","ping":60},{"user_id":452,"name":"sharted on enemy","steam_id":76561198079277466,"connected_time":3878000000000,"state":"active","ping":64},{"user_id":425,"name":"Lyra","steam_id":76561198043601838,"connected_time":5559000000000,"state":"active","ping":59},{"user_id":502,"name":"Rubikal12","steam_id":76561199017681186,"connected_time":230000000000,"state":"active","ping":86},{"user_id":447,"name":"P0SHT0:((","steam_id":76561198106182078,"connected_time":4026000000000,"state":"active","ping":97},{"user_id":500,"name":"FreeAndrewTate","steam_id":76561198377533237,"connected_time":417000000000,"state":"active","ping":79},{"user_id":449,"name":"sabaka jebanoia","steam_id":76561198147249160,"connected_time":4003000000000,"state":"active","ping":103},{"user_id":503,"name":"taroi","steam_id":76561199057953617,"connected_time":133000000000,"state":"active","ping":60}]},{"server_id":311,"name":"Uncletopia | Frankfurt | 6 | All Maps","name_short":"frk-6","host":"frk-1.de.uncletopia.com","port":27065,"enabled":true,"region":"eu","cc":"de","latitude":50.110924,"longitude":8.682127,"reserved":0,"last_update":"0001-01-01T00:00:00Z","name_a2s":"Uncletopia | Frankfurt | 6 | All Maps","protocol":17,"map":"pl_swiftwater_final1","folder":"tf","game":"Team Fortress","app_id":440,"player_count":24,"max_players":24,"Bots":0,"server_type":"Dedicated","server_os":"Linux","password":true,"vac":true,"version":"7757534","steam_id":85568392924504278,"keywords":["nocrits","nodmgspread","payload","uncletopia"],"game_id":440,"stv_port":27066,"stv_name":"Uncletopia | Frankfurt | 6 | All Maps | STV","players":[{"user_id":149,"name":"Alegz","steam_id":76561198287810139,"connected_time":752000000000,"state":"active","ping":44},{"user_id":155,"name":"MaxeCus","steam_id":76561199168830903,"connected_time":668000000000,"state":"active","ping":78},{"user_id":147,"name":"Packet","steam_id":76561199173195875,"connected_time":762000000000,"state":"active","ping":97},{"user_id":144,"name":"Link","steam_id":76561198062792372,"connected_time":1131000000000,"state":"active","ping":73},{"user_id":152,"name":"stonebum","steam_id":76561198057004606,"connected_time":723000000000,"state":"active","ping":60},{"user_id":157,"name":"djent","steam_id":76561198324934874,"connected_time":514000000000,"state":"active","ping":78},{"user_id":135,"name":"etc","steam_id":76561197998394797,"connected_time":1819000000000,"state":"active","ping":59},{"user_id":160,"name":"rekinek898","steam_id":76561199219378560,"connected_time":83000000000,"state":"active","ping":72},{"user_id":150,"name":"Cuthbert","steam_id":76561198204649481,"connected_time":742000000000,"state":"active","ping":100},{"user_id":153,"name":"Krabs","steam_id":76561198161679477,"connected_time":716000000000,"state":"active","ping":55},{"user_id":159,"name":"Fan","steam_id":76561198210792815,"connected_time":112000000000,"state":"active","ping":77},{"user_id":161,"name":"Néodamode","steam_id":76561197968575924,"connected_time":60000000000,"state":"active","ping":73},{"user_id":158,"name":"=PB=","steam_id":76561197999146612,"connected_time":466000000000,"state":"active","ping":59},{"user_id":145,"name":"dddd","steam_id":76561198120894372,"connected_time":914000000000,"state":"active","ping":100},{"user_id":103,"name":"Saint Laurent","steam_id":76561198798657045,"connected_time":3174000000000,"state":"active","ping":79},{"user_id":143,"name":"Nex","steam_id":76561199223747483,"connected_time":1188000000000,"state":"active","ping":71},{"user_id":137,"name":"Elon Ma","steam_id":76561199018053264,"connected_time":1667000000000,"state":"active","ping":72},{"user_id":131,"name":"Luke SpyWalker","steam_id":76561198008643276,"connected_time":2118000000000,"state":"active","ping":61},{"user_id":116,"name":"Nemsio66 #SAVETF2","steam_id":76561198383959458,"connected_time":2660000000000,"state":"active","ping":109},{"user_id":136,"name":"lore","steam_id":76561198120984188,"connected_time":1813000000000,"state":"active","ping":72},{"user_id":73,"name":"Santa Claus","steam_id":76561198415266145,"connected_time":5649000000000,"state":"active","ping":61},{"user_id":148,"name":"s2m7el","steam_id":76561199052856163,"connected_time":759000000000,"state":"active","ping":97},{"user_id":133,"name":"Aleksander","steam_id":76561198062039220,"connected_time":2077000000000,"state":"active","ping":72},{"user_id":71,"name":"i forgor","steam_id":76561198137627679,"connected_time":6019000000000,"state":"active","ping":100}]},{"server_id":23,"name":"Uncletopia | Frankfurt | 7 | Stopwatch Beta","name_short":"frk-7","host":"frk-1.de.uncletopia.com","port":27075,"enabled":true,"region":"eu","cc":"de","latitude":50.110924,"longitude":8.682127,"reserved":0,"last_update":"0001-01-01T00:00:00Z","name_a2s":"Uncletopia | Frankfurt | 7 | Stopwatch Beta","protocol":17,"map":"workshop/koth_ashville_final.ugc2130459942","folder":"tf","game":"Team Fortress","app_id":440,"player_count":0,"max_players":24,"Bots":0,"server_type":"Dedicated","server_os":"Linux","password":true,"vac":true,"version":"7757534","steam_id":85568392924742827,"keywords":["cp","nocrits","nodmgspread","uncletopia"],"game_id":440,"stv_port":27076,"stv_name":"Uncletopia | Frankfurt | 7 | Stopwatch Beta | STV","players":null},{"server_id":24,"name":"Uncletopia | Frankfurt | 8 | Community","name_short":"frk-8","host":"frk-1.de.uncletopia.com","port":27085,"enabled":true,"region":"eu","cc":"de","latitude":50.110924,"longitude":8.682127,"reserved":0,"last_update":"0001-01-01T00:00:00Z","name_a2s":"Uncletopia | Frankfurt | 8 | Community","protocol":17,"map":"koth_cascade","folder":"tf","game":"Team Fortress","app_id":440,"player_count":0,"max_players":24,"Bots":0,"server_type":"Dedicated","server_os":"Linux","password":true,"vac":true,"version":"7757534","steam_id":85568392924742828,"keywords":["cp","nocrits","nodmgspread","uncletopia"],"game_id":440,"stv_port":27086,"stv_name":"Uncletopia | Frankfurt | 8 | Community | STV","players":null},{"server_id":202,"name":"Uncletopia | Hong Kong | 1 | All Maps","name_short":"hgk-1","host":"hgk-1.hk.uncletopia.com","port":27015,"enabled":true,"region":"asia","cc":"hk","latitude":22.302711,"longitude":114.177216,"reserved":0,"last_update":"0001-01-01T00:00:00Z","name_a2s":"Uncletopia | Hong Kong | 1 | All Maps","protocol":17,"map":"koth_highpass","folder":"tf","game":"Team Fortress","app_id":440,"player_count":0,"max_players":24,"Bots":0,"server_type":"Dedicated","server_os":"Linux","password":true,"vac":true,"version":"7757534","steam_id":85568392924494504,"keywords":["cp","nocrits","nodmgspread","uncletopia"],"game_id":440,"stv_port":27016,"stv_name":"Uncletopia | Hong Kong | 1 | All Maps | STV","players":null},{"server_id":1,"name":"Uncletopia | Los Angeles | 1 | All Maps","name_short":"lax-1","host":"lax-1.us.uncletopia.com","port":27015,"enabled":true,"region":"us-west","cc":"us","latitude":33.94279,"longitude":-118.41004,"reserved":0,"last_update":"0001-01-01T00:00:00Z","name_a2s":"Uncletopia | Los Angeles | 1 | All Maps","protocol":17,"map":"cp_snakewater_final1","folder":"tf","game":"Team Fortress","app_id":440,"player_count":0,"max_players":24,"Bots":0,"server_type":"Dedicated","server_os":"Linux","password":true,"vac":true,"version":"7757534","steam_id":85568392924469991,"keywords":["cp","nocrits","nodmgspread","uncletopia"],"game_id":440,"stv_port":27016,"stv_name":"Uncletopia | Los Angeles | 1 | All Maps | STV","players":null},{"server_id":112,"name":"Uncletopia | Los Angeles | 2 | All Maps","name_short":"lax-2","host":"lax-1.us.uncletopia.com","port":27025,"enabled":true,"region":"us-west","cc":"us","latitude":33.94279,"longitude":-118.41004,"reserved":0,"last_update":"0001-01-01T00:00:00Z","name_a2s":"Uncletopia | Los Angeles | 2 | All Maps","protocol":17,"map":"pl_badwater","folder":"tf","game":"Team Fortress","app_id":440,"player_count":24,"max_players":24,"Bots":0,"server_type":"Dedicated","server_os":"Linux","password":true,"vac":true,"version":"7757534","steam_id":85568392924469992,"keywords":["nocrits","nodmgspread","payload","uncletopia"],"game_id":440,"stv_port":27026,"stv_name":"Uncletopia | Los Angeles | 2 | All Maps | STV","players":[{"user_id":300,"name":"Thai Cobra-Snake","steam_id":76561198128928443,"connected_time":2576000000000,"state":"active","ping":113},{"user_id":255,"name":"nolife","steam_id":76561198414300607,"connected_time":5859000000000,"state":"active","ping":57},{"user_id":296,"name":"SirCleric","steam_id":76561198353556457,"connected_time":3255000000000,"state":"active","ping":110},{"user_id":330,"name":"Tanner The Fish Man","steam_id":76561198372696640,"connected_time":741000000000,"state":"active","ping":50},{"user_id":322,"name":"Squid","steam_id":76561198197045587,"connected_time":1084000000000,"state":"active","ping":146},{"user_id":269,"name":"||:♩♩♩♪:|| Opplydead","steam_id":76561198028630334,"connected_time":4712000000000,"state":"active","ping":50},{"user_id":271,"name":"UneditedAndy","steam_id":76561198982544947,"connected_time":4364000000000,"state":"active","ping":51},{"user_id":279,"name":"Lord GabeN","steam_id":76561198140862723,"connected_time":4060000000000,"state":"active","ping":118},{"user_id":331,"name":"Latex Princess","steam_id":76561198158750199,"connected_time":731000000000,"state":"active","ping":95},{"user_id":328,"name":"Jacck916","steam_id":76561198176874157,"connected_time":831000000000,"state":"active","ping":101},{"user_id":301,"name":"Shoggoth","steam_id":76561198117892299,"connected_time":2533000000000,"state":"active","ping":98},{"user_id":332,"name":"Stapler","steam_id":76561198099295077,"connected_time":387000000000,"state":"active","ping":59},{"user_id":325,"name":"Ok then","steam_id":76561198891914787,"connected_time":1046000000000,"state":"active","ping":94},{"user_id":302,"name":"YungKeet","steam_id":76561198293854963,"connected_time":2524000000000,"state":"active","ping":90},{"user_id":315,"name":"BigGoose","steam_id":76561198833281392,"connected_time":1625000000000,"state":"active","ping":68},{"user_id":329,"name":"[ibb™]Shadow20X6-ENGI","steam_id":76561198019292755,"connected_time":782000000000,"state":"active","ping":54},{"user_id":293,"name":"Dr Frasier Crane","steam_id":76561198071790583,"connected_time":3370000000000,"state":"active","ping":93},{"user_id":305,"name":"Jarryl97","steam_id":76561198055451373,"connected_time":2480000000000,"state":"active","ping":92},{"user_id":316,"name":"Cursed Dog","steam_id":76561198090785078,"connected_time":1584000000000,"state":"active","ping":104},{"user_id":327,"name":"(free to play)","steam_id":76561199467821684,"connected_time":973000000000,"state":"active","ping":135},{"user_id":306,"name":"poop","steam_id":76561198272406084,"connected_time":2433000000000,"state":"active","ping":103},{"user_id":307,"name":"Wayside","steam_id":76561198999627870,"connected_time":2433000000000,"state":"active","ping":55},{"user_id":320,"name":"NovaScotianDuckRetriever","steam_id":76561198061867269,"connected_time":1212000000000,"state":"active","ping":65},{"user_id":317,"name":"June","steam_id":76561198141803658,"connected_time":1578000000000,"state":"active","ping":50}]},{"server_id":324,"name":"Uncletopia | Los Angeles | 3 | All Maps","name_short":"lax-3","host":"lax-1.us.uncletopia.com","port":27035,"enabled":true,"region":"us-west","cc":"us","latitude":33.94279,"longitude":-118.41004,"reserved":0,"last_update":"0001-01-01T00:00:00Z","name_a2s":"Uncletopia | Los Angeles | 3 | All Maps","protocol":17,"map":"pl_frontier_final","folder":"tf","game":"Team Fortress","app_id":440,"player_count":0,"max_players":24,"Bots":0,"server_type":"Dedicated","server_os":"Linux","password":true,"vac":true,"version":"7757534","steam_id":85568392924510198,"keywords":["nocrits","nodmgspread","payload","uncletopia"],"game_id":440,"stv_port":27036,"stv_name":"Uncletopia | Los Angeles | 3 | All Maps | STV","players":null},{"server_id":25,"name":"Uncletopia | Los Angeles | 4 | Stopwatch Beta","name_short":"lax-4","host":"lax-1.us.uncletopia.com","port":27045,"enabled":true,"region":"us-west","cc":"us","latitude":33.94279,"longitude":-118.41004,"reserved":0,"last_update":"0001-01-01T00:00:00Z","name_a2s":"Uncletopia | Los Angeles | 4 | Stopwatch Beta","protocol":17,"map":"koth_viaduct","folder":"tf","game":"Team Fortress","app_id":440,"player_count":0,"max_players":24,"Bots":0,"server_type":"Dedicated","server_os":"Linux","password":true,"vac":true,"version":"7757534","steam_id":85568392924510199,"keywords":["cp","nocrits","nodmgspread","uncletopia"],"game_id":440,"stv_port":27046,"stv_name":"Uncletopia | Los Angeles | 4 | Stopwatch Beta | STV","players":null},{"server_id":11,"name":"Uncletopia | London | 1 | All Maps","name_short":"lon-1","host":"lon-1.uk.uncletopia.com","port":27015,"enabled":true,"region":"eu","cc":"gb","latitude":51.509865,"longitude":-0.118092,"reserved":0,"last_update":"0001-01-01T00:00:00Z","name_a2s":"Uncletopia | London | 1 | All Maps","protocol":17,"map":"pl_upward","folder":"tf","game":"Team Fortress","app_id":440,"player_count":24,"max_players":24,"Bots":0,"server_type":"Dedicated","server_os":"Linux","password":true,"vac":true,"version":"7757534","steam_id":85568392924367362,"keywords":["nocrits","nodmgspread","payload","uncletopia"],"game_id":440,"stv_port":27016,"stv_name":"Uncletopia | London | 1 | All Maps | STV","players":[{"user_id":794,"name":"dec","steam_id":76561198009660168,"connected_time":1508000000000,"state":"active","ping":54},{"user_id":804,"name":"Hariboz","steam_id":76561198244468102,"connected_time":386000000000,"state":"active","ping":45},{"user_id":727,"name":"Aaron","steam_id":76561197990046953,"connected_time":4323000000000,"state":"active","ping":69},{"user_id":784,"name":"LemonIsYellow","steam_id":76561198380771739,"connected_time":2636000000000,"state":"active","ping":87},{"user_id":693,"name":"6CO2 + 6H2O → C6H12O6 + 6O2","steam_id":76561198981516715,"connected_time":6897000000000,"state":"active","ping":53},{"user_id":736,"name":"Linked","steam_id":76561198069070486,"connected_time":3863000000000,"state":"active","ping":82},{"user_id":785,"name":"Fred","steam_id":76561198107137362,"connected_time":2540000000000,"state":"active","ping":106},{"user_id":742,"name":"Microwave","steam_id":76561199467385560,"connected_time":3458000000000,"state":"active","ping":77},{"user_id":743,"name":"✪ J","steam_id":76561198094911581,"connected_time":3429000000000,"state":"active","ping":57},{"user_id":744,"name":"Spam ゴ ゴ","steam_id":76561198038118301,"connected_time":3421000000000,"state":"active","ping":90},{"user_id":807,"name":"Bagels","steam_id":76561198389646406,"connected_time":149000000000,"state":"active","ping":57},{"user_id":789,"name":"yasser","steam_id":76561198103973320,"connected_time":2407000000000,"state":"active","ping":117},{"user_id":803,"name":"ZimogorovBy","steam_id":76561199263001661,"connected_time":696000000000,"state":"active","ping":95},{"user_id":745,"name":"Skitz™ゴゴゴ","steam_id":76561198049899210,"connected_time":3412000000000,"state":"active","ping":101},{"user_id":798,"name":"shuttercrow","steam_id":76561198176855245,"connected_time":1281000000000,"state":"active","ping":74},{"user_id":797,"name":"try meditation","steam_id":76561198190690201,"connected_time":1414000000000,"state":"active","ping":74},{"user_id":732,"name":"Sipsu","steam_id":76561198059424107,"connected_time":4204000000000,"state":"active","ping":91},{"user_id":779,"name":"Kahvi","steam_id":76561198723244199,"connected_time":2779000000000,"state":"active","ping":79},{"user_id":808,"name":"quak","steam_id":76561198053928976,"connected_time":147000000000,"state":"active","ping":89},{"user_id":800,"name":"SuperBob103","steam_id":76561199175360012,"connected_time":719000000000,"state":"active","ping":51},{"user_id":787,"name":"Old Man Winter","steam_id":76561198007653168,"connected_time":2513000000000,"state":"active","ping":59},{"user_id":788,"name":"And Hit It!","steam_id":76561198030956814,"connected_time":2424000000000,"state":"active","ping":82},{"user_id":796,"name":"Chambersite","steam_id":76561198197022399,"connected_time":1472000000000,"state":"active","ping":83},{"user_id":799,"name":"Dominus.","steam_id":76561199065917088,"connected_time":1257000000000,"state":"active","ping":78}]},{"server_id":114,"name":"Uncletopia | London | 2 | All Maps","name_short":"lon-2","host":"lon-1.uk.uncletopia.com","port":27025,"enabled":true,"region":"eu","cc":"gb","latitude":51.509865,"longitude":-0.118092,"reserved":0,"last_update":"0001-01-01T00:00:00Z","name_a2s":"Uncletopia | London | 2 | All Maps","protocol":17,"map":"cp_process_final","folder":"tf","game":"Team Fortress","app_id":440,"player_count":24,"max_players":24,"Bots":0,"server_type":"Dedicated","server_os":"Linux","password":true,"vac":true,"version":"7757534","steam_id":85568392924470941,"keywords":["cp","nocrits","nodmgspread","uncletopia"],"game_id":440,"stv_port":27026,"stv_name":"Uncletopia | London | 2 | All Maps | STV","players":[{"user_id":553,"name":"beurgeur","steam_id":76561198872426314,"connected_time":4280000000000,"state":"active","ping":44},{"user_id":604,"name":"Leviathan","steam_id":76561197997528907,"connected_time":632000000000,"state":"active","ping":119},{"user_id":570,"name":"yui","steam_id":76561198107961644,"connected_time":3097000000000,"state":"active","ping":40},{"user_id":572,"name":"fart","steam_id":76561198071111326,"connected_time":2840000000000,"state":"active","ping":52},{"user_id":608,"name":"kevin heart","steam_id":76561199062586342,"connected_time":363000000000,"state":"active","ping":70},{"user_id":587,"name":"Mafew","steam_id":76561198119993886,"connected_time":2220000000000,"state":"active","ping":57},{"user_id":609,"name":"Mega Man Legends 3","steam_id":76561198014110199,"connected_time":344000000000,"state":"active","ping":44},{"user_id":569,"name":"My balls itch","steam_id":76561199121794613,"connected_time":3201000000000,"state":"active","ping":88},{"user_id":579,"name":"⭐Ɽ₳ĐɄ⭐","steam_id":76561198849045600,"connected_time":2626000000000,"state":"active","ping":83},{"user_id":590,"name":"Miton","steam_id":76561197970323209,"connected_time":1947000000000,"state":"active","ping":89},{"user_id":605,"name":"*^.^*","steam_id":76561198343506483,"connected_time":617000000000,"state":"active","ping":101},{"user_id":610,"name":"hoos","steam_id":76561198045985910,"connected_time":20000000000,"state":"active","ping":130},{"user_id":603,"name":"ｄｅｓｋｒａｙ","steam_id":76561198805536170,"connected_time":661000000000,"state":"active","ping":82},{"user_id":597,"name":"gregory","steam_id":76561198145311680,"connected_time":1044000000000,"state":"active","ping":74},{"user_id":601,"name":"boowomp","steam_id":76561198084208265,"connected_time":856000000000,"state":"active","ping":72},{"user_id":467,"name":"Carrot Arc","steam_id":76561198164957006,"connected_time":9179000000000,"state":"active","ping":86},{"user_id":581,"name":"tortellini in brodo","steam_id":76561198066071855,"connected_time":2536000000000,"state":"active","ping":70},{"user_id":606,"name":"Sputnik1","steam_id":76561199059003709,"connected_time":551000000000,"state":"active","ping":126},{"user_id":583,"name":"The one who knocks","steam_id":76561198089341471,"connected_time":2516000000000,"state":"active","ping":78},{"user_id":560,"name":"Miles","steam_id":76561198084891833,"connected_time":3697000000000,"state":"active","ping":45},{"user_id":585,"name":"Vershal Smershal","steam_id":76561198116223995,"connected_time":2459000000000,"state":"active","ping":53},{"user_id":542,"name":"Fran","steam_id":76561199070516960,"connected_time":5161000000000,"state":"active","ping":75},{"user_id":586,"name":"Heineken Draft 0.4L","steam_id":76561198826538265,"connected_time":2438000000000,"state":"active","ping":101},{"user_id":592,"name":"sareena","steam_id":76561198810194062,"connected_time":1661000000000,"state":"active","ping":72}]},{"server_id":320,"name":"Uncletopia | London | 3 | All Maps","name_short":"lon-3","host":"lon-1.uk.uncletopia.com","port":27035,"enabled":true,"region":"eu","cc":"gb","latitude":51.509865,"longitude":-0.118092,"reserved":0,"last_update":"0001-01-01T00:00:00Z","name_a2s":"Uncletopia | London | 3 | All Maps","protocol":17,"map":"cp_dustbowl","folder":"tf","game":"Team Fortress","app_id":440,"player_count":24,"max_players":24,"Bots":0,"server_type":"Dedicated","server_os":"Linux","password":true,"vac":true,"version":"7757534","steam_id":85568392924510192,"keywords":["cp","nocrits","nodmgspread","uncletopia"],"game_id":440,"stv_port":27036,"stv_name":"Uncletopia | London | 3 | All Maps | STV","players":[{"user_id":425,"name":":)","steam_id":76561198103988618,"connected_time":10549000000000,"state":"active","ping":59},{"user_id":542,"name":"Lemmy","steam_id":76561199038870751,"connected_time":4859000000000,"state":"active","ping":59},{"user_id":530,"name":"Jonas Destark","steam_id":76561198030327441,"connected_time":5351000000000,"state":"active","ping":67},{"user_id":547,"name":"Goat Enjoyer","steam_id":76561198000054669,"connected_time":4193000000000,"state":"active","ping":61},{"user_id":580,"name":"Crunchy","steam_id":76561198184973203,"connected_time":2486000000000,"state":"active","ping":61},{"user_id":590,"name":"ne0n","steam_id":76561198032101031,"connected_time":1470000000000,"state":"active","ping":90},{"user_id":549,"name":"Wire  Bash","steam_id":76561198033268371,"connected_time":4183000000000,"state":"active","ping":47},{"user_id":532,"name":"snake9544","steam_id":76561198083076205,"connected_time":5296000000000,"state":"active","ping":70},{"user_id":560,"name":".quickfast.","steam_id":76561199438900919,"connected_time":3572000000000,"state":"active","ping":54},{"user_id":585,"name":"Hydro","steam_id":76561199081791855,"connected_time":2052000000000,"state":"active","ping":71},{"user_id":555,"name":"Baro","steam_id":76561197975460900,"connected_time":4163000000000,"state":"active","ping":47},{"user_id":462,"name":"sleuth","steam_id":76561198102752414,"connected_time":8787000000000,"state":"active","ping":59},{"user_id":602,"name":"Benito Mussolini","steam_id":76561198362801147,"connected_time":9000000000,"state":"spawning","ping":111},{"user_id":588,"name":"dotdotdot","steam_id":76561198057628751,"connected_time":1614000000000,"state":"active","ping":60},{"user_id":568,"name":"Refre35","steam_id":76561198971840738,"connected_time":3072000000000,"state":"active","ping":91},{"user_id":556,"name":"Boz","steam_id":76561198020297825,"connected_time":4134000000000,"state":"active","ping":125},{"user_id":564,"name":"lark","steam_id":76561198091724522,"connected_time":3405000000000,"state":"active","ping":60},{"user_id":595,"name":"Anri Okita's Massive Milkers","steam_id":76561199186352720,"connected_time":1365000000000,"state":"active","ping":59},{"user_id":552,"name":"rat exterminator","steam_id":76561198101537890,"connected_time":4172000000000,"state":"active","ping":55},{"user_id":569,"name":"booty gremlin","steam_id":76561198044546534,"connected_time":3060000000000,"state":"active","ping":135},{"user_id":601,"name":"Mr Prince","steam_id":76561199006591691,"connected_time":162000000000,"state":"active","ping":61},{"user_id":596,"name":"Uncle Terry","steam_id":76561198396415736,"connected_time":594000000000,"state":"active","ping":57},{"user_id":591,"name":"giclure :;","steam_id":76561197986362828,"connected_time":1466000000000,"state":"active","ping":89},{"user_id":557,"name":"Aktium","steam_id":76561198013234938,"connected_time":3994000000000,"state":"active","ping":76}]},{"server_id":321,"name":"Uncletopia | London | 4 | All Maps","name_short":"lon-4","host":"lon-1.uk.uncletopia.com","port":27045,"enabled":true,"region":"eu","cc":"gb","latitude":51.509865,"longitude":-0.118092,"reserved":0,"last_update":"0001-01-01T00:00:00Z","name_a2s":"Uncletopia | London | 4 | All Maps","protocol":17,"map":"cp_mountainlab","folder":"tf","game":"Team Fortress","app_id":440,"player_count":24,"max_players":24,"Bots":0,"server_type":"Dedicated","server_os":"Linux","password":true,"vac":true,"version":"7757534","steam_id":85568392924510193,"keywords":["cp","nocrits","nodmgspread","uncletopia"],"game_id":440,"stv_port":27046,"stv_name":"Uncletopia | London | 4 | All Maps | STV","players":[{"user_id":433,"name":"KFC Enjoyer","steam_id":76561198840259819,"connected_time":300000000000,"state":"active","ping":58},{"user_id":428,"name":"alshep00","steam_id":76561198079585198,"connected_time":988000000000,"state":"active","ping":55},{"user_id":421,"name":"AshieTheVixen","steam_id":76561199061018034,"connected_time":2795000000000,"state":"active","ping":84},{"user_id":404,"name":"Pruff","steam_id":76561198377084417,"connected_time":3911000000000,"state":"active","ping":69},{"user_id":367,"name":"■Sir SC■","steam_id":76561198114638963,"connected_time":6495000000000,"state":"active","ping":55},{"user_id":434,"name":"tamz","steam_id":76561198146873972,"connected_time":298000000000,"state":"active","ping":30},{"user_id":368,"name":"A_Spoopy_Keenkeep1","steam_id":76561198128992159,"connected_time":6484000000000,"state":"active","ping":50},{"user_id":369,"name":"muttonmaster","steam_id":76561198309257989,"connected_time":6482000000000,"state":"active","ping":62},{"user_id":396,"name":"Dangerousbros","steam_id":76561198088952519,"connected_time":4681000000000,"state":"active","ping":32},{"user_id":416,"name":"Suspicious Cabin","steam_id":76561198083261198,"connected_time":2963000000000,"state":"active","ping":49},{"user_id":429,"name":"Scutchy","steam_id":76561198104431220,"connected_time":935000000000,"state":"active","ping":50},{"user_id":411,"name":"TheBeardedM1G","steam_id":76561198040208946,"connected_time":3548000000000,"state":"active","ping":45},{"user_id":435,"name":"King Jizzard","steam_id":76561198047725816,"connected_time":252000000000,"state":"active","ping":53},{"user_id":431,"name":"gabagool","steam_id":76561198307111838,"connected_time":361000000000,"state":"active","ping":55},{"user_id":407,"name":"Yos","steam_id":76561199056318258,"connected_time":3718000000000,"state":"active","ping":92},{"user_id":440,"name":"sisto majesto","steam_id":76561198073532776,"connected_time":72000000000,"state":"active","ping":100},{"user_id":436,"name":"daniel","steam_id":76561198167580006,"connected_time":223000000000,"state":"active","ping":55},{"user_id":394,"name":"IanCliff","steam_id":76561198217056368,"connected_time":4823000000000,"state":"active","ping":62},{"user_id":437,"name":"Stitch","steam_id":76561198034169403,"connected_time":223000000000,"state":"active","ping":65},{"user_id":426,"name":"John Daly","steam_id":76561197993849325,"connected_time":1798000000000,"state":"active","ping":82},{"user_id":409,"name":"mohemmedmokhter2005","steam_id":76561199197650506,"connected_time":3678000000000,"state":"active","ping":114},{"user_id":438,"name":"Piteras","steam_id":76561198858532207,"connected_time":203000000000,"state":"active","ping":86},{"user_id":427,"name":"jovi_","steam_id":76561198449280552,"connected_time":1787000000000,"state":"active","ping":53},{"user_id":424,"name":"Trollface [ᴙ-μ]","steam_id":76561198418538887,"connected_time":2076000000000,"state":"active","ping":100}]},{"server_id":21,"name":"Uncletopia | London | 5 | All Maps","name_short":"lon-5","host":"lon-1.uk.uncletopia.com","port":27055,"enabled":true,"region":"eu","cc":"gb","latitude":51.509865,"longitude":-0.118092,"reserved":0,"last_update":"0001-01-01T00:00:00Z","name_a2s":"Uncletopia | London | 5 | All Maps","protocol":17,"map":"pl_pier","folder":"tf","game":"Team Fortress","app_id":440,"player_count":24,"max_players":24,"Bots":0,"server_type":"Dedicated","server_os":"Linux","password":true,"vac":true,"version":"7757534","steam_id":85568392924742829,"keywords":["nocrits","nodmgspread","payload","uncletopia"],"game_id":440,"stv_port":27056,"stv_name":"Uncletopia | London | 5 | All Maps | STV","players":[{"user_id":200,"name":"Puzzles","steam_id":76561198137106459,"connected_time":1960000000000,"state":"active","ping":49},{"user_id":213,"name":"Harpenden, Harpenden, Harpenden","steam_id":76561198118138546,"connected_time":1034000000000,"state":"active","ping":41},{"user_id":220,"name":"Chish n' Fips","steam_id":76561198012300440,"connected_time":686000000000,"state":"active","ping":51},{"user_id":223,"name":"LizaЯdlЧ","steam_id":76561198176750238,"connected_time":459000000000,"state":"active","ping":63},{"user_id":219,"name":"Dirty Dom","steam_id":76561198043745396,"connected_time":761000000000,"state":"active","ping":73},{"user_id":174,"name":"the ebic gamner","steam_id":76561199220801849,"connected_time":4082000000000,"state":"active","ping":68},{"user_id":211,"name":"Fancy","steam_id":76561198350658462,"connected_time":1076000000000,"state":"active","ping":76},{"user_id":161,"name":"_zipfile","steam_id":76561198066133808,"connected_time":5613000000000,"state":"active","ping":82},{"user_id":198,"name":"UltimateSlayer","steam_id":76561198384109309,"connected_time":1968000000000,"state":"active","ping":52},{"user_id":225,"name":"simon","steam_id":76561198880361394,"connected_time":72000000000,"state":"active","ping":65},{"user_id":212,"name":"Ozy","steam_id":76561198257359584,"connected_time":1067000000000,"state":"active","ping":61},{"user_id":208,"name":"Annie the ekitten medic :3","steam_id":76561198241529554,"connected_time":1513000000000,"state":"active","ping":89},{"user_id":158,"name":"average f2p","steam_id":76561199136308055,"connected_time":6368000000000,"state":"active","ping":57},{"user_id":164,"name":"Frogs eater","steam_id":76561199082469459,"connected_time":5081000000000,"state":"active","ping":73},{"user_id":218,"name":"kag","steam_id":76561198059813166,"connected_time":821000000000,"state":"active","ping":45},{"user_id":127,"name":"Shlongulator","steam_id":76561198149779201,"connected_time":8407000000000,"state":"active","ping":54},{"user_id":205,"name":"MovingIsOverRated","steam_id":76561198385633292,"connected_time":1860000000000,"state":"active","ping":129},{"user_id":177,"name":"the indomitable human spirit","steam_id":76561198718760200,"connected_time":4010000000000,"state":"active","ping":45},{"user_id":224,"name":"AsuX","steam_id":76561197990333289,"connected_time":458000000000,"state":"active","ping":60},{"user_id":149,"name":"triangle","steam_id":76561198046838168,"connected_time":6867000000000,"state":"active","ping":60},{"user_id":176,"name":"Loop_Cat","steam_id":76561199045902145,"connected_time":4034000000000,"state":"active","ping":127},{"user_id":150,"name":"✧ Luigi Time ✧","steam_id":76561198026903673,"connected_time":6861000000000,"state":"active","ping":64},{"user_id":185,"name":"sz(k)","steam_id":76561198118500940,"connected_time":3488000000000,"state":"active","ping":64},{"user_id":222,"name":"Thefatfriar","steam_id":76561199013385965,"connected_time":645000000000,"state":"active","ping":194}]},{"server_id":22,"name":"Uncletopia | London | 6 | All Maps","name_short":"lon-6","host":"lon-1.uk.uncletopia.com","port":27065,"enabled":true,"region":"eu","cc":"gb","latitude":51.509865,"longitude":-0.118092,"reserved":0,"last_update":"0001-01-01T00:00:00Z","name_a2s":"Uncletopia | London | 6 | All Maps","protocol":17,"map":"pl_pier","folder":"tf","game":"Team Fortress","app_id":440,"player_count":24,"max_players":24,"Bots":0,"server_type":"Dedicated","server_os":"Linux","password":true,"vac":true,"version":"7757534","steam_id":85568392924742830,"keywords":["nocrits","nodmgspread","payload","uncletopia"],"game_id":440,"stv_port":27066,"stv_name":"Uncletopia | London | 6 | All Maps | STV","players":[{"user_id":205,"name":"ultralow b\u003ew2000+keys","steam_id":76561197982127154,"connected_time":292000000000,"state":"active","ping":60},{"user_id":207,"name":"Raldow","steam_id":76561198021389301,"connected_time":46000000000,"state":"active","ping":57},{"user_id":198,"name":"JimTheMagicJumper","steam_id":76561197996773886,"connected_time":844000000000,"state":"active","ping":34},{"user_id":197,"name":"Dwevy","steam_id":76561198090379437,"connected_time":925000000000,"state":"active","ping":54},{"user_id":194,"name":"Headers","steam_id":76561198094216514,"connected_time":1240000000000,"state":"active","ping":54},{"user_id":183,"name":"Graf von Scyth","steam_id":76561198198497733,"connected_time":1841000000000,"state":"active","ping":50},{"user_id":201,"name":"Combat Wombat","steam_id":76561197994720068,"connected_time":535000000000,"state":"active","ping":65},{"user_id":195,"name":"Levhunt","steam_id":76561198155995377,"connected_time":1236000000000,"state":"active","ping":89},{"user_id":189,"name":"CanineCaribou52","steam_id":76561198869623946,"connected_time":1454000000000,"state":"active","ping":62},{"user_id":113,"name":"Adopted?","steam_id":76561198118667043,"connected_time":7370000000000,"state":"active","ping":50},{"user_id":202,"name":"Giovine Killjoy","steam_id":76561198059375315,"connected_time":494000000000,"state":"active","ping":80},{"user_id":179,"name":".::[SerafeTTiN]::.","steam_id":76561198009471724,"connected_time":2181000000000,"state":"active","ping":97},{"user_id":185,"name":"NotFionn","steam_id":76561198890525176,"connected_time":1818000000000,"state":"active","ping":77},{"user_id":200,"name":"Enforcer02","steam_id":76561197966045944,"connected_time":561000000000,"state":"active","ping":62},{"user_id":157,"name":"Classic Duck","steam_id":76561198079413473,"connected_time":3975000000000,"state":"active","ping":54},{"user_id":206,"name":"Axord","steam_id":76561199289652176,"connected_time":225000000000,"state":"active","ping":60},{"user_id":187,"name":"logo in the foam","steam_id":76561198188642265,"connected_time":1806000000000,"state":"active","ping":56},{"user_id":128,"name":"ReVerb","steam_id":76561198024949870,"connected_time":5683000000000,"state":"active","ping":44},{"user_id":172,"name":"Circular","steam_id":76561198001536710,"connected_time":2781000000000,"state":"active","ping":51},{"user_id":165,"name":"night.s","steam_id":76561198326287823,"connected_time":3594000000000,"state":"active","ping":75},{"user_id":196,"name":"sup","steam_id":76561199089196165,"connected_time":1081000000000,"state":"active","ping":139},{"user_id":114,"name":"The Deadly Doughnut","steam_id":76561198079049349,"connected_time":7361000000000,"state":"active","ping":55},{"user_id":136,"name":"Professional facestab","steam_id":76561198258721056,"connected_time":5375000000000,"state":"active","ping":65},{"user_id":171,"name":"76561198397931520","steam_id":76561198397931520,"connected_time":2906000000000,"state":"active","ping":73}]},{"server_id":40,"name":"Uncletopia | London | 7 | No Payload","name_short":"lon-7","host":"lon-1.uk.uncletopia.com","port":27075,"enabled":true,"region":"eu","cc":"gb","latitude":51.509865,"longitude":-0.118092,"reserved":0,"last_update":"0001-01-01T00:00:00Z","name_a2s":"Uncletopia | London | 7 | No Payload","protocol":17,"map":"cp_metalworks","folder":"tf","game":"Team Fortress","app_id":440,"player_count":24,"max_players":24,"Bots":0,"server_type":"Dedicated","server_os":"Linux","password":true,"vac":true,"version":"7757534","steam_id":85568392924964314,"keywords":["cp","nocrits","nodmgspread","uncletopia"],"game_id":440,"stv_port":27076,"stv_name":"Uncletopia | London | 7 | No Payload | STV","players":[{"user_id":415,"name":"Lyell","steam_id":76561198350329389,"connected_time":1605000000000,"state":"active","ping":70},{"user_id":404,"name":"Blamnit","steam_id":76561198019409997,"connected_time":2763000000000,"state":"active","ping":46},{"user_id":414,"name":"Corvus","steam_id":76561199089742835,"connected_time":1609000000000,"state":"active","ping":58},{"user_id":430,"name":"Benny the Ball","steam_id":76561198043104532,"connected_time":629000000000,"state":"active","ping":46},{"user_id":390,"name":"Udinese Dion","steam_id":76561198067931573,"connected_time":3864000000000,"state":"active","ping":53},{"user_id":434,"name":"The End","steam_id":76561198130566362,"connected_time":169000000000,"state":"active","ping":59},{"user_id":429,"name":"smrk","steam_id":76561198066926098,"connected_time":708000000000,"state":"active","ping":59},{"user_id":321,"name":"Bilaterial Newt","steam_id":76561198074655679,"connected_time":10661000000000,"state":"active","ping":89},{"user_id":433,"name":"Oskuri","steam_id":76561198155956047,"connected_time":332000000000,"state":"active","ping":92},{"user_id":398,"name":"Shiro","steam_id":76561198047261695,"connected_time":3310000000000,"state":"active","ping":71},{"user_id":399,"name":"schwanzus longus","steam_id":76561198064215392,"connected_time":3290000000000,"state":"active","ping":68},{"user_id":391,"name":"SLoW","steam_id":76561198032650972,"connected_time":3787000000000,"state":"active","ping":120},{"user_id":369,"name":"MEDiUM","steam_id":76561198112328561,"connected_time":5987000000000,"state":"active","ping":89},{"user_id":218,"name":"LasagnaLarry22","steam_id":76561198089478290,"connected_time":15889000000000,"state":"active","ping":42},{"user_id":423,"name":"Munibe","steam_id":76561198107967904,"connected_time":1012000000000,"state":"active","ping":67},{"user_id":420,"name":"Keogh","steam_id":76561199013327656,"connected_time":1531000000000,"state":"active","ping":71},{"user_id":377,"name":"Ivan the Terrible","steam_id":76561198139595241,"connected_time":5595000000000,"state":"active","ping":88},{"user_id":411,"name":"Rory","steam_id":76561198354037580,"connected_time":2095000000000,"state":"active","ping":43},{"user_id":401,"name":"Fadingヅ Ibims2Positiv","steam_id":76561198031454938,"connected_time":3254000000000,"state":"active","ping":81},{"user_id":432,"name":"Five Finger Discount","steam_id":76561197994556857,"connected_time":518000000000,"state":"active","ping":69},{"user_id":208,"name":"Fat Pigeon","steam_id":76561198817940142,"connected_time":17175000000000,"state":"active","ping":57},{"user_id":425,"name":"gort","steam_id":76561198342806825,"connected_time":973000000000,"state":"active","ping":93},{"user_id":421,"name":"I Don't Know","steam_id":76561198841011430,"connected_time":1517000000000,"state":"active","ping":80},{"user_id":410,"name":"Check Your Posture!","steam_id":76561198097466136,"connected_time":2541000000000,"state":"active","ping":60}]},{"server_id":41,"name":"Uncletopia | London | 8 | Community","name_short":"lon-8","host":"lon-1.uk.uncletopia.com","port":27085,"enabled":true,"region":"eu","cc":"gb","latitude":51.509865,"longitude":-0.118092,"reserved":0,"last_update":"0001-01-01T00:00:00Z","name_a2s":"Uncletopia | London | 8 | Community","protocol":17,"map":"workshop/pl_eruption_b9a.ugc2807898013","folder":"tf","game":"Team Fortress","app_id":440,"player_count":1,"max_players":24,"Bots":0,"server_type":"Dedicated","server_os":"Linux","password":true,"vac":true,"version":"7757534","steam_id":85568392924964315,"keywords":["nocrits","nodmgspread","payload","uncletopia"],"game_id":440,"stv_port":27086,"stv_name":"Uncletopia | London | 8 | Community | STV","players":[{"user_id":43,"name":"islandmonkey","steam_id":76561198078839950,"connected_time":683000000000,"state":"active","ping":50}]},{"server_id":300,"name":"Uncletopia | Montréal | 1 | All Maps","name_short":"mtl-1","host":"mtl-1.ca.uncletopia.com","port":27015,"enabled":true,"region":"us-east","cc":"ca","latitude":45.50889,"longitude":-73.56167,"reserved":0,"last_update":"0001-01-01T00:00:00Z","name_a2s":"Uncletopia | Montréal | 1 | All Maps","protocol":17,"map":"koth_cascade","folder":"tf","game":"Team Fortress","app_id":440,"player_count":0,"max_players":24,"Bots":0,"server_type":"Dedicated","server_os":"Linux","password":true,"vac":true,"version":"7757534","steam_id":85568392924500087,"keywords":["cp","nocrits","nodmgspread","uncletopia"],"game_id":440,"stv_port":27016,"stv_name":"Uncletopia | Montréal | 1 | All Maps | STV","players":null},{"server_id":301,"name":"Uncletopia | Montréal | 2 | All Maps","name_short":"mtl-2","host":"mtl-1.ca.uncletopia.com","port":27025,"enabled":true,"region":"us-east","cc":"ca","latitude":45.50889,"longitude":-73.56167,"reserved":0,"last_update":"0001-01-01T00:00:00Z","name_a2s":"Uncletopia | Montréal | 2 | All Maps","protocol":17,"map":"cp_altitude","folder":"tf","game":"Team Fortress","app_id":440,"player_count":0,"max_players":24,"Bots":0,"server_type":"Dedicated","server_os":"Linux","password":true,"vac":true,"version":"7757534","steam_id":85568392924500088,"keywords":["cp","nocrits","nodmgspread","uncletopia"],"game_id":440,"stv_port":27026,"stv_name":"Uncletopia | Montréal | 2 | All Maps | STV","players":null},{"server_id":302,"name":"Uncletopia | Montréal | 3 | All Maps","name_short":"mtl-3","host":"mtl-1.ca.uncletopia.com","port":27035,"enabled":true,"region":"us-east","cc":"ca","latitude":45.50889,"longitude":-73.56167,"reserved":0,"last_update":"0001-01-01T00:00:00Z","name_a2s":"Uncletopia | Montréal | 3 | All Maps","protocol":17,"map":"cp_sunshine","folder":"tf","game":"Team Fortress","app_id":440,"player_count":0,"max_players":24,"Bots":0,"server_type":"Dedicated","server_os":"Linux","password":true,"vac":true,"version":"7757534","steam_id":85568392924500089,"keywords":["cp","nocrits","nodmgspread","uncletopia"],"game_id":440,"stv_port":27036,"stv_name":"Uncletopia | Montréal | 3 | All Maps | STV","players":null},{"server_id":303,"name":"Uncletopia | Montréal | 4 | No Payload","name_short":"mtl-4","host":"mtl-1.ca.uncletopia.com","port":27045,"enabled":true,"region":"us-east","cc":"ca","latitude":45.50889,"longitude":-73.56167,"reserved":0,"last_update":"0001-01-01T00:00:00Z","name_a2s":"Uncletopia | Montréal | 4 | No Payload","protocol":17,"map":"koth_lakeside_final","folder":"tf","game":"Team Fortress","app_id":440,"player_count":0,"max_players":24,"Bots":0,"server_type":"Dedicated","server_os":"Linux","password":true,"vac":true,"version":"7757534","steam_id":85568392924500090,"keywords":["cp","nocrits","nodmgspread","uncletopia"],"game_id":440,"stv_port":27046,"stv_name":"Uncletopia | Montréal | 4 | No Payload | STV","players":null},{"server_id":13,"name":"Uncletopia | New York City | 1 | All Maps","name_short":"nyc-1","host":"nyc-1.us.uncletopia.com","port":27015,"enabled":true,"region":"us-east","cc":"us","latitude":40.73061,"longitude":-73.93524,"reserved":0,"last_update":"0001-01-01T00:00:00Z","name_a2s":"Uncletopia | New York City | 1 | All Maps","protocol":17,"map":"pl_badwater","folder":"tf","game":"Team Fortress","app_id":440,"player_count":24,"max_players":24,"Bots":0,"server_type":"Dedicated","server_os":"Linux","password":true,"vac":true,"version":"7757534","steam_id":85568392924469993,"keywords":["nocrits","nodmgspread","payload","uncletopia"],"game_id":440,"stv_port":27016,"stv_name":"Uncletopia | New York City | 1 | All Maps | STV","players":[{"user_id":12,"name":"Spirit","steam_id":76561199069322627,"connected_time":3752000000000,"state":"active","ping":65},{"user_id":58,"name":"Stink","steam_id":76561198232646232,"connected_time":684000000000,"state":"active","ping":57},{"user_id":21,"name":"Jolt","steam_id":76561198168669087,"connected_time":2542000000000,"state":"active","ping":45},{"user_id":54,"name":"drdoofus123","steam_id":76561198016826181,"connected_time":1061000000000,"state":"active","ping":69},{"user_id":59,"name":"des","steam_id":76561198079226634,"connected_time":580000000000,"state":"active","ping":71},{"user_id":35,"name":"iamoctopii","steam_id":76561198876901076,"connected_time":1732000000000,"state":"active","ping":132},{"user_id":61,"name":"I'm a lime","steam_id":76561198324228489,"connected_time":538000000000,"state":"active","ping":65},{"user_id":60,"name":"Boglim","steam_id":76561199466918607,"connected_time":559000000000,"state":"active","ping":70},{"user_id":62,"name":"Mouth Tea","steam_id":76561198285054047,"connected_time":408000000000,"state":"active","ping":90},{"user_id":29,"name":"Soccerlegend23","steam_id":76561198060026108,"connected_time":1874000000000,"state":"active","ping":126},{"user_id":49,"name":"HorizonPear","steam_id":76561198179808389,"connected_time":1359000000000,"state":"active","ping":239},{"user_id":46,"name":"Female Gamer","steam_id":76561199366482682,"connected_time":1541000000000,"state":"active","ping":124},{"user_id":32,"name":"wes","steam_id":76561198273536400,"connected_time":1800000000000,"state":"active","ping":59},{"user_id":56,"name":"Blargian Snagglebeast","steam_id":76561198115831507,"connected_time":878000000000,"state":"active","ping":75},{"user_id":34,"name":"Brad Delson","steam_id":76561198403209815,"connected_time":1771000000000,"state":"active","ping":86},{"user_id":36,"name":"Rornir","steam_id":76561198081829615,"connected_time":1716000000000,"state":"active","ping":51},{"user_id":38,"name":"whiteranger_2000","steam_id":76561198819569856,"connected_time":1687000000000,"state":"active","ping":111},{"user_id":39,"name":"VikingPilot","steam_id":76561198242552958,"connected_time":1658000000000,"state":"active","ping":135},{"user_id":57,"name":"sin","steam_id":76561199439723982,"connected_time":774000000000,"state":"active","ping":128},{"user_id":51,"name":"sauce","steam_id":76561198068430673,"connected_time":1128000000000,"state":"active","ping":70},{"user_id":63,"name":"wool","steam_id":76561198869689933,"connected_time":85000000000,"state":"active","ping":62},{"user_id":64,"name":"Immortalyes","steam_id":76561198050800698,"connected_time":70000000000,"state":"active","ping":141},{"user_id":44,"name":"Loving Single Father of Two Boy","steam_id":76561198012280046,"connected_time":1589000000000,"state":"active","ping":132},{"user_id":45,"name":"Corbe","steam_id":76561198353893927,"connected_time":1587000000000,"state":"active","ping":92}]},{"server_id":14,"name":"Uncletopia | New York City | 2 | All Maps","name_short":"nyc-2","host":"nyc-1.us.uncletopia.com","port":27025,"enabled":true,"region":"us-east","cc":"us","latitude":40.73061,"longitude":-73.93524,"reserved":0,"last_update":"0001-01-01T00:00:00Z","name_a2s":"Uncletopia | New York City | 2 | All Maps","protocol":17,"map":"cp_dustbowl","folder":"tf","game":"Team Fortress","app_id":440,"player_count":24,"max_players":24,"Bots":0,"server_type":"Dedicated","server_os":"Linux","password":true,"vac":true,"version":"7757534","steam_id":85568392924469994,"keywords":["cp","nocrits","nodmgspread","uncletopia"],"game_id":440,"stv_port":27026,"stv_name":"Uncletopia | New York City | 2 | All Maps | STV","players":[{"user_id":91,"name":"rocky","steam_id":76561198162392569,"connected_time":283000000000,"state":"active","ping":60},{"user_id":61,"name":"Bozanimal","steam_id":76561198044096897,"connected_time":2800000000000,"state":"active","ping":45},{"user_id":98,"name":"DuckyDave","steam_id":76561199080644355,"connected_time":18000000000,"state":"active","ping":371},{"user_id":72,"name":"cyclops","steam_id":76561197970370198,"connected_time":1993000000000,"state":"active","ping":69},{"user_id":56,"name":"BigOrca54","steam_id":76561198181360271,"connected_time":3385000000000,"state":"active","ping":74},{"user_id":52,"name":"k1ttyk4tty69","steam_id":76561199467882510,"connected_time":3471000000000,"state":"active","ping":155},{"user_id":86,"name":"PeopleOrderOurPatties","steam_id":76561198323144922,"connected_time":345000000000,"state":"active","ping":92},{"user_id":83,"name":"Devoid","steam_id":76561198254039012,"connected_time":736000000000,"state":"active","ping":49},{"user_id":84,"name":"TheJuiceCrew","steam_id":76561198109073254,"connected_time":374000000000,"state":"active","ping":79},{"user_id":62,"name":"Ghoulish in Nature","steam_id":76561198058840585,"connected_time":2685000000000,"state":"active","ping":61},{"user_id":87,"name":"Jona2180","steam_id":76561198807012900,"connected_time":339000000000,"state":"active","ping":79},{"user_id":81,"name":"sue sakamoto","steam_id":76561198111850545,"connected_time":1066000000000,"state":"active","ping":67},{"user_id":88,"name":"goober","steam_id":76561198074026282,"connected_time":325000000000,"state":"active","ping":75},{"user_id":25,"name":"Winter the Witchie","steam_id":76561198151971178,"connected_time":4086000000000,"state":"active","ping":72},{"user_id":22,"name":"Nobody","steam_id":76561198286486517,"connected_time":4290000000000,"state":"active","ping":68},{"user_id":96,"name":"judesro","steam_id":76561198352244888,"connected_time":53000000000,"state":"active","ping":84},{"user_id":66,"name":"ndvr","steam_id":76561199379200102,"connected_time":2258000000000,"state":"active","ping":52},{"user_id":97,"name":"Burnah","steam_id":76561198014985094,"connected_time":38000000000,"state":"active","ping":79},{"user_id":90,"name":"Siopaoboy","steam_id":76561198071999549,"connected_time":313000000000,"state":"active","ping":58},{"user_id":78,"name":"MrrPickle","steam_id":76561198122046514,"connected_time":1289000000000,"state":"active","ping":59},{"user_id":33,"name":"Koyuki","steam_id":76561198258598523,"connected_time":4009000000000,"state":"active","ping":93},{"user_id":92,"name":"bobouche","steam_id":76561199188136453,"connected_time":282000000000,"state":"active","ping":60},{"user_id":99,"name":"Floattube","steam_id":76561198005720144,"connected_time":11000000000,"state":"spawning","ping":76},{"user_id":94,"name":"frank","steam_id":76561198045436159,"connected_time":204000000000,"state":"active","ping":61}]},{"server_id":15,"name":"Uncletopia | New York City | 3 | Stopwatch Beta","name_short":"nyc-3","host":"nyc-1.us.uncletopia.com","port":27035,"enabled":true,"region":"us-east","cc":"us","latitude":40.73061,"longitude":-73.93524,"reserved":0,"last_update":"0001-01-01T00:00:00Z","name_a2s":"Uncletopia | New York City | 3 | Stopwatch Beta","protocol":17,"map":"koth_lakeside_final","folder":"tf","game":"Team Fortress","app_id":440,"player_count":0,"max_players":24,"Bots":0,"server_type":"Dedicated","server_os":"Linux","password":true,"vac":true,"version":"7757534","steam_id":85568392924742820,"keywords":["cp","nocrits","nodmgspread","uncletopia"],"game_id":440,"stv_port":27036,"stv_name":"Uncletopia | New York City | 3 | Stopwatch Beta | STV","players":null},{"server_id":16,"name":"Uncletopia | New York City | 4 | Community","name_short":"nyc-4","host":"nyc-1.us.uncletopia.com","port":27045,"enabled":true,"region":"us-east","cc":"us","latitude":40.73061,"longitude":-73.93524,"reserved":0,"last_update":"0001-01-01T00:00:00Z","name_a2s":"Uncletopia | New York City | 4 | Community","protocol":17,"map":"pl_borneo","folder":"tf","game":"Team Fortress","app_id":440,"player_count":0,"max_players":24,"Bots":0,"server_type":"Dedicated","server_os":"Linux","password":true,"vac":true,"version":"7757534","steam_id":85568392924742821,"keywords":["nocrits","nodmgspread","payload","uncletopia"],"game_id":440,"stv_port":27046,"stv_name":"Uncletopia | New York City | 4 | Community | STV","players":null},{"server_id":142,"name":"Uncletopia | São Paulo | 1 | All Maps","name_short":"sao-1","host":"sao-1.br.uncletopia.com","port":27015,"enabled":true,"region":"sa","cc":"br","latitude":-23.533773,"longitude":-46.62529,"reserved":0,"last_update":"0001-01-01T00:00:00Z","name_a2s":"Uncletopia | São Paulo | 1 | All Maps","protocol":17,"map":"koth_highpass","folder":"tf","game":"Team Fortress","app_id":440,"player_count":0,"max_players":24,"Bots":0,"server_type":"Dedicated","server_os":"Linux","password":true,"vac":true,"version":"7757534","steam_id":85568392924469996,"keywords":["cp","nocrits","nodmgspread","uncletopia"],"game_id":440,"stv_port":27016,"stv_name":"Uncletopia | São Paulo | 1 | All Maps | STV","players":null},{"server_id":143,"name":"Uncletopia | São Paulo | 2 | All Maps","name_short":"sao-2","host":"sao-2.br.uncletopia.com","port":27015,"enabled":true,"region":"sa","cc":"br","latitude":-23.533773,"longitude":-46.62529,"reserved":0,"last_update":"0001-01-01T00:00:00Z","name_a2s":"Uncletopia | São Paulo | 2 | All Maps","protocol":17,"map":"koth_viaduct","folder":"tf","game":"Team Fortress","app_id":440,"player_count":0,"max_players":24,"Bots":0,"server_type":"Dedicated","server_os":"Linux","password":true,"vac":true,"version":"7757534","steam_id":85568392924485349,"keywords":["cp","nocrits","nodmgspread","uncletopia"],"game_id":440,"stv_port":27016,"stv_name":"Uncletopia | São Paulo | 2 | All Maps | STV","players":null},{"server_id":7,"name":"Uncletopia | Seattle | 1 | All Maps","name_short":"sea-1","host":"sea-1.us.uncletopia.com","port":27015,"enabled":true,"region":"us-west","cc":"us","latitude":47.608013,"longitude":-122.33517,"reserved":0,"last_update":"0001-01-01T00:00:00Z","name_a2s":"Uncletopia | Seattle | 1 | All Maps","protocol":17,"map":"pl_swiftwater_final1","folder":"tf","game":"Team Fortress","app_id":440,"player_count":24,"max_players":24,"Bots":0,"server_type":"Dedicated","server_os":"Linux","password":true,"vac":true,"version":"7757534","steam_id":85568392924469997,"keywords":["nocrits","nodmgspread","payload","uncletopia"],"game_id":440,"stv_port":27016,"stv_name":"Uncletopia | Seattle | 1 | All Maps | STV","players":[{"user_id":164,"name":"shiadyne","steam_id":76561198271939793,"connected_time":433000000000,"state":"active","ping":45},{"user_id":25,"name":"Source Chronicler","steam_id":76561199231728668,"connected_time":11055000000000,"state":"active","ping":101},{"user_id":114,"name":"ORANGE","steam_id":76561198000401769,"connected_time":5403000000000,"state":"active","ping":45},{"user_id":167,"name":"Tom","steam_id":76561198070630154,"connected_time":301000000000,"state":"active","ping":78},{"user_id":151,"name":"Garduuk","steam_id":76561198010745965,"connected_time":2089000000000,"state":"active","ping":109},{"user_id":152,"name":"cumbia stud gaming","steam_id":76561198963282079,"connected_time":2036000000000,"state":"active","ping":173},{"user_id":160,"name":"Bubbamanme","steam_id":76561198119778504,"connected_time":786000000000,"state":"active","ping":55},{"user_id":156,"name":"Gooster","steam_id":76561198255311543,"connected_time":1761000000000,"state":"active","ping":111},{"user_id":159,"name":"luis","steam_id":76561198081341347,"connected_time":863000000000,"state":"active","ping":75},{"user_id":85,"name":"MellowBoy-2354","steam_id":76561199080630632,"connected_time":7701000000000,"state":"active","ping":153},{"user_id":146,"name":"Peppy","steam_id":76561198866629645,"connected_time":2434000000000,"state":"active","ping":59},{"user_id":113,"name":"Julien","steam_id":76561199389584938,"connected_time":5707000000000,"state":"active","ping":38},{"user_id":157,"name":"Naffers","steam_id":76561198195957335,"connected_time":1132000000000,"state":"active","ping":45},{"user_id":126,"name":"Mr. Mayo","steam_id":76561198320766540,"connected_time":3778000000000,"state":"active","ping":98},{"user_id":136,"name":"Vionas","steam_id":76561198012478039,"connected_time":3068000000000,"state":"active","ping":99},{"user_id":147,"name":"Goldfish Cum","steam_id":76561198046621770,"connected_time":2418000000000,"state":"active","ping":64},{"user_id":162,"name":"Bishuhp","steam_id":76561198015062850,"connected_time":745000000000,"state":"active","ping":54},{"user_id":148,"name":"SnoDot","steam_id":76561198062209970,"connected_time":2406000000000,"state":"active","ping":44},{"user_id":121,"name":"Mignyanne :3","steam_id":76561198048754056,"connected_time":4814000000000,"state":"active","ping":70},{"user_id":155,"name":"You Know I Had To Do It To Em","steam_id":76561198325006142,"connected_time":1797000000000,"state":"active","ping":100},{"user_id":163,"name":"SuaveFrenchman","steam_id":76561198043762683,"connected_time":696000000000,"state":"active","ping":61},{"user_id":154,"name":"a crazy hobo","steam_id":76561198289650060,"connected_time":1826000000000,"state":"active","ping":71},{"user_id":124,"name":"jungus","steam_id":76561198129862008,"connected_time":3802000000000,"state":"active","ping":79},{"user_id":166,"name":"crow","steam_id":76561198046802071,"connected_time":386000000000,"state":"active","ping":114}]},{"server_id":119,"name":"Uncletopia | Seattle | 2 | All Maps","name_short":"sea-2","host":"sea-1.us.uncletopia.com","port":27025,"enabled":true,"region":"us-west","cc":"us","latitude":47.608013,"longitude":-122.33517,"reserved":0,"last_update":"0001-01-01T00:00:00Z","name_a2s":"Uncletopia | Seattle | 2 | All Maps","protocol":17,"map":"pl_snowycoast","folder":"tf","game":"Team Fortress","app_id":440,"player_count":1,"max_players":24,"Bots":0,"server_type":"Dedicated","server_os":"Linux","password":true,"vac":true,"version":"7757534","steam_id":85568392924469998,"keywords":["nocrits","nodmgspread","payload","uncletopia"],"game_id":440,"stv_port":27026,"stv_name":"Uncletopia | Seattle | 2 | All Maps | STV","players":[{"user_id":10,"name":"aispooph","steam_id":76561199187168084,"connected_time":120000000000,"state":"active","ping":69}]},{"server_id":406,"name":"Uncletopia | Seattle | 3 | Stopwatch Beta","name_short":"sea-3","host":"sea-1.us.uncletopia.com","port":27035,"enabled":true,"region":"us-west","cc":"us","latitude":47.608013,"longitude":-122.33517,"reserved":0,"last_update":"0001-01-01T00:00:00Z","name_a2s":"Uncletopia | Seattle | 3 | Stopwatch Beta","protocol":17,"map":"cp_sunshine","folder":"tf","game":"Team Fortress","app_id":440,"player_count":0,"max_players":24,"Bots":0,"server_type":"Dedicated","server_os":"Linux","password":true,"vac":true,"version":"7757534","steam_id":85568392924515217,"keywords":["cp","nocrits","nodmgspread","uncletopia"],"game_id":440,"stv_port":27036,"stv_name":"Uncletopia | Seattle | 3 | Stopwatch Beta | STV","players":null},{"server_id":17,"name":"Uncletopia | San Francisco | 1 | All Maps","name_short":"sfo-1","host":"sfo-1.us.uncletopia.com","port":27015,"enabled":true,"region":"us-west","cc":"us","latitude":37.77397,"longitude":-122.4313,"reserved":0,"last_update":"0001-01-01T00:00:00Z","name_a2s":"Uncletopia | San Francisco | 1 | All Maps","protocol":17,"map":"cp_snakewater_final1","folder":"tf","game":"Team Fortress","app_id":440,"player_count":0,"max_players":24,"Bots":0,"server_type":"Dedicated","server_os":"Linux","password":true,"vac":true,"version":"7757534","steam_id":85568392924469999,"keywords":["cp","nocrits","nodmgspread","uncletopia"],"game_id":440,"stv_port":27016,"stv_name":"Uncletopia | San Francisco | 1 | All Maps | STV","players":null},{"server_id":18,"name":"Uncletopia | San Francisco | 2 | All Maps","name_short":"sfo-2","host":"sfo-1.us.uncletopia.com","port":27025,"enabled":true,"region":"us-west","cc":"us","latitude":37.77397,"longitude":-122.4313,"reserved":0,"last_update":"0001-01-01T00:00:00Z","name_a2s":"Uncletopia | San Francisco | 2 | All Maps","protocol":17,"map":"koth_viaduct","folder":"tf","game":"Team Fortress","app_id":440,"player_count":0,"max_players":24,"Bots":0,"server_type":"Dedicated","server_os":"Linux","password":true,"vac":true,"version":"7757534","steam_id":85568392924470000,"keywords":["cp","nocrits","nodmgspread","uncletopia"],"game_id":440,"stv_port":27026,"stv_name":"Uncletopia | San Francisco | 2 | All Maps | STV","players":null},{"server_id":19,"name":"Uncletopia | San Francisco | 3 | Stopwatch Beta","name_short":"sfo-3","host":"sfo-1.us.uncletopia.com","port":27035,"enabled":true,"region":"us-west","cc":"us","latitude":37.77397,"longitude":-122.4313,"reserved":0,"last_update":"0001-01-01T00:00:00Z","name_a2s":"Uncletopia | San Francisco | 3 | Stopwatch Beta","protocol":17,"map":"koth_viaduct","folder":"tf","game":"Team Fortress","app_id":440,"player_count":0,"max_players":24,"Bots":0,"server_type":"Dedicated","server_os":"Linux","password":true,"vac":true,"version":"7757534","steam_id":85568392924742824,"keywords":["cp","nocrits","nodmgspread","uncletopia"],"game_id":440,"stv_port":27036,"stv_name":"Uncletopia | San Francisco | 3 | Stopwatch Beta | STV","players":null},{"server_id":20,"name":"Uncletopia | San Francisco | 4 | Community","name_short":"sfo-4","host":"sfo-1.us.uncletopia.com","port":27045,"enabled":true,"region":"us-west","cc":"us","latitude":37.77397,"longitude":-122.4313,"reserved":0,"last_update":"0001-01-01T00:00:00Z","name_a2s":"Uncletopia | San Francisco | 4 | Community","protocol":17,"map":"workshop/koth_bagel_rc5.ugc2514036946","folder":"tf","game":"Team Fortress","app_id":440,"player_count":0,"max_players":24,"Bots":0,"server_type":"Dedicated","server_os":"Linux","password":true,"vac":true,"version":"7757534","steam_id":85568392924742826,"keywords":["cp","nocrits","nodmgspread","uncletopia"],"game_id":440,"stv_port":27046,"stv_name":"Uncletopia | San Francisco | 4 | Community | STV","players":null},{"server_id":141,"name":"Uncletopia | Sydney | 1 | All Maps","name_short":"syd-1","host":"syd-1.au.uncletopia.com","port":27015,"enabled":true,"region":"au","cc":"au","latitude":-33.865143,"longitude":151.2099,"reserved":0,"last_update":"0001-01-01T00:00:00Z","name_a2s":"Uncletopia | Sydney | 1 | All Maps","protocol":17,"map":"koth_lakeside_final","folder":"tf","game":"Team Fortress","app_id":440,"player_count":0,"max_players":24,"Bots":0,"server_type":"Dedicated","server_os":"Linux","password":true,"vac":true,"version":"7757534","steam_id":85568392924470001,"keywords":["cp","nocrits","nodmgspread","uncletopia"],"game_id":440,"stv_port":27016,"stv_name":"Uncletopia | Sydney | 1 | All Maps | STV","players":null},{"server_id":123,"name":"Uncletopia | Sydney | 2 | All Maps","name_short":"syd-2","host":"syd-1.au.uncletopia.com","port":27025,"enabled":true,"region":"au","cc":"au","latitude":-33.865143,"longitude":151.2099,"reserved":0,"last_update":"0001-01-01T00:00:00Z","name_a2s":"Uncletopia | Sydney | 2 | All Maps","protocol":17,"map":"koth_viaduct","folder":"tf","game":"Team Fortress","app_id":440,"player_count":0,"max_players":24,"Bots":0,"server_type":"Dedicated","server_os":"Linux","password":true,"vac":true,"version":"7757534","steam_id":85568392924470002,"keywords":["cp","nocrits","nodmgspread","uncletopia"],"game_id":440,"stv_port":27026,"stv_name":"Uncletopia | Sydney | 2 | All Maps | STV","players":null},{"server_id":395,"name":"Uncletopia | Sydney | 3 | All Maps","name_short":"syd-3","host":"syd-1.au.uncletopia.com","port":27035,"enabled":true,"region":"au","cc":"au","latitude":-33.865143,"longitude":151.2099,"reserved":0,"last_update":"0001-01-01T00:00:00Z","name_a2s":"Uncletopia | Sydney | 3 | All Maps","protocol":17,"map":"koth_viaduct","folder":"tf","game":"Team Fortress","app_id":440,"player_count":0,"max_players":24,"Bots":0,"server_type":"Dedicated","server_os":"Linux","password":true,"vac":true,"version":"7757534","steam_id":85568392925194467,"keywords":["cp","nocrits","nodmgspread","uncletopia"],"game_id":440,"stv_port":27036,"stv_name":"Uncletopia | Sydney | 3 | All Maps | STV","players":null},{"server_id":396,"name":"Uncletopia | Sydney | 4 | All Maps","name_short":"syd-4","host":"syd-1.au.uncletopia.com","port":27045,"enabled":true,"region":"au","cc":"au","latitude":-33.865143,"longitude":151.2099,"reserved":0,"last_update":"0001-01-01T00:00:00Z","name_a2s":"Uncletopia | Sydney | 4 | All Maps","protocol":17,"map":"cp_snakewater_final1","folder":"tf","game":"Team Fortress","app_id":440,"player_count":0,"max_players":24,"Bots":0,"server_type":"Dedicated","server_os":"Linux","password":true,"vac":true,"version":"7757534","steam_id":85568392925397958,"keywords":["cp","nocrits","nodmgspread","uncletopia"],"game_id":440,"stv_port":27046,"stv_name":"Uncletopia | Sydney | 4 | All Maps | STV","players":null},{"server_id":58,"name":"Uncletopia | Sydney | 5 | Stopwatch Beta","name_short":"syd-5","host":"syd-1.au.uncletopia.com","port":27055,"enabled":true,"region":"au","cc":"au","latitude":-33.865143,"longitude":151.2099,"reserved":0,"last_update":"0001-01-01T00:00:00Z","name_a2s":"Uncletopia | Sydney | 5 | Stopwatch Beta","protocol":17,"map":"pl_barnblitz","folder":"tf","game":"Team Fortress","app_id":440,"player_count":0,"max_players":24,"Bots":0,"server_type":"Dedicated","server_os":"Linux","password":true,"vac":true,"version":"7757534","steam_id":85568392925397959,"keywords":["nocrits","nodmgspread","payload","uncletopia"],"game_id":440,"stv_port":27056,"stv_name":"Uncletopia | Sydney | 5 | Stopwatch Beta | STV","players":null},{"server_id":59,"name":"Uncletopia | Sydney | 6 | Community","name_short":"syd-6","host":"syd-1.au.uncletopia.com","port":27065,"enabled":true,"region":"au","cc":"au","latitude":-33.865143,"longitude":151.2099,"reserved":0,"last_update":"0001-01-01T00:00:00Z","name_a2s":"Uncletopia | Sydney | 6 | Community","protocol":17,"map":"cp_mountainlab","folder":"tf","game":"Team Fortress","app_id":440,"player_count":0,"max_players":24,"Bots":0,"server_type":"Dedicated","server_os":"Linux","password":true,"vac":true,"version":"7757534","steam_id":85568392925397960,"keywords":["cp","nocrits","nodmgspread","uncletopia"],"game_id":440,"stv_port":27066,"stv_name":"Uncletopia | Sydney | 6 | Community | STV","players":null},{"server_id":49,"name":"Uncletopia | Warsaw | 1 | All Maps","name_short":"waw-1","host":"waw-1.pl.uncletopia.com","port":27015,"enabled":true,"region":"eu","cc":"pl","latitude":52.2297,"longitude":21.017532,"reserved":0,"last_update":"0001-01-01T00:00:00Z","name_a2s":"","protocol":0,"map":"","folder":"","game":"","app_id":0,"player_count":0,"max_players":0,"Bots":0,"server_type":"","server_os":"","password":false,"vac":false,"version":"","steam_id":0,"keywords":null,"game_id":0,"stv_port":0,"stv_name":"","players":null},{"server_id":50,"name":"Uncletopia | Warsaw | 2 | All Maps","name_short":"waw-2","host":"waw-1.pl.uncletopia.com","port":27025,"enabled":true,"region":"eu","cc":"pl","latitude":52.2297,"longitude":21.017532,"reserved":0,"last_update":"0001-01-01T00:00:00Z","name_a2s":"Uncletopia | Warsaw | 2 | All Maps","protocol":17,"map":"pl_borneo","folder":"tf","game":"Team Fortress","app_id":440,"player_count":23,"max_players":24,"Bots":0,"server_type":"Dedicated","server_os":"Linux","password":true,"vac":true,"version":"7757534","steam_id":85568392925397851,"keywords":["nocrits","nodmgspread","payload","uncletopia"],"game_id":440,"stv_port":27026,"stv_name":"Uncletopia | Warsaw | 2 | All Maps | STV","players":[{"user_id":85,"name":"0","steam_id":76561198167828355,"connected_time":1495000000000,"state":"active","ping":97},{"user_id":90,"name":"Korki","steam_id":76561198146829203,"connected_time":1410000000000,"state":"active","ping":46},{"user_id":64,"name":"Tomato188","steam_id":76561198292926885,"connected_time":3057000000000,"state":"active","ping":88},{"user_id":99,"name":"supermariogrows","steam_id":76561198200238915,"connected_time":774000000000,"state":"active","ping":74},{"user_id":73,"name":"daanvanliempt05","steam_id":76561198355398948,"connected_time":2069000000000,"state":"active","ping":59},{"user_id":103,"name":"prosto vovan 1234","steam_id":76561199249375529,"connected_time":261000000000,"state":"active","ping":58},{"user_id":75,"name":"bad","steam_id":76561198138027145,"connected_time":1889000000000,"state":"active","ping":74},{"user_id":57,"name":"Owl","steam_id":76561198248266580,"connected_time":4359000000000,"state":"active","ping":83},{"user_id":100,"name":"i heal gay people","steam_id":76561198032167311,"connected_time":766000000000,"state":"active","ping":78},{"user_id":66,"name":"LOBZIK","steam_id":76561198114830120,"connected_time":2703000000000,"state":"active","ping":46},{"user_id":77,"name":"Chaz","steam_id":76561198077292814,"connected_time":1665000000000,"state":"active","ping":86},{"user_id":88,"name":"Gotharski","steam_id":76561198012263719,"connected_time":1450000000000,"state":"active","ping":90},{"user_id":61,"name":"doggoeatswindex21","steam_id":76561199065303184,"connected_time":3635000000000,"state":"active","ping":164},{"user_id":67,"name":"shinji","steam_id":76561198099696876,"connected_time":2643000000000,"state":"active","ping":83},{"user_id":69,"name":"Condemned B3 Expert","steam_id":76561198248411522,"connected_time":2621000000000,"state":"active","ping":87},{"user_id":104,"name":"Rysiowski","steam_id":76561198082317689,"connected_time":40000000000,"state":"active","ping":46},{"user_id":91,"name":"neal","steam_id":76561198400511652,"connected_time":1168000000000,"state":"active","ping":91},{"user_id":95,"name":"isha","steam_id":76561199041566425,"connected_time":1050000000000,"state":"active","ping":81},{"user_id":82,"name":"Shirogame","steam_id":76561198126154697,"connected_time":1581000000000,"state":"active","ping":95},{"user_id":96,"name":"LIVANDOWSKI","steam_id":76561199443772467,"connected_time":1003000000000,"state":"active","ping":114},{"user_id":102,"name":"b ull","steam_id":76561199233979726,"connected_time":368000000000,"state":"active","ping":98},{"user_id":98,"name":"Derp","steam_id":76561198197901062,"connected_time":855000000000,"state":"active","ping":72},{"user_id":89,"name":"Sippie","steam_id":76561198130393388,"connected_time":1449000000000,"state":"active","ping":80}]},{"server_id":51,"name":"Uncletopia | Warsaw | 3 | All Maps","name_short":"waw-3","host":"waw-1.pl.uncletopia.com","port":27035,"enabled":true,"region":"eu","cc":"pl","latitude":52.2297,"longitude":21.017532,"reserved":0,"last_update":"0001-01-01T00:00:00Z","name_a2s":"Uncletopia | Warsaw | 3 | All Maps","protocol":17,"map":"cp_dustbowl","folder":"tf","game":"Team Fortress","app_id":440,"player_count":0,"max_players":24,"Bots":0,"server_type":"Dedicated","server_os":"Linux","password":true,"vac":true,"version":"7757534","steam_id":85568392925397852,"keywords":["cp","nocrits","nodmgspread","uncletopia"],"game_id":440,"stv_port":27036,"stv_name":"Uncletopia | Warsaw | 3 | All Maps | STV","players":null},{"server_id":52,"name":"Uncletopia | Warsaw | 4 | All Maps","name_short":"waw-4","host":"waw-1.pl.uncletopia.com","port":27045,"enabled":true,"region":"eu","cc":"pl","latitude":52.2297,"longitude":21.017532,"reserved":0,"last_update":"0001-01-01T00:00:00Z","name_a2s":"Uncletopia | Warsaw | 4 | All Maps","protocol":17,"map":"pl_frontier_final","folder":"tf","game":"Team Fortress","app_id":440,"player_count":24,"max_players":24,"Bots":0,"server_type":"Dedicated","server_os":"Linux","password":true,"vac":true,"version":"7757534","steam_id":85568392925397853,"keywords":["nocrits","nodmgspread","payload","uncletopia"],"game_id":440,"stv_port":27046,"stv_name":"Uncletopia | Warsaw | 4 | All Maps | STV","players":[{"user_id":61,"name":"CarBombEnthusiast","steam_id":76561199448185434,"connected_time":735000000000,"state":"active","ping":83},{"user_id":53,"name":"Gencay","steam_id":76561198973232202,"connected_time":925000000000,"state":"active","ping":108},{"user_id":62,"name":"lizard","steam_id":76561198061513180,"connected_time":727000000000,"state":"active","ping":61},{"user_id":30,"name":"matt.roser","steam_id":76561198200195855,"connected_time":1804000000000,"state":"active","ping":88},{"user_id":63,"name":"SirniBurekFensi","steam_id":76561198840826674,"connected_time":687000000000,"state":"active","ping":118},{"user_id":54,"name":"Wise Tree","steam_id":76561198108606437,"connected_time":886000000000,"state":"active","ping":46},{"user_id":57,"name":"ඞbominasus 2137  #SaveTF2","steam_id":76561198030062981,"connected_time":824000000000,"state":"active","ping":47},{"user_id":64,"name":"√Ѕ1441≥∑m43`±Pλ7ƛz","steam_id":76561199070611827,"connected_time":579000000000,"state":"active","ping":122},{"user_id":70,"name":"BrejQ","steam_id":76561198000657114,"connected_time":256000000000,"state":"active","ping":74},{"user_id":26,"name":"Senator Armstrong","steam_id":76561198984346408,"connected_time":2003000000000,"state":"active","ping":53},{"user_id":55,"name":"roblan11","steam_id":76561198066839258,"connected_time":881000000000,"state":"active","ping":66},{"user_id":56,"name":"Shizoid","steam_id":76561198070638238,"connected_time":875000000000,"state":"active","ping":78},{"user_id":31,"name":"Videogamer","steam_id":76561198106012909,"connected_time":1735000000000,"state":"active","ping":97},{"user_id":71,"name":"Bill The Beekeeper","steam_id":76561198253502133,"connected_time":212000000000,"state":"active","ping":73},{"user_id":66,"name":"im red","steam_id":76561199087284519,"connected_time":519000000000,"state":"active","ping":76},{"user_id":67,"name":"Eljaro03","steam_id":76561198351693849,"connected_time":425000000000,"state":"active","ping":51},{"user_id":68,"name":"B-Eitros","steam_id":76561198021605503,"connected_time":378000000000,"state":"active","ping":79},{"user_id":39,"name":"MrEru1","steam_id":76561198105034495,"connected_time":1170000000000,"state":"active","ping":59},{"user_id":69,"name":"ПАРАВОЗ","steam_id":76561198988787382,"connected_time":336000000000,"state":"active","ping":122},{"user_id":41,"name":"Big Milk","steam_id":76561198069180128,"connected_time":1164000000000,"state":"active","ping":175},{"user_id":42,"name":"Amongusiņš","steam_id":76561198240027898,"connected_time":1163000000000,"state":"active","ping":61},{"user_id":72,"name":"DarklyPD","steam_id":76561199213622857,"connected_time":171000000000,"state":"active","ping":109},{"user_id":46,"name":"Silent Person","steam_id":76561198107763537,"connected_time":1113000000000,"state":"active","ping":66},{"user_id":49,"name":"MaG!Ko","steam_id":76561198313559938,"connected_time":1008000000000,"state":"active","ping":72}]},{"server_id":53,"name":"Uncletopia | Warsaw | 5 | Stopwatch Beta","name_short":"waw-5","host":"waw-1.pl.uncletopia.com","port":27055,"enabled":true,"region":"eu","cc":"pl","latitude":52.2297,"longitude":21.017532,"reserved":0,"last_update":"0001-01-01T00:00:00Z","name_a2s":"Uncletopia | Warsaw | 5 | Stopwatch Beta","protocol":17,"map":"workshop/koth_product_final.ugc454272353","folder":"tf","game":"Team Fortress","app_id":440,"player_count":0,"max_players":24,"Bots":0,"server_type":"Dedicated","server_os":"Linux","password":true,"vac":true,"version":"7757534","steam_id":85568392925397854,"keywords":["cp","nocrits","nodmgspread","uncletopia"],"game_id":440,"stv_port":27056,"stv_name":"Uncletopia | Warsaw | 5 | Stopwatch Beta | STV","players":null},{"server_id":54,"name":"Uncletopia | Warsaw | 6 | Community","name_short":"waw-6","host":"waw-1.pl.uncletopia.com","port":27065,"enabled":true,"region":"eu","cc":"pl","latitude":52.2297,"longitude":21.017532,"reserved":0,"last_update":"0001-01-01T00:00:00Z","name_a2s":"Uncletopia | Warsaw | 6 | Community","protocol":17,"map":"workshop/pl_vigil_rc9.ugc1266210012","folder":"tf","game":"Team Fortress","app_id":440,"player_count":0,"max_players":24,"Bots":0,"server_type":"Dedicated","server_os":"Linux","password":true,"vac":true,"version":"7757534","steam_id":85568392925397856,"keywords":["nocrits","nodmgspread","payload","uncletopia"],"game_id":440,"stv_port":27066,"stv_name":"Uncletopia | Warsaw | 6 | Community | STV","players":null}]}