{"status":true,"message":"","result":[{"server_id":9,"name":"Uncletopia | Atlanta | 1 | All Maps","name_short":"atl-1","host":"atl-1.us.uncletopia.com","port":27015,"enabled":true,"region":"us-east","cc":"us","latitude":33.753746,"longitude":-84.38633,"reserved":0,"last_update":"0001-01-01T00:00:00Z","name_a2s":"Uncletopia | Atlanta | 1 | All Maps","protocol":17,"map":"koth_viaduct","folder":"tf","game":"Team Fortress","app_id":440,"player_count":0,"max_players":24,"Bots":0,"server_type":"Dedicated","server_os":"Linux","password":true,"vac":true,"version":"7961495","steam_id":85568392924469982,"keywords":["cp","nocrits","nodmgspread","uncletopia"],"game_id":440,"stv_port":27016,"stv_name":"Uncletopia | Atlanta | 1 | All Maps | STV","players":null},{"server_id":104,"name":"Uncletopia | Atlanta | 2 | All Maps","name_short":"atl-2","host":"atl-1.us.uncletopia.com","port":27025,"enabled":true,"region":"us-east","cc":"us","latitude":33.753746,"longitude":-84.38633,"reserved":0,"last_update":"0001-01-01T00:00:00Z","name_a2s":"Uncletopia | Atlanta | 2 | All Maps","protocol":17,"map":"cp_altitude","folder":"tf","game":"Team Fortress","app_id":440,"player_count":0,"max_players":24,"Bots":0,"server_type":"Dedicated","server_os":"Linux","password":true,"vac":true,"version":"7961495","steam_id":85568392924469983,"keywords":["cp","nocrits","nodmgspread","uncletopia"],"game_id":440,"stv_port":27026,"stv_name":"Uncletopia | Atlanta | 2 | All Maps | STV","players":null},{"server_id":400,"name":"Uncletopia | Atlanta | 3 | Stopwatch","name_short":"atl-3","host":"atl-1.us.uncletopia.com","port":27035,"enabled":true,"region":"us-east","cc":"us","latitude":33.753746,"longitude":-84.38633,"reserved":0,"last_update":"0001-01-01T00:00:00Z","name_a2s":"Uncletopia | Atlanta | 3 | Stopwatch","protocol":17,"map":"koth_ashville_final","folder":"tf","game":"Team Fortress","app_id":440,"player_count":0,"max_players":24,"Bots":0,"server_type":"Dedicated","server_os":"Linux","password":true,"vac":true,"version":"7961495","steam_id":85568392924515187,"keywords":["cp","nocrits","nodmgspread","uncletopia"],"game_id":440,"stv_port":27036,"stv_name":"Uncletopia | Atlanta | 3 | Stopwatch | STV","players":null},{"server_id":401,"name":"Uncletopia | Atlanta | 4 | Community","name_short":"atl-4","host":"atl-1.us.uncletopia.com","port":27045,"enabled":true,"region":"us-east","cc":"us","latitude":33.753746,"longitude":-84.38633,"reserved":0,"last_update":"0001-01-01T00:00:00Z","name_a2s":"Uncletopia | Atlanta | 4 | Community","protocol":17,"map":"koth_kemptown_rc1","folder":"tf","game":"Team Fortress","app_id":440,"player_count":0,"max_players":24,"Bots":0,"server_type":"Dedicated","server_os":"Linux","password":true,"vac":true,"version":"7961495","steam_id":85568392924515188,"keywords":["cp","nocrits","nodmgspread","uncletopia"],"game_id":440,"stv_port":27046,"stv_name":"Uncletopia | Atlanta | 4 | Community | STV","players":null},{"server_id":2,"name":"Uncletopia | Chicago | 1 | All Maps","name_short":"chi-1","host":"chi-1.us.uncletopia.com","port":27015,"enabled":true,"region":"us-central","cc":"us","latitude":41.881832,"longitude":-87.62318,"reserved":0,"last_update":"0001-01-01T00:00:00Z","name_a2s":"Uncletopia | Chicago | 1 | All Maps","protocol":17,"map":"cp_altitude","folder":"tf","game":"Team Fortress","app_id":440,"player_count":1,"max_players":24,"Bots":0,"server_type":"Dedicated","server_os":"Linux","password":true,"vac":true,"version":"7961495","steam_id":85568392924469984,"keywords":["cp","nocrits","nodmgspread","uncletopia"],"game_id":440,"stv_port":27016,"stv_name":"Uncletopia | Chicago | 1 | All Maps | STV","players":[{"user_id":555,"name":"Elmo's Eternal Damnation","steam_id":76561198321235979,"connected_time":160000000000,"state":"active","ping":84}]},{"server_id":106,"name":"Uncletopia | Chicago | 2 | All Maps","name_short":"chi-2","host":"chi-1.us.uncletopia.com","port":27025,"enabled":true,"region":"us-central","cc":"us","latitude":41.881832,"longitude":-87.62318,"reserved":0,"last_update":"0001-01-01T00:00:00Z","name_a2s":"Uncletopia | Chicago | 2 | All Maps","protocol":17,"map":"pl_badwater","folder":"tf","game":"Team Fortress","app_id":440,"player_count":24,"max_players":24,"Bots":0,"server_type":"Dedicated","server_os":"Linux","password":true,"vac":true,"version":"7961495","steam_id":85568392924469985,"keywords":["nocrits","nodmgspread","payload","uncletopia"],"game_id":440,"stv_port":27026,"stv_name":"Uncletopia | Chicago | 2 | All Maps | STV","players":[{"user_id":908,"name":"killeroverscore123","steam_id":76561199168131321,"connected_time":612000000000,"state":"active","ping":89},{"user_id":830,"name":"Jerms","steam_id":76561198382814378,"connected_time":5901000000000,"state":"active","ping":43},{"user_id":884,"name":"basilberry","steam_id":76561198145275937,"connected_time":2363000000000,"state":"active","ping":88},{"user_id":874,"name":"Motobono9","steam_id":76561198032403516,"connected_time":3587000000000,"state":"active","ping":95},{"user_id":897,"name":"Sunny⭐Days","steam_id":76561198043892974,"connected_time":1424000000000,"state":"active","ping":75},{"user_id":877,"name":"PikaJW","steam_id":76561198079831429,"connected_time":3504000000000,"state":"active","ping":107},{"user_id":904,"name":"floofy","steam_id":76561198389769098,"connected_time":882000000000,"state":"active","ping":80},{"user_id":911,"name":"frank","steam_id":76561198137777483,"connected_time":27000000000,"state":"active","ping":68},{"user_id":852,"name":"Zaz","steam_id":76561198140587647,"connected_time":4633000000000,"state":"active","ping":55},{"user_id":902,"name":"Ecliptica","steam_id":76561198171951333,"connected_time":1041000000000,"state":"active","ping":95},{"user_id":889,"name":"zpalmtree","steam_id":76561198134307620,"connected_time":2174000000000,"state":"active","ping":57},{"user_id":870,"name":"NightGhost1400","steam_id":76561198810730471,"connected_time":3718000000000,"state":"active","ping":108},{"user_id":890,"name":"YASAI JUICE","steam_id":76561198131971992,"connected_time":2164000000000,"state":"active","ping":33},{"user_id":865,"name":"chanoc","steam_id":76561198026734746,"connected_time":3817000000000,"state":"active","ping":91},{"user_id":910,"name":"hashmap","steam_id":76561198043794014,"connected_time":326000000000,"state":"active","ping":55},{"user_id":905,"name":"Fargo","steam_id":76561198044703931,"connected_time":880000000000,"state":"active","ping":70},{"user_id":901,"name":"poverty gaming","steam_id":76561199177831971,"connected_time":1088000000000,"state":"active","ping":81},{"user_id":909,"name":"Octto","steam_id":76561198070124921,"connected_time":533000000000,"state":"active","ping":66},{"user_id":894,"name":"Raccoon Wizard","steam_id":76561198072562591,"connected_time":1805000000000,"state":"active","ping":85},{"user_id":847,"name":"benny worm","steam_id":76561198163238434,"connected_time":5215000000000,"state":"active","ping":67},{"user_id":906,"name":"RaixaR","steam_id":76561198025289430,"connected_time":856000000000,"state":"active","ping":75},{"user_id":895,"name":"njokuani","steam_id":76561199061380038,"connected_time":1803000000000,"state":"active","ping":60},{"user_id":907,"name":"Med1cinman97","steam_id":76561198046768648,"connected_time":826000000000,"state":"active","ping":71},{"user_id":898,"name":"Shadoe","steam_id":76561198218577281,"connected_time":1377000000000,"state":"active","ping":105}]},{"server_id":402,"name":"Uncletopia | Chicago | 3 | All Maps","name_short":"chi-3","host":"chi-1.us.uncletopia.com","port":27035,"enabled":true,"region":"us-central","cc":"us","latitude":41.881832,"longitude":-87.62318,"reserved":0,"last_update":"0001-01-01T00:00:00Z","name_a2s":"Uncletopia | Chicago | 3 | All Maps","protocol":17,"map":"pl_barnblitz","folder":"tf","game":"Team Fortress","app_id":440,"player_count":0,"max_players":24,"Bots":0,"server_type":"Dedicated","server_os":"Linux","password":true,"vac":true,"version":"7961495","steam_id":85568392924515191,"keywords":["nocrits","nodmgspread","payload","uncletopia"],"game_id":440,"stv_port":27036,"stv_name":"Uncletopia | Chicago | 3 | All Maps | STV","players":null},{"server_id":403,"name":"Uncletopia | Chicago | 4 | All Maps","name_short":"chi-4","host":"chi-1.us.uncletopia.com","port":27045,"enabled":true,"region":"us-central","cc":"us","latitude":41.881832,"longitude":-87.62318,"reserved":0,"last_update":"0001-01-01T00:00:00Z","name_a2s":"Uncletopia | Chicago | 4 | All Maps","protocol":17,"map":"pl_upward","folder":"tf","game":"Team Fortress","app_id":440,"player_count":24,"max_players":24,"Bots":0,"server_type":"Dedicated","server_os":"Linux","password":true,"vac":true,"version":"7961495","steam_id":85568392924515193,"keywords":["nocrits","nodmgspread","payload","uncletopia"],"game_id":440,"stv_port":27046,"stv_name":"Uncletopia | Chicago | 4 | All Maps | STV","players":[{"user_id":923,"name":"hud_saytext_time 0","steam_id":76561198010327228,"connected_time":262000000000,"state":"active","ping":170},{"user_id":910,"name":"Captain Emerald The Changeling","steam_id":76561198320651177,"connected_time":1251000000000,"state":"active","ping":60},{"user_id":902,"name":"Xsaber","steam_id":76561198285273249,"connected_time":2433000000000,"state":"active","ping":57},{"user_id":894,"name":"That Darned Imp","steam_id":76561198854501307,"connected_time":3481000000000,"state":"active","ping":55},{"user_id":895,"name":"CynForSin","steam_id":76561198094739849,"connected_time":3469000000000,"state":"active","ping":68},{"user_id":889,"name":"Yung 2.0","steam_id":76561198089364689,"connected_time":3995000000000,"state":"active","ping":64},{"user_id":924,"name":"Unc4nny","steam_id":76561198131507408,"connected_time":256000000000,"state":"active","ping":51},{"user_id":886,"name":"Career","steam_id":76561198028542212,"connected_time":4094000000000,"state":"active","ping":75},{"user_id":858,"name":"Khaicchi ♥","steam_id":76561198104454754,"connected_time":6097000000000,"state":"active","ping":171},{"user_id":917,"name":"tgirl swag","steam_id":76561198128164970,"connected_time":1007000000000,"state":"active","ping":105},{"user_id":911,"name":"captin funk","steam_id":76561198412583999,"connected_time":1224000000000,"state":"active","ping":44},{"user_id":912,"name":"sixsin","steam_id":76561199215821942,"connected_time":1184000000000,"state":"active","ping":68},{"user_id":891,"name":"Ulrard","steam_id":76561198087552940,"connected_time":3984000000000,"state":"active","ping":51},{"user_id":913,"name":"Ket","steam_id":76561198241951244,"connected_time":1164000000000,"state":"active","ping":71},{"user_id":870,"name":"Brook Prime","steam_id":76561198185126222,"connected_time":5201000000000,"state":"active","ping":103},{"user_id":914,"name":"Outhouse Destroyer","steam_id":76561198011204750,"connected_time":1151000000000,"state":"active","ping":77},{"user_id":921,"name":"rip muhammad ali","steam_id":76561198072640720,"connected_time":622000000000,"state":"active","ping":60},{"user_id":925,"name":"Rat King (Deposed)","steam_id":76561198271907916,"connected_time":62000000000,"state":"active","ping":54},{"user_id":916,"name":"staks","steam_id":76561198059570070,"connected_time":1093000000000,"state":"active","ping":45},{"user_id":908,"name":"Mads Mikkelsen","steam_id":76561198083482001,"connected_time":1812000000000,"state":"active","ping":132},{"user_id":918,"name":"Fin","steam_id":76561198410957728,"connected_time":985000000000,"state":"active","ping":50},{"user_id":869,"name":"TransPuppygirlWithExtraSad","steam_id":76561198085813708,"connected_time":5681000000000,"state":"active","ping":71},{"user_id":922,"name":"Apsev","steam_id":76561198119867604,"connected_time":330000000000,"state":"active","ping":60},{"user_id":909,"name":"Xbox_Pro:RELOADED","steam_id":76561198176126519,"connected_time":1520000000000,"state":"active","ping":76}]},{"server_id":36,"name":"Uncletopia | Chicago | 5 | All Maps","name_short":"chi-5","host":"chi-2.us.uncletopia.com","port":27015,"enabled":true,"region":"us-central","cc":"us","latitude":41.881832,"longitude":-87.62318,"reserved":0,"last_update":"0001-01-01T00:00:00Z","name_a2s":"Uncletopia | Chicago | 5 | All Maps","protocol":17,"map":"cp_snakewater_final1","folder":"tf","game":"Team Fortress","app_id":440,"player_count":0,"max_players":24,"Bots":0,"server_type":"Dedicated","server_os":"Linux","password":true,"vac":true,"version":"7961495","steam_id":85568392924866362,"keywords":["cp","nocrits","nodmgspread","uncletopia"],"game_id":440,"stv_port":27016,"stv_name":"Uncletopia | Chicago | 5 | All Maps | STV","players":null},{"server_id":37,"name":"Uncletopia | Chicago | 6 | All Maps","name_short":"chi-6","host":"chi-2.us.uncletopia.com","port":27025,"enabled":true,"region":"us-central","cc":"us","latitude":41.881832,"longitude":-87.62318,"reserved":0,"last_update":"0001-01-01T00:00:00Z","name_a2s":"Uncletopia | Chicago | 6 | All Maps","protocol":17,"map":"pl_barnblitz","folder":"tf","game":"Team Fortress","app_id":440,"player_count":24,"max_players":24,"Bots":0,"server_type":"Dedicated","server_os":"Linux","password":true,"vac":true,"version":"7961495","steam_id":85568392924866363,"keywords":["nocrits","nodmgspread","payload","uncletopia"],"game_id":440,"stv_port":27026,"stv_name":"Uncletopia | Chicago | 6 | All Maps | STV","players":[{"user_id":537,"name":"A Crack Head","steam_id":76561198353465442,"connected_time":779000000000,"state":"active","ping":117},{"user_id":522,"name":"Glass Joe","steam_id":76561198317365741,"connected_time":1631000000000,"state":"active","ping":62},{"user_id":535,"name":"Future Tusk","steam_id":76561198199635217,"connected_time":897000000000,"state":"active","ping":113},{"user_id":545,"name":"Ttv. RoamerYT ♤♤♤","steam_id":76561198317074062,"connected_time":188000000000,"state":"active","ping":123},{"user_id":543,"name":"rubix","steam_id":76561198134710399,"connected_time":406000000000,"state":"active","ping":83},{"user_id":544,"name":"Rufflemyster™","steam_id":76561198039282501,"connected_time":259000000000,"state":"active","ping":74},{"user_id":542,"name":"Blobbyfish","steam_id":76561198822962650,"connected_time":457000000000,"state":"active","ping":70},{"user_id":546,"name":"Danny Blackburn","steam_id":76561197995190331,"connected_time":167000000000,"state":"active","ping":88},{"user_id":547,"name":"ButterNutz","steam_id":76561198122404516,"connected_time":145000000000,"state":"active","ping":89},{"user_id":497,"name":"Galactamarx","steam_id":76561198028065755,"connected_time":5574000000000,"state":"active","ping":100},{"user_id":526,"name":"coda","steam_id":76561198092052685,"connected_time":1541000000000,"state":"active","ping":61},{"user_id":512,"name":"honked off the bobo","steam_id":76561198123287268,"connected_time":3494000000000,"state":"active","ping":46},{"user_id":527,"name":"big sump","steam_id":76561198113364714,"connected_time":1507000000000,"state":"active","ping":59},{"user_id":528,"name":"Even More Average Demo Main","steam_id":76561198213435803,"connected_time":1495000000000,"state":"active","ping":57},{"user_id":548,"name":"BurR","steam_id":76561198055431367,"connected_time":136000000000,"state":"active","ping":61},{"user_id":540,"name":"Kawai","steam_id":76561198422942348,"connected_time":711000000000,"state":"active","ping":191},{"user_id":541,"name":"chud smoker","steam_id":76561198120973162,"connected_time":691000000000,"state":"active","ping":73},{"user_id":529,"name":"Jazz2T","steam_id":76561198154418867,"connected_time":1483000000000,"state":"active","ping":101},{"user_id":532,"name":"darkelaine227","steam_id":76561198097330521,"connected_time":1340000000000,"state":"active","ping":152},{"user_id":531,"name":"Sunflower","steam_id":76561198081223793,"connected_time":1445000000000,"state":"active","ping":51},{"user_id":549,"name":"AVY","steam_id":76561197964252106,"connected_time":91000000000,"state":"active","ping":51},{"user_id":533,"name":"Eric4bz","steam_id":76561198054439606,"connected_time":1339000000000,"state":"active","ping":108},{"user_id":536,"name":"guts' theme (Cut \u0026 Looped)","steam_id":76561198012829728,"connected_time":892000000000,"state":"active","ping":97},{"user_id":539,"name":"gaspipe","steam_id":76561198046107745,"connected_time":716000000000,"state":"active","ping":93}]},{"server_id":38,"name":"Uncletopia | Chicago | 7 | Stopwatch","name_short":"chi-7","host":"chi-2.us.uncletopia.com","port":27035,"enabled":true,"region":"us-central","cc":"us","latitude":41.881832,"longitude":-87.62318,"reserved":0,"last_update":"0001-01-01T00:00:00Z","name_a2s":"Uncletopia | Chicago | 7 | Stopwatch","protocol":17,"map":"workshop/koth_product_final.ugc454272353","folder":"tf","game":"Team Fortress","app_id":440,"player_count":0,"max_players":24,"Bots":0,"server_type":"Dedicated","server_os":"Linux","password":true,"vac":true,"version":"7961495","steam_id":85568392924866364,"keywords":["cp","nocrits","nodmgspread","uncletopia"],"game_id":440,"stv_port":27036,"stv_name":"Uncletopia | Chicago | 7 | Stopwatch | STV","players":null},{"server_id":39,"name":"Uncletopia | Chicago | 8 | Community","name_short":"chi-8","host":"chi-2.us.uncletopia.com","port":27045,"enabled":true,"region":"us-central","cc":"us","latitude":41.881832,"longitude":-87.62318,"reserved":0,"last_update":"0001-01-01T00:00:00Z","name_a2s":"Uncletopia | Chicago | 8 | Community","protocol":17,"map":"workshop/cp_coilblaze_rc7.ugc1272700588","folder":"tf","game":"Team Fortress","app_id":440,"player_count":0,"max_players":24,"Bots":0,"server_type":"Dedicated","server_os":"Linux","password":true,"vac":true,"version":"7961495","steam_id":85568392924866365,"keywords":["cp","nocrits","nodmgspread","uncletopia"],"game_id":440,"stv_port":27046,"stv_name":"Uncletopia | Chicago | 8 | Community | STV","players":null},{"server_id":8,"name":"Uncletopia | Dallas | 1 | All Maps","name_short":"dal-1","host":"dal-1.us.uncletopia.com","port":27015,"enabled":true,"region":"us-central","cc":"us","latitude":32.779167,"longitude":-96.80889,"reserved":0,"last_update":"0001-01-01T00:00:00Z","name_a2s":"Uncletopia | Dallas | 1 | All Maps","protocol":17,"map":"ctf_turbine","folder":"tf","game":"Team Fortress","app_id":440,"player_count":24,"max_players":24,"Bots":0,"server_type":"Dedicated","server_os":"Linux","password":true,"vac":true,"version":"7961495","steam_id":85568392924469986,"keywords":["ctf","nocrits","nodmgspread","uncletopia"],"game_id":440,"stv_port":27016,"stv_name":"Uncletopia | Dallas | 1 | All Maps | STV","players":[{"user_id":672,"name":"blademiss","steam_id":76561198062083019,"connected_time":775000000000,"state":"active","ping":82},{"user_id":658,"name":"dave","steam_id":76561198135961731,"connected_time":1983000000000,"state":"active","ping":56},{"user_id":612,"name":"skegeton","steam_id":76561198095581099,"connected_time":5557000000000,"state":"active","ping":55},{"user_id":633,"name":"esoobac","steam_id":76561198010370396,"connected_time":3406000000000,"state":"active","ping":68},{"user_id":664,"name":"shitass (Reaping and Sowing)","steam_id":76561198210572481,"connected_time":1306000000000,"state":"active","ping":58},{"user_id":670,"name":"dobby","steam_id":76561198012274834,"connected_time":889000000000,"state":"active","ping":63},{"user_id":603,"name":"Drained","steam_id":76561198081974528,"connected_time":6226000000000,"state":"active","ping":69},{"user_id":632,"name":"Nero25","steam_id":76561198027720631,"connected_time":3529000000000,"state":"active","ping":95},{"user_id":661,"name":"Metbol","steam_id":76561198001362410,"connected_time":1517000000000,"state":"active","ping":65},{"user_id":659,"name":"EvilPi99let","steam_id":76561197987243470,"connected_time":1957000000000,"state":"active","ping":75},{"user_id":651,"name":"captainspatklz","steam_id":76561198432167270,"connected_time":2269000000000,"state":"active","ping":70},{"user_id":666,"name":"for the love of god help me","steam_id":76561198017605637,"connected_time":1291000000000,"state":"active","ping":89},{"user_id":676,"name":"MoonMan Midnight","steam_id":76561198300525893,"connected_time":632000000000,"state":"active","ping":61},{"user_id":558,"name":"Oatmeal","steam_id":76561198027866416,"connected_time":9713000000000,"state":"active","ping":55},{"user_id":593,"name":"Yummy Kabobz","steam_id":76561198067661705,"connected_time":6637000000000,"state":"active","ping":84},{"user_id":649,"name":"TEAM FORTRESS 2","steam_id":76561198819943354,"connected_time":2561000000000,"state":"active","ping":61},{"user_id":615,"name":"ShapedSilver","steam_id":76561199073305310,"connected_time":4946000000000,"state":"active","ping":59},{"user_id":640,"name":"Ping","steam_id":76561198072947773,"connected_time":2989000000000,"state":"active","ping":62},{"user_id":668,"name":"Engideer","steam_id":76561198145733164,"connected_time":1208000000000,"state":"active","ping":46},{"user_id":605,"name":"aisu","steam_id":76561198043768507,"connected_time":6183000000000,"state":"active","ping":90},{"user_id":657,"name":"Gelliterate","steam_id":76561198107233070,"connected_time":2048000000000,"state":"active","ping":59},{"user_id":677,"name":"lker","steam_id":76561197976975075,"connected_time":534000000000,"state":"active","ping":60},{"user_id":674,"name":"SaaxoM","steam_id":76561198208256603,"connected_time":674000000000,"state":"active","ping":85},{"user_id":679,"name":"schmuck","steam_id":76561198143789773,"connected_time":282000000000,"state":"active","ping":56}]},{"server_id":108,"name":"Uncletopia | Dallas | 2 | All Maps","name_short":"dal-2","host":"dal-1.us.uncletopia.com","port":27025,"enabled":true,"region":"us-central","cc":"us","latitude":32.779167,"longitude":-96.80889,"reserved":0,"last_update":"0001-01-01T00:00:00Z","name_a2s":"Uncletopia | Dallas | 2 | All Maps","protocol":17,"map":"pl_borneo","folder":"tf","game":"Team Fortress","app_id":440,"player_count":0,"max_players":24,"Bots":0,"server_type":"Dedicated","server_os":"Linux","password":true,"vac":true,"version":"7961495","steam_id":85568392924469988,"keywords":["nocrits","nodmgspread","payload","uncletopia"],"game_id":440,"stv_port":27026,"stv_name":"Uncletopia | Dallas | 2 | All Maps | STV","players":null},{"server_id":404,"name":"Uncletopia | Dallas | 3 | All Maps","name_short":"dal-3","host":"dal-1.us.uncletopia.com","port":27035,"enabled":true,"region":"us-central","cc":"us","latitude":32.779167,"longitude":-96.80889,"reserved":0,"last_update":"0001-01-01T00:00:00Z","name_a2s":"Uncletopia | Dallas | 3 | All Maps","protocol":17,"map":"cp_mountainlab","folder":"tf","game":"Team Fortress","app_id":440,"player_count":5,"max_players":24,"Bots":0,"server_type":"Dedicated","server_os":"Linux","password":true,"vac":true,"version":"7961495","steam_id":85568392924515219,"keywords":["cp","nocrits","nodmgspread","uncletopia"],"game_id":440,"stv_port":27036,"stv_name":"Uncletopia | Dallas | 3 | All Maps | STV","players":[{"user_id":369,"name":"The Barrel General","steam_id":76561198133684687,"connected_time":3458000000000,"state":"active","ping":85},{"user_id":371,"name":"Sgt Ruffles","steam_id":76561198060103292,"connected_time":3210000000000,"state":"active","ping":40},{"user_id":372,"name":"Brad.EXE","steam_id":76561198048351190,"connected_time":2914000000000,"state":"active","ping":79},{"user_id":378,"name":"cocowheat","steam_id":76561198273524804,"connected_time":49000000000,"state":"active","ping":74},{"user_id":374,"name":"Salad","steam_id":76561198094415547,"connected_time":2123000000000,"state":"active","ping":88}]},{"server_id":405,"name":"Uncletopia | Dallas | 4 | Community","name_short":"dal-4","host":"dal-1.us.uncletopia.com","port":27045,"enabled":true,"region":"us-central","cc":"us","latitude":32.779167,"longitude":-96.80889,"reserved":0,"last_update":"0001-01-01T00:00:00Z","name_a2s":"Uncletopia | Dallas | 4 | Community","protocol":17,"map":"workshop/cp_glacier_rc6.ugc2905735376","folder":"tf","game":"Team Fortress","app_id":440,"player_count":0,"max_players":24,"Bots":0,"server_type":"Dedicated","server_os":"Linux","password":true,"vac":true,"version":"7961495","steam_id":85568392924515220,"keywords":["cp","nocrits","nodmgspread","uncletopia"],"game_id":440,"stv_port":27046,"stv_name":"Uncletopia | Dallas | 4 | Community | STV","players":null},{"server_id":5,"name":"Uncletopia | Frankfurt | 1 | All Maps","name_short":"frk-1","host":"frk-1.de.uncletopia.com","port":27015,"enabled":true,"region":"eu","cc":"de","latitude":50.110924,"longitude":8.682127,"reserved":0,"last_update":"0001-01-01T00:00:00Z","name_a2s":"Uncletopia | Frankfurt | 1 | All Maps","protocol":17,"map":"koth_highpass","folder":"tf","game":"Team Fortress","app_id":440,"player_count":0,"max_players":24,"Bots":0,"server_type":"Dedicated","server_os":"Linux","password":true,"vac":true,"version":"7961495","steam_id":85568392924469989,"keywords":["cp","nocrits","nodmgspread","uncletopia"],"game_id":440,"stv_port":27016,"stv_name":"Uncletopia | Frankfurt | 1 | All Maps | STV","players":null},{"server_id":110,"name":"Uncletopia | Frankfurt | 2 | All Maps","name_short":"frk-2","host":"frk-1.de.uncletopia.com","port":27025,"enabled":true,"region":"eu","cc":"de","latitude":50.110924,"longitude":8.682127,"reserved":0,"last_update":"0001-01-01T00:00:00Z","name_a2s":"Uncletopia | Frankfurt | 2 | All Maps","protocol":17,"map":"cp_dustbowl","folder":"tf","game":"Team Fortress","app_id":440,"player_count":0,"max_players":24,"Bots":0,"server_type":"Dedicated","server_os":"Linux","password":true,"vac":true,"version":"7961495","steam_id":85568392924469990,"keywords":["cp","nocrits","nodmgspread","uncletopia"],"game_id":440,"stv_port":27026,"stv_name":"Uncletopia | Frankfurt | 2 | All Maps | STV","players":null},{"server_id":308,"name":"Uncletopia | Frankfurt | 3 | All Maps","name_short":"frk-3","host":"frk-1.de.uncletopia.com","port":27035,"enabled":true,"region":"eu","cc":"de","latitude":50.110924,"longitude":8.682127,"reserved":0,"last_update":"0001-01-01T00:00:00Z","name_a2s":"Uncletopia | Frankfurt | 3 | All Maps","protocol":17,"map":"cp_snakewater_final1","folder":"tf","game":"Team Fortress","app_id":440,"player_count":0,"max_players":24,"Bots":0,"server_type":"Dedicated","server_os":"Linux","password":true,"vac":true,"version":"7961495","steam_id":85568392924504274,"keywords":["cp","nocrits","nodmgspread","uncletopia"],"game_id":440,"stv_port":27036,"stv_name":"Uncletopia | Frankfurt | 3 | All Maps | STV","players":null},{"server_id":309,"name":"Uncletopia | Frankfurt | 4 | All Maps","name_short":"frk-4","host":"frk-1.de.uncletopia.com","port":27045,"enabled":true,"region":"eu","cc":"de","latitude":50.110924,"longitude":8.682127,"reserved":0,"last_update":"0001-01-01T00:00:00Z","name_a2s":"Uncletopia | Frankfurt | 4 | All Maps","protocol":17,"map":"koth_highpass","folder":"tf","game":"Team Fortress","app_id":440,"player_count":0,"max_players":24,"Bots":0,"server_type":"Dedicated","server_os":"Linux","password":true,"vac":true,"version":"7961495","steam_id":85568392924504275,"keywords":["cp","nocrits","nodmgspread","uncletopia"],"game_id":440,"stv_port":27046,"stv_name":"Uncletopia | Frankfurt | 4 | All Maps | STV","players":null},{"server_id":310,"name":"Uncletopia | Frankfurt | 5 | All Maps","name_short":"frk-5","host":"frk-1.de.uncletopia.com","port":27055,"enabled":true,"region":"eu","cc":"de","latitude":50.110924,"longitude":8.682127,"reserved":0,"last_update":"0001-01-01T00:00:00Z","name_a2s":"Uncletopia | Frankfurt | 5 | All Maps","protocol":17,"map":"pl_badwater","folder":"tf","game":"Team Fortress","app_id":440,"player_count":0,"max_players":24,"Bots":0,"server_type":"Dedicated","server_os":"Linux","password":true,"vac":true,"version":"7961495","steam_id":85568392924504277,"keywords":["nocrits","nodmgspread","payload","uncletopia"],"game_id":440,"stv_port":27056,"stv_name":"Uncletopia | Frankfurt | 5 | All Maps | STV","players":null},{"server_id":311,"name":"Uncletopia | Frankfurt | 6 | All Maps","name_short":"frk-6","host":"frk-1.de.uncletopia.com","port":27065,"enabled":true,"region":"eu","cc":"de","latitude":50.110924,"longitude":8.682127,"reserved":0,"last_update":"0001-01-01T00:00:00Z","name_a2s":"Uncletopia | Frankfurt | 6 | All Maps","protocol":17,"map":"cp_altitude","folder":"tf","game":"Team Fortress","app_id":440,"player_count":0,"max_players":24,"Bots":0,"server_type":"Dedicated","server_os":"Linux","password":true,"vac":true,"version":"7961495","steam_id":85568392924504278,"keywords":["cp","nocrits","nodmgspread","uncletopia"],"game_id":440,"stv_port":27066,"stv_name":"Uncletopia | Frankfurt | 6 | All Maps | STV","players":null},{"server_id":23,"name":"Uncletopia | Frankfurt | 7 | Stopwatch","name_short":"frk-7","host":"frk-1.de.uncletopia.com","port":27075,"enabled":true,"region":"eu","cc":"de","latitude":50.110924,"longitude":8.682127,"reserved":0,"last_update":"0001-01-01T00:00:00Z","name_a2s":"Uncletopia | Frankfurt | 7 | Stopwatch","protocol":17,"map":"pl_frontier_final","folder":"tf","game":"Team Fortress","app_id":440,"player_count":0,"max_players":24,"Bots":0,"server_type":"Dedicated","server_os":"Linux","password":true,"vac":true,"version":"7961495","steam_id":85568392924742827,"keywords":["nocrits","nodmgspread","payload","uncletopia"],"game_id":440,"stv_port":27076,"stv_name":"Uncletopia | Frankfurt | 7 | Stopwatch | STV","players":null},{"server_id":24,"name":"Uncletopia | Frankfurt | 8 | Community","name_short":"frk-8","host":"frk-1.de.uncletopia.com","port":27085,"enabled":true,"region":"eu","cc":"de","latitude":50.110924,"longitude":8.682127,"reserved":0,"last_update":"0001-01-01T00:00:00Z","name_a2s":"Uncletopia | Frankfurt | 8 | Community","protocol":17,"map":"cp_mountainlab","folder":"tf","game":"Team Fortress","app_id":440,"player_count":0,"max_players":24,"Bots":0,"server_type":"Dedicated","server_os":"Linux","password":true,"vac":true,"version":"7961495","steam_id":85568392924742828,"keywords":["cp","nocrits","nodmgspread","uncletopia"],"game_id":440,"stv_port":27086,"stv_name":"Uncletopia | Frankfurt | 8 | Community | STV","players":null},{"server_id":202,"name":"Uncletopia | Hong Kong | 1 | All Maps","name_short":"hgk-1","host":"hgk-1.hk.uncletopia.com","port":27015,"enabled":true,"region":"asia","cc":"hk","latitude":22.302711,"longitude":114.177216,"reserved":0,"last_update":"0001-01-01T00:00:00Z","name_a2s":"Uncletopia | Hong Kong | 1 | All Maps","protocol":17,"map":"pl_badwater","folder":"tf","game":"Team Fortress","app_id":440,"player_count":0,"max_players":24,"Bots":0,"server_type":"Dedicated","server_os":"Linux","password":true,"vac":true,"version":"7961495","steam_id":85568392924494504,"keywords":["nocrits","nodmgspread","payload","uncletopia"],"game_id":440,"stv_port":27016,"stv_name":"Uncletopia | Hong Kong | 1 | All Maps | STV","players":null},{"server_id":1,"name":"Uncletopia | Los Angeles | 1 | All Maps","name_short":"lax-1","host":"lax-1.us.uncletopia.com","port":27015,"enabled":true,"region":"us-west","cc":"us","latitude":33.94279,"longitude":-118.41004,"reserved":0,"last_update":"0001-01-01T00:00:00Z","name_a2s":"Uncletopia | Los Angeles | 1 | All Maps","protocol":17,"map":"pl_borneo","folder":"tf","game":"Team Fortress","app_id":440,"player_count":24,"max_players":24,"Bots":0,"server_type":"Dedicated","server_os":"Linux","password":true,"vac":true,"version":"7961495","steam_id":85568392924469991,"keywords":["nocrits","nodmgspread","payload","uncletopia"],"game_id":440,"stv_port":27016,"stv_name":"Uncletopia | Los Angeles | 1 | All Maps | STV","players":[{"user_id":394,"name":"framp down","steam_id":76561198006316527,"connected_time":3813000000000,"state":"active","ping":62},{"user_id":404,"name":"Scoops M'Gooch","steam_id":76561198048423812,"connected_time":2721000000000,"state":"active","ping":62},{"user_id":420,"name":"Walla","steam_id":76561198103379757,"connected_time":1740000000000,"state":"active","ping":91},{"user_id":422,"name":"Halo_Delta","steam_id":76561198148309582,"connected_time":1687000000000,"state":"active","ping":59},{"user_id":434,"name":"[TKC]NZNinja99","steam_id":76561198079315815,"connected_time":36000000000,"state":"active","ping":45},{"user_id":414,"name":"c","steam_id":76561198881665250,"connected_time":2049000000000,"state":"active","ping":75},{"user_id":383,"name":"LesserAce","steam_id":76561198153258132,"connected_time":4413000000000,"state":"active","ping":100},{"user_id":398,"name":"Dudemanius","steam_id":76561198161108718,"connected_time":3342000000000,"state":"active","ping":65},{"user_id":425,"name":"CheeseCake488","steam_id":76561199407617942,"connected_time":1616000000000,"state":"active","ping":83},{"user_id":384,"name":"roach","steam_id":76561198354811369,"connected_time":4383000000000,"state":"active","ping":52},{"user_id":409,"name":"exa*✩‧₊˚","steam_id":76561198044511912,"connected_time":2116000000000,"state":"active","ping":45},{"user_id":359,"name":"[ØWQJØ]chubacaalatake","steam_id":76561198136201697,"connected_time":6684000000000,"state":"active","ping":90},{"user_id":401,"name":"BrowniesCake","steam_id":76561198164081149,"connected_time":3259000000000,"state":"active","ping":56},{"user_id":433,"name":"Shim","steam_id":76561198043913557,"connected_time":305000000000,"state":"active","ping":45},{"user_id":426,"name":"Beef Wellington","steam_id":76561197995635241,"connected_time":1568000000000,"state":"active","ping":177},{"user_id":421,"name":"Milk T34","steam_id":76561198116115227,"connected_time":1739000000000,"state":"active","ping":99},{"user_id":430,"name":"Loogus","steam_id":76561198811561721,"connected_time":1056000000000,"state":"active","ping":47},{"user_id":429,"name":"Seshreb","steam_id":76561198846614634,"connected_time":1206000000000,"state":"active","ping":61},{"user_id":431,"name":"altpuppy","steam_id":76561198325643231,"connected_time":586000000000,"state":"active","ping":45},{"user_id":406,"name":"HOG RIDER","steam_id":76561198298589502,"connected_time":2607000000000,"state":"active","ping":55},{"user_id":428,"name":"Magik","steam_id":76561198099726660,"connected_time":1505000000000,"state":"active","ping":60},{"user_id":416,"name":"PirateJet","steam_id":76561198050858744,"connected_time":2032000000000,"state":"active","ping":56},{"user_id":417,"name":"MistakesWereMade","steam_id":76561199059220481,"connected_time":2025000000000,"state":"active","ping":55},{"user_id":419,"name":"Irony is pretty cringy","steam_id":76561198120391460,"connected_time":1914000000000,"state":"active","ping":46}]},{"server_id":112,"name":"Uncletopia | Los Angeles | 2 | All Maps","name_short":"lax-2","host":"lax-1.us.uncletopia.com","port":27025,"enabled":true,"region":"us-west","cc":"us","latitude":33.94279,"longitude":-118.41004,"reserved":0,"last_update":"0001-01-01T00:00:00Z","name_a2s":"Uncletopia | Los Angeles | 2 | All Maps","protocol":17,"map":"cp_powerhouse","folder":"tf","game":"Team Fortress","app_id":440,"player_count":19,"max_players":24,"Bots":0,"server_type":"Dedicated","server_os":"Linux","password":true,"vac":true,"version":"7961495","steam_id":85568392924469992,"keywords":["cp","nocrits","nodmgspread","uncletopia"],"game_id":440,"stv_port":27026,"stv_name":"Uncletopia | Los Angeles | 2 | All Maps | STV","players":[{"user_id":446,"name":"medium Mike","steam_id":76561198111645213,"connected_time":1431000000000,"state":"active","ping":53},{"user_id":452,"name":"DOPEam1ne","steam_id":76561198112204774,"connected_time":809000000000,"state":"active","ping":50},{"user_id":448,"name":"› We Are You.j2","steam_id":76561197995242200,"connected_time":1009000000000,"state":"active","ping":55},{"user_id":431,"name":"Atrix","steam_id":76561198084930312,"connected_time":3218000000000,"state":"active","ping":45},{"user_id":450,"name":"Whisper","steam_id":76561198086021985,"connected_time":912000000000,"state":"active","ping":60},{"user_id":466,"name":"mintsmatchamocha","steam_id":76561198420094402,"connected_time":124000000000,"state":"active","ping":38},{"user_id":454,"name":"Frank Accardi","steam_id":76561198017275707,"connected_time":684000000000,"state":"active","ping":66},{"user_id":444,"name":"BitPieStudios","steam_id":76561198059216393,"connected_time":2122000000000,"state":"active","ping":56},{"user_id":455,"name":"BB0P","steam_id":76561198048165348,"connected_time":593000000000,"state":"active","ping":37},{"user_id":407,"name":"Antzen","steam_id":76561198041343470,"connected_time":5175000000000,"state":"active","ping":62},{"user_id":436,"name":"Space360","steam_id":76561198106743284,"connected_time":3049000000000,"state":"active","ping":78},{"user_id":460,"name":"giga meo","steam_id":76561199480436391,"connected_time":310000000000,"state":"active","ping":112},{"user_id":458,"name":"A Shiny Meat Bicycle","steam_id":76561198358757709,"connected_time":415000000000,"state":"active","ping":116},{"user_id":461,"name":"Aphios","steam_id":76561198285100665,"connected_time":302000000000,"state":"active","ping":96},{"user_id":463,"name":"LeTonzy","steam_id":76561198005806699,"connected_time":213000000000,"state":"active","ping":61},{"user_id":465,"name":"Genius Meme","steam_id":76561198162911254,"connected_time":142000000000,"state":"active","ping":68},{"user_id":467,"name":"oil","steam_id":76561198099980149,"connected_time":99000000000,"state":"active","ping":45},{"user_id":468,"name":"KrylonHeretic","steam_id":76561198139811459,"connected_time":47000000000,"state":"active","ping":70},{"user_id":443,"name":"Mocha Josie","steam_id":76561198066452726,"connected_time":2142000000000,"state":"active","ping":65}]},{"server_id":324,"name":"Uncletopia | Los Angeles | 3 | All Maps","name_short":"lax-3","host":"lax-1.us.uncletopia.com","port":27035,"enabled":true,"region":"us-west","cc":"us","latitude":33.94279,"longitude":-118.41004,"reserved":0,"last_update":"0001-01-01T00:00:00Z","name_a2s":"Uncletopia | Los Angeles | 3 | All Maps","protocol":17,"map":"pl_swiftwater_final1","folder":"tf","game":"Team Fortress","app_id":440,"player_count":0,"max_players":24,"Bots":0,"server_type":"Dedicated","server_os":"Linux","password":true,"vac":true,"version":"7961495","steam_id":85568392924510198,"keywords":["nocrits","nodmgspread","payload","uncletopia"],"game_id":440,"stv_port":27036,"stv_name":"Uncletopia | Los Angeles | 3 | All Maps | STV","players":null},{"server_id":25,"name":"Uncletopia | Los Angeles | 4 | Stopwatch","name_short":"lax-4","host":"lax-1.us.uncletopia.com","port":27045,"enabled":true,"region":"us-west","cc":"us","latitude":33.94279,"longitude":-118.41004,"reserved":0,"last_update":"0001-01-01T00:00:00Z","name_a2s":"Uncletopia | Los Angeles | 4 | Stopwatch","protocol":17,"map":"koth_lakeside_final","folder":"tf","game":"Team Fortress","app_id":440,"player_count":0,"max_players":24,"Bots":0,"server_type":"Dedicated","server_os":"Linux","password":true,"vac":true,"version":"7961495","steam_id":85568392924510199,"keywords":["cp","nocrits","nodmgspread","uncletopia"],"game_id":440,"stv_port":27046,"stv_name":"Uncletopia | Los Angeles | 4 | Stopwatch | STV","players":null},{"server_id":11,"name":"Uncletopia | London | 1 | All Maps","name_short":"lon-1","host":"lon-1.uk.uncletopia.com","port":27015,"enabled":true,"region":"eu","cc":"gb","latitude":51.509865,"longitude":-0.118092,"reserved":0,"last_update":"0001-01-01T00:00:00Z","name_a2s":"Uncletopia | London | 1 | All Maps","protocol":17,"map":"koth_highpass","folder":"tf","game":"Team Fortress","app_id":440,"player_count":0,"max_players":24,"Bots":0,"server_type":"Dedicated","server_os":"Linux","password":true,"vac":true,"version":"7961495","steam_id":85568392924367362,"keywords":["cp","nocrits","nodmgspread","uncletopia"],"game_id":440,"stv_port":27016,"stv_name":"Uncletopia | London | 1 | All Maps | STV","players":null},{"server_id":114,"name":"Uncletopia | London | 2 | All Maps","name_short":"lon-2","host":"lon-1.uk.uncletopia.com","port":27025,"enabled":true,"region":"eu","cc":"gb","latitude":51.509865,"longitude":-0.118092,"reserved":0,"last_update":"0001-01-01T00:00:00Z","name_a2s":"Uncletopia | London | 2 | All Maps","protocol":17,"map":"koth_lakeside_final","folder":"tf","game":"Team Fortress","app_id":440,"player_count":0,"max_players":24,"Bots":0,"server_type":"Dedicated","server_os":"Linux","password":true,"vac":true,"version":"7961495","steam_id":85568392924470941,"keywords":["cp","nocrits","nodmgspread","uncletopia"],"game_id":440,"stv_port":27026,"stv_name":"Uncletopia | London | 2 | All Maps | STV","players":null},{"server_id":320,"name":"Uncletopia | London | 3 | All Maps","name_short":"lon-3","host":"lon-1.uk.uncletopia.com","port":27035,"enabled":true,"region":"eu","cc":"gb","latitude":51.509865,"longitude":-0.118092,"reserved":0,"last_update":"0001-01-01T00:00:00Z","name_a2s":"Uncletopia | London | 3 | All Maps","protocol":17,"map":"pl_thundermountain","folder":"tf","game":"Team Fortress","app_id":440,"player_count":22,"max_players":24,"Bots":0,"server_type":"Dedicated","server_os":"Linux","password":true,"vac":true,"version":"7961495","steam_id":85568392924510192,"keywords":["nocrits","nodmgspread","payload","uncletopia"],"game_id":440,"stv_port":27036,"stv_name":"Uncletopia | London | 3 | All Maps | STV","players":[{"user_id":40,"name":"Volvo 740 Turbo Wagon","steam_id":76561199027564726,"connected_time":706000000000,"state":"active","ping":44},{"user_id":33,"name":"Near","steam_id":76561198100694096,"connected_time":1078000000000,"state":"active","ping":158},{"user_id":34,"name":"demoman","steam_id":76561198046170435,"connected_time":1036000000000,"state":"active","ping":69},{"user_id":44,"name":"Pico","steam_id":76561198063552545,"connected_time":465000000000,"state":"active","ping":103},{"user_id":37,"name":"stoner","steam_id":76561199090607001,"connected_time":777000000000,"state":"active","ping":57},{"user_id":38,"name":"Mébh Óg MacTíre","steam_id":76561198346399624,"connected_time":773000000000,"state":"active","ping":73},{"user_id":39,"name":"melon man","steam_id":76561198834046987,"connected_time":764000000000,"state":"active","ping":115},{"user_id":16,"name":"perry the platypus","steam_id":76561199379159771,"connected_time":2155000000000,"state":"active","ping":149},{"user_id":12,"name":"319","steam_id":76561198443632133,"connected_time":2597000000000,"state":"active","ping":107},{"user_id":47,"name":"Núúb","steam_id":76561198111933414,"connected_time":351000000000,"state":"active","ping":75},{"user_id":41,"name":"Hippuloiden jongleeraaja","steam_id":76561198093458326,"connected_time":668000000000,"state":"active","ping":73},{"user_id":42,"name":"Nodoka","steam_id":76561197992138411,"connected_time":665000000000,"state":"active","ping":58},{"user_id":50,"name":"Rambi","steam_id":76561199058078505,"connected_time":215000000000,"state":"active","ping":164},{"user_id":46,"name":"Ganasti","steam_id":76561198382925185,"connected_time":376000000000,"state":"active","ping":93},{"user_id":23,"name":"Madokanon","steam_id":76561199392794183,"connected_time":1441000000000,"state":"active","ping":107},{"user_id":48,"name":"TSUTSUMARETE","steam_id":76561198325061394,"connected_time":326000000000,"state":"active","ping":76},{"user_id":51,"name":"Malorn Aetherius","steam_id":76561198068257989,"connected_time":138000000000,"state":"active","ping":48},{"user_id":56,"name":"Heinrich","steam_id":76561198063897745,"connected_time":3000000000,"state":"spawning","ping":65},{"user_id":28,"name":"FNF","steam_id":76561199151422826,"connected_time":1366000000000,"state":"active","ping":117},{"user_id":53,"name":"ybot23","steam_id":76561199142521512,"connected_time":107000000000,"state":"active","ping":38},{"user_id":30,"name":"H3O","steam_id":76561198274433723,"connected_time":1342000000000,"state":"active","ping":61},{"user_id":54,"name":"꒰ ˶• ༝ •˶꒱","steam_id":76561198054474684,"connected_time":65000000000,"state":"active","ping":78}]},{"server_id":321,"name":"Uncletopia | London | 4 | All Maps","name_short":"lon-4","host":"lon-1.uk.uncletopia.com","port":27045,"enabled":true,"region":"eu","cc":"gb","latitude":51.509865,"longitude":-0.118092,"reserved":0,"last_update":"0001-01-01T00:00:00Z","name_a2s":"Uncletopia | London | 4 | All Maps","protocol":17,"map":"koth_cascade","folder":"tf","game":"Team Fortress","app_id":440,"player_count":0,"max_players":24,"Bots":0,"server_type":"Dedicated","server_os":"Linux","password":true,"vac":true,"version":"7961495","steam_id":85568392924510193,"keywords":["cp","nocrits","nodmgspread","uncletopia"],"game_id":440,"stv_port":27046,"stv_name":"Uncletopia | London | 4 | All Maps | STV","players":null},{"server_id":21,"name":"Uncletopia | London | 5 | All Maps","name_short":"lon-5","host":"lon-1.uk.uncletopia.com","port":27055,"enabled":true,"region":"eu","cc":"gb","latitude":51.509865,"longitude":-0.118092,"reserved":0,"last_update":"0001-01-01T00:00:00Z","name_a2s":"Uncletopia | London | 5 | All Maps","protocol":17,"map":"koth_highpass","folder":"tf","game":"Team Fortress","app_id":440,"player_count":2,"max_players":24,"Bots":0,"server_type":"Dedicated","server_os":"Linux","password":true,"vac":true,"version":"7961495","steam_id":85568392924742829,"keywords":["cp","nocrits","nodmgspread","uncletopia"],"game_id":440,"stv_port":27056,"stv_name":"Uncletopia | London | 5 | All Maps | STV","players":[{"user_id":93,"name":"kasper","steam_id":76561198164878143,"connected_time":1467000000000,"state":"active","ping":80},{"user_id":94,"name":"SaSSolino","steam_id":76561198011308018,"connected_time":1457000000000,"state":"active","ping":61}]},{"server_id":22,"name":"Uncletopia | London | 6 | All Maps","name_short":"lon-6","host":"lon-1.uk.uncletopia.com","port":27065,"enabled":true,"region":"eu","cc":"gb","latitude":51.509865,"longitude":-0.118092,"reserved":0,"last_update":"0001-01-01T00:00:00Z","name_a2s":"Uncletopia | London | 6 | All Maps","protocol":17,"map":"plr_bananabay","folder":"tf","game":"Team Fortress","app_id":440,"player_count":10,"max_players":24,"Bots":0,"server_type":"Dedicated","server_os":"Linux","password":true,"vac":true,"version":"7961495","steam_id":85568392924742830,"keywords":["nocrits","nodmgspread","payload","uncletopia"],"game_id":440,"stv_port":27066,"stv_name":"Uncletopia | London | 6 | All Maps | STV","players":[{"user_id":3,"name":"some girl","steam_id":76561198890391967,"connected_time":1166000000000,"state":"active","ping":90},{"user_id":4,"name":"BoBunny McGlitter","steam_id":76561198057403817,"connected_time":1134000000000,"state":"active","ping":71},{"user_id":11,"name":"Mourning","steam_id":76561198156343940,"connected_time":1080000000000,"state":"active","ping":47},{"user_id":6,"name":"toomas2018(real)(official)","steam_id":76561199105796083,"connected_time":1129000000000,"state":"active","ping":81},{"user_id":7,"name":"Maks","steam_id":76561198315278876,"connected_time":1125000000000,"state":"active","ping":49},{"user_id":18,"name":"cock","steam_id":76561198307522022,"connected_time":177000000000,"state":"active","ping":45},{"user_id":10,"name":"lagzer","steam_id":76561198029295449,"connected_time":1086000000000,"state":"active","ping":83},{"user_id":12,"name":"carl","steam_id":76561198055827003,"connected_time":1023000000000,"state":"active","ping":66},{"user_id":13,"name":"Deemaské","steam_id":76561199225833593,"connected_time":800000000000,"state":"active","ping":49},{"user_id":14,"name":"menelica","steam_id":76561198249599984,"connected_time":772000000000,"state":"active","ping":75}]},{"server_id":40,"name":"Uncletopia | London | 7 | Stopwatch","name_short":"lon-7","host":"lon-1.uk.uncletopia.com","port":27075,"enabled":true,"region":"eu","cc":"gb","latitude":51.509865,"longitude":-0.118092,"reserved":0,"last_update":"0001-01-01T00:00:00Z","name_a2s":"Uncletopia | London | 7 | Stopwatch","protocol":17,"map":"koth_lakeside_final","folder":"tf","game":"Team Fortress","app_id":440,"player_count":0,"max_players":24,"Bots":0,"server_type":"Dedicated","server_os":"Linux","password":true,"vac":true,"version":"7961495","steam_id":85568392924964314,"keywords":["cp","nocrits","nodmgspread","uncletopia"],"game_id":440,"stv_port":27076,"stv_name":"Uncletopia | London | 7 | Stopwatch | STV","players":null},{"server_id":41,"name":"Uncletopia | London | 8 | Community","name_short":"lon-8","host":"lon-1.uk.uncletopia.com","port":27085,"enabled":true,"region":"eu","cc":"gb","latitude":51.509865,"longitude":-0.118092,"reserved":0,"last_update":"0001-01-01T00:00:00Z","name_a2s":"Uncletopia | London | 8 | Community","protocol":17,"map":"cp_snakewater_final1","folder":"tf","game":"Team Fortress","app_id":440,"player_count":0,"max_players":24,"Bots":0,"server_type":"Dedicated","server_os":"Linux","password":true,"vac":true,"version":"7961495","steam_id":85568392924964315,"keywords":["cp","nocrits","nodmgspread","uncletopia"],"game_id":440,"stv_port":27086,"stv_name":"Uncletopia | London | 8 | Community | STV","players":null},{"server_id":300,"name":"Uncletopia | Montréal | 1 | One Thousand Uncles","name_short":"mtl-1","host":"mtl-1.ca.uncletopia.com","port":27015,"enabled":true,"region":"us-east","cc":"ca","latitude":45.50889,"longitude":-73.56167,"reserved":0,"last_update":"0001-01-01T00:00:00Z","name_a2s":"","protocol":0,"map":"","folder":"","game":"","app_id":0,"player_count":0,"max_players":0,"Bots":0,"server_type":"","server_os":"","password":false,"vac":false,"version":"","steam_id":0,"keywords":null,"game_id":0,"stv_port":0,"stv_name":"","players":null},{"server_id":301,"name":"Uncletopia | Montréal | 2 | One Thousand Uncles","name_short":"mtl-2","host":"mtl-1.ca.uncletopia.com","port":27025,"enabled":true,"region":"us-east","cc":"ca","latitude":45.50889,"longitude":-73.56167,"reserved":0,"last_update":"0001-01-01T00:00:00Z","name_a2s":"","protocol":0,"map":"","folder":"","game":"","app_id":0,"player_count":5,"max_players":0,"Bots":0,"server_type":"","server_os":"","password":false,"vac":false,"version":"","steam_id":0,"keywords":null,"game_id":0,"stv_port":0,"stv_name":"","players":[{"user_id":139,"name":"MarcusDragon11","steam_id":76561198071836719,"connected_time":69000000000,"state":"active","ping":86},{"user_id":93,"name":"Gay Cake","steam_id":76561198004388831,"connected_time":4062000000000,"state":"active","ping":69},{"user_id":120,"name":"Kobbert","steam_id":76561198045040833,"connected_time":1810000000000,"state":"active","ping":60},{"user_id":99,"name":"CreateADebate","steam_id":76561198115760035,"connected_time":2797000000000,"state":"active","ping":70},{"user_id":101,"name":"Dj_Bear","steam_id":76561198149865187,"connected_time":2738000000000,"state":"active","ping":143}]},{"server_id":302,"name":"Uncletopia | Montréal | 3 | One Thousand Uncles","name_short":"mtl-3","host":"mtl-1.ca.uncletopia.com","port":27035,"enabled":true,"region":"us-east","cc":"ca","latitude":45.50889,"longitude":-73.56167,"reserved":0,"last_update":"0001-01-01T00:00:00Z","name_a2s":"","protocol":0,"map":"","folder":"","game":"","app_id":0,"player_count":0,"max_players":0,"Bots":0,"server_type":"","server_os":"","password":false,"vac":false,"version":"","steam_id":0,"keywords":null,"game_id":0,"stv_port":0,"stv_name":"","players":null},{"server_id":13,"name":"Uncletopia | New York City | 1 | All Maps","name_short":"nyc-1","host":"nyc-1.us.uncletopia.com","port":27015,"enabled":true,"region":"us-east","cc":"us","latitude":40.73061,"longitude":-73.93524,"reserved":0,"last_update":"0001-01-01T00:00:00Z","name_a2s":"Uncletopia | New York City | 1 | All Maps","protocol":17,"map":"cp_mountainlab","folder":"tf","game":"Team Fortress","app_id":440,"player_count":0,"max_players":24,"Bots":0,"server_type":"Dedicated","server_os":"Linux","password":true,"vac":true,"version":"7961495","steam_id":85568392924469993,"keywords":["cp","nocrits","nodmgspread","uncletopia"],"game_id":440,"stv_port":27016,"stv_name":"Uncletopia | New York City | 1 | All Maps | STV","players":null},{"server_id":14,"name":"Uncletopia | New York City | 2 | All Maps","name_short":"nyc-2","host":"nyc-1.us.uncletopia.com","port":27025,"enabled":true,"region":"us-east","cc":"us","latitude":40.73061,"longitude":-73.93524,"reserved":0,"last_update":"0001-01-01T00:00:00Z","name_a2s":"Uncletopia | New York City | 2 | All Maps","protocol":17,"map":"pl_snowycoast","folder":"tf","game":"Team Fortress","app_id":440,"player_count":12,"max_players":24,"Bots":0,"server_type":"Dedicated","server_os":"Linux","password":true,"vac":true,"version":"7961495","steam_id":85568392924469994,"keywords":["nocrits","nodmgspread","payload","uncletopia"],"game_id":440,"stv_port":27026,"stv_name":"Uncletopia | New York City | 2 | All Maps | STV","players":[{"user_id":358,"name":"Peppermint","steam_id":76561199200969139,"connected_time":1122000000000,"state":"active","ping":113},{"user_id":139,"name":"Bee_Pirate","steam_id":76561199000599111,"connected_time":21070000000000,"state":"active","ping":59},{"user_id":355,"name":"Bryguy","steam_id":76561198092096120,"connected_time":1546000000000,"state":"active","ping":61},{"user_id":356,"name":"Astrial","steam_id":76561198068145656,"connected_time":1517000000000,"state":"active","ping":67},{"user_id":359,"name":"Who Am I?","steam_id":76561198098141967,"connected_time":893000000000,"state":"active","ping":125},{"user_id":360,"name":"BlazingWaters","steam_id":76561198136322660,"connected_time":767000000000,"state":"active","ping":86},{"user_id":363,"name":"supersaiyanjew2003","steam_id":76561198046951853,"connected_time":364000000000,"state":"active","ping":106},{"user_id":342,"name":"Terror-Billy #SaveTF2","steam_id":76561198328141870,"connected_time":4028000000000,"state":"active","ping":68},{"user_id":362,"name":"Female Gamer","steam_id":76561199366482682,"connected_time":654000000000,"state":"active","ping":120},{"user_id":365,"name":"Breakaway","steam_id":76561198089308523,"connected_time":252000000000,"state":"active","ping":75},{"user_id":256,"name":"Frisciaman","steam_id":76561198274287443,"connected_time":10006000000000,"state":"active","ping":61},{"user_id":343,"name":"Virtual Zorua","steam_id":76561198196180302,"connected_time":3966000000000,"state":"active","ping":89}]},{"server_id":15,"name":"Uncletopia | New York City | 3 | Stopwatch","name_short":"nyc-3","host":"nyc-1.us.uncletopia.com","port":27035,"enabled":true,"region":"us-east","cc":"us","latitude":40.73061,"longitude":-73.93524,"reserved":0,"last_update":"0001-01-01T00:00:00Z","name_a2s":"Uncletopia | New York City | 3 | Stopwatch","protocol":17,"map":"koth_lakeside_final","folder":"tf","game":"Team Fortress","app_id":440,"player_count":0,"max_players":24,"Bots":0,"server_type":"Dedicated","server_os":"Linux","password":true,"vac":true,"version":"7961495","steam_id":85568392924742820,"keywords":["cp","nocrits","nodmgspread","uncletopia"],"game_id":440,"stv_port":27036,"stv_name":"Uncletopia | New York City | 3 | Stopwatch | STV","players":null},{"server_id":16,"name":"Uncletopia | New York City | 4 | Community","name_short":"nyc-4","host":"nyc-1.us.uncletopia.com","port":27045,"enabled":true,"region":"us-east","cc":"us","latitude":40.73061,"longitude":-73.93524,"reserved":0,"last_update":"0001-01-01T00:00:00Z","name_a2s":"Uncletopia | New York City | 4 | Community","protocol":17,"map":"workshop/cp_bruhstbowl_b6.ugc2878604990","folder":"tf","game":"Team Fortress","app_id":440,"player_count":0,"max_players":24,"Bots":0,"server_type":"Dedicated","server_os":"Linux","password":true,"vac":true,"version":"7961495","steam_id":85568392924742821,"keywords":["cp","nocrits","nodmgspread","uncletopia"],"game_id":440,"stv_port":27046,"stv_name":"Uncletopia | New York City | 4 | Community | STV","players":null},{"server_id":142,"name":"Uncletopia | São Paulo | 1 | All Maps","name_short":"sao-1","host":"sao-1.br.uncletopia.com","port":27015,"enabled":true,"region":"sa","cc":"br","latitude":-23.533773,"longitude":-46.62529,"reserved":0,"last_update":"0001-01-01T00:00:00Z","name_a2s":"Uncletopia | São Paulo | 1 | All Maps","protocol":17,"map":"koth_highpass","folder":"tf","game":"Team Fortress","app_id":440,"player_count":0,"max_players":24,"Bots":0,"server_type":"Dedicated","server_os":"Linux","password":true,"vac":true,"version":"7961495","steam_id":85568392924469996,"keywords":["cp","nocrits","nodmgspread","uncletopia"],"game_id":440,"stv_port":27016,"stv_name":"Uncletopia | São Paulo | 1 | All Maps | STV","players":null},{"server_id":143,"name":"Uncletopia | São Paulo | 2 | Community","name_short":"sao-2","host":"sao-2.br.uncletopia.com","port":27015,"enabled":true,"region":"sa","cc":"br","latitude":-23.533773,"longitude":-46.62529,"reserved":0,"last_update":"0001-01-01T00:00:00Z","name_a2s":"Uncletopia | São Paulo | 2 | Community","protocol":17,"map":"workshop/koth_kemptown_rc1.ugc767410655","folder":"tf","game":"Team Fortress","app_id":440,"player_count":0,"max_players":24,"Bots":0,"server_type":"Dedicated","server_os":"Linux","password":true,"vac":true,"version":"7961495","steam_id":85568392924485349,"keywords":["cp","nocrits","nodmgspread","uncletopia"],"game_id":440,"stv_port":27016,"stv_name":"Uncletopia | São Paulo | 2 | Community | STV","players":null},{"server_id":7,"name":"Uncletopia | Seattle | 1 | All Maps","name_short":"sea-1","host":"sea-1.us.uncletopia.com","port":27015,"enabled":true,"region":"us-west","cc":"us","latitude":47.608013,"longitude":-122.33517,"reserved":0,"last_update":"0001-01-01T00:00:00Z","name_a2s":"Uncletopia | Seattle | 1 | All Maps","protocol":17,"map":"pl_upward","folder":"tf","game":"Team Fortress","app_id":440,"player_count":24,"max_players":24,"Bots":0,"server_type":"Dedicated","server_os":"Linux","password":true,"vac":true,"version":"7961495","steam_id":85568392924469997,"keywords":["nocrits","nodmgspread","payload","uncletopia"],"game_id":440,"stv_port":27016,"stv_name":"Uncletopia | Seattle | 1 | All Maps | STV","players":[{"user_id":579,"name":"Lord Hater","steam_id":76561199158148782,"connected_time":9954000000000,"state":"active","ping":77},{"user_id":669,"name":"Chad McDonaldson","steam_id":76561198834350355,"connected_time":1690000000000,"state":"active","ping":63},{"user_id":587,"name":"Sweets","steam_id":76561198998446307,"connected_time":8827000000000,"state":"spawning","ping":64},{"user_id":635,"name":"itz_w1z","steam_id":76561198996791339,"connected_time":4468000000000,"state":"active","ping":46},{"user_id":566,"name":"Sniff","steam_id":76561198010270922,"connected_time":11303000000000,"state":"active","ping":57},{"user_id":654,"name":"Arsonist Goose (Phlog 2 Hales)","steam_id":76561198147441830,"connected_time":2045000000000,"state":"active","ping":76},{"user_id":674,"name":"Houdini Cache","steam_id":76561198045506970,"connected_time":748000000000,"state":"active","ping":32},{"user_id":662,"name":"the sneeze of 87","steam_id":76561198062451648,"connected_time":2002000000000,"state":"active","ping":93},{"user_id":640,"name":"high elo sexworker","steam_id":76561197980280272,"connected_time":3920000000000,"state":"active","ping":44},{"user_id":670,"name":"rushy :))","steam_id":76561198065825165,"connected_time":1643000000000,"state":"active","ping":151},{"user_id":675,"name":"Octopus","steam_id":76561198114639980,"connected_time":50000000000,"state":"active","ping":87},{"user_id":583,"name":"lasky","steam_id":76561198017030029,"connected_time":9827000000000,"state":"active","ping":112},{"user_id":544,"name":"NEBULA","steam_id":76561198086878595,"connected_time":12668000000000,"state":"active","ping":75},{"user_id":663,"name":"hyphy fungi","steam_id":76561198169755734,"connected_time":1885000000000,"state":"active","ping":65},{"user_id":652,"name":"lavender","steam_id":76561199069518286,"connected_time":2061000000000,"state":"active","ping":66},{"user_id":655,"name":"smeasly","steam_id":76561198028718812,"connected_time":2045000000000,"state":"active","ping":39},{"user_id":656,"name":"Toaster (Hamilton Beach)","steam_id":76561198039891934,"connected_time":2044000000000,"state":"active","ping":53},{"user_id":657,"name":"Karg","steam_id":76561198091387866,"connected_time":2044000000000,"state":"active","ping":61},{"user_id":666,"name":"Cheezbeargur","steam_id":76561198164702899,"connected_time":1815000000000,"state":"active","ping":69},{"user_id":634,"name":"PopcornBucketGames","steam_id":76561199089562026,"connected_time":4621000000000,"state":"active","ping":44},{"user_id":631,"name":"tr","steam_id":76561198046944222,"connected_time":4836000000000,"state":"active","ping":1495},{"user_id":672,"name":"raspy","steam_id":76561198027298961,"connected_time":1217000000000,"state":"active","ping":97},{"user_id":615,"name":"rat gets the cheese","steam_id":76561198031234032,"connected_time":5724000000000,"state":"active","ping":97},{"user_id":659,"name":"Daz","steam_id":76561198041431938,"connected_time":2043000000000,"state":"active","ping":51}]},{"server_id":119,"name":"Uncletopia | Seattle | 2 | All Maps","name_short":"sea-2","host":"sea-1.us.uncletopia.com","port":27025,"enabled":true,"region":"us-west","cc":"us","latitude":47.608013,"longitude":-122.33517,"reserved":0,"last_update":"0001-01-01T00:00:00Z","name_a2s":"Uncletopia | Seattle | 2 | All Maps","protocol":17,"map":"cp_snakewater_final1","folder":"tf","game":"Team Fortress","app_id":440,"player_count":19,"max_players":24,"Bots":0,"server_type":"Dedicated","server_os":"Linux","password":true,"vac":true,"version":"7961495","steam_id":85568392924469998,"keywords":["cp","nocrits","nodmgspread","uncletopia"],"game_id":440,"stv_port":27026,"stv_name":"Uncletopia | Seattle | 2 | All Maps | STV","players":[{"user_id":465,"name":"Grassman (Cc)","steam_id":76561198026488532,"connected_time":1488000000000,"state":"active","ping":57},{"user_id":490,"name":"pat","steam_id":76561198040595468,"connected_time":331000000000,"state":"active","ping":76},{"user_id":492,"name":"Cunt Force Trauma","steam_id":76561198086121413,"connected_time":3000000000,"state":"spawning","ping":107},{"user_id":483,"name":"Zesty Zucchini Ziti","steam_id":76561198092494136,"connected_time":667000000000,"state":"active","ping":106},{"user_id":491,"name":"the pizza is aggressive","steam_id":76561198057040611,"connected_time":68000000000,"state":"active","ping":84},{"user_id":460,"name":"Spicy Chicken","steam_id":76561198074209737,"connected_time":2111000000000,"state":"active","ping":90},{"user_id":466,"name":"Cave Dweller","steam_id":76561198374825685,"connected_time":1477000000000,"state":"active","ping":70},{"user_id":434,"name":"Muselk","steam_id":76561199289676387,"connected_time":4462000000000,"state":"active","ping":96},{"user_id":445,"name":"Ping","steam_id":76561199206514106,"connected_time":3644000000000,"state":"active","ping":105},{"user_id":467,"name":"Quickxdeathx02","steam_id":76561198396771470,"connected_time":1447000000000,"state":"active","ping":38},{"user_id":475,"name":"Captain Parker","steam_id":76561198882415101,"connected_time":1240000000000,"state":"active","ping":89},{"user_id":476,"name":"array","steam_id":76561198280409646,"connected_time":1112000000000,"state":"active","ping":72},{"user_id":488,"name":"piss gaming","steam_id":76561198002280184,"connected_time":416000000000,"state":"active","ping":45},{"user_id":477,"name":"mmmBoyo","steam_id":76561198821360261,"connected_time":1108000000000,"state":"active","ping":43},{"user_id":437,"name":"dodecadron","steam_id":76561198027397222,"connected_time":4381000000000,"state":"active","ping":66},{"user_id":480,"name":"Blanke","steam_id":76561198064100364,"connected_time":1087000000000,"state":"active","ping":101},{"user_id":425,"name":"Lambchop","steam_id":76561198043900363,"connected_time":5278000000000,"state":"active","ping":74},{"user_id":481,"name":"Ya_Boi_Clapitao","steam_id":76561198274969584,"connected_time":1075000000000,"state":"active","ping":78},{"user_id":394,"name":"SolarusD","steam_id":76561198029279861,"connected_time":8224000000000,"state":"active","ping":66}]},{"server_id":406,"name":"Uncletopia | Seattle | 3 | Stopwatch","name_short":"sea-3","host":"sea-1.us.uncletopia.com","port":27035,"enabled":true,"region":"us-west","cc":"us","latitude":47.608013,"longitude":-122.33517,"reserved":0,"last_update":"0001-01-01T00:00:00Z","name_a2s":"Uncletopia | Seattle | 3 | Stopwatch","protocol":17,"map":"cp_snakewater_final1","folder":"tf","game":"Team Fortress","app_id":440,"player_count":0,"max_players":24,"Bots":0,"server_type":"Dedicated","server_os":"Linux","password":true,"vac":true,"version":"7961495","steam_id":85568392924515217,"keywords":["cp","nocrits","nodmgspread","uncletopia"],"game_id":440,"stv_port":27036,"stv_name":"Uncletopia | Seattle | 3 | Stopwatch | STV","players":null},{"server_id":17,"name":"Uncletopia | San Francisco | 1 | All Maps","name_short":"sfo-1","host":"sfo-1.us.uncletopia.com","port":27015,"enabled":true,"region":"us-west","cc":"us","latitude":37.77397,"longitude":-122.4313,"reserved":0,"last_update":"0001-01-01T00:00:00Z","name_a2s":"Uncletopia | San Francisco | 1 | All Maps","protocol":17,"map":"cp_mountainlab","folder":"tf","game":"Team Fortress","app_id":440,"player_count":23,"max_players":24,"Bots":0,"server_type":"Dedicated","server_os":"Linux","password":true,"vac":true,"version":"7961495","steam_id":85568392924469999,"keywords":["cp","nocrits","nodmgspread","uncletopia"],"game_id":440,"stv_port":27016,"stv_name":"Uncletopia | San Francisco | 1 | All Maps | STV","players":[{"user_id":373,"name":"dgamefather™","steam_id":76561197993881955,"connected_time":2292000000000,"state":"active","ping":82},{"user_id":405,"name":"l u n a r .","steam_id":76561198075773796,"connected_time":411000000000,"state":"active","ping":57},{"user_id":364,"name":"Copy","steam_id":76561198025031590,"connected_time":2546000000000,"state":"active","ping":67},{"user_id":368,"name":"the pest","steam_id":76561198826298849,"connected_time":2407000000000,"state":"active","ping":126},{"user_id":346,"name":"owl","steam_id":76561198088403016,"connected_time":3459000000000,"state":"active","ping":153},{"user_id":314,"name":"IonicMist","steam_id":76561198047105563,"connected_time":5851000000000,"state":"active","ping":77},{"user_id":381,"name":"Hernandez$","steam_id":76561198019324588,"connected_time":1918000000000,"state":"active","ping":61},{"user_id":377,"name":"Ohio_Mann","steam_id":76561199033875108,"connected_time":2064000000000,"state":"active","ping":56},{"user_id":391,"name":"rmbl (fork eater)","steam_id":76561198150137369,"connected_time":1636000000000,"state":"active","ping":58},{"user_id":386,"name":"dunker","steam_id":76561198066114874,"connected_time":1796000000000,"state":"active","ping":83},{"user_id":365,"name":"mrthugpug1732","steam_id":76561198881200768,"connected_time":2455000000000,"state":"active","ping":69},{"user_id":388,"name":"C Sharp Minor","steam_id":76561199185191710,"connected_time":1759000000000,"state":"active","ping":122},{"user_id":366,"name":"Virus858","steam_id":76561199156084410,"connected_time":2448000000000,"state":"active","ping":125},{"user_id":397,"name":"Zero","steam_id":76561198179227078,"connected_time":1214000000000,"state":"active","ping":75},{"user_id":398,"name":"Auberon","steam_id":76561198097324300,"connected_time":1209000000000,"state":"active","ping":108},{"user_id":394,"name":"Smiley_R5 ringme","steam_id":76561198113083770,"connected_time":1400000000000,"state":"active","ping":106},{"user_id":395,"name":"jeej","steam_id":76561197996974400,"connected_time":1354000000000,"state":"active","ping":74},{"user_id":403,"name":"Spam The Alien","steam_id":76561199122290968,"connected_time":1032000000000,"state":"active","ping":66},{"user_id":406,"name":"TheBeepMann","steam_id":76561198156230733,"connected_time":85000000000,"state":"active","ping":54},{"user_id":389,"name":"serious","steam_id":76561198040671133,"connected_time":1729000000000,"state":"active","ping":103},{"user_id":401,"name":"Exo","steam_id":76561198067943883,"connected_time":1142000000000,"state":"active","ping":63},{"user_id":404,"name":"My_Movie.mp4","steam_id":76561198047002366,"connected_time":769000000000,"state":"active","ping":63},{"user_id":402,"name":"SanitysEdge","steam_id":76561198130732813,"connected_time":1138000000000,"state":"active","ping":54}]},{"server_id":18,"name":"Uncletopia | San Francisco | 2 | All Maps","name_short":"sfo-2","host":"sfo-1.us.uncletopia.com","port":27025,"enabled":true,"region":"us-west","cc":"us","latitude":37.77397,"longitude":-122.4313,"reserved":0,"last_update":"0001-01-01T00:00:00Z","name_a2s":"Uncletopia | San Francisco | 2 | All Maps","protocol":17,"map":"pl_swiftwater_final1","folder":"tf","game":"Team Fortress","app_id":440,"player_count":0,"max_players":24,"Bots":0,"server_type":"Dedicated","server_os":"Linux","password":true,"vac":true,"version":"7961495","steam_id":85568392924470000,"keywords":["nocrits","nodmgspread","payload","uncletopia"],"game_id":440,"stv_port":27026,"stv_name":"Uncletopia | San Francisco | 2 | All Maps | STV","players":null},{"server_id":19,"name":"Uncletopia | San Francisco | 3 | Stopwatch","name_short":"sfo-3","host":"sfo-1.us.uncletopia.com","port":27035,"enabled":true,"region":"us-west","cc":"us","latitude":37.77397,"longitude":-122.4313,"reserved":0,"last_update":"0001-01-01T00:00:00Z","name_a2s":"Uncletopia | San Francisco | 3 | Stopwatch","protocol":17,"map":"workshop/pl_vigil_rc10.ugc1266210012","folder":"tf","game":"Team Fortress","app_id":440,"player_count":0,"max_players":24,"Bots":0,"server_type":"Dedicated","server_os":"Linux","password":true,"vac":true,"version":"7961495","steam_id":85568392924742824,"keywords":["nocrits","nodmgspread","payload","uncletopia"],"game_id":440,"stv_port":27036,"stv_name":"Uncletopia | San Francisco | 3 | Stopwatch | STV","players":null},{"server_id":20,"name":"Uncletopia | San Francisco | 4 | Community","name_short":"sfo-4","host":"sfo-1.us.uncletopia.com","port":27045,"enabled":true,"region":"us-west","cc":"us","latitude":37.77397,"longitude":-122.4313,"reserved":0,"last_update":"0001-01-01T00:00:00Z","name_a2s":"Uncletopia | San Francisco | 4 | Community","protocol":17,"map":"workshop/cp_hazyfort_rc6.ugc1365963729","folder":"tf","game":"Team Fortress","app_id":440,"player_count":0,"max_players":24,"Bots":0,"server_type":"Dedicated","server_os":"Linux","password":true,"vac":true,"version":"7961495","steam_id":85568392924742826,"keywords":["cp","nocrits","nodmgspread","uncletopia"],"game_id":440,"stv_port":27046,"stv_name":"Uncletopia | San Francisco | 4 | Community | STV","players":null},{"server_id":141,"name":"Uncletopia | Sydney | 1 | All Maps","name_short":"syd-1","host":"syd-1.au.uncletopia.com","port":27015,"enabled":true,"region":"au","cc":"au","latitude":-33.865143,"longitude":151.2099,"reserved":0,"last_update":"0001-01-01T00:00:00Z","name_a2s":"Uncletopia | Sydney | 1 | All Maps","protocol":17,"map":"koth_viaduct","folder":"tf","game":"Team Fortress","app_id":440,"player_count":0,"max_players":24,"Bots":0,"server_type":"Dedicated","server_os":"Linux","password":true,"vac":true,"version":"7961495","steam_id":85568392924470001,"keywords":["cp","nocrits","nodmgspread","uncletopia"],"game_id":440,"stv_port":27016,"stv_name":"Uncletopia | Sydney | 1 | All Maps | STV","players":null},{"server_id":123,"name":"Uncletopia | Sydney | 2 | All Maps","name_short":"syd-2","host":"syd-1.au.uncletopia.com","port":27025,"enabled":true,"region":"au","cc":"au","latitude":-33.865143,"longitude":151.2099,"reserved":0,"last_update":"0001-01-01T00:00:00Z","name_a2s":"Uncletopia | Sydney | 2 | All Maps","protocol":17,"map":"koth_lakeside_final","folder":"tf","game":"Team Fortress","app_id":440,"player_count":1,"max_players":24,"Bots":0,"server_type":"Dedicated","server_os":"Linux","password":true,"vac":true,"version":"7961495","steam_id":85568392924470002,"keywords":["cp","nocrits","nodmgspread","uncletopia"],"game_id":440,"stv_port":27026,"stv_name":"Uncletopia | Sydney | 2 | All Maps | STV","players":[{"user_id":5,"name":"Reefo","steam_id":76561198161626796,"connected_time":67000000000,"state":"connecting","ping":0}]},{"server_id":395,"name":"Uncletopia | Sydney | 3 | All Maps","name_short":"syd-3","host":"syd-1.au.uncletopia.com","port":27035,"enabled":true,"region":"au","cc":"au","latitude":-33.865143,"longitude":151.2099,"reserved":0,"last_update":"0001-01-01T00:00:00Z","name_a2s":"Uncletopia | Sydney | 3 | All Maps","protocol":17,"map":"pl_borneo","folder":"tf","game":"Team Fortress","app_id":440,"player_count":0,"max_players":24,"Bots":0,"server_type":"Dedicated","server_os":"Linux","password":true,"vac":true,"version":"7961495","steam_id":85568392925194467,"keywords":["nocrits","nodmgspread","payload","uncletopia"],"game_id":440,"stv_port":27036,"stv_name":"Uncletopia | Sydney | 3 | All Maps | STV","players":null},{"server_id":396,"name":"Uncletopia | Sydney | 4 | All Maps","name_short":"syd-4","host":"syd-1.au.uncletopia.com","port":27045,"enabled":true,"region":"au","cc":"au","latitude":-33.865143,"longitude":151.2099,"reserved":0,"last_update":"0001-01-01T00:00:00Z","name_a2s":"Uncletopia | Sydney | 4 | All Maps","protocol":17,"map":"koth_highpass","folder":"tf","game":"Team Fortress","app_id":440,"player_count":0,"max_players":24,"Bots":0,"server_type":"Dedicated","server_os":"Linux","password":true,"vac":true,"version":"7961495","steam_id":85568392925397958,"keywords":["cp","nocrits","nodmgspread","uncletopia"],"game_id":440,"stv_port":27046,"stv_name":"Uncletopia | Sydney | 4 | All Maps | STV","players":null},{"server_id":58,"name":"Uncletopia | Sydney | 5 | Stopwatch","name_short":"syd-5","host":"syd-1.au.uncletopia.com","port":27055,"enabled":true,"region":"au","cc":"au","latitude":-33.865143,"longitude":151.2099,"reserved":0,"last_update":"0001-01-01T00:00:00Z","name_a2s":"Uncletopia | Sydney | 5 | Stopwatch","protocol":17,"map":"pl_frontier_final","folder":"tf","game":"Team Fortress","app_id":440,"player_count":0,"max_players":24,"Bots":0,"server_type":"Dedicated","server_os":"Linux","password":true,"vac":true,"version":"7961495","steam_id":85568392925397959,"keywords":["nocrits","nodmgspread","payload","uncletopia"],"game_id":440,"stv_port":27056,"stv_name":"Uncletopia | Sydney | 5 | Stopwatch | STV","players":null},{"server_id":59,"name":"Uncletopia | Sydney | 6 | Community","name_short":"syd-6","host":"syd-1.au.uncletopia.com","port":27065,"enabled":true,"region":"au","cc":"au","latitude":-33.865143,"longitude":151.2099,"reserved":0,"last_update":"0001-01-01T00:00:00Z","name_a2s":"Uncletopia | Sydney | 6 | Community","protocol":17,"map":"cp_sunshine","folder":"tf","game":"Team Fortress","app_id":440,"player_count":0,"max_players":24,"Bots":0,"server_type":"Dedicated","server_os":"Linux","password":true,"vac":true,"version":"7961495","steam_id":85568392925397960,"keywords":["cp","nocrits","nodmgspread","uncletopia"],"game_id":440,"stv_port":27066,"stv_name":"Uncletopia | Sydney | 6 | Community | STV","players":null},{"server_id":49,"name":"Uncletopia | Warsaw | 1 | One Thousand Uncles","name_short":"waw-1","host":"waw-1.pl.uncletopia.com","port":27015,"enabled":true,"region":"eu","cc":"pl","latitude":52.2297,"longitude":21.017532,"reserved":0,"last_update":"0001-01-01T00:00:00Z","name_a2s":"Uncletopia | Warsaw | 1 | One Thousand Uncles","protocol":17,"map":"pl_upward","folder":"tf","game":"Team Fortress","app_id":440,"player_count":0,"max_players":32,"Bots":0,"server_type":"Dedicated","server_os":"Linux","password":true,"vac":true,"version":"7961495","steam_id":85568392925397850,"keywords":["alltalk","danepve","increased_maxplayers","nocrits","norespawntime","payload","uncletopia"],"game_id":440,"stv_port":0,"stv_name":"","players":null},{"server_id":50,"name":"Uncletopia | Warsaw | 2 | One Thousand Uncles","name_short":"waw-2","host":"waw-1.pl.uncletopia.com","port":27025,"enabled":true,"region":"eu","cc":"pl","latitude":52.2297,"longitude":21.017532,"reserved":0,"last_update":"0001-01-01T00:00:00Z","name_a2s":"Uncletopia | Warsaw | 2 | One Thousand Uncles","protocol":17,"map":"pl_goldrush","folder":"tf","game":"Team Fortress","app_id":440,"player_count":0,"max_players":32,"Bots":0,"server_type":"Dedicated","server_os":"Linux","password":true,"vac":true,"version":"7961495","steam_id":85568392925397851,"keywords":["alltalk","danepve","increased_maxplayers","nocrits","norespawntime","payload","uncletopia"],"game_id":440,"stv_port":0,"stv_name":"","players":null},{"server_id":51,"name":"Uncletopia | Warsaw | 3 | All Maps","name_short":"waw-3","host":"waw-1.pl.uncletopia.com","port":27035,"enabled":true,"region":"eu","cc":"pl","latitude":52.2297,"longitude":21.017532,"reserved":0,"last_update":"0001-01-01T00:00:00Z","name_a2s":"Uncletopia | Warsaw | 3 | All Maps","protocol":17,"map":"plr_pipeline","folder":"tf","game":"Team Fortress","app_id":440,"player_count":0,"max_players":24,"Bots":0,"server_type":"Dedicated","server_os":"Linux","password":true,"vac":true,"version":"7961495","steam_id":85568392925397852,"keywords":["nocrits","nodmgspread","payload","uncletopia"],"game_id":440,"stv_port":27036,"stv_name":"Uncletopia | Warsaw | 3 | All Maps | STV","players":null},{"server_id":52,"name":"Uncletopia | Warsaw | 4 | All Maps","name_short":"waw-4","host":"waw-1.pl.uncletopia.com","port":27045,"enabled":true,"region":"eu","cc":"pl","latitude":52.2297,"longitude":21.017532,"reserved":0,"last_update":"0001-01-01T00:00:00Z","name_a2s":"Uncletopia | Warsaw | 4 | All Maps","protocol":17,"map":"cp_coldfront","folder":"tf","game":"Team Fortress","app_id":440,"player_count":0,"max_players":24,"Bots":0,"server_type":"Dedicated","server_os":"Linux","password":true,"vac":true,"version":"7961495","steam_id":85568392925397853,"keywords":["cp","nocrits","nodmgspread","uncletopia"],"game_id":440,"stv_port":27046,"stv_name":"Uncletopia | Warsaw | 4 | All Maps | STV","players":null},{"server_id":53,"name":"Uncletopia | Warsaw | 5 | Stopwatch","name_short":"waw-5","host":"waw-1.pl.uncletopia.com","port":27055,"enabled":true,"region":"eu","cc":"pl","latitude":52.2297,"longitude":21.017532,"reserved":0,"last_update":"0001-01-01T00:00:00Z","name_a2s":"Uncletopia | Warsaw | 5 | Stopwatch","protocol":17,"map":"workshop/koth_bagel_rc6.ugc2514036946","folder":"tf","game":"Team Fortress","app_id":440,"player_count":0,"max_players":24,"Bots":0,"server_type":"Dedicated","server_os":"Linux","password":true,"vac":true,"version":"7961495","steam_id":85568392925397854,"keywords":["cp","nocrits","nodmgspread","uncletopia"],"game_id":440,"stv_port":27056,"stv_name":"Uncletopia | Warsaw | 5 | Stopwatch | STV","players":null},{"server_id":54,"name":"Uncletopia | Warsaw | 6 | Community","name_short":"waw-6","host":"waw-1.pl.uncletopia.com","port":27065,"enabled":true,"region":"eu","cc":"pl","latitude":52.2297,"longitude":21.017532,"reserved":0,"last_update":"0001-01-01T00:00:00Z","name_a2s":"Uncletopia | Warsaw | 6 | Community","protocol":17,"map":"workshop/koth_synthetic_rc6a.ugc1549817316","folder":"tf","game":"Team Fortress","app_id":440,"player_count":0,"max_players":24,"Bots":0,"server_type":"Dedicated","server_os":"Linux","password":true,"vac":true,"version":"7961495","steam_id":85568392925397856,"keywords":["cp","nocrits","nodmgspread","uncletopia"],"game_id":440,"stv_port":27066,"stv_name":"Uncletopia | Warsaw | 6 | Community | STV","players":null}]}