{"status":true,"message":"","result":[{"server_id":9,"name":"Uncletopia | Atlanta | 1 | All Maps","name_short":"atl-1","host":"atl-1.us.uncletopia.com","port":27015,"enabled":true,"region":"us-east","cc":"us","latitude":33.753746,"longitude":-84.38633,"reserved":0,"last_update":"0001-01-01T00:00:00Z","name_a2s":"Uncletopia | Atlanta | 1 | All Maps","protocol":17,"map":"cp_process_final","folder":"tf","game":"Team Fortress","app_id":440,"player_count":0,"max_players":24,"Bots":0,"server_type":"Dedicated","server_os":"Linux","password":true,"vac":true,"version":"7757534","steam_id":85568392924469982,"keywords":["cp","nocrits","nodmgspread","uncletopia"],"game_id":440,"stv_port":27016,"stv_name":"Uncletopia | Atlanta | 1 | All Maps | STV","players":null},{"server_id":104,"name":"Uncletopia | Atlanta | 2 | All Maps","name_short":"atl-2","host":"atl-1.us.uncletopia.com","port":27025,"enabled":true,"region":"us-east","cc":"us","latitude":33.753746,"longitude":-84.38633,"reserved":0,"last_update":"0001-01-01T00:00:00Z","name_a2s":"Uncletopia | Atlanta | 2 | All Maps","protocol":17,"map":"pl_barnblitz","folder":"tf","game":"Team Fortress","app_id":440,"player_count":0,"max_players":24,"Bots":0,"server_type":"Dedicated","server_os":"Linux","password":true,"vac":true,"version":"7757534","steam_id":85568392924469983,"keywords":["nocrits","nodmgspread","payload","uncletopia"],"game_id":440,"stv_port":27026,"stv_name":"Uncletopia | Atlanta | 2 | All Maps | STV","players":null},{"server_id":400,"name":"Uncletopia | Atlanta | 3 | Community","name_short":"atl-3","host":"atl-1.us.uncletopia.com","port":27035,"enabled":true,"region":"us-east","cc":"us","latitude":33.753746,"longitude":-84.38633,"reserved":0,"last_update":"0001-01-01T00:00:00Z","name_a2s":"Uncletopia | Atlanta | 3 | Community","protocol":17,"map":"cp_snakewater_final1","folder":"tf","game":"Team Fortress","app_id":440,"player_count":0,"max_players":24,"Bots":0,"server_type":"Dedicated","server_os":"Linux","password":true,"vac":true,"version":"7757534","steam_id":85568392924515187,"keywords":["cp","nocrits","nodmgspread","uncletopia"],"game_id":440,"stv_port":27036,"stv_name":"Uncletopia | Atlanta | 3 | Community | STV","players":null},{"server_id":401,"name":"Uncletopia | Atlanta | 4 | No Payload","name_short":"atl-4","host":"atl-1.us.uncletopia.com","port":27045,"enabled":true,"region":"us-east","cc":"us","latitude":33.753746,"longitude":-84.38633,"reserved":0,"last_update":"0001-01-01T00:00:00Z","name_a2s":"","protocol":0,"map":"","folder":"","game":"","app_id":0,"player_count":0,"max_players":0,"Bots":0,"server_type":"","server_os":"","password":false,"vac":false,"version":"","steam_id":0,"keywords":null,"game_id":0,"stv_port":0,"stv_name":"","players":null},{"server_id":2,"name":"Uncletopia | Chicago | 1 | All Maps","name_short":"chi-1","host":"chi-1.us.uncletopia.com","port":27015,"enabled":true,"region":"us-central","cc":"us","latitude":41.881832,"longitude":-87.62318,"reserved":0,"last_update":"0001-01-01T00:00:00Z","name_a2s":"Uncletopia | Chicago | 1 | All Maps","protocol":17,"map":"cp_steel","folder":"tf","game":"Team Fortress","app_id":440,"player_count":0,"max_players":24,"Bots":0,"server_type":"Dedicated","server_os":"Linux","password":true,"vac":true,"version":"7757534","steam_id":85568392924469984,"keywords":["cp","nocrits","nodmgspread","uncletopia"],"game_id":440,"stv_port":27016,"stv_name":"Uncletopia | Chicago | 1 | All Maps | STV","players":null},{"server_id":106,"name":"Uncletopia | Chicago | 2 | All Maps","name_short":"chi-2","host":"chi-1.us.uncletopia.com","port":27025,"enabled":true,"region":"us-central","cc":"us","latitude":41.881832,"longitude":-87.62318,"reserved":0,"last_update":"0001-01-01T00:00:00Z","name_a2s":"Uncletopia | Chicago | 2 | All Maps","protocol":17,"map":"pl_pier","folder":"tf","game":"Team Fortress","app_id":440,"player_count":22,"max_players":24,"Bots":0,"server_type":"Dedicated","server_os":"Linux","password":true,"vac":true,"version":"7757534","steam_id":85568392924469985,"keywords":["nocrits","nodmgspread","payload","uncletopia"],"game_id":440,"stv_port":27026,"stv_name":"Uncletopia | Chicago | 2 | All Maps | STV","players":[{"user_id":1006,"name":".jpegged","steam_id":76561198120078454,"connected_time":1380000000000,"state":"active","ping":71},{"user_id":1012,"name":"Cosmic","steam_id":76561198103201211,"connected_time":1054000000000,"state":"active","ping":85},{"user_id":1026,"name":"Commie","steam_id":76561198149370115,"connected_time":213000000000,"state":"active","ping":44},{"user_id":1010,"name":"ZombieRaichu","steam_id":76561198173250571,"connected_time":1150000000000,"state":"active","ping":73},{"user_id":1031,"name":"Eden Hazard","steam_id":76561198089241053,"connected_time":83000000000,"state":"active","ping":70},{"user_id":1028,"name":"Slag","steam_id":76561198053839595,"connected_time":141000000000,"state":"active","ping":46},{"user_id":1014,"name":"Trauma Dog","steam_id":76561198354424446,"connected_time":1041000000000,"state":"active","ping":78},{"user_id":997,"name":"TomsM","steam_id":76561198295153503,"connected_time":1731000000000,"state":"active","ping":167},{"user_id":1015,"name":"Zackariah","steam_id":76561198269224342,"connected_time":966000000000,"state":"active","ping":65},{"user_id":998,"name":"RapidXenophage","steam_id":76561198175149973,"connected_time":1679000000000,"state":"active","ping":104},{"user_id":999,"name":"Federal Bureau of Control","steam_id":76561199187783723,"connected_time":1624000000000,"state":"active","ping":182},{"user_id":1016,"name":"Maxxycat","steam_id":76561198194062681,"connected_time":910000000000,"state":"active","ping":54},{"user_id":1029,"name":"Satan-2","steam_id":76561199231742764,"connected_time":120000000000,"state":"active","ping":67},{"user_id":1030,"name":"Bingus is WAM","steam_id":76561199131547722,"connected_time":101000000000,"state":"active","ping":161},{"user_id":955,"name":"Scum!","steam_id":76561198051805219,"connected_time":5497000000000,"state":"active","ping":51},{"user_id":1025,"name":"Stan","steam_id":76561199057962816,"connected_time":405000000000,"state":"active","ping":55},{"user_id":1032,"name":"pigswill","steam_id":76561197999081865,"connected_time":81000000000,"state":"active","ping":87},{"user_id":1022,"name":"Judy Hoppsâ„¢ Simp","steam_id":76561198029322539,"connected_time":581000000000,"state":"active","ping":101},{"user_id":1002,"name":"ihabitat","steam_id":76561198131425956,"connected_time":1575000000000,"state":"active","ping":61},{"user_id":972,"name":"Spike","steam_id":76561198141356571,"connected_time":3632000000000,"state":"active","ping":59},{"user_id":1023,"name":"kiracaroso","steam_id":76561198165859543,"connected_time":580000000000,"state":"active","ping":99},{"user_id":1024,"name":"WhiteRabbit","steam_id":76561198027579538,"connected_time":553000000000,"state":"active","ping":67}]},{"server_id":402,"name":"Uncletopia | Chicago | 3 | All Maps","name_short":"chi-3","host":"chi-1.us.uncletopia.com","port":27035,"enabled":true,"region":"us-central","cc":"us","latitude":41.881832,"longitude":-87.62318,"reserved":0,"last_update":"0001-01-01T00:00:00Z","name_a2s":"Uncletopia | Chicago | 3 | All Maps","protocol":17,"map":"koth_lakeside_final","folder":"tf","game":"Team Fortress","app_id":440,"player_count":0,"max_players":24,"Bots":0,"server_type":"Dedicated","server_os":"Linux","password":true,"vac":true,"version":"7757534","steam_id":85568392924515191,"keywords":["cp","nocrits","nodmgspread","uncletopia"],"game_id":440,"stv_port":27036,"stv_name":"Uncletopia | Chicago | 3 | All Maps | STV","players":null},{"server_id":403,"name":"Uncletopia | Chicago | 4 | All Maps","name_short":"chi-4","host":"chi-1.us.uncletopia.com","port":27045,"enabled":true,"region":"us-central","cc":"us","latitude":41.881832,"longitude":-87.62318,"reserved":0,"last_update":"0001-01-01T00:00:00Z","name_a2s":"Uncletopia | Chicago | 4 | All Maps","protocol":17,"map":"pl_frontier_final","folder":"tf","game":"Team Fortress","app_id":440,"player_count":0,"max_players":24,"Bots":0,"server_type":"Dedicated","server_os":"Linux","password":true,"vac":true,"version":"7757534","steam_id":85568392924515193,"keywords":["nocrits","nodmgspread","payload","uncletopia"],"game_id":440,"stv_port":27046,"stv_name":"Uncletopia | Chicago | 4 | All Maps | STV","players":null},{"server_id":36,"name":"Uncletopia | Chicago | 5 | All Maps","name_short":"chi-5","host":"chi-2.us.uncletopia.com","port":27015,"enabled":true,"region":"us-central","cc":"us","latitude":41.881832,"longitude":-87.62318,"reserved":0,"last_update":"0001-01-01T00:00:00Z","name_a2s":"Uncletopia | Chicago | 5 | All Maps","protocol":17,"map":"koth_lakeside_final","folder":"tf","game":"Team Fortress","app_id":440,"player_count":0,"max_players":24,"Bots":0,"server_type":"Dedicated","server_os":"Linux","password":true,"vac":true,"version":"7757534","steam_id":85568392924866362,"keywords":["cp","nocrits","nodmgspread","uncletopia"],"game_id":440,"stv_port":27016,"stv_name":"Uncletopia | Chicago | 5 | All Maps | STV","players":null},{"server_id":37,"name":"Uncletopia | Chicago | 6 | All Maps","name_short":"chi-6","host":"chi-2.us.uncletopia.com","port":27025,"enabled":true,"region":"us-central","cc":"us","latitude":41.881832,"longitude":-87.62318,"reserved":0,"last_update":"0001-01-01T00:00:00Z","name_a2s":"Uncletopia | Chicago | 6 | All Maps","protocol":17,"map":"koth_highpass","folder":"tf","game":"Team Fortress","app_id":440,"player_count":0,"max_players":24,"Bots":0,"server_type":"Dedicated","server_os":"Linux","password":true,"vac":true,"version":"7757534","steam_id":85568392924866363,"keywords":["cp","nocrits","nodmgspread","uncletopia"],"game_id":440,"stv_port":27026,"stv_name":"Uncletopia | Chicago | 6 | All Maps | STV","players":null},{"server_id":38,"name":"Uncletopia | Chicago | 7 | Stopwatch Beta","name_short":"chi-7","host":"chi-2.us.uncletopia.com","port":27035,"enabled":true,"region":"us-central","cc":"us","latitude":41.881832,"longitude":-87.62318,"reserved":0,"last_update":"0001-01-01T00:00:00Z","name_a2s":"Uncletopia | Chicago | 7 | Stopwatch Beta","protocol":17,"map":"workshop/koth_ashville_final.ugc2130459942","folder":"tf","game":"Team Fortress","app_id":440,"player_count":0,"max_players":24,"Bots":0,"server_type":"Dedicated","server_os":"Linux","password":true,"vac":true,"version":"7757534","steam_id":85568392924866364,"keywords":["cp","nocrits","nodmgspread","uncletopia"],"game_id":440,"stv_port":27036,"stv_name":"Uncletopia | Chicago | 7 | Stopwatch Beta | STV","players":null},{"server_id":39,"name":"Uncletopia | Chicago | 8 | Community","name_short":"chi-8","host":"chi-2.us.uncletopia.com","port":27045,"enabled":true,"region":"us-central","cc":"us","latitude":41.881832,"longitude":-87.62318,"reserved":0,"last_update":"0001-01-01T00:00:00Z","name_a2s":"Uncletopia | Chicago | 8 | Community","protocol":17,"map":"workshop/koth_ramjam_rc1.ugc459778887","folder":"tf","game":"Team Fortress","app_id":440,"player_count":0,"max_players":24,"Bots":0,"server_type":"Dedicated","server_os":"Linux","password":true,"vac":true,"version":"7757534","steam_id":85568392924866365,"keywords":["cp","nocrits","nodmgspread","uncletopia"],"game_id":440,"stv_port":27046,"stv_name":"Uncletopia | Chicago | 8 | Community | STV","players":null},{"server_id":8,"name":"Uncletopia | Dallas | 1 | All Maps","name_short":"dal-1","host":"dal-1.us.uncletopia.com","port":27015,"enabled":true,"region":"us-central","cc":"us","latitude":32.779167,"longitude":-96.80889,"reserved":0,"last_update":"0001-01-01T00:00:00Z","name_a2s":"Uncletopia | Dallas | 1 | All Maps","protocol":17,"map":"plr_pipeline","folder":"tf","game":"Team Fortress","app_id":440,"player_count":15,"max_players":24,"Bots":0,"server_type":"Dedicated","server_os":"Linux","password":true,"vac":true,"version":"7757534","steam_id":85568392924469986,"keywords":["nocrits","nodmgspread","payload","uncletopia"],"game_id":440,"stv_port":27016,"stv_name":"Uncletopia | Dallas | 1 | All Maps | STV","players":[{"user_id":918,"name":"larguu","steam_id":76561197994336210,"connected_time":3763000000000,"state":"active","ping":75},{"user_id":919,"name":"Yongle","steam_id":76561198068591156,"connected_time":3762000000000,"state":"active","ping":71},{"user_id":954,"name":"Spagghettip","steam_id":76561198121402547,"connected_time":801000000000,"state":"active","ping":85},{"user_id":928,"name":"Clumsy","steam_id":76561198056345245,"connected_time":2870000000000,"state":"active","ping":62},{"user_id":905,"name":"Soozy420","steam_id":76561198809074422,"connected_time":4614000000000,"state":"active","ping":74},{"user_id":929,"name":"Gravy","steam_id":76561198087726095,"connected_time":2866000000000,"state":"active","ping":72},{"user_id":899,"name":"Project_Counter","steam_id":76561198152786076,"connected_time":5082000000000,"state":"active","ping":48},{"user_id":915,"name":"cheers2x","steam_id":76561198366299848,"connected_time":3905000000000,"state":"active","ping":67},{"user_id":944,"name":"$lime Kâœ”NG zaddY","steam_id":76561198283687382,"connected_time":2211000000000,"state":"active","ping":78},{"user_id":953,"name":"timestew 1","steam_id":76561198367583372,"connected_time":998000000000,"state":"active","ping":84},{"user_id":945,"name":"Lesbillionaire","steam_id":76561198060118132,"connected_time":2185000000000,"state":"active","ping":81},{"user_id":848,"name":"brockonline","steam_id":76561199015537819,"connected_time":8437000000000,"state":"active","ping":72},{"user_id":946,"name":"Amigo de Videojuegos","steam_id":76561198125965363,"connected_time":2094000000000,"state":"active","ping":35},{"user_id":924,"name":"quiteabizarreone","steam_id":76561198407122862,"connected_time":3308000000000,"state":"active","ping":96},{"user_id":948,"name":"Cindereye","steam_id":76561198097959534,"connected_time":1997000000000,"state":"active","ping":76}]},{"server_id":108,"name":"Uncletopia | Dallas | 2 | All Maps","name_short":"dal-2","host":"dal-1.us.uncletopia.com","port":27025,"enabled":true,"region":"us-central","cc":"us","latitude":32.779167,"longitude":-96.80889,"reserved":0,"last_update":"0001-01-01T00:00:00Z","name_a2s":"Uncletopia | Dallas | 2 | All Maps","protocol":17,"map":"pl_badwater","folder":"tf","game":"Team Fortress","app_id":440,"player_count":22,"max_players":24,"Bots":0,"server_type":"Dedicated","server_os":"Linux","password":true,"vac":true,"version":"7757534","steam_id":85568392924469988,"keywords":["nocrits","nodmgspread","payload","uncletopia"],"game_id":440,"stv_port":27026,"stv_name":"Uncletopia | Dallas | 2 | All Maps | STV","players":[{"user_id":645,"name":"Fairy WeedMother","steam_id":76561198831382303,"connected_time":5452000000000,"state":"active","ping":45},{"user_id":666,"name":"Mufalito","steam_id":76561198951889482,"connected_time":4167000000000,"state":"active","ping":140},{"user_id":709,"name":"badboy6996","steam_id":76561197969386201,"connected_time":109000000000,"state":"active","ping":75},{"user_id":710,"name":"GOT DA STRAP ON ME #NOLESBO","steam_id":76561198144766439,"connected_time":99000000000,"state":"active","ping":80},{"user_id":701,"name":"Traitor Joes Grocery","steam_id":76561198010708247,"connected_time":1212000000000,"state":"active","ping":91},{"user_id":651,"name":"Dragonic42","steam_id":76561198381472517,"connected_time":5357000000000,"state":"active","ping":159},{"user_id":711,"name":"Hifumi Togo","steam_id":76561198074930636,"connected_time":72000000000,"state":"active","ping":64},{"user_id":537,"name":"zpalmtree","steam_id":76561198134307620,"connected_time":15164000000000,"state":"active","ping":91},{"user_id":682,"name":"sweaterfan","steam_id":76561199389567214,"connected_time":2690000000000,"state":"active","ping":69},{"user_id":708,"name":"gardener","steam_id":76561199032446839,"connected_time":400000000000,"state":"active","ping":109},{"user_id":702,"name":"O_x","steam_id":76561198289696924,"connected_time":1208000000000,"state":"active","ping":75},{"user_id":704,"name":"Ramix","steam_id":76561198120419206,"connected_time":919000000000,"state":"active","ping":35},{"user_id":699,"name":"Inattentive Sorcerer","steam_id":76561198062370413,"connected_time":1377000000000,"state":"active","ping":96},{"user_id":694,"name":"gb","steam_id":76561198115960063,"connected_time":2108000000000,"state":"active","ping":78},{"user_id":687,"name":"Faraday","steam_id":76561198089928357,"connected_time":2428000000000,"state":"active","ping":55},{"user_id":660,"name":"turtle","steam_id":76561198112673874,"connected_time":4921000000000,"state":"active","ping":89},{"user_id":680,"name":"Hornet","steam_id":76561198130369526,"connected_time":2778000000000,"state":"active","ping":72},{"user_id":692,"name":"TheFriendlyGamer","steam_id":76561198117941009,"connected_time":2158000000000,"state":"active","ping":65},{"user_id":642,"name":"funny weed dot com","steam_id":76561198843967834,"connected_time":5743000000000,"state":"active","ping":83},{"user_id":707,"name":"rice white","steam_id":76561198320732910,"connected_time":611000000000,"state":"active","ping":91},{"user_id":706,"name":"SneekiCheekiQbone","steam_id":76561198045077980,"connected_time":652000000000,"state":"active","ping":74},{"user_id":636,"name":"Big Man Lard","steam_id":76561198069074737,"connected_time":6635000000000,"state":"active","ping":83}]},{"server_id":5,"name":"Uncletopia | Frankfurt | 1 | All Maps","name_short":"frk-1","host":"frk-1.de.uncletopia.com","port":27015,"enabled":true,"region":"eu","cc":"de","latitude":50.110924,"longitude":8.682127,"reserved":0,"last_update":"0001-01-01T00:00:00Z","name_a2s":"Uncletopia | Frankfurt | 1 | All Maps","protocol":17,"map":"pl_upward","folder":"tf","game":"Team Fortress","app_id":440,"player_count":24,"max_players":24,"Bots":0,"server_type":"Dedicated","server_os":"Linux","password":true,"vac":true,"version":"7757534","steam_id":85568392924469989,"keywords":["nocrits","nodmgspread","payload","uncletopia"],"game_id":440,"stv_port":27016,"stv_name":"Uncletopia | Frankfurt | 1 | All Maps | STV","players":[{"user_id":58,"name":"Mechanical Mosquito","steam_id":76561198031573426,"connected_time":890000000000,"state":"active","ping":68},{"user_id":28,"name":"spajro","steam_id":76561198257383813,"connected_time":2450000000000,"state":"active","ping":45},{"user_id":42,"name":"Muslim Bale","steam_id":76561198160830606,"connected_time":1899000000000,"state":"active","ping":59},{"user_id":45,"name":"cof","steam_id":76561199128417805,"connected_time":1742000000000,"state":"active","ping":74},{"user_id":40,"name":"Devil","steam_id":76561198129721935,"connected_time":2009000000000,"state":"active","ping":85},{"user_id":61,"name":"luckyastroman","steam_id":76561199027500574,"connected_time":539000000000,"state":"active","ping":86},{"user_id":47,"name":"Ender az Endre Dragon","steam_id":76561198202235560,"connected_time":1393000000000,"state":"active","ping":88},{"user_id":32,"name":"Trimping Squire","steam_id":76561198367203640,"connected_time":2393000000000,"state":"active","ping":47},{"user_id":48,"name":"Rask","steam_id":76561198052934944,"connected_time":1387000000000,"state":"active","ping":95},{"user_id":55,"name":"Carrot","steam_id":76561198119340863,"connected_time":990000000000,"state":"active","ping":53},{"user_id":49,"name":"killer of noob, winner of game","steam_id":76561198190583242,"connected_time":1370000000000,"state":"active","ping":61},{"user_id":56,"name":"Nickel","steam_id":76561199037745941,"connected_time":942000000000,"state":"active","ping":129},{"user_id":60,"name":"Rose","steam_id":76561198043601838,"connected_time":738000000000,"state":"active","ping":60},{"user_id":21,"name":"ðŸ¥¶RV14ðŸ”¥","steam_id":76561199168204989,"connected_time":2750000000000,"state":"active","ping":89},{"user_id":59,"name":"leminsc8","steam_id":76561198825084995,"connected_time":825000000000,"state":"active","ping":43},{"user_id":29,"name":"sÃ¤kkijÃ¤rven polkka","steam_id":76561198148115584,"connected_time":2439000000000,"state":"active","ping":76},{"user_id":64,"name":"wakeupf1lthy","steam_id":76561199232442508,"connected_time":366000000000,"state":"active","ping":73},{"user_id":30,"name":"Overwatch Player","steam_id":76561198341520996,"connected_time":2434000000000,"state":"active","ping":182},{"user_id":31,"name":"davlevan","steam_id":76561198090848620,"connected_time":2429000000000,"state":"active","ping":85},{"user_id":53,"name":"playing while wearing crocs.","steam_id":76561198139404261,"connected_time":1127000000000,"state":"active","ping":59},{"user_id":51,"name":"ðŸƒ” Nugg1t(she/they)","steam_id":76561198065652251,"connected_time":1323000000000,"state":"active","ping":44},{"user_id":36,"name":"Dzan50","steam_id":76561198059758591,"connected_time":2361000000000,"state":"active","ping":106},{"user_id":52,"name":"axl#pizdaaim","steam_id":76561198991661832,"connected_time":1144000000000,"state":"active","ping":127},{"user_id":62,"name":"Stargazer","steam_id":76561199050069286,"connected_time":498000000000,"state":"active","ping":61}]},{"server_id":110,"name":"Uncletopia | Frankfurt | 2 | All Maps","name_short":"frk-2","host":"frk-1.de.uncletopia.com","port":27025,"enabled":true,"region":"eu","cc":"de","latitude":50.110924,"longitude":8.682127,"reserved":0,"last_update":"0001-01-01T00:00:00Z","name_a2s":"Uncletopia | Frankfurt | 2 | All Maps","protocol":17,"map":"pl_barnblitz","folder":"tf","game":"Team Fortress","app_id":440,"player_count":9,"max_players":24,"Bots":0,"server_type":"Dedicated","server_os":"Linux","password":true,"vac":true,"version":"7757534","steam_id":85568392924469990,"keywords":["nocrits","nodmgspread","payload","uncletopia"],"game_id":440,"stv_port":27026,"stv_name":"Uncletopia | Frankfurt | 2 | All Maps | STV","players":[{"user_id":5,"name":"Mr. Shadow | Folfie","steam_id":76561198037028507,"connected_time":222000000000,"state":"active","ping":52},{"user_id":6,"name":"dash.","steam_id":76561198084796149,"connected_time":164000000000,"state":"active","ping":49},{"user_id":7,"name":"Flying skyhigh","steam_id":76561198372971096,"connected_time":133000000000,"state":"active","ping":62},{"user_id":9,"name":"strideÎ”","steam_id":76561199007826093,"connected_time":106000000000,"state":"active","ping":76},{"user_id":10,"name":"the youngest trillionaire","steam_id":76561198078780040,"connected_time":80000000000,"state":"active","ping":55},{"user_id":11,"name":"Jonkheervanflep","steam_id":76561198006853101,"connected_time":52000000000,"state":"active","ping":74},{"user_id":12,"name":"The Daniella","steam_id":76561198023075547,"connected_time":49000000000,"state":"active","ping":67},{"user_id":13,"name":"(wm) Das Fleisch","steam_id":76561198001250715,"connected_time":48000000000,"state":"active","ping":54}]},{"server_id":308,"name":"Uncletopia | Frankfurt | 3 | All Maps","name_short":"frk-3","host":"frk-1.de.uncletopia.com","port":27035,"enabled":true,"region":"eu","cc":"de","latitude":50.110924,"longitude":8.682127,"reserved":0,"last_update":"0001-01-01T00:00:00Z","name_a2s":"Uncletopia | Frankfurt | 3 | All Maps","protocol":17,"map":"cp_process_final","folder":"tf","game":"Team Fortress","app_id":440,"player_count":0,"max_players":24,"Bots":0,"server_type":"Dedicated","server_os":"Linux","password":true,"vac":true,"version":"7757534","steam_id":85568392924504274,"keywords":["cp","nocrits","nodmgspread","uncletopia"],"game_id":440,"stv_port":27036,"stv_name":"Uncletopia | Frankfurt | 3 | All Maps | STV","players":null},{"server_id":309,"name":"Uncletopia | Frankfurt | 4 | All Maps","name_short":"frk-4","host":"frk-1.de.uncletopia.com","port":27045,"enabled":true,"region":"eu","cc":"de","latitude":50.110924,"longitude":8.682127,"reserved":0,"last_update":"0001-01-01T00:00:00Z","name_a2s":"Uncletopia | Frankfurt | 4 | All Maps","protocol":17,"map":"koth_viaduct","folder":"tf","game":"Team Fortress","app_id":440,"player_count":0,"max_players":24,"Bots":0,"server_type":"Dedicated","server_os":"Linux","password":true,"vac":true,"version":"7757534","steam_id":85568392924504275,"keywords":["cp","nocrits","nodmgspread","uncletopia"],"game_id":440,"stv_port":27046,"stv_name":"Uncletopia | Frankfurt | 4 | All Maps | STV","players":null},{"server_id":310,"name":"Uncletopia | Frankfurt | 5 | All Maps","name_short":"frk-5","host":"frk-1.de.uncletopia.com","port":27055,"enabled":true,"region":"eu","cc":"de","latitude":50.110924,"longitude":8.682127,"reserved":0,"last_update":"0001-01-01T00:00:00Z","name_a2s":"Uncletopia | Frankfurt | 5 | All Maps","protocol":17,"map":"koth_harvest_final","folder":"tf","game":"Team Fortress","app_id":440,"player_count":24,"max_players":24,"Bots":0,"server_type":"Dedicated","server_os":"Linux","password":true,"vac":true,"version":"7757534","steam_id":85568392924504277,"keywords":["cp","nocrits","nodmgspread","uncletopia"],"game_id":440,"stv_port":27056,"stv_name":"Uncletopia | Frankfurt | 5 | All Maps | STV","players":[{"user_id":107,"name":"Mad Cat Kivima","steam_id":76561198028959678,"connected_time":1392000000000,"state":"active","ping":99},{"user_id":72,"name":"spearfishNL","steam_id":76561199077022985,"connected_time":3379000000000,"state":"active","ping":60},{"user_id":85,"name":"Dakeyras","steam_id":76561198057069564,"connected_time":2364000000000,"state":"active","ping":105},{"user_id":133,"name":"Fus in Boots","steam_id":76561198053897722,"connected_time":74000000000,"state":"spawning","ping":109},{"user_id":110,"name":"WanPin","steam_id":76561198090835995,"connected_time":1241000000000,"state":"active","ping":72},{"user_id":93,"name":"go play project zomboid","steam_id":76561199397932924,"connected_time":2109000000000,"state":"active","ping":65},{"user_id":51,"name":"Fpaoullis","steam_id":76561198897866131,"connected_time":4754000000000,"state":"active","ping":100},{"user_id":127,"name":"FroLon","steam_id":76561198066613542,"connected_time":627000000000,"state":"active","ping":85},{"user_id":108,"name":"schweppestr","steam_id":76561198037485644,"connected_time":1381000000000,"state":"active","ping":34},{"user_id":65,"name":"Mottinen","steam_id":76561198223868928,"connected_time":3632000000000,"state":"active","ping":82},{"user_id":67,"name":"quaking in my jammies","steam_id":76561199117720299,"connected_time":3545000000000,"state":"active","ping":59},{"user_id":125,"name":"Rachugh","steam_id":76561199235852578,"connected_time":670000000000,"state":"active","ping":167},{"user_id":122,"name":"Youssef S Ahmed","steam_id":76561199435139103,"connected_time":749000000000,"state":"active","ping":109},{"user_id":99,"name":"milan","steam_id":76561198858509678,"connected_time":1883000000000,"state":"active","ping":68},{"user_id":126,"name":"MÎ›DZÎ£D","steam_id":76561198161016806,"connected_time":651000000000,"state":"active","ping":61},{"user_id":88,"name":"B.batt","steam_id":76561198998684199,"connected_time":2250000000000,"state":"active","ping":119},{"user_id":84,"name":"CodexJinora","steam_id":76561199058882441,"connected_time":2478000000000,"state":"active","ping":69},{"user_id":131,"name":"lambrusco di sorbara","steam_id":76561198066071855,"connected_time":547000000000,"state":"active","ping":60},{"user_id":129,"name":"Egor Pomidor","steam_id":76561199175688390,"connected_time":607000000000,"state":"active","ping":78},{"user_id":111,"name":"sAmasam","steam_id":76561198114953928,"connected_time":1226000000000,"state":"active","ping":60},{"user_id":114,"name":"Wir suchen dich!","steam_id":76561198307613521,"connected_time":1199000000000,"state":"active","ping":45},{"user_id":118,"name":"poo brother","steam_id":76561199368726811,"connected_time":1063000000000,"state":"active","ping":82},{"user_id":117,"name":"ja","steam_id":76561199228540618,"connected_time":1164000000000,"state":"active","ping":76},{"user_id":130,"name":"DarkFloy","steam_id":76561198070650206,"connected_time":606000000000,"state":"active","ping":82}]},{"server_id":311,"name":"Uncletopia | Frankfurt | 6 | All Maps","name_short":"frk-6","host":"frk-1.de.uncletopia.com","port":27065,"enabled":true,"region":"eu","cc":"de","latitude":50.110924,"longitude":8.682127,"reserved":0,"last_update":"0001-01-01T00:00:00Z","name_a2s":"Uncletopia | Frankfurt | 6 | All Maps","protocol":17,"map":"pl_frontier_final","folder":"tf","game":"Team Fortress","app_id":440,"player_count":2,"max_players":24,"Bots":0,"server_type":"Dedicated","server_os":"Linux","password":true,"vac":true,"version":"7757534","steam_id":85568392924504278,"keywords":["nocrits","nodmgspread","payload","uncletopia"],"game_id":440,"stv_port":27066,"stv_name":"Uncletopia | Frankfurt | 6 | All Maps | STV","players":[{"user_id":5,"name":"Truegr","steam_id":76561198811912339,"connected_time":147000000000,"state":"active","ping":54},{"user_id":6,"name":"fried","steam_id":76561198307522022,"connected_time":90000000000,"state":"active","ping":47}]},{"server_id":23,"name":"Uncletopia | Frankfurt | 7 | Stopwatch Beta","name_short":"frk-7","host":"frk-1.de.uncletopia.com","port":27075,"enabled":true,"region":"eu","cc":"de","latitude":50.110924,"longitude":8.682127,"reserved":0,"last_update":"0001-01-01T00:00:00Z","name_a2s":"Uncletopia | Frankfurt | 7 | Stopwatch Beta","protocol":17,"map":"cp_sunshine","folder":"tf","game":"Team Fortress","app_id":440,"player_count":0,"max_players":24,"Bots":0,"server_type":"Dedicated","server_os":"Linux","password":true,"vac":true,"version":"7757534","steam_id":85568392924742827,"keywords":["cp","nocrits","nodmgspread","uncletopia"],"game_id":440,"stv_port":27076,"stv_name":"Uncletopia | Frankfurt | 7 | Stopwatch Beta | STV","players":null},{"server_id":24,"name":"Uncletopia | Frankfurt | 8 | Community","name_short":"frk-8","host":"frk-1.de.uncletopia.com","port":27085,"enabled":true,"region":"eu","cc":"de","latitude":50.110924,"longitude":8.682127,"reserved":0,"last_update":"0001-01-01T00:00:00Z","name_a2s":"Uncletopia | Frankfurt | 8 | Community","protocol":17,"map":"koth_lakeside_final","folder":"tf","game":"Team Fortress","app_id":440,"player_count":0,"max_players":24,"Bots":0,"server_type":"Dedicated","server_os":"Linux","password":true,"vac":true,"version":"7757534","steam_id":85568392924742828,"keywords":["cp","nocrits","nodmgspread","uncletopia"],"game_id":440,"stv_port":27086,"stv_name":"Uncletopia | Frankfurt | 8 | Community | STV","players":null},{"server_id":202,"name":"Uncletopia | Hong Kong | 1 | All Maps","name_short":"hgk-1","host":"hgk-1.hk.uncletopia.com","port":27015,"enabled":true,"region":"asia","cc":"hk","latitude":22.302711,"longitude":114.177216,"reserved":0,"last_update":"0001-01-01T00:00:00Z","name_a2s":"Uncletopia | Hong Kong | 1 | All Maps","protocol":17,"map":"pl_enclosure_final","folder":"tf","game":"Team Fortress","app_id":440,"player_count":24,"max_players":24,"Bots":0,"server_type":"Dedicated","server_os":"Linux","password":true,"vac":true,"version":"7757534","steam_id":85568392924494504,"keywords":["nocrits","nodmgspread","payload","uncletopia"],"game_id":440,"stv_port":27016,"stv_name":"Uncletopia | Hong Kong | 1 | All Maps | STV","players":[{"user_id":212,"name":"i saved my fart for lunch","steam_id":76561199146847474,"connected_time":4374000000000,"state":"active","ping":58},{"user_id":214,"name":"tiden2000","steam_id":76561198092969425,"connected_time":4315000000000,"state":"active","ping":97},{"user_id":258,"name":"Xx_EpicTrickstabber_xX","steam_id":76561199024960087,"connected_time":41000000000,"state":"active","ping":58},{"user_id":251,"name":"hayonsteam","steam_id":76561199438952901,"connected_time":1114000000000,"state":"active","ping":51},{"user_id":254,"name":"\u003c\u003cDunce](:-p)-|---\u003c","steam_id":76561199190321580,"connected_time":117000000000,"state":"active","ping":67},{"user_id":256,"name":"xPhid","steam_id":76561199080808930,"connected_time":66000000000,"state":"active","ping":95},{"user_id":207,"name":"Cloud-Verse","steam_id":76561198194370973,"connected_time":5068000000000,"state":"active","ping":89},{"user_id":257,"name":"Lelouch","steam_id":76561198828840546,"connected_time":65000000000,"state":"active","ping":81},{"user_id":247,"name":"monke mode","steam_id":76561198992723983,"connected_time":1703000000000,"state":"active","ping":92},{"user_id":246,"name":"Taisho","steam_id":76561198334229197,"connected_time":1770000000000,"state":"active","ping":83},{"user_id":241,"name":"Ivy","steam_id":76561198400698408,"connected_time":1879000000000,"state":"spawning","ping":94},{"user_id":220,"name":"qballs","steam_id":76561198412329672,"connected_time":3648000000000,"state":"active","ping":96},{"user_id":179,"name":"Vortex Artemisio","steam_id":76561198833527091,"connected_time":7429000000000,"state":"active","ping":90},{"user_id":169,"name":"7853","steam_id":76561199390507975,"connected_time":8289000000000,"state":"active","ping":53},{"user_id":232,"name":"David Keithson","steam_id":76561199279393636,"connected_time":2513000000000,"state":"active","ping":79},{"user_id":239,"name":"Sheild swap leroy","steam_id":76561199137927625,"connected_time":2078000000000,"state":"active","ping":91},{"user_id":243,"name":"P","steam_id":76561198304514505,"connected_time":1861000000000,"state":"active","ping":67},{"user_id":249,"name":"ObscuroLucem","steam_id":76561198875037943,"connected_time":1685000000000,"state":"active","ping":85},{"user_id":252,"name":"Maria ghostcap.com","steam_id":76561198237613398,"connected_time":599000000000,"state":"active","ping":156},{"user_id":190,"name":"AmaiToxic","steam_id":76561199122491157,"connected_time":6117000000000,"state":"active","ping":121},{"user_id":227,"name":"ArcticDolphin","steam_id":76561198203626319,"connected_time":3121000000000,"state":"active","ping":123},{"user_id":144,"name":"screaming sniper","steam_id":76561199085568674,"connected_time":11775000000000,"state":"active","ping":70},{"user_id":176,"name":"brainless bozo","steam_id":76561198055553140,"connected_time":7440000000000,"state":"active","ping":75},{"user_id":244,"name":"mutwo","steam_id":76561198077043500,"connected_time":1857000000000,"state":"active","ping":80}]},{"server_id":1,"name":"Uncletopia | Los Angeles | 1 | All Maps","name_short":"lax-1","host":"lax-1.us.uncletopia.com","port":27015,"enabled":true,"region":"us-west","cc":"us","latitude":33.94279,"longitude":-118.41004,"reserved":0,"last_update":"0001-01-01T00:00:00Z","name_a2s":"Uncletopia | Los Angeles | 1 | All Maps","protocol":17,"map":"cp_altitude","folder":"tf","game":"Team Fortress","app_id":440,"player_count":0,"max_players":24,"Bots":0,"server_type":"Dedicated","server_os":"Linux","password":true,"vac":true,"version":"7757534","steam_id":85568392924469991,"keywords":["cp","nocrits","nodmgspread","uncletopia"],"game_id":440,"stv_port":27016,"stv_name":"Uncletopia | Los Angeles | 1 | All Maps | STV","players":null},{"server_id":112,"name":"Uncletopia | Los Angeles | 2 | All Maps","name_short":"lax-2","host":"lax-1.us.uncletopia.com","port":27025,"enabled":true,"region":"us-west","cc":"us","latitude":33.94279,"longitude":-118.41004,"reserved":0,"last_update":"0001-01-01T00:00:00Z","name_a2s":"Uncletopia | Los Angeles | 2 | All Maps","protocol":17,"map":"koth_cascade","folder":"tf","game":"Team Fortress","app_id":440,"player_count":8,"max_players":24,"Bots":0,"server_type":"Dedicated","server_os":"Linux","password":true,"vac":true,"version":"7757534","steam_id":85568392924469992,"keywords":["cp","nocrits","nodmgspread","uncletopia"],"game_id":440,"stv_port":27026,"stv_name":"Uncletopia | Los Angeles | 2 | All Maps | STV","players":[{"user_id":1006,"name":"paperclips","steam_id":76561198833984001,"connected_time":1029000000000,"state":"active","ping":47},{"user_id":919,"name":"Wacks","steam_id":76561198079476100,"connected_time":8223000000000,"state":"active","ping":57},{"user_id":1007,"name":"Junkmin","steam_id":76561198152251596,"connected_time":1022000000000,"state":"active","ping":38},{"user_id":930,"name":"ScoutBox","steam_id":76561198111539895,"connected_time":7254000000000,"state":"active","ping":44},{"user_id":1011,"name":"Joker's Skull","steam_id":76561199185320627,"connected_time":287000000000,"state":"active","ping":100},{"user_id":1010,"name":"Doctor X (Michiko Daemon)","steam_id":76561199106264424,"connected_time":602000000000,"state":"active","ping":104},{"user_id":1003,"name":"deokemi","steam_id":76561199480055194,"connected_time":1492000000000,"state":"active","ping":40},{"user_id":998,"name":"TicketWicket","steam_id":76561198999363763,"connected_time":2143000000000,"state":"active","ping":42}]},{"server_id":324,"name":"Uncletopia | Los Angeles | 3 | All Maps","name_short":"lax-3","host":"lax-1.us.uncletopia.com","port":27035,"enabled":true,"region":"us-west","cc":"us","latitude":33.94279,"longitude":-118.41004,"reserved":0,"last_update":"0001-01-01T00:00:00Z","name_a2s":"Uncletopia | Los Angeles | 3 | All Maps","protocol":17,"map":"cp_sunshine","folder":"tf","game":"Team Fortress","app_id":440,"player_count":24,"max_players":24,"Bots":0,"server_type":"Dedicated","server_os":"Linux","password":true,"vac":true,"version":"7757534","steam_id":85568392924510198,"keywords":["cp","nocrits","nodmgspread","uncletopia"],"game_id":440,"stv_port":27036,"stv_name":"Uncletopia | Los Angeles | 3 | All Maps | STV","players":[{"user_id":722,"name":"THE UNDERTAKER","steam_id":76561198089852954,"connected_time":1163000000000,"state":"active","ping":107},{"user_id":603,"name":"LX-24","steam_id":76561198016168993,"connected_time":10307000000000,"state":"active","ping":82},{"user_id":726,"name":"Spaceman","steam_id":76561198349305249,"connected_time":592000000000,"state":"active","ping":78},{"user_id":692,"name":"ChieF BEEF QueeF","steam_id":76561198078294539,"connected_time":3270000000000,"state":"active","ping":54},{"user_id":723,"name":"00","steam_id":76561198041700636,"connected_time":950000000000,"state":"active","ping":49},{"user_id":638,"name":"BlixyDragon","steam_id":76561198295422834,"connected_time":7245000000000,"state":"active","ping":153},{"user_id":607,"name":"agentredx05","steam_id":76561198324962084,"connected_time":9910000000000,"state":"active","ping":85},{"user_id":715,"name":"Spinomite","steam_id":76561198247491242,"connected_time":1719000000000,"state":"active","ping":96},{"user_id":705,"name":"SolarusD","steam_id":76561198029279861,"connected_time":2222000000000,"state":"active","ping":49},{"user_id":706,"name":"Jordan","steam_id":76561198076882299,"connected_time":2095000000000,"state":"active","ping":100},{"user_id":703,"name":"beep beep","steam_id":76561198149443710,"connected_time":2771000000000,"state":"active","ping":55},{"user_id":727,"name":"jimmyfortnite2014","steam_id":76561198987713830,"connected_time":572000000000,"state":"active","ping":155},{"user_id":719,"name":"twin","steam_id":76561198055626638,"connected_time":1377000000000,"state":"active","ping":143},{"user_id":687,"name":"â˜…â˜…thastephenâ˜…â˜…","steam_id":76561198080289775,"connected_time":4058000000000,"state":"active","ping":64},{"user_id":731,"name":"everyrockstar!","steam_id":76561198272094975,"connected_time":228000000000,"state":"active","ping":81},{"user_id":729,"name":"selvhat","steam_id":76561198114225509,"connected_time":451000000000,"state":"active","ping":48},{"user_id":720,"name":"KnightOfGames","steam_id":76561198080460659,"connected_time":1372000000000,"state":"active","ping":85},{"user_id":721,"name":"Tech Deck","steam_id":76561199070437675,"connected_time":1342000000000,"state":"active","ping":54},{"user_id":627,"name":"Gay Cake","steam_id":76561198004388831,"connected_time":7494000000000,"state":"active","ping":122},{"user_id":717,"name":"JKEMEISTR","steam_id":76561198082146326,"connected_time":1591000000000,"state":"active","ping":81},{"user_id":714,"name":"pho","steam_id":76561199034472374,"connected_time":1797000000000,"state":"active","ping":58},{"user_id":725,"name":"crypticCryptid","steam_id":76561198255703673,"connected_time":691000000000,"state":"active","ping":70},{"user_id":631,"name":"Agent Mania","steam_id":76561198029741272,"connected_time":7464000000000,"state":"active","ping":46},{"user_id":700,"name":"dunka","steam_id":76561198066114874,"connected_time":2922000000000,"state":"active","ping":87}]},{"server_id":25,"name":"Uncletopia | Los Angeles | 4 | Stopwatch Beta","name_short":"lax-4","host":"lax-1.us.uncletopia.com","port":27045,"enabled":true,"region":"us-west","cc":"us","latitude":33.94279,"longitude":-118.41004,"reserved":0,"last_update":"0001-01-01T00:00:00Z","name_a2s":"Uncletopia | Los Angeles | 4 | Stopwatch Beta","protocol":17,"map":"pl_swiftwater_final1","folder":"tf","game":"Team Fortress","app_id":440,"player_count":0,"max_players":24,"Bots":0,"server_type":"Dedicated","server_os":"Linux","password":true,"vac":true,"version":"7757534","steam_id":85568392924510199,"keywords":["nocrits","nodmgspread","payload","uncletopia"],"game_id":440,"stv_port":27046,"stv_name":"Uncletopia | Los Angeles | 4 | Stopwatch Beta | STV","players":null},{"server_id":11,"name":"Uncletopia | London | 1 | All Maps","name_short":"lon-1","host":"lon-1.uk.uncletopia.com","port":27015,"enabled":true,"region":"eu","cc":"gb","latitude":51.509865,"longitude":-0.118092,"reserved":0,"last_update":"0001-01-01T00:00:00Z","name_a2s":"Uncletopia | London | 1 | All Maps","protocol":17,"map":"pl_barnblitz","folder":"tf","game":"Team Fortress","app_id":440,"player_count":24,"max_players":24,"Bots":0,"server_type":"Dedicated","server_os":"Linux","password":true,"vac":true,"version":"7757534","steam_id":85568392924367362,"keywords":["nocrits","nodmgspread","payload","uncletopia"],"game_id":440,"stv_port":27016,"stv_name":"Uncletopia | London | 1 | All Maps | STV","players":[{"user_id":156,"name":"Oxer","steam_id":76561198055942412,"connected_time":594000000000,"state":"active","ping":81},{"user_id":152,"name":"Rin-Nakaret","steam_id":76561197971051188,"connected_time":1574000000000,"state":"active","ping":59},{"user_id":145,"name":"Cornelius Shacklebart","steam_id":76561198000735878,"connected_time":2356000000000,"state":"active","ping":59},{"user_id":133,"name":"Noah","steam_id":76561198866042884,"connected_time":2938000000000,"state":"active","ping":63},{"user_id":142,"name":"minitel","steam_id":76561198056336216,"connected_time":2543000000000,"state":"active","ping":46},{"user_id":151,"name":"Hooveyâ„¢","steam_id":76561198249061128,"connected_time":1591000000000,"state":"active","ping":75},{"user_id":147,"name":"Lessoz","steam_id":76561199211572036,"connected_time":2178000000000,"state":"active","ping":88},{"user_id":98,"name":"Cagan","steam_id":76561198988395793,"connected_time":4230000000000,"state":"active","ping":114},{"user_id":127,"name":"Hoff","steam_id":76561198138540938,"connected_time":3201000000000,"state":"active","ping":81},{"user_id":150,"name":"Le Nain","steam_id":76561198050638632,"connected_time":1723000000000,"state":"active","ping":69},{"user_id":68,"name":"Blob","steam_id":76561197971418993,"connected_time":6700000000000,"state":"active","ping":96},{"user_id":155,"name":"fat cÕ½nt","steam_id":76561198845550388,"connected_time":1142000000000,"state":"active","ping":109},{"user_id":139,"name":"Marchioly","steam_id":76561198335079215,"connected_time":2736000000000,"state":"active","ping":122},{"user_id":143,"name":"your stepsister","steam_id":76561198254030118,"connected_time":2525000000000,"state":"active","ping":53},{"user_id":137,"name":"Helon","steam_id":76561198050761682,"connected_time":2817000000000,"state":"active","ping":64},{"user_id":157,"name":"zaleek69","steam_id":76561198058877595,"connected_time":477000000000,"state":"active","ping":76},{"user_id":136,"name":"Wat Means?","steam_id":76561197966629582,"connected_time":2845000000000,"state":"active","ping":63},{"user_id":96,"name":"Kedy","steam_id":76561198308990457,"connected_time":4353000000000,"state":"active","ping":104},{"user_id":154,"name":"Jonten","steam_id":76561198012757253,"connected_time":1267000000000,"state":"active","ping":66},{"user_id":97,"name":"on1on (fried)","steam_id":76561197995304137,"connected_time":4341000000000,"state":"active","ping":71},{"user_id":146,"name":"Bego","steam_id":76561199093369711,"connected_time":2249000000000,"state":"active","ping":100},{"user_id":44,"name":"Sybille Sirky","steam_id":76561198082407725,"connected_time":8681000000000,"state":"active","ping":56},{"user_id":158,"name":"caribou","steam_id":76561198044916224,"connected_time":474000000000,"state":"active","ping":44},{"user_id":160,"name":"Vorge","steam_id":76561198411852459,"connected_time":118000000000,"state":"active","ping":136}]},{"server_id":114,"name":"Uncletopia | London | 2 | All Maps","name_short":"lon-2","host":"lon-1.uk.uncletopia.com","port":27025,"enabled":true,"region":"eu","cc":"gb","latitude":51.509865,"longitude":-0.118092,"reserved":0,"last_update":"0001-01-01T00:00:00Z","name_a2s":"Uncletopia | London | 2 | All Maps","protocol":17,"map":"koth_viaduct","folder":"tf","game":"Team Fortress","app_id":440,"player_count":0,"max_players":24,"Bots":0,"server_type":"Dedicated","server_os":"Linux","password":true,"vac":true,"version":"7757534","steam_id":85568392924470941,"keywords":["cp","nocrits","nodmgspread","uncletopia"],"game_id":440,"stv_port":27026,"stv_name":"Uncletopia | London | 2 | All Maps | STV","players":null},{"server_id":320,"name":"Uncletopia | London | 3 | All Maps","name_short":"lon-3","host":"lon-1.uk.uncletopia.com","port":27035,"enabled":true,"region":"eu","cc":"gb","latitude":51.509865,"longitude":-0.118092,"reserved":0,"last_update":"0001-01-01T00:00:00Z","name_a2s":"Uncletopia | London | 3 | All Maps","protocol":17,"map":"cp_dustbowl","folder":"tf","game":"Team Fortress","app_id":440,"player_count":0,"max_players":24,"Bots":0,"server_type":"Dedicated","server_os":"Linux","password":true,"vac":true,"version":"7757534","steam_id":85568392924510192,"keywords":["cp","nocrits","nodmgspread","uncletopia"],"game_id":440,"stv_port":27036,"stv_name":"Uncletopia | London | 3 | All Maps | STV","players":null},{"server_id":321,"name":"Uncletopia | London | 4 | All Maps","name_short":"lon-4","host":"lon-1.uk.uncletopia.com","port":27045,"enabled":true,"region":"eu","cc":"gb","latitude":51.509865,"longitude":-0.118092,"reserved":0,"last_update":"0001-01-01T00:00:00Z","name_a2s":"Uncletopia | London | 4 | All Maps","protocol":17,"map":"pl_upward","folder":"tf","game":"Team Fortress","app_id":440,"player_count":0,"max_players":24,"Bots":0,"server_type":"Dedicated","server_os":"Linux","password":true,"vac":true,"version":"7757534","steam_id":85568392924510193,"keywords":["nocrits","nodmgspread","payload","uncletopia"],"game_id":440,"stv_port":27046,"stv_name":"Uncletopia | London | 4 | All Maps | STV","players":null},{"server_id":21,"name":"Uncletopia | London | 5 | All Maps","name_short":"lon-5","host":"lon-1.uk.uncletopia.com","port":27055,"enabled":true,"region":"eu","cc":"gb","latitude":51.509865,"longitude":-0.118092,"reserved":0,"last_update":"0001-01-01T00:00:00Z","name_a2s":"Uncletopia | London | 5 | All Maps","protocol":17,"map":"koth_cascade","folder":"tf","game":"Team Fortress","app_id":440,"player_count":0,"max_players":24,"Bots":0,"server_type":"Dedicated","server_os":"Linux","password":true,"vac":true,"version":"7757534","steam_id":85568392924742829,"keywords":["cp","nocrits","nodmgspread","uncletopia"],"game_id":440,"stv_port":27056,"stv_name":"Uncletopia | London | 5 | All Maps | STV","players":null},{"server_id":22,"name":"Uncletopia | London | 6 | All Maps","name_short":"lon-6","host":"lon-1.uk.uncletopia.com","port":27065,"enabled":true,"region":"eu","cc":"gb","latitude":51.509865,"longitude":-0.118092,"reserved":0,"last_update":"0001-01-01T00:00:00Z","name_a2s":"Uncletopia | London | 6 | All Maps","protocol":17,"map":"cp_mountainlab","folder":"tf","game":"Team Fortress","app_id":440,"player_count":0,"max_players":24,"Bots":0,"server_type":"Dedicated","server_os":"Linux","password":true,"vac":true,"version":"7757534","steam_id":85568392924742830,"keywords":["cp","nocrits","nodmgspread","uncletopia"],"game_id":440,"stv_port":27066,"stv_name":"Uncletopia | London | 6 | All Maps | STV","players":null},{"server_id":40,"name":"Uncletopia | London | 7 | No Payload","name_short":"lon-7","host":"lon-1.uk.uncletopia.com","port":27075,"enabled":true,"region":"eu","cc":"gb","latitude":51.509865,"longitude":-0.118092,"reserved":0,"last_update":"0001-01-01T00:00:00Z","name_a2s":"Uncletopia | London | 7 | No Payload","protocol":17,"map":"pl_badwater","folder":"tf","game":"Team Fortress","app_id":440,"player_count":0,"max_players":24,"Bots":0,"server_type":"Dedicated","server_os":"Linux","password":true,"vac":true,"version":"7757534","steam_id":85568392924964314,"keywords":["nocrits","nodmgspread","payload","uncletopia"],"game_id":440,"stv_port":27076,"stv_name":"Uncletopia | London | 7 | No Payload | STV","players":null},{"server_id":41,"name":"Uncletopia | London | 8 | Community","name_short":"lon-8","host":"lon-1.uk.uncletopia.com","port":27085,"enabled":true,"region":"eu","cc":"gb","latitude":51.509865,"longitude":-0.118092,"reserved":0,"last_update":"0001-01-01T00:00:00Z","name_a2s":"Uncletopia | London | 8 | Community","protocol":17,"map":"workshop/koth_bagel_rc6.ugc2514036946","folder":"tf","game":"Team Fortress","app_id":440,"player_count":0,"max_players":24,"Bots":0,"server_type":"Dedicated","server_os":"Linux","password":true,"vac":true,"version":"7757534","steam_id":85568392924964315,"keywords":["cp","nocrits","nodmgspread","uncletopia"],"game_id":440,"stv_port":27086,"stv_name":"Uncletopia | London | 8 | Community | STV","players":null},{"server_id":300,"name":"Uncletopia | MontrÃ©al | 1 | All Maps","name_short":"mtl-1","host":"mtl-1.ca.uncletopia.com","port":27015,"enabled":true,"region":"us-east","cc":"ca","latitude":45.50889,"longitude":-73.56167,"reserved":0,"last_update":"0001-01-01T00:00:00Z","name_a2s":"Uncletopia | MontrÃ©al | 1 | All Maps","protocol":17,"map":"cp_sunshine","folder":"tf","game":"Team Fortress","app_id":440,"player_count":0,"max_players":24,"Bots":0,"server_type":"Dedicated","server_os":"Linux","password":true,"vac":true,"version":"7757534","steam_id":85568392924500087,"keywords":["cp","nocrits","nodmgspread","uncletopia"],"game_id":440,"stv_port":27016,"stv_name":"Uncletopia | MontrÃ©al | 1 | All Maps | STV","players":null},{"server_id":301,"name":"Uncletopia | MontrÃ©al | 2 | All Maps","name_short":"mtl-2","host":"mtl-1.ca.uncletopia.com","port":27025,"enabled":true,"region":"us-east","cc":"ca","latitude":45.50889,"longitude":-73.56167,"reserved":0,"last_update":"0001-01-01T00:00:00Z","name_a2s":"Uncletopia | MontrÃ©al | 2 | All Maps","protocol":17,"map":"pl_snowycoast","folder":"tf","game":"Team Fortress","app_id":440,"player_count":0,"max_players":24,"Bots":0,"server_type":"Dedicated","server_os":"Linux","password":true,"vac":true,"version":"7757534","steam_id":85568392924500088,"keywords":["nocrits","nodmgspread","payload","uncletopia"],"game_id":440,"stv_port":27026,"stv_name":"Uncletopia | MontrÃ©al | 2 | All Maps | STV","players":null},{"server_id":302,"name":"Uncletopia | MontrÃ©al | 3 | All Maps","name_short":"mtl-3","host":"mtl-1.ca.uncletopia.com","port":27035,"enabled":true,"region":"us-east","cc":"ca","latitude":45.50889,"longitude":-73.56167,"reserved":0,"last_update":"0001-01-01T00:00:00Z","name_a2s":"Uncletopia | MontrÃ©al | 3 | All Maps","protocol":17,"map":"koth_cascade","folder":"tf","game":"Team Fortress","app_id":440,"player_count":0,"max_players":24,"Bots":0,"server_type":"Dedicated","server_os":"Linux","password":true,"vac":true,"version":"7757534","steam_id":85568392924500089,"keywords":["cp","nocrits","nodmgspread","uncletopia"],"game_id":440,"stv_port":27036,"stv_name":"Uncletopia | MontrÃ©al | 3 | All Maps | STV","players":null},{"server_id":303,"name":"Uncletopia | MontrÃ©al | 4 | No Payload","name_short":"mtl-4","host":"mtl-1.ca.uncletopia.com","port":27045,"enabled":true,"region":"us-east","cc":"ca","latitude":45.50889,"longitude":-73.56167,"reserved":0,"last_update":"0001-01-01T00:00:00Z","name_a2s":"Uncletopia | MontrÃ©al | 4 | No Payload","protocol":17,"map":"koth_suijin","folder":"tf","game":"Team Fortress","app_id":440,"player_count":0,"max_players":24,"Bots":0,"server_type":"Dedicated","server_os":"Linux","password":true,"vac":true,"version":"7757534","steam_id":85568392924500090,"keywords":["cp","nocrits","nodmgspread","uncletopia"],"game_id":440,"stv_port":27046,"stv_name":"Uncletopia | MontrÃ©al | 4 | No Payload | STV","players":null},{"server_id":13,"name":"Uncletopia | New York City | 1 | All Maps","name_short":"nyc-1","host":"nyc-1.us.uncletopia.com","port":27015,"enabled":true,"region":"us-east","cc":"us","latitude":40.73061,"longitude":-73.93524,"reserved":0,"last_update":"0001-01-01T00:00:00Z","name_a2s":"Uncletopia | New York City | 1 | All Maps","protocol":17,"map":"pl_barnblitz","folder":"tf","game":"Team Fortress","app_id":440,"player_count":0,"max_players":24,"Bots":0,"server_type":"Dedicated","server_os":"Linux","password":true,"vac":true,"version":"7757534","steam_id":85568392924469993,"keywords":["nocrits","nodmgspread","payload","uncletopia"],"game_id":440,"stv_port":27016,"stv_name":"Uncletopia | New York City | 1 | All Maps | STV","players":null},{"server_id":14,"name":"Uncletopia | New York City | 2 | All Maps","name_short":"nyc-2","host":"nyc-1.us.uncletopia.com","port":27025,"enabled":true,"region":"us-east","cc":"us","latitude":40.73061,"longitude":-73.93524,"reserved":0,"last_update":"0001-01-01T00:00:00Z","name_a2s":"Uncletopia | New York City | 2 | All Maps","protocol":17,"map":"koth_highpass","folder":"tf","game":"Team Fortress","app_id":440,"player_count":0,"max_players":24,"Bots":0,"server_type":"Dedicated","server_os":"Linux","password":true,"vac":true,"version":"7757534","steam_id":85568392924469994,"keywords":["cp","nocrits","nodmgspread","uncletopia"],"game_id":440,"stv_port":27026,"stv_name":"Uncletopia | New York City | 2 | All Maps | STV","players":null},{"server_id":15,"name":"Uncletopia | New York City | 3 | Stopwatch Beta","name_short":"nyc-3","host":"nyc-1.us.uncletopia.com","port":27035,"enabled":true,"region":"us-east","cc":"us","latitude":40.73061,"longitude":-73.93524,"reserved":0,"last_update":"0001-01-01T00:00:00Z","name_a2s":"Uncletopia | New York City | 3 | Stopwatch Beta","protocol":17,"map":"workshop/cp_reckoner_rc6.ugc674719999","folder":"tf","game":"Team Fortress","app_id":440,"player_count":0,"max_players":24,"Bots":0,"server_type":"Dedicated","server_os":"Linux","password":true,"vac":true,"version":"7757534","steam_id":85568392924742820,"keywords":["cp","nocrits","nodmgspread","uncletopia"],"game_id":440,"stv_port":27036,"stv_name":"Uncletopia | New York City | 3 | Stopwatch Beta | STV","players":null},{"server_id":16,"name":"Uncletopia | New York City | 4 | Community","name_short":"nyc-4","host":"nyc-1.us.uncletopia.com","port":27045,"enabled":true,"region":"us-east","cc":"us","latitude":40.73061,"longitude":-73.93524,"reserved":0,"last_update":"0001-01-01T00:00:00Z","name_a2s":"Uncletopia | New York City | 4 | Community","protocol":17,"map":"workshop/cp_alloy_rc3.ugc592805587","folder":"tf","game":"Team Fortress","app_id":440,"player_count":0,"max_players":24,"Bots":0,"server_type":"Dedicated","server_os":"Linux","password":true,"vac":true,"version":"7757534","steam_id":85568392924742821,"keywords":["cp","nocrits","nodmgspread","uncletopia"],"game_id":440,"stv_port":27046,"stv_name":"Uncletopia | New York City | 4 | Community | STV","players":null},{"server_id":142,"name":"Uncletopia | SÃ£o Paulo | 1 | All Maps","name_short":"sao-1","host":"sao-1.br.uncletopia.com","port":27015,"enabled":true,"region":"sa","cc":"br","latitude":-23.533773,"longitude":-46.62529,"reserved":0,"last_update":"0001-01-01T00:00:00Z","name_a2s":"Uncletopia | SÃ£o Paulo | 1 | All Maps","protocol":17,"map":"koth_lakeside_final","folder":"tf","game":"Team Fortress","app_id":440,"player_count":0,"max_players":24,"Bots":0,"server_type":"Dedicated","server_os":"Linux","password":true,"vac":true,"version":"7757534","steam_id":85568392924469996,"keywords":["cp","nocrits","nodmgspread","uncletopia"],"game_id":440,"stv_port":27016,"stv_name":"Uncletopia | SÃ£o Paulo | 1 | All Maps | STV","players":null},{"server_id":143,"name":"Uncletopia | SÃ£o Paulo | 2 | All Maps","name_short":"sao-2","host":"sao-2.br.uncletopia.com","port":27015,"enabled":true,"region":"sa","cc":"br","latitude":-23.533773,"longitude":-46.62529,"reserved":0,"last_update":"0001-01-01T00:00:00Z","name_a2s":"Uncletopia | SÃ£o Paulo | 2 | All Maps","protocol":17,"map":"pl_borneo","folder":"tf","game":"Team Fortress","app_id":440,"player_count":0,"max_players":24,"Bots":0,"server_type":"Dedicated","server_os":"Linux","password":true,"vac":true,"version":"7757534","steam_id":85568392924485349,"keywords":["nocrits","nodmgspread","payload","uncletopia"],"game_id":440,"stv_port":27016,"stv_name":"Uncletopia | SÃ£o Paulo | 2 | All Maps | STV","players":null},{"server_id":7,"name":"Uncletopia | Seattle | 1 | All Maps","name_short":"sea-1","host":"sea-1.us.uncletopia.com","port":27015,"enabled":true,"region":"us-west","cc":"us","latitude":47.608013,"longitude":-122.33517,"reserved":0,"last_update":"0001-01-01T00:00:00Z","name_a2s":"Uncletopia | Seattle | 1 | All Maps","protocol":17,"map":"cp_sunshine","folder":"tf","game":"Team Fortress","app_id":440,"player_count":24,"max_players":24,"Bots":0,"server_type":"Dedicated","server_os":"Linux","password":true,"vac":true,"version":"7757534","steam_id":85568392924469997,"keywords":["cp","nocrits","nodmgspread","uncletopia"],"game_id":440,"stv_port":27016,"stv_name":"Uncletopia | Seattle | 1 | All Maps | STV","players":[{"user_id":943,"name":"Spooky","steam_id":76561198030817605,"connected_time":220000000000,"state":"active","ping":32},{"user_id":893,"name":"cracky","steam_id":76561197971365444,"connected_time":4793000000000,"state":"active","ping":52},{"user_id":918,"name":"abaddon_amogTTV #savetf2","steam_id":76561198268581959,"connected_time":2354000000000,"state":"active","ping":57},{"user_id":822,"name":"toes","steam_id":76561198221151676,"connected_time":8364000000000,"state":"active","ping":47},{"user_id":944,"name":"FI LO","steam_id":76561198976530881,"connected_time":190000000000,"state":"active","ping":60},{"user_id":897,"name":"gorlab","steam_id":76561198025089694,"connected_time":4067000000000,"state":"active","ping":66},{"user_id":871,"name":"cownbwead","steam_id":76561199480548883,"connected_time":5657000000000,"state":"active","ping":106},{"user_id":873,"name":"smeasly","steam_id":76561198028718812,"connected_time":5618000000000,"state":"active","ping":43},{"user_id":885,"name":"Sleuth","steam_id":76561198418288939,"connected_time":5167000000000,"state":"active","ping":73},{"user_id":933,"name":"heisenburger","steam_id":76561198986534519,"connected_time":643000000000,"state":"active","ping":59},{"user_id":941,"name":"coyoteboi","steam_id":76561198311784880,"connected_time":243000000000,"state":"active","ping":56},{"user_id":937,"name":"Yammie","steam_id":76561197987304489,"connected_time":499000000000,"state":"active","ping":45},{"user_id":932,"name":"big car","steam_id":76561198067082350,"connected_time":807000000000,"state":"active","ping":82},{"user_id":845,"name":"oil","steam_id":76561198099980149,"connected_time":6470000000000,"state":"active","ping":89},{"user_id":928,"name":"Glue Gobbler","steam_id":76561198237034712,"connected_time":1262000000000,"state":"active","ping":46},{"user_id":863,"name":"rorywashere /á  - Ë• -ãƒž â³Š","steam_id":76561198065825165,"connected_time":6191000000000,"state":"active","ping":109},{"user_id":732,"name":"Fawful's Minion","steam_id":76561198090120779,"connected_time":16087000000000,"state":"active","ping":82},{"user_id":903,"name":"Nierin","steam_id":76561198227545132,"connected_time":3964000000000,"state":"active","ping":81},{"user_id":942,"name":"Grill Skills","steam_id":76561198053575147,"connected_time":237000000000,"state":"active","ping":63},{"user_id":935,"name":"bandit !!","steam_id":76561198126546221,"connected_time":578000000000,"state":"active","ping":73},{"user_id":931,"name":"Roseblade115","steam_id":76561198120797483,"connected_time":934000000000,"state":"active","ping":50},{"user_id":792,"name":"Lord Hater","steam_id":76561199158148782,"connected_time":9739000000000,"state":"active","ping":55},{"user_id":889,"name":"p9 jorts (zoot)","steam_id":76561199041179985,"connected_time":5022000000000,"state":"active","ping":72},{"user_id":939,"name":"Skoad","steam_id":76561198104650528,"connected_time":347000000000,"state":"active","ping":63}]},{"server_id":119,"name":"Uncletopia | Seattle | 2 | All Maps","name_short":"sea-2","host":"sea-1.us.uncletopia.com","port":27025,"enabled":true,"region":"us-west","cc":"us","latitude":47.608013,"longitude":-122.33517,"reserved":0,"last_update":"0001-01-01T00:00:00Z","name_a2s":"Uncletopia | Seattle | 2 | All Maps","protocol":17,"map":"pl_borneo","folder":"tf","game":"Team Fortress","app_id":440,"player_count":17,"max_players":24,"Bots":0,"server_type":"Dedicated","server_os":"Linux","password":true,"vac":true,"version":"7757534","steam_id":85568392924469998,"keywords":["nocrits","nodmgspread","payload","uncletopia"],"game_id":440,"stv_port":27026,"stv_name":"Uncletopia | Seattle | 2 | All Maps | STV","players":[{"user_id":729,"name":"Jimmy Cumstains","steam_id":76561198044086931,"connected_time":1690000000000,"state":"active","ping":85},{"user_id":735,"name":"TheGreatDong","steam_id":76561198000634178,"connected_time":890000000000,"state":"active","ping":75},{"user_id":669,"name":"funkdonut","steam_id":76561199062326425,"connected_time":5863000000000,"state":"active","ping":58},{"user_id":751,"name":"Supreme Cumlord Supreme","steam_id":76561198026046132,"connected_time":124000000000,"state":"active","ping":41},{"user_id":736,"name":"purple tank","steam_id":76561198257241799,"connected_time":832000000000,"state":"active","ping":97},{"user_id":754,"name":"Zerg_Man","steam_id":76561199060404359,"connected_time":39000000000,"state":"active","ping":71},{"user_id":750,"name":"XslPleb","steam_id":76561198309265358,"connected_time":201000000000,"state":"active","ping":88},{"user_id":737,"name":"ShouldBeDrawing","steam_id":76561198027830584,"connected_time":570000000000,"state":"active","ping":130},{"user_id":746,"name":"Rick","steam_id":76561198082608196,"connected_time":253000000000,"state":"active","ping":58},{"user_id":711,"name":"AfterSpy","steam_id":76561198217859593,"connected_time":3207000000000,"state":"active","ping":58},{"user_id":712,"name":"Rave Cat","steam_id":76561198026369683,"connected_time":3113000000000,"state":"active","ping":76},{"user_id":719,"name":"Doogly","steam_id":76561198080281457,"connected_time":2477000000000,"state":"active","ping":61},{"user_id":748,"name":"Pineapple Pizza","steam_id":76561197997233176,"connected_time":223000000000,"state":"active","ping":130},{"user_id":749,"name":"JeffPetsDucks","steam_id":76561198879504869,"connected_time":206000000000,"state":"active","ping":71},{"user_id":752,"name":"El pandora","steam_id":76561198075490385,"connected_time":106000000000,"state":"active","ping":75},{"user_id":753,"name":"Bootz!","steam_id":76561198115899594,"connected_time":89000000000,"state":"active","ping":58},{"user_id":733,"name":"kattaclyzm","steam_id":76561198327390236,"connected_time":1431000000000,"state":"active","ping":72}]},{"server_id":406,"name":"Uncletopia | Seattle | 3 | Stopwatch Beta","name_short":"sea-3","host":"sea-1.us.uncletopia.com","port":27035,"enabled":true,"region":"us-west","cc":"us","latitude":47.608013,"longitude":-122.33517,"reserved":0,"last_update":"0001-01-01T00:00:00Z","name_a2s":"Uncletopia | Seattle | 3 | Stopwatch Beta","protocol":17,"map":"koth_highpass","folder":"tf","game":"Team Fortress","app_id":440,"player_count":0,"max_players":24,"Bots":0,"server_type":"Dedicated","server_os":"Linux","password":true,"vac":true,"version":"7757534","steam_id":85568392924515217,"keywords":["cp","nocrits","nodmgspread","uncletopia"],"game_id":440,"stv_port":27036,"stv_name":"Uncletopia | Seattle | 3 | Stopwatch Beta | STV","players":null},{"server_id":17,"name":"Uncletopia | San Francisco | 1 | All Maps","name_short":"sfo-1","host":"sfo-1.us.uncletopia.com","port":27015,"enabled":true,"region":"us-west","cc":"us","latitude":37.77397,"longitude":-122.4313,"reserved":0,"last_update":"0001-01-01T00:00:00Z","name_a2s":"Uncletopia | San Francisco | 1 | All Maps","protocol":17,"map":"plr_nightfall_final","folder":"tf","game":"Team Fortress","app_id":440,"player_count":24,"max_players":24,"Bots":0,"server_type":"Dedicated","server_os":"Linux","password":true,"vac":true,"version":"7757534","steam_id":85568392924469999,"keywords":["nocrits","nodmgspread","payload","uncletopia"],"game_id":440,"stv_port":27016,"stv_name":"Uncletopia | San Francisco | 1 | All Maps | STV","players":[{"user_id":558,"name":"Antwan","steam_id":76561198246200638,"connected_time":6738000000000,"state":"active","ping":80},{"user_id":622,"name":"Jones","steam_id":76561198046037216,"connected_time":1416000000000,"state":"active","ping":96},{"user_id":442,"name":"Durial321","steam_id":76561198145669711,"connected_time":15450000000000,"state":"active","ping":45},{"user_id":481,"name":"bigman1","steam_id":76561198050225055,"connected_time":13256000000000,"state":"active","ping":58},{"user_id":634,"name":"Ramirez","steam_id":76561199216838273,"connected_time":452000000000,"state":"active","ping":67},{"user_id":606,"name":"69 odd goat","steam_id":76561198116908911,"connected_time":2611000000000,"state":"active","ping":125},{"user_id":589,"name":"the quan","steam_id":76561198105374054,"connected_time":5112000000000,"state":"active","ping":70},{"user_id":602,"name":"Star","steam_id":76561198150115757,"connected_time":3401000000000,"state":"active","ping":148},{"user_id":618,"name":"Soothsayer","steam_id":76561198051750641,"connected_time":1800000000000,"state":"active","ping":67},{"user_id":623,"name":"Pudsla","steam_id":76561198258974036,"connected_time":1331000000000,"state":"active","ping":59},{"user_id":635,"name":"[trans]Schizo-Furry-Gamer[otaku","steam_id":76561198094990358,"connected_time":376000000000,"state":"active","ping":50},{"user_id":640,"name":"Birdman","steam_id":76561199183704008,"connected_time":105000000000,"state":"active","ping":62},{"user_id":592,"name":"urotsuki","steam_id":76561197995200743,"connected_time":4740000000000,"state":"active","ping":45},{"user_id":590,"name":"bonk schnoffer","steam_id":76561198301598124,"connected_time":5045000000000,"state":"active","ping":78},{"user_id":624,"name":"Puppeteer","steam_id":76561198159928108,"connected_time":1271000000000,"state":"active","ping":80},{"user_id":616,"name":"Dob Bole","steam_id":76561198056367220,"connected_time":1968000000000,"state":"active","ping":45},{"user_id":628,"name":"eat chocolate look at animal","steam_id":76561198001410668,"connected_time":1118000000000,"state":"active","ping":55},{"user_id":632,"name":"sevvy \u003c3","steam_id":76561198219129496,"connected_time":801000000000,"state":"active","ping":46},{"user_id":626,"name":"sandwichposting","steam_id":76561199082610233,"connected_time":1234000000000,"state":"active","ping":105},{"user_id":637,"name":"Dekameter","steam_id":76561198000808543,"connected_time":304000000000,"state":"active","ping":72},{"user_id":641,"name":"engineeor gaming","steam_id":76561198242063380,"connected_time":2000000000,"state":"spawning","ping":267},{"user_id":639,"name":"stigma","steam_id":76561197960315263,"connected_time":277000000000,"state":"active","ping":105},{"user_id":586,"name":"Emeraldc56","steam_id":76561198412483163,"connected_time":5540000000000,"state":"active","ping":75},{"user_id":593,"name":"kr1tsurf3r","steam_id":76561198076402476,"connected_time":4732000000000,"state":"active","ping":73}]},{"server_id":18,"name":"Uncletopia | San Francisco | 2 | All Maps","name_short":"sfo-2","host":"sfo-1.us.uncletopia.com","port":27025,"enabled":true,"region":"us-west","cc":"us","latitude":37.77397,"longitude":-122.4313,"reserved":0,"last_update":"0001-01-01T00:00:00Z","name_a2s":"Uncletopia | San Francisco | 2 | All Maps","protocol":17,"map":"cp_snakewater_final1","folder":"tf","game":"Team Fortress","app_id":440,"player_count":3,"max_players":24,"Bots":0,"server_type":"Dedicated","server_os":"Linux","password":true,"vac":true,"version":"7757534","steam_id":85568392924470000,"keywords":["cp","nocrits","nodmgspread","uncletopia"],"game_id":440,"stv_port":27026,"stv_name":"Uncletopia | San Francisco | 2 | All Maps | STV","players":[{"user_id":785,"name":"x3 â™¡","steam_id":76561198132011077,"connected_time":952000000000,"state":"active","ping":163},{"user_id":786,"name":"ComradeRobin","steam_id":76561198811153559,"connected_time":894000000000,"state":"active","ping":160},{"user_id":787,"name":"æ°´è›‡","steam_id":76561198096178890,"connected_time":15000000000,"state":"spawning","ping":195}]},{"server_id":19,"name":"Uncletopia | San Francisco | 3 | Stopwatch Beta","name_short":"sfo-3","host":"sfo-1.us.uncletopia.com","port":27035,"enabled":true,"region":"us-west","cc":"us","latitude":37.77397,"longitude":-122.4313,"reserved":0,"last_update":"0001-01-01T00:00:00Z","name_a2s":"Uncletopia | San Francisco | 3 | Stopwatch Beta","protocol":17,"map":"pl_borneo","folder":"tf","game":"Team Fortress","app_id":440,"player_count":0,"max_players":24,"Bots":0,"server_type":"Dedicated","server_os":"Linux","password":true,"vac":true,"version":"7757534","steam_id":85568392924742824,"keywords":["nocrits","nodmgspread","payload","uncletopia"],"game_id":440,"stv_port":27036,"stv_name":"Uncletopia | San Francisco | 3 | Stopwatch Beta | STV","players":null},{"server_id":20,"name":"Uncletopia | San Francisco | 4 | Community","name_short":"sfo-4","host":"sfo-1.us.uncletopia.com","port":27045,"enabled":true,"region":"us-west","cc":"us","latitude":37.77397,"longitude":-122.4313,"reserved":0,"last_update":"0001-01-01T00:00:00Z","name_a2s":"Uncletopia | San Francisco | 4 | Community","protocol":17,"map":"workshop/koth_product_final.ugc454272353","folder":"tf","game":"Team Fortress","app_id":440,"player_count":0,"max_players":24,"Bots":0,"server_type":"Dedicated","server_os":"Linux","password":true,"vac":true,"version":"7757534","steam_id":85568392924742826,"keywords":["cp","nocrits","nodmgspread","uncletopia"],"game_id":440,"stv_port":27046,"stv_name":"Uncletopia | San Francisco | 4 | Community | STV","players":null},{"server_id":141,"name":"Uncletopia | Sydney | 1 | All Maps","name_short":"syd-1","host":"syd-1.au.uncletopia.com","port":27015,"enabled":true,"region":"au","cc":"au","latitude":-33.865143,"longitude":151.2099,"reserved":0,"last_update":"0001-01-01T00:00:00Z","name_a2s":"Uncletopia | Sydney | 1 | All Maps","protocol":17,"map":"ctf_turbine","folder":"tf","game":"Team Fortress","app_id":440,"player_count":22,"max_players":24,"Bots":0,"server_type":"Dedicated","server_os":"Linux","password":true,"vac":true,"version":"7757534","steam_id":85568392924470001,"keywords":["ctf","nocrits","nodmgspread","uncletopia"],"game_id":440,"stv_port":27016,"stv_name":"Uncletopia | Sydney | 1 | All Maps | STV","players":[{"user_id":232,"name":"Paradon YT","steam_id":76561198060176705,"connected_time":1165000000000,"state":"active","ping":106},{"user_id":244,"name":"SniperGranny","steam_id":76561198293758694,"connected_time":587000000000,"state":"active","ping":80},{"user_id":253,"name":"à¸¸bifcheg","steam_id":76561198319806610,"connected_time":88000000000,"state":"active","ping":70},{"user_id":224,"name":"[GG] Cryo","steam_id":76561198062014383,"connected_time":2427000000000,"state":"active","ping":53},{"user_id":255,"name":"CopperScorpion","steam_id":76561198079757133,"connected_time":25000000000,"state":"spawning","ping":310},{"user_id":191,"name":"Multigrain Bread","steam_id":76561199182026732,"connected_time":4472000000000,"state":"active","ping":77},{"user_id":126,"name":"mushroom","steam_id":76561197992336470,"connected_time":8976000000000,"state":"active","ping":90},{"user_id":212,"name":"Cicerofrypan","steam_id":76561198317860338,"connected_time":3111000000000,"state":"active","ping":56},{"user_id":254,"name":"1ocalTechSuppor1","steam_id":76561198175547093,"connected_time":70000000000,"state":"active","ping":87},{"user_id":256,"name":"MarkFromNextDoor","steam_id":76561199042785282,"connected_time":13000000000,"state":"active","ping":67},{"user_id":247,"name":"ChairMonster26","steam_id":76561198959787682,"connected_time":451000000000,"state":"active","ping":70},{"user_id":249,"name":"Extra Exotic","steam_id":76561198045191981,"connected_time":359000000000,"state":"active","ping":57},{"user_id":241,"name":"Snake101","steam_id":76561198418910767,"connected_time":745000000000,"state":"active","ping":56},{"user_id":220,"name":"SUSHIMAN","steam_id":76561199089989428,"connected_time":2670000000000,"state":"active","ping":89},{"user_id":257,"name":"Pookie","steam_id":76561198812306030,"connected_time":7000000000,"state":"spawning","ping":57},{"user_id":239,"name":"TheCherry","steam_id":76561198062312012,"connected_time":852000000000,"state":"active","ping":74},{"user_id":230,"name":"CoolGuyMatt","steam_id":76561198009757360,"connected_time":1380000000000,"state":"active","ping":56},{"user_id":228,"name":"Felix","steam_id":76561197972286512,"connected_time":2068000000000,"state":"active","ping":99},{"user_id":225,"name":"ADUCK","steam_id":76561198249887912,"connected_time":2403000000000,"state":"active","ping":66},{"user_id":199,"name":"ahhhhhhhhh","steam_id":76561198083700749,"connected_time":4085000000000,"state":"active","ping":57},{"user_id":240,"name":"FrOStY","steam_id":76561198088155805,"connected_time":824000000000,"state":"active","ping":73},{"user_id":252,"name":"Breakfast","steam_id":76561197971620881,"connected_time":118000000000,"state":"active","ping":56}]},{"server_id":123,"name":"Uncletopia | Sydney | 2 | All Maps","name_short":"syd-2","host":"syd-1.au.uncletopia.com","port":27025,"enabled":true,"region":"au","cc":"au","latitude":-33.865143,"longitude":151.2099,"reserved":0,"last_update":"0001-01-01T00:00:00Z","name_a2s":"Uncletopia | Sydney | 2 | All Maps","protocol":17,"map":"pl_upward","folder":"tf","game":"Team Fortress","app_id":440,"player_count":24,"max_players":24,"Bots":0,"server_type":"Dedicated","server_os":"Linux","password":true,"vac":true,"version":"7757534","steam_id":85568392924470002,"keywords":["nocrits","nodmgspread","payload","uncletopia"],"game_id":440,"stv_port":27026,"stv_name":"Uncletopia | Sydney | 2 | All Maps | STV","players":[{"user_id":351,"name":"sweet","steam_id":76561198075311236,"connected_time":2139000000000,"state":"active","ping":58},{"user_id":225,"name":"JodelkÃ¶nig Franzl Lang","steam_id":76561198007667830,"connected_time":10501000000000,"state":"active","ping":56},{"user_id":305,"name":"Crabloid","steam_id":76561199081848498,"connected_time":5984000000000,"state":"active","ping":50},{"user_id":385,"name":"Mac","steam_id":76561198063407128,"connected_time":199000000000,"state":"active","ping":45},{"user_id":382,"name":"Pile of Sneed","steam_id":76561198143537391,"connected_time":307000000000,"state":"active","ping":57},{"user_id":374,"name":"Don Cheezel","steam_id":76561198321407264,"connected_time":1223000000000,"state":"active","ping":57},{"user_id":381,"name":"Zilvera","steam_id":76561198065801850,"connected_time":313000000000,"state":"active","ping":52},{"user_id":377,"name":"â‚®É†â‚´â‚®Å‚â‚µÉ„â± Ã˜â±¤É„â‚¥","steam_id":76561199349964541,"connected_time":1002000000000,"state":"active","ping":81},{"user_id":348,"name":"SamK #AnnexTF2","steam_id":76561198149051619,"connected_time":2372000000000,"state":"active","ping":67},{"user_id":366,"name":"Louis","steam_id":76561198013395847,"connected_time":1665000000000,"state":"active","ping":50},{"user_id":347,"name":"thrax","steam_id":76561197992385270,"connected_time":3003000000000,"state":"active","ping":51},{"user_id":349,"name":"Jellyfish_kurage","steam_id":76561198425670698,"connected_time":2331000000000,"state":"active","ping":55},{"user_id":354,"name":"Cup","steam_id":76561198038485845,"connected_time":2080000000000,"state":"active","ping":30},{"user_id":371,"name":"Monad (Trans-Girl Arc)","steam_id":76561198895999428,"connected_time":1356000000000,"state":"active","ping":48},{"user_id":380,"name":"Voncrumb","steam_id":76561198054076313,"connected_time":330000000000,"state":"active","ping":49},{"user_id":357,"name":"diavlo","steam_id":76561198207312292,"connected_time":2006000000000,"state":"active","ping":74},{"user_id":359,"name":"rikrun45","steam_id":76561198104578767,"connected_time":1912000000000,"state":"active","ping":38},{"user_id":384,"name":"Piklz","steam_id":76561198043384139,"connected_time":210000000000,"state":"active","ping":58},{"user_id":360,"name":"cheemschungus","steam_id":76561198987765731,"connected_time":1903000000000,"state":"active","ping":110},{"user_id":368,"name":"ericacummins","steam_id":76561198946280912,"connected_time":1545000000000,"state":"active","ping":85},{"user_id":338,"name":"Ganome Chilled","steam_id":76561198064898965,"connected_time":3645000000000,"state":"active","ping":99},{"user_id":372,"name":"Charm","steam_id":76561198028891054,"connected_time":1355000000000,"state":"active","ping":62},{"user_id":379,"name":"soupy","steam_id":76561198073734936,"connected_time":971000000000,"state":"active","ping":89},{"user_id":370,"name":"Arpazha","steam_id":76561199072257230,"connected_time":1431000000000,"state":"active","ping":145}]},{"server_id":395,"name":"Uncletopia | Sydney | 3 | All Maps","name_short":"syd-3","host":"syd-1.au.uncletopia.com","port":27035,"enabled":true,"region":"au","cc":"au","latitude":-33.865143,"longitude":151.2099,"reserved":0,"last_update":"0001-01-01T00:00:00Z","name_a2s":"Uncletopia | Sydney | 3 | All Maps","protocol":17,"map":"cp_steel","folder":"tf","game":"Team Fortress","app_id":440,"player_count":15,"max_players":24,"Bots":0,"server_type":"Dedicated","server_os":"Linux","password":true,"vac":true,"version":"7757534","steam_id":85568392925194467,"keywords":["cp","nocrits","nodmgspread","uncletopia"],"game_id":440,"stv_port":27036,"stv_name":"Uncletopia | Sydney | 3 | All Maps | STV","players":[{"user_id":559,"name":"Luden","steam_id":76561198069165922,"connected_time":94000000000,"state":"active","ping":59},{"user_id":558,"name":"DylDed","steam_id":76561198364823853,"connected_time":238000000000,"state":"active","ping":74},{"user_id":560,"name":"K41","steam_id":76561198146207192,"connected_time":67000000000,"state":"active","ping":45},{"user_id":561,"name":"table","steam_id":76561199218095319,"connected_time":57000000000,"state":"active","ping":49},{"user_id":555,"name":"PiKYD","steam_id":76561198284667494,"connected_time":585000000000,"state":"active","ping":176},{"user_id":547,"name":"hive","steam_id":76561199099744527,"connected_time":766000000000,"state":"active","ping":45},{"user_id":548,"name":"ToadFungus","steam_id":76561199219667039,"connected_time":754000000000,"state":"active","ping":100},{"user_id":471,"name":"Kremmen","steam_id":76561198051368641,"connected_time":6606000000000,"state":"active","ping":69},{"user_id":549,"name":"Eugene (built different)","steam_id":76561198079108027,"connected_time":753000000000,"state":"active","ping":58},{"user_id":526,"name":"Oni","steam_id":76561199071815908,"connected_time":2415000000000,"state":"active","ping":82},{"user_id":500,"name":"Corrupt","steam_id":76561198008567328,"connected_time":4949000000000,"state":"active","ping":64},{"user_id":552,"name":"Henry.","steam_id":76561198218565309,"connected_time":695000000000,"state":"active","ping":76},{"user_id":556,"name":"WildCard","steam_id":76561197996509299,"connected_time":540000000000,"state":"active","ping":74},{"user_id":496,"name":"Apteryx","steam_id":76561197976460834,"connected_time":5057000000000,"state":"active","ping":62},{"user_id":533,"name":"Vonicz","steam_id":76561198431695313,"connected_time":2098000000000,"state":"active","ping":64}]},{"server_id":396,"name":"Uncletopia | Sydney | 4 | All Maps","name_short":"syd-4","host":"syd-1.au.uncletopia.com","port":27045,"enabled":true,"region":"au","cc":"au","latitude":-33.865143,"longitude":151.2099,"reserved":0,"last_update":"0001-01-01T00:00:00Z","name_a2s":"Uncletopia | Sydney | 4 | All Maps","protocol":17,"map":"cp_sunshine","folder":"tf","game":"Team Fortress","app_id":440,"player_count":0,"max_players":24,"Bots":0,"server_type":"Dedicated","server_os":"Linux","password":true,"vac":true,"version":"7757534","steam_id":85568392925397958,"keywords":["cp","nocrits","nodmgspread","uncletopia"],"game_id":440,"stv_port":27046,"stv_name":"Uncletopia | Sydney | 4 | All Maps | STV","players":null},{"server_id":58,"name":"Uncletopia | Sydney | 5 | Stopwatch Beta","name_short":"syd-5","host":"syd-1.au.uncletopia.com","port":27055,"enabled":true,"region":"au","cc":"au","latitude":-33.865143,"longitude":151.2099,"reserved":0,"last_update":"0001-01-01T00:00:00Z","name_a2s":"Uncletopia | Sydney | 5 | Stopwatch Beta","protocol":17,"map":"workshop/cp_reckoner_rc6.ugc674719999","folder":"tf","game":"Team Fortress","app_id":440,"player_count":0,"max_players":24,"Bots":0,"server_type":"Dedicated","server_os":"Linux","password":true,"vac":true,"version":"7757534","steam_id":85568392925397959,"keywords":["cp","nocrits","nodmgspread","uncletopia"],"game_id":440,"stv_port":27056,"stv_name":"Uncletopia | Sydney | 5 | Stopwatch Beta | STV","players":null},{"server_id":59,"name":"Uncletopia | Sydney | 6 | Community","name_short":"syd-6","host":"syd-1.au.uncletopia.com","port":27065,"enabled":true,"region":"au","cc":"au","latitude":-33.865143,"longitude":151.2099,"reserved":0,"last_update":"0001-01-01T00:00:00Z","name_a2s":"Uncletopia | Sydney | 6 | Community","protocol":17,"map":"workshop/koth_ramjam_rc1.ugc459778887","folder":"tf","game":"Team Fortress","app_id":440,"player_count":0,"max_players":24,"Bots":0,"server_type":"Dedicated","server_os":"Linux","password":true,"vac":true,"version":"7757534","steam_id":85568392925397960,"keywords":["cp","nocrits","nodmgspread","uncletopia"],"game_id":440,"stv_port":27066,"stv_name":"Uncletopia | Sydney | 6 | Community | STV","players":null},{"server_id":49,"name":"Uncletopia | Warsaw | 1 | All Maps","name_short":"waw-1","host":"waw-1.pl.uncletopia.com","port":27015,"enabled":true,"region":"eu","cc":"pl","latitude":52.2297,"longitude":21.017532,"reserved":0,"last_update":"0001-01-01T00:00:00Z","name_a2s":"","protocol":0,"map":"","folder":"","game":"","app_id":0,"player_count":0,"max_players":0,"Bots":0,"server_type":"","server_os":"","password":false,"vac":false,"version":"","steam_id":0,"keywords":null,"game_id":0,"stv_port":0,"stv_name":"","players":null},{"server_id":50,"name":"Uncletopia | Warsaw | 2 | All Maps","name_short":"waw-2","host":"waw-1.pl.uncletopia.com","port":27025,"enabled":true,"region":"eu","cc":"pl","latitude":52.2297,"longitude":21.017532,"reserved":0,"last_update":"0001-01-01T00:00:00Z","name_a2s":"Uncletopia | Warsaw | 2 | All Maps","protocol":17,"map":"koth_viaduct","folder":"tf","game":"Team Fortress","app_id":440,"player_count":0,"max_players":24,"Bots":0,"server_type":"Dedicated","server_os":"Linux","password":true,"vac":true,"version":"7757534","steam_id":85568392925397851,"keywords":["cp","nocrits","nodmgspread","uncletopia"],"game_id":440,"stv_port":27026,"stv_name":"Uncletopia | Warsaw | 2 | All Maps | STV","players":null},{"server_id":51,"name":"Uncletopia | Warsaw | 3 | All Maps","name_short":"waw-3","host":"waw-1.pl.uncletopia.com","port":27035,"enabled":true,"region":"eu","cc":"pl","latitude":52.2297,"longitude":21.017532,"reserved":0,"last_update":"0001-01-01T00:00:00Z","name_a2s":"Uncletopia | Warsaw | 3 | All Maps","protocol":17,"map":"pl_badwater","folder":"tf","game":"Team Fortress","app_id":440,"player_count":0,"max_players":24,"Bots":0,"server_type":"Dedicated","server_os":"Linux","password":true,"vac":true,"version":"7757534","steam_id":85568392925397852,"keywords":["nocrits","nodmgspread","payload","uncletopia"],"game_id":440,"stv_port":27036,"stv_name":"Uncletopia | Warsaw | 3 | All Maps | STV","players":null},{"server_id":52,"name":"Uncletopia | Warsaw | 4 | All Maps","name_short":"waw-4","host":"waw-1.pl.uncletopia.com","port":27045,"enabled":true,"region":"eu","cc":"pl","latitude":52.2297,"longitude":21.017532,"reserved":0,"last_update":"0001-01-01T00:00:00Z","name_a2s":"Uncletopia | Warsaw | 4 | All Maps","protocol":17,"map":"koth_lakeside_final","folder":"tf","game":"Team Fortress","app_id":440,"player_count":0,"max_players":24,"Bots":0,"server_type":"Dedicated","server_os":"Linux","password":true,"vac":true,"version":"7757534","steam_id":85568392925397853,"keywords":["cp","nocrits","nodmgspread","uncletopia"],"game_id":440,"stv_port":27046,"stv_name":"Uncletopia | Warsaw | 4 | All Maps | STV","players":null},{"server_id":53,"name":"Uncletopia | Warsaw | 5 | Stopwatch Beta","name_short":"waw-5","host":"waw-1.pl.uncletopia.com","port":27055,"enabled":true,"region":"eu","cc":"pl","latitude":52.2297,"longitude":21.017532,"reserved":0,"last_update":"0001-01-01T00:00:00Z","name_a2s":"Uncletopia | Warsaw | 5 | Stopwatch Beta","protocol":17,"map":"pl_borneo","folder":"tf","game":"Team Fortress","app_id":440,"player_count":0,"max_players":24,"Bots":0,"server_type":"Dedicated","server_os":"Linux","password":true,"vac":true,"version":"7757534","steam_id":85568392925397854,"keywords":["nocrits","nodmgspread","payload","uncletopia"],"game_id":440,"stv_port":27056,"stv_name":"Uncletopia | Warsaw | 5 | Stopwatch Beta | STV","players":null},{"server_id":54,"name":"Uncletopia | Warsaw | 6 | Community","name_short":"waw-6","host":"waw-1.pl.uncletopia.com","port":27065,"enabled":true,"region":"eu","cc":"pl","latitude":52.2297,"longitude":21.017532,"reserved":0,"last_update":"0001-01-01T00:00:00Z","name_a2s":"Uncletopia | Warsaw | 6 | Community","protocol":17,"map":"koth_lakeside_final","folder":"tf","game":"Team Fortress","app_id":440,"player_count":0,"max_players":24,"Bots":0,"server_type":"Dedicated","server_os":"Linux","password":true,"vac":true,"version":"7757534","steam_id":85568392925397856,"keywords":["cp","nocrits","nodmgspread","uncletopia"],"game_id":440,"stv_port":27066,"stv_name":"Uncletopia | Warsaw | 6 | Community | STV","players":null}]}