{"status":true,"message":"","result":[{"server_id":9,"name":"Uncletopia | Atlanta | 1 | All Maps","name_short":"atl-1","host":"atl-1.us.uncletopia.com","port":27015,"enabled":true,"region":"us-east","cc":"us","latitude":33.753746,"longitude":-84.38633,"reserved":0,"last_update":"0001-01-01T00:00:00Z","name_a2s":"Uncletopia | Atlanta | 1 | All Maps","protocol":17,"map":"ctf_2fort","folder":"tf","game":"Team Fortress","app_id":440,"player_count":19,"max_players":24,"Bots":0,"server_type":"Dedicated","server_os":"Linux","password":true,"vac":true,"version":"7932396","steam_id":85568392924469982,"keywords":["ctf","gravity","nocrits","nodmgspread","uncletopia"],"game_id":440,"stv_port":27016,"stv_name":"Uncletopia | Atlanta | 1 | All Maps | STV","players":[{"user_id":250,"name":"IZISOO","steam_id":76561198970380577,"connected_time":217000000000,"state":"active","ping":91},{"user_id":246,"name":"OttotheTomato","steam_id":76561198272610597,"connected_time":298000000000,"state":"active","ping":87},{"user_id":251,"name":"comet sooicidy","steam_id":76561198025173479,"connected_time":216000000000,"state":"active","ping":92},{"user_id":252,"name":"Huey","steam_id":76561198972816386,"connected_time":215000000000,"state":"active","ping":100},{"user_id":255,"name":"10KO!","steam_id":76561199134895220,"connected_time":67000000000,"state":"active","ping":83},{"user_id":253,"name":"Zeta","steam_id":76561198178693059,"connected_time":149000000000,"state":"active","ping":75},{"user_id":203,"name":"FinnGator","steam_id":76561198241766488,"connected_time":1663000000000,"state":"active","ping":89},{"user_id":231,"name":"Infantryfilms","steam_id":76561199304068543,"connected_time":744000000000,"state":"active","ping":143},{"user_id":204,"name":"‡ºò ‚ãÜÀöüéßCaffeine‚òï*Àñ¬∞","steam_id":76561199259309294,"connected_time":1559000000000,"state":"active","ping":96},{"user_id":205,"name":"Belmore","steam_id":76561198009355231,"connected_time":1513000000000,"state":"active","ping":119},{"user_id":254,"name":"hxui3506","steam_id":76561199148162329,"connected_time":119000000000,"state":"active","ping":127},{"user_id":211,"name":"chesterwnimitz","steam_id":76561198062664377,"connected_time":1170000000000,"state":"active","ping":115},{"user_id":256,"name":"mdharsy","steam_id":76561198065831053,"connected_time":49000000000,"state":"active","ping":104},{"user_id":248,"name":"Galaxy_42","steam_id":76561198845514831,"connected_time":256000000000,"state":"active","ping":64},{"user_id":242,"name":"FOrce of nature","steam_id":76561198390522839,"connected_time":410000000000,"state":"active","ping":99},{"user_id":257,"name":"HAT-WEARING‚Ñ¢ Maggot Gamer Cat","steam_id":76561197973992705,"connected_time":23000000000,"state":"spawning","ping":139},{"user_id":258,"name":"Golurk with some bitches","steam_id":76561198085888959,"connected_time":21000000000,"state":"spawning","ping":51},{"user_id":219,"name":"Gary Budussy","steam_id":76561197969793969,"connected_time":1067000000000,"state":"active","ping":77},{"user_id":227,"name":"bdlance","steam_id":76561198218846360,"connected_time":889000000000,"state":"active","ping":70}]},{"server_id":104,"name":"Uncletopia | Atlanta | 2 | All Maps","name_short":"atl-2","host":"atl-1.us.uncletopia.com","port":27025,"enabled":true,"region":"us-east","cc":"us","latitude":33.753746,"longitude":-84.38633,"reserved":0,"last_update":"0001-01-01T00:00:00Z","name_a2s":"Uncletopia | Atlanta | 2 | All Maps","protocol":17,"map":"koth_viaduct","folder":"tf","game":"Team Fortress","app_id":440,"player_count":0,"max_players":24,"Bots":0,"server_type":"Dedicated","server_os":"Linux","password":true,"vac":true,"version":"7932396","steam_id":85568392924469983,"keywords":["cp","nocrits","nodmgspread","uncletopia"],"game_id":440,"stv_port":27026,"stv_name":"Uncletopia | Atlanta | 2 | All Maps | STV","players":null},{"server_id":400,"name":"Uncletopia | Atlanta | 3 | Community","name_short":"atl-3","host":"atl-1.us.uncletopia.com","port":27035,"enabled":true,"region":"us-east","cc":"us","latitude":33.753746,"longitude":-84.38633,"reserved":0,"last_update":"0001-01-01T00:00:00Z","name_a2s":"Uncletopia | Atlanta | 3 | Community","protocol":17,"map":"workshop/cp_logjam_rc12.ugc454812035","folder":"tf","game":"Team Fortress","app_id":440,"player_count":0,"max_players":24,"Bots":0,"server_type":"Dedicated","server_os":"Linux","password":true,"vac":true,"version":"7932396","steam_id":85568392924515187,"keywords":["cp","nocrits","nodmgspread","uncletopia"],"game_id":440,"stv_port":27036,"stv_name":"Uncletopia | Atlanta | 3 | Community | STV","players":null},{"server_id":401,"name":"Uncletopia | Atlanta | 4 | No Payload","name_short":"atl-4","host":"atl-1.us.uncletopia.com","port":27045,"enabled":true,"region":"us-east","cc":"us","latitude":33.753746,"longitude":-84.38633,"reserved":0,"last_update":"0001-01-01T00:00:00Z","name_a2s":"","protocol":0,"map":"","folder":"","game":"","app_id":0,"player_count":0,"max_players":0,"Bots":0,"server_type":"","server_os":"","password":false,"vac":false,"version":"","steam_id":0,"keywords":null,"game_id":0,"stv_port":0,"stv_name":"","players":null},{"server_id":2,"name":"Uncletopia | Chicago | 1 | All Maps","name_short":"chi-1","host":"chi-1.us.uncletopia.com","port":27015,"enabled":true,"region":"us-central","cc":"us","latitude":41.881832,"longitude":-87.62318,"reserved":0,"last_update":"0001-01-01T00:00:00Z","name_a2s":"Uncletopia | Chicago | 1 | All Maps","protocol":17,"map":"koth_harvest_final","folder":"tf","game":"Team Fortress","app_id":440,"player_count":20,"max_players":24,"Bots":0,"server_type":"Dedicated","server_os":"Linux","password":true,"vac":true,"version":"7932396","steam_id":85568392924469984,"keywords":["cp","nocrits","nodmgspread","uncletopia"],"game_id":440,"stv_port":27016,"stv_name":"Uncletopia | Chicago | 1 | All Maps | STV","players":[{"user_id":832,"name":"IAmChris_","steam_id":76561198061855884,"connected_time":22000000000,"state":"active","ping":47},{"user_id":833,"name":"I'mChris_","steam_id":76561198061718534,"connected_time":4000000000,"state":"spawning","ping":46},{"user_id":750,"name":"Catzs","steam_id":76561197996013572,"connected_time":4812000000000,"state":"active","ping":94},{"user_id":827,"name":"Floaty","steam_id":76561198066487242,"connected_time":420000000000,"state":"active","ping":48},{"user_id":795,"name":"mndbrkn","steam_id":76561198054390505,"connected_time":1872000000000,"state":"active","ping":35},{"user_id":828,"name":"Yummy Kabobz","steam_id":76561198067661705,"connected_time":398000000000,"state":"active","ping":64},{"user_id":789,"name":"Mitsubishi Materials","steam_id":76561198151871198,"connected_time":1949000000000,"state":"active","ping":74},{"user_id":830,"name":"ttv/Everfrost Samoyed","steam_id":76561198072580699,"connected_time":77000000000,"state":"active","ping":70},{"user_id":771,"name":"Viren","steam_id":76561198012636897,"connected_time":2389000000000,"state":"active","ping":73},{"user_id":782,"name":"Ginsai","steam_id":76561198107797443,"connected_time":2115000000000,"state":"active","ping":76},{"user_id":797,"name":"Ti√° Luna","steam_id":76561198173081734,"connected_time":1851000000000,"state":"active","ping":71},{"user_id":756,"name":"Kritzburgh","steam_id":76561198149466938,"connected_time":4346000000000,"state":"active","ping":62},{"user_id":763,"name":"QWERTY","steam_id":76561198211430420,"connected_time":3039000000000,"state":"active","ping":65},{"user_id":801,"name":"SLOPPY BLOWJOB DEVIL","steam_id":76561198819545533,"connected_time":1616000000000,"state":"active","ping":50},{"user_id":751,"name":"Bonk Nickeltoon","steam_id":76561198027738883,"connected_time":4804000000000,"state":"active","ping":47},{"user_id":786,"name":"Xruffel (im so high)","steam_id":76561198067697879,"connected_time":2070000000000,"state":"active","ping":94},{"user_id":791,"name":"professional bodyshooter","steam_id":76561199200442395,"connected_time":1932000000000,"state":"active","ping":175},{"user_id":770,"name":"Nobody","steam_id":76561198085808754,"connected_time":2408000000000,"state":"active","ping":88},{"user_id":796,"name":"Stan","steam_id":76561199057962816,"connected_time":1871000000000,"state":"active","ping":60},{"user_id":759,"name":"Retro Phoenix","steam_id":76561198077176271,"connected_time":3238000000000,"state":"active","ping":49}]},{"server_id":106,"name":"Uncletopia | Chicago | 2 | All Maps","name_short":"chi-2","host":"chi-1.us.uncletopia.com","port":27025,"enabled":true,"region":"us-central","cc":"us","latitude":41.881832,"longitude":-87.62318,"reserved":0,"last_update":"0001-01-01T00:00:00Z","name_a2s":"Uncletopia | Chicago | 2 | All Maps","protocol":17,"map":"pl_frontier_final","folder":"tf","game":"Team Fortress","app_id":440,"player_count":0,"max_players":24,"Bots":0,"server_type":"Dedicated","server_os":"Linux","password":true,"vac":true,"version":"7932396","steam_id":85568392924469985,"keywords":["nocrits","nodmgspread","payload","uncletopia"],"game_id":440,"stv_port":27026,"stv_name":"Uncletopia | Chicago | 2 | All Maps | STV","players":null},{"server_id":402,"name":"Uncletopia | Chicago | 3 | All Maps","name_short":"chi-3","host":"chi-1.us.uncletopia.com","port":27035,"enabled":true,"region":"us-central","cc":"us","latitude":41.881832,"longitude":-87.62318,"reserved":0,"last_update":"0001-01-01T00:00:00Z","name_a2s":"Uncletopia | Chicago | 3 | All Maps","protocol":17,"map":"cp_dustbowl","folder":"tf","game":"Team Fortress","app_id":440,"player_count":20,"max_players":24,"Bots":0,"server_type":"Dedicated","server_os":"Linux","password":true,"vac":true,"version":"7932396","steam_id":85568392924515191,"keywords":["cp","nocrits","nodmgspread","uncletopia"],"game_id":440,"stv_port":27036,"stv_name":"Uncletopia | Chicago | 3 | All Maps | STV","players":[{"user_id":850,"name":"Alfonso Molestro","steam_id":76561197998677099,"connected_time":3922000000000,"state":"active","ping":75},{"user_id":867,"name":"NeonBean","steam_id":76561198088335827,"connected_time":2327000000000,"state":"active","ping":94},{"user_id":883,"name":"I hate you","steam_id":76561198057988642,"connected_time":945000000000,"state":"active","ping":59},{"user_id":900,"name":"Edgy McEdgeison","steam_id":76561198047845399,"connected_time":204000000000,"state":"active","ping":68},{"user_id":849,"name":"Michaelpc1","steam_id":76561198088365519,"connected_time":4040000000000,"state":"active","ping":75},{"user_id":860,"name":"AnonymousCritter","steam_id":76561198864475187,"connected_time":3006000000000,"state":"active","ping":44},{"user_id":881,"name":"Bellator","steam_id":76561198064103979,"connected_time":1027000000000,"state":"active","ping":150},{"user_id":894,"name":"Rae","steam_id":76561198853239207,"connected_time":538000000000,"state":"active","ping":61},{"user_id":866,"name":"highadmiralh","steam_id":76561198128992875,"connected_time":2447000000000,"state":"active","ping":86},{"user_id":884,"name":"SnowflakeSnake","steam_id":76561198140428563,"connected_time":918000000000,"state":"active","ping":45},{"user_id":825,"name":"larguu","steam_id":76561197994336210,"connected_time":5481000000000,"state":"active","ping":46},{"user_id":852,"name":"manz","steam_id":76561198059065906,"connected_time":3693000000000,"state":"active","ping":53},{"user_id":890,"name":"Poobastank","steam_id":76561198298649714,"connected_time":640000000000,"state":"active","ping":84},{"user_id":886,"name":"Dot.","steam_id":76561198149463984,"connected_time":806000000000,"state":"active","ping":47},{"user_id":897,"name":"Tosh","steam_id":76561198026948976,"connected_time":462000000000,"state":"active","ping":104},{"user_id":831,"name":"Yongle","steam_id":76561198068591156,"connected_time":5267000000000,"state":"active","ping":54},{"user_id":898,"name":"Stauxie","steam_id":76561198255030077,"connected_time":364000000000,"state":"active","ping":85},{"user_id":895,"name":"Santana","steam_id":76561198008953177,"connected_time":514000000000,"state":"active","ping":75},{"user_id":848,"name":"Mengle","steam_id":76561198001953684,"connected_time":4079000000000,"state":"active","ping":59},{"user_id":899,"name":"Professor Pikachu","steam_id":76561198073349828,"connected_time":346000000000,"state":"active","ping":101}]},{"server_id":403,"name":"Uncletopia | Chicago | 4 | All Maps","name_short":"chi-4","host":"chi-1.us.uncletopia.com","port":27045,"enabled":true,"region":"us-central","cc":"us","latitude":41.881832,"longitude":-87.62318,"reserved":0,"last_update":"0001-01-01T00:00:00Z","name_a2s":"Uncletopia | Chicago | 4 | All Maps","protocol":17,"map":"cp_snakewater_final1","folder":"tf","game":"Team Fortress","app_id":440,"player_count":0,"max_players":24,"Bots":0,"server_type":"Dedicated","server_os":"Linux","password":true,"vac":true,"version":"7932396","steam_id":85568392924515193,"keywords":["cp","nocrits","nodmgspread","uncletopia"],"game_id":440,"stv_port":27046,"stv_name":"Uncletopia | Chicago | 4 | All Maps | STV","players":null},{"server_id":36,"name":"Uncletopia | Chicago | 5 | All Maps","name_short":"chi-5","host":"chi-2.us.uncletopia.com","port":27015,"enabled":true,"region":"us-central","cc":"us","latitude":41.881832,"longitude":-87.62318,"reserved":0,"last_update":"0001-01-01T00:00:00Z","name_a2s":"Uncletopia | Chicago | 5 | All Maps","protocol":17,"map":"pl_snowycoast","folder":"tf","game":"Team Fortress","app_id":440,"player_count":0,"max_players":24,"Bots":0,"server_type":"Dedicated","server_os":"Linux","password":true,"vac":true,"version":"7932396","steam_id":85568392924866362,"keywords":["nocrits","nodmgspread","payload","uncletopia"],"game_id":440,"stv_port":27016,"stv_name":"Uncletopia | Chicago | 5 | All Maps | STV","players":null},{"server_id":37,"name":"Uncletopia | Chicago | 6 | All Maps","name_short":"chi-6","host":"chi-2.us.uncletopia.com","port":27025,"enabled":true,"region":"us-central","cc":"us","latitude":41.881832,"longitude":-87.62318,"reserved":0,"last_update":"0001-01-01T00:00:00Z","name_a2s":"Uncletopia | Chicago | 6 | All Maps","protocol":17,"map":"koth_viaduct","folder":"tf","game":"Team Fortress","app_id":440,"player_count":3,"max_players":24,"Bots":0,"server_type":"Dedicated","server_os":"Linux","password":true,"vac":true,"version":"7932396","steam_id":85568392924866363,"keywords":["cp","nocrits","nodmgspread","uncletopia"],"game_id":440,"stv_port":27026,"stv_name":"Uncletopia | Chicago | 6 | All Maps | STV","players":[{"user_id":628,"name":"wanye","steam_id":76561198216398577,"connected_time":9149000000000,"state":"active","ping":58},{"user_id":629,"name":"bagel sandwich","steam_id":76561198087971968,"connected_time":9124000000000,"state":"active","ping":56},{"user_id":632,"name":"A Large Side Salad","steam_id":76561198106937700,"connected_time":5234000000000,"state":"active","ping":67}]},{"server_id":38,"name":"Uncletopia | Chicago | 7 | Stopwatch Beta","name_short":"chi-7","host":"chi-2.us.uncletopia.com","port":27035,"enabled":true,"region":"us-central","cc":"us","latitude":41.881832,"longitude":-87.62318,"reserved":0,"last_update":"0001-01-01T00:00:00Z","name_a2s":"Uncletopia | Chicago | 7 | Stopwatch Beta","protocol":17,"map":"workshop/koth_ramjam_rc1.ugc459778887","folder":"tf","game":"Team Fortress","app_id":440,"player_count":0,"max_players":24,"Bots":0,"server_type":"Dedicated","server_os":"Linux","password":true,"vac":true,"version":"7932396","steam_id":85568392924866364,"keywords":["cp","nocrits","nodmgspread","uncletopia"],"game_id":440,"stv_port":27036,"stv_name":"Uncletopia | Chicago | 7 | Stopwatch Beta | STV","players":null},{"server_id":39,"name":"Uncletopia | Chicago | 8 | Community","name_short":"chi-8","host":"chi-2.us.uncletopia.com","port":27045,"enabled":true,"region":"us-central","cc":"us","latitude":41.881832,"longitude":-87.62318,"reserved":0,"last_update":"0001-01-01T00:00:00Z","name_a2s":"Uncletopia | Chicago | 8 | Community","protocol":17,"map":"workshop/cp_caldera_rc2.ugc2834196889","folder":"tf","game":"Team Fortress","app_id":440,"player_count":0,"max_players":24,"Bots":0,"server_type":"Dedicated","server_os":"Linux","password":true,"vac":true,"version":"7932396","steam_id":85568392924866365,"keywords":["cp","nocrits","nodmgspread","uncletopia"],"game_id":440,"stv_port":27046,"stv_name":"Uncletopia | Chicago | 8 | Community | STV","players":null},{"server_id":8,"name":"Uncletopia | Dallas | 1 | All Maps","name_short":"dal-1","host":"dal-1.us.uncletopia.com","port":27015,"enabled":true,"region":"us-central","cc":"us","latitude":32.779167,"longitude":-96.80889,"reserved":0,"last_update":"0001-01-01T00:00:00Z","name_a2s":"Uncletopia | Dallas | 1 | All Maps","protocol":17,"map":"pl_pier","folder":"tf","game":"Team Fortress","app_id":440,"player_count":0,"max_players":24,"Bots":0,"server_type":"Dedicated","server_os":"Linux","password":true,"vac":true,"version":"7932396","steam_id":85568392924469986,"keywords":["nocrits","nodmgspread","payload","uncletopia"],"game_id":440,"stv_port":27016,"stv_name":"Uncletopia | Dallas | 1 | All Maps | STV","players":null},{"server_id":108,"name":"Uncletopia | Dallas | 2 | All Maps","name_short":"dal-2","host":"dal-1.us.uncletopia.com","port":27025,"enabled":true,"region":"us-central","cc":"us","latitude":32.779167,"longitude":-96.80889,"reserved":0,"last_update":"0001-01-01T00:00:00Z","name_a2s":"Uncletopia | Dallas | 2 | All Maps","protocol":17,"map":"cp_dustbowl","folder":"tf","game":"Team Fortress","app_id":440,"player_count":22,"max_players":24,"Bots":0,"server_type":"Dedicated","server_os":"Linux","password":true,"vac":true,"version":"7932396","steam_id":85568392924469988,"keywords":["cp","nocrits","nodmgspread","uncletopia"],"game_id":440,"stv_port":27026,"stv_name":"Uncletopia | Dallas | 2 | All Maps | STV","players":[{"user_id":910,"name":"SirGoldalot","steam_id":76561198171440151,"connected_time":3083000000000,"state":"active","ping":60},{"user_id":923,"name":"Dementophobic_Dude","steam_id":76561199470601524,"connected_time":2072000000000,"state":"active","ping":87},{"user_id":917,"name":"Talented","steam_id":76561198800259660,"connected_time":2303000000000,"state":"active","ping":71},{"user_id":893,"name":"banan team fortes","steam_id":76561199073621650,"connected_time":4822000000000,"state":"active","ping":80},{"user_id":953,"name":"Stoofy","steam_id":76561198280750328,"connected_time":315000000000,"state":"active","ping":114},{"user_id":948,"name":"Riff III","steam_id":76561198066921423,"connected_time":973000000000,"state":"active","ping":66},{"user_id":949,"name":"BrainlezBrainiac","steam_id":76561199193942805,"connected_time":858000000000,"state":"active","ping":62},{"user_id":913,"name":"KILLER FLY","steam_id":76561198846480611,"connected_time":2525000000000,"state":"active","ping":91},{"user_id":871,"name":"basilberry","steam_id":76561198145275937,"connected_time":6316000000000,"state":"active","ping":66},{"user_id":921,"name":"frick","steam_id":76561198076400660,"connected_time":2111000000000,"state":"active","ping":75},{"user_id":925,"name":"What Dunpeal Hunter?","steam_id":76561198062243094,"connected_time":2058000000000,"state":"active","ping":129},{"user_id":897,"name":"peebs","steam_id":76561198261319753,"connected_time":4739000000000,"state":"active","ping":79},{"user_id":924,"name":"cbtmaster","steam_id":76561198156286480,"connected_time":2069000000000,"state":"active","ping":81},{"user_id":926,"name":"Batmanstop","steam_id":76561198181734609,"connected_time":2018000000000,"state":"active","ping":95},{"user_id":899,"name":"sergeant Adderall","steam_id":76561199010296481,"connected_time":4730000000000,"state":"active","ping":104},{"user_id":927,"name":"Magpie, frugal trader","steam_id":76561198057143937,"connected_time":2017000000000,"state":"active","ping":91},{"user_id":883,"name":"robo gushy","steam_id":76561198060334743,"connected_time":6032000000000,"state":"active","ping":74},{"user_id":930,"name":"Aligote","steam_id":76561199188849493,"connected_time":1713000000000,"state":"active","ping":96},{"user_id":931,"name":"Disasterday","steam_id":76561198044767090,"connected_time":1686000000000,"state":"active","ping":168},{"user_id":932,"name":"Saucy Boy","steam_id":76561198178332031,"connected_time":1686000000000,"state":"active","ping":95},{"user_id":952,"name":"Satan-2","steam_id":76561199231742764,"connected_time":423000000000,"state":"active","ping":93},{"user_id":885,"name":"skegeton","steam_id":76561198095581099,"connected_time":6004000000000,"state":"active","ping":64}]},{"server_id":5,"name":"Uncletopia | Frankfurt | 1 | All Maps","name_short":"frk-1","host":"frk-1.de.uncletopia.com","port":27015,"enabled":true,"region":"eu","cc":"de","latitude":50.110924,"longitude":8.682127,"reserved":0,"last_update":"0001-01-01T00:00:00Z","name_a2s":"Uncletopia | Frankfurt | 1 | All Maps","protocol":17,"map":"koth_viaduct","folder":"tf","game":"Team Fortress","app_id":440,"player_count":0,"max_players":24,"Bots":0,"server_type":"Dedicated","server_os":"Linux","password":true,"vac":true,"version":"7932396","steam_id":85568392924469989,"keywords":["cp","nocrits","nodmgspread","uncletopia"],"game_id":440,"stv_port":27016,"stv_name":"Uncletopia | Frankfurt | 1 | All Maps | STV","players":null},{"server_id":110,"name":"Uncletopia | Frankfurt | 2 | All Maps","name_short":"frk-2","host":"frk-1.de.uncletopia.com","port":27025,"enabled":true,"region":"eu","cc":"de","latitude":50.110924,"longitude":8.682127,"reserved":0,"last_update":"0001-01-01T00:00:00Z","name_a2s":"Uncletopia | Frankfurt | 2 | All Maps","protocol":17,"map":"cp_sunshine","folder":"tf","game":"Team Fortress","app_id":440,"player_count":0,"max_players":24,"Bots":0,"server_type":"Dedicated","server_os":"Linux","password":true,"vac":true,"version":"7932396","steam_id":85568392924469990,"keywords":["cp","nocrits","nodmgspread","uncletopia"],"game_id":440,"stv_port":27026,"stv_name":"Uncletopia | Frankfurt | 2 | All Maps | STV","players":null},{"server_id":308,"name":"Uncletopia | Frankfurt | 3 | All Maps","name_short":"frk-3","host":"frk-1.de.uncletopia.com","port":27035,"enabled":true,"region":"eu","cc":"de","latitude":50.110924,"longitude":8.682127,"reserved":0,"last_update":"0001-01-01T00:00:00Z","name_a2s":"Uncletopia | Frankfurt | 3 | All Maps","protocol":17,"map":"pl_frontier_final","folder":"tf","game":"Team Fortress","app_id":440,"player_count":17,"max_players":24,"Bots":0,"server_type":"Dedicated","server_os":"Linux","password":true,"vac":true,"version":"7932396","steam_id":85568392924504274,"keywords":["nocrits","nodmgspread","payload","uncletopia"],"game_id":440,"stv_port":27036,"stv_name":"Uncletopia | Frankfurt | 3 | All Maps | STV","players":[{"user_id":95,"name":"Unseen","steam_id":76561198154670360,"connected_time":18000000000,"state":"active","ping":97},{"user_id":62,"name":"√ÉNVS DR√ÉNVS","steam_id":76561198138733015,"connected_time":3509000000000,"state":"active","ping":106},{"user_id":85,"name":"NG mathhead","steam_id":76561198429138254,"connected_time":1498000000000,"state":"active","ping":60},{"user_id":86,"name":"zek","steam_id":76561198862763731,"connected_time":1489000000000,"state":"active","ping":58},{"user_id":54,"name":"iakozachek","steam_id":76561198421867219,"connected_time":4478000000000,"state":"active","ping":130},{"user_id":87,"name":"Day 11","steam_id":76561198024438352,"connected_time":1462000000000,"state":"active","ping":45},{"user_id":88,"name":"Dominus Di Spiritus","steam_id":76561198200488383,"connected_time":1457000000000,"state":"active","ping":70},{"user_id":19,"name":"Asmodeus","steam_id":76561198283156425,"connected_time":5944000000000,"state":"active","ping":60},{"user_id":36,"name":"Barak93","steam_id":76561198044585705,"connected_time":5503000000000,"state":"active","ping":60},{"user_id":90,"name":"Coomer","steam_id":76561198186808027,"connected_time":1327000000000,"state":"active","ping":48},{"user_id":89,"name":"Donut the Vikingchap","steam_id":76561197998255650,"connected_time":1432000000000,"state":"active","ping":70},{"user_id":91,"name":"Alpha","steam_id":76561198133229149,"connected_time":1273000000000,"state":"active","ping":93},{"user_id":92,"name":"Nibbenji2077","steam_id":76561199219663655,"connected_time":1105000000000,"state":"active","ping":138},{"user_id":94,"name":"CS 2","steam_id":76561198972902040,"connected_time":596000000000,"state":"active","ping":85},{"user_id":51,"name":"Kepucz","steam_id":76561197977634244,"connected_time":4819000000000,"state":"active","ping":58},{"user_id":73,"name":"lunaire","steam_id":76561198163344452,"connected_time":2545000000000,"state":"active","ping":82},{"user_id":80,"name":"justify","steam_id":76561199227541378,"connected_time":1965000000000,"state":"active","ping":167}]},{"server_id":309,"name":"Uncletopia | Frankfurt | 4 | All Maps","name_short":"frk-4","host":"frk-1.de.uncletopia.com","port":27045,"enabled":true,"region":"eu","cc":"de","latitude":50.110924,"longitude":8.682127,"reserved":0,"last_update":"0001-01-01T00:00:00Z","name_a2s":"Uncletopia | Frankfurt | 4 | All Maps","protocol":17,"map":"pl_upward","folder":"tf","game":"Team Fortress","app_id":440,"player_count":0,"max_players":24,"Bots":0,"server_type":"Dedicated","server_os":"Linux","password":true,"vac":true,"version":"7932396","steam_id":85568392924504275,"keywords":["nocrits","nodmgspread","payload","uncletopia"],"game_id":440,"stv_port":27046,"stv_name":"Uncletopia | Frankfurt | 4 | All Maps | STV","players":null},{"server_id":310,"name":"Uncletopia | Frankfurt | 5 | All Maps","name_short":"frk-5","host":"frk-1.de.uncletopia.com","port":27055,"enabled":true,"region":"eu","cc":"de","latitude":50.110924,"longitude":8.682127,"reserved":0,"last_update":"0001-01-01T00:00:00Z","name_a2s":"Uncletopia | Frankfurt | 5 | All Maps","protocol":17,"map":"pl_snowycoast","folder":"tf","game":"Team Fortress","app_id":440,"player_count":24,"max_players":24,"Bots":0,"server_type":"Dedicated","server_os":"Linux","password":true,"vac":true,"version":"7932396","steam_id":85568392924504277,"keywords":["nocrits","nodmgspread","payload","uncletopia"],"game_id":440,"stv_port":27056,"stv_name":"Uncletopia | Frankfurt | 5 | All Maps | STV","players":[{"user_id":82,"name":"Latvian Edgelord","steam_id":76561198830058797,"connected_time":194000000000,"state":"active","ping":74},{"user_id":28,"name":"Vallet","steam_id":76561198327333965,"connected_time":3888000000000,"state":"active","ping":68},{"user_id":53,"name":"Naeso","steam_id":76561198068602498,"connected_time":2606000000000,"state":"active","ping":47},{"user_id":81,"name":"Zlice","steam_id":76561198161735458,"connected_time":460000000000,"state":"active","ping":61},{"user_id":68,"name":"Covetousix","steam_id":76561198293936824,"connected_time":1604000000000,"state":"active","ping":76},{"user_id":15,"name":"Holo","steam_id":76561198348567663,"connected_time":4155000000000,"state":"active","ping":74},{"user_id":76,"name":"Pyro","steam_id":76561198999303134,"connected_time":752000000000,"state":"active","ping":123},{"user_id":43,"name":"Oxer","steam_id":76561198055942412,"connected_time":3522000000000,"state":"active","ping":76},{"user_id":79,"name":"pablo","steam_id":76561198089285014,"connected_time":678000000000,"state":"active","ping":75},{"user_id":45,"name":"spy among us","steam_id":76561198392537090,"connected_time":3484000000000,"state":"active","ping":52},{"user_id":75,"name":"Happy Cat","steam_id":76561198405359788,"connected_time":987000000000,"state":"active","ping":92},{"user_id":77,"name":"Everness","steam_id":76561197994803883,"connected_time":743000000000,"state":"active","ping":75},{"user_id":34,"name":"A3517","steam_id":76561198346434027,"connected_time":3612000000000,"state":"active","ping":101},{"user_id":74,"name":"FatAssHaver55","steam_id":76561199142022395,"connected_time":1133000000000,"state":"active","ping":65},{"user_id":25,"name":"The Wolf Leader","steam_id":76561198038007462,"connected_time":3926000000000,"state":"active","ping":86},{"user_id":26,"name":"copium addict | blw.tf","steam_id":76561199401665282,"connected_time":3916000000000,"state":"active","ping":101},{"user_id":69,"name":"lofimonkeyjazz","steam_id":76561198117059662,"connected_time":1602000000000,"state":"active","ping":86},{"user_id":35,"name":"hipster_doofus","steam_id":76561197970902697,"connected_time":3606000000000,"state":"active","ping":71},{"user_id":36,"name":"georg1e","steam_id":76561199032591040,"connected_time":3593000000000,"state":"active","ping":75},{"user_id":37,"name":"Paintbrush","steam_id":76561198119987705,"connected_time":3575000000000,"state":"active","ping":59},{"user_id":80,"name":"ice cream","steam_id":76561198087718730,"connected_time":656000000000,"state":"active","ping":58},{"user_id":78,"name":"KAZAM | Tervez","steam_id":76561198045459068,"connected_time":729000000000,"state":"active","ping":88},{"user_id":83,"name":"average f2p","steam_id":76561199109449730,"connected_time":192000000000,"state":"active","ping":152},{"user_id":70,"name":"Mac Bean","steam_id":76561198133782205,"connected_time":1602000000000,"state":"active","ping":118}]},{"server_id":311,"name":"Uncletopia | Frankfurt | 6 | All Maps","name_short":"frk-6","host":"frk-1.de.uncletopia.com","port":27065,"enabled":true,"region":"eu","cc":"de","latitude":50.110924,"longitude":8.682127,"reserved":0,"last_update":"0001-01-01T00:00:00Z","name_a2s":"Uncletopia | Frankfurt | 6 | All Maps","protocol":17,"map":"koth_viaduct","folder":"tf","game":"Team Fortress","app_id":440,"player_count":0,"max_players":24,"Bots":0,"server_type":"Dedicated","server_os":"Linux","password":true,"vac":true,"version":"7932396","steam_id":85568392924504278,"keywords":["cp","nocrits","nodmgspread","uncletopia"],"game_id":440,"stv_port":27066,"stv_name":"Uncletopia | Frankfurt | 6 | All Maps | STV","players":null},{"server_id":23,"name":"Uncletopia | Frankfurt | 7 | Stopwatch Beta","name_short":"frk-7","host":"frk-1.de.uncletopia.com","port":27075,"enabled":true,"region":"eu","cc":"de","latitude":50.110924,"longitude":8.682127,"reserved":0,"last_update":"0001-01-01T00:00:00Z","name_a2s":"Uncletopia | Frankfurt | 7 | Stopwatch Beta","protocol":17,"map":"pl_snowycoast","folder":"tf","game":"Team Fortress","app_id":440,"player_count":0,"max_players":24,"Bots":0,"server_type":"Dedicated","server_os":"Linux","password":true,"vac":true,"version":"7932396","steam_id":85568392924742827,"keywords":["nocrits","nodmgspread","payload","uncletopia"],"game_id":440,"stv_port":27076,"stv_name":"Uncletopia | Frankfurt | 7 | Stopwatch Beta | STV","players":null},{"server_id":24,"name":"Uncletopia | Frankfurt | 8 | Community","name_short":"frk-8","host":"frk-1.de.uncletopia.com","port":27085,"enabled":true,"region":"eu","cc":"de","latitude":50.110924,"longitude":8.682127,"reserved":0,"last_update":"0001-01-01T00:00:00Z","name_a2s":"Uncletopia | Frankfurt | 8 | Community","protocol":17,"map":"pl_barnblitz","folder":"tf","game":"Team Fortress","app_id":440,"player_count":0,"max_players":24,"Bots":0,"server_type":"Dedicated","server_os":"Linux","password":true,"vac":true,"version":"7932396","steam_id":85568392924742828,"keywords":["nocrits","nodmgspread","payload","uncletopia"],"game_id":440,"stv_port":27086,"stv_name":"Uncletopia | Frankfurt | 8 | Community | STV","players":null},{"server_id":202,"name":"Uncletopia | Hong Kong | 1 | All Maps","name_short":"hgk-1","host":"hgk-1.hk.uncletopia.com","port":27015,"enabled":true,"region":"asia","cc":"hk","latitude":22.302711,"longitude":114.177216,"reserved":0,"last_update":"0001-01-01T00:00:00Z","name_a2s":"Uncletopia | Hong Kong | 1 | All Maps","protocol":17,"map":"cp_steel","folder":"tf","game":"Team Fortress","app_id":440,"player_count":20,"max_players":24,"Bots":0,"server_type":"Dedicated","server_os":"Linux","password":true,"vac":true,"version":"7932396","steam_id":85568392924494504,"keywords":["cp","nocrits","nodmgspread","uncletopia"],"game_id":440,"stv_port":27016,"stv_name":"Uncletopia | Hong Kong | 1 | All Maps | STV","players":[{"user_id":231,"name":"GreggieBoi","steam_id":76561199085200364,"connected_time":199000000000,"state":"active","ping":64},{"user_id":219,"name":"juice","steam_id":76561199009556495,"connected_time":1863000000000,"state":"active","ping":96},{"user_id":204,"name":"whooops","steam_id":76561199144084820,"connected_time":3057000000000,"state":"active","ping":84},{"user_id":233,"name":"SugarCoat","steam_id":76561199230196794,"connected_time":86000000000,"state":"active","ping":96},{"user_id":108,"name":"something malicious is brewing ","steam_id":76561198074339034,"connected_time":13920000000000,"state":"active","ping":72},{"user_id":230,"name":"wom","steam_id":76561199375834537,"connected_time":221000000000,"state":"active","ping":78},{"user_id":210,"name":"Dead? That's 500.","steam_id":76561198152588681,"connected_time":2069000000000,"state":"active","ping":85},{"user_id":193,"name":"Lelouch","steam_id":76561198828840546,"connected_time":4452000000000,"state":"active","ping":83},{"user_id":215,"name":"ConHoshi","steam_id":76561199387718733,"connected_time":2026000000000,"state":"active","ping":83},{"user_id":222,"name":"TomProPlayer","steam_id":76561199223292521,"connected_time":1185000000000,"state":"active","ping":76},{"user_id":218,"name":"Headmouth","steam_id":76561198019789855,"connected_time":1895000000000,"state":"active","ping":113},{"user_id":160,"name":"vintage","steam_id":76561198230213828,"connected_time":8387000000000,"state":"active","ping":130},{"user_id":190,"name":"Michael Scott","steam_id":76561198023082794,"connected_time":4822000000000,"state":"active","ping":51},{"user_id":224,"name":"Smudge","steam_id":76561198167863840,"connected_time":1098000000000,"state":"active","ping":64},{"user_id":223,"name":"yw","steam_id":76561199382726488,"connected_time":1174000000000,"state":"active","ping":46},{"user_id":191,"name":"Giorno Giovanna","steam_id":76561198117257758,"connected_time":4594000000000,"state":"active","ping":99},{"user_id":203,"name":"Â∏ï","steam_id":76561198439343999,"connected_time":3509000000000,"state":"active","ping":79},{"user_id":226,"name":"monkeyman536","steam_id":76561197997717737,"connected_time":926000000000,"state":"active","ping":129},{"user_id":150,"name":"im_0ff","steam_id":76561198339346695,"connected_time":9398000000000,"state":"active","ping":125},{"user_id":208,"name":"Mystery cheese üßÄ","steam_id":76561198304002409,"connected_time":2460000000000,"state":"active","ping":78}]},{"server_id":1,"name":"Uncletopia | Los Angeles | 1 | All Maps","name_short":"lax-1","host":"lax-1.us.uncletopia.com","port":27015,"enabled":true,"region":"us-west","cc":"us","latitude":33.94279,"longitude":-118.41004,"reserved":0,"last_update":"0001-01-01T00:00:00Z","name_a2s":"Uncletopia | Los Angeles | 1 | All Maps","protocol":17,"map":"cp_sunshine","folder":"tf","game":"Team Fortress","app_id":440,"player_count":21,"max_players":24,"Bots":0,"server_type":"Dedicated","server_os":"Linux","password":true,"vac":true,"version":"7932396","steam_id":85568392924469991,"keywords":["cp","nocrits","nodmgspread","uncletopia"],"game_id":440,"stv_port":27016,"stv_name":"Uncletopia | Los Angeles | 1 | All Maps | STV","players":[{"user_id":831,"name":"Chimpus","steam_id":76561198284680798,"connected_time":886000000000,"state":"active","ping":96},{"user_id":824,"name":"Kenny","steam_id":76561198031540741,"connected_time":975000000000,"state":"active","ping":61},{"user_id":825,"name":"lasagnalarry12","steam_id":76561198162688146,"connected_time":974000000000,"state":"active","ping":50},{"user_id":822,"name":"Amogous Supreme","steam_id":76561198025476774,"connected_time":1245000000000,"state":"active","ping":62},{"user_id":844,"name":"Frogs bother me","steam_id":76561198851903099,"connected_time":82000000000,"state":"active","ping":49},{"user_id":828,"name":"Gm_Trash","steam_id":76561199445091548,"connected_time":935000000000,"state":"active","ping":70},{"user_id":839,"name":"Cornsauce","steam_id":76561198085007342,"connected_time":693000000000,"state":"active","ping":58},{"user_id":812,"name":"times table","steam_id":76561198341452558,"connected_time":1797000000000,"state":"active","ping":140},{"user_id":837,"name":"hatsune miku","steam_id":76561199445009981,"connected_time":755000000000,"state":"active","ping":78},{"user_id":842,"name":"‚ô†·É¶„ÄåLoafi„Äç·É¶‚ô†","steam_id":76561198294770715,"connected_time":123000000000,"state":"active","ping":114},{"user_id":830,"name":"Prez Pineapple","steam_id":76561198253755258,"connected_time":899000000000,"state":"active","ping":73},{"user_id":841,"name":"french exterminator","steam_id":76561198993412673,"connected_time":135000000000,"state":"active","ping":81},{"user_id":843,"name":"nug nug","steam_id":76561198208573769,"connected_time":117000000000,"state":"active","ping":71},{"user_id":838,"name":"‚ö£ Horny(er) Femboy ‚ö£","steam_id":76561197998789730,"connected_time":751000000000,"state":"active","ping":68},{"user_id":845,"name":"Goose-8","steam_id":76561198795950093,"connected_time":54000000000,"state":"active","ping":99},{"user_id":779,"name":"the rat","steam_id":76561198442468979,"connected_time":5631000000000,"state":"active","ping":56},{"user_id":766,"name":"pope4tw","steam_id":76561199174282651,"connected_time":6342000000000,"state":"active","ping":85},{"user_id":836,"name":"‚ö£ Horny Femboy ‚ö£","steam_id":76561199043463646,"connected_time":769000000000,"state":"active","ping":76},{"user_id":754,"name":"HAT-WEARING‚Ñ¢ Maggot Gamer Cat","steam_id":76561197973992705,"connected_time":7173000000000,"state":"active","ping":65},{"user_id":840,"name":"Edgeiv","steam_id":76561198074539334,"connected_time":675000000000,"state":"active","ping":81},{"user_id":821,"name":"Beefboss_plays","steam_id":76561199454237265,"connected_time":1338000000000,"state":"active","ping":115}]},{"server_id":112,"name":"Uncletopia | Los Angeles | 2 | All Maps","name_short":"lax-2","host":"lax-1.us.uncletopia.com","port":27025,"enabled":true,"region":"us-west","cc":"us","latitude":33.94279,"longitude":-118.41004,"reserved":0,"last_update":"0001-01-01T00:00:00Z","name_a2s":"Uncletopia | Los Angeles | 2 | All Maps","protocol":17,"map":"cp_sunshine","folder":"tf","game":"Team Fortress","app_id":440,"player_count":0,"max_players":24,"Bots":0,"server_type":"Dedicated","server_os":"Linux","password":true,"vac":true,"version":"7932396","steam_id":85568392924469992,"keywords":["cp","nocrits","nodmgspread","uncletopia"],"game_id":440,"stv_port":27026,"stv_name":"Uncletopia | Los Angeles | 2 | All Maps | STV","players":null},{"server_id":324,"name":"Uncletopia | Los Angeles | 3 | All Maps","name_short":"lax-3","host":"lax-1.us.uncletopia.com","port":27035,"enabled":true,"region":"us-west","cc":"us","latitude":33.94279,"longitude":-118.41004,"reserved":0,"last_update":"0001-01-01T00:00:00Z","name_a2s":"Uncletopia | Los Angeles | 3 | All Maps","protocol":17,"map":"cp_process_final","folder":"tf","game":"Team Fortress","app_id":440,"player_count":24,"max_players":24,"Bots":0,"server_type":"Dedicated","server_os":"Linux","password":true,"vac":true,"version":"7932396","steam_id":85568392924510198,"keywords":["cp","nocrits","nodmgspread","uncletopia"],"game_id":440,"stv_port":27036,"stv_name":"Uncletopia | Los Angeles | 3 | All Maps | STV","players":[{"user_id":397,"name":"Saggle","steam_id":76561198056075147,"connected_time":3300000000000,"state":"active","ping":175},{"user_id":409,"name":"Zion Chavez","steam_id":76561198178536999,"connected_time":1714000000000,"state":"active","ping":54},{"user_id":428,"name":"tr","steam_id":76561198046944222,"connected_time":662000000000,"state":"active","ping":62},{"user_id":423,"name":"Blade","steam_id":76561198041664686,"connected_time":1141000000000,"state":"active","ping":66},{"user_id":355,"name":"The Goblin!","steam_id":76561199015195397,"connected_time":5428000000000,"state":"active","ping":79},{"user_id":396,"name":"jams","steam_id":76561198131701290,"connected_time":3322000000000,"state":"active","ping":43},{"user_id":411,"name":"We believe in you!","steam_id":76561198219252313,"connected_time":1579000000000,"state":"active","ping":104},{"user_id":426,"name":"Darkspiral","steam_id":76561198080807559,"connected_time":955000000000,"state":"active","ping":44},{"user_id":429,"name":"no vc no c","steam_id":76561197989503095,"connected_time":500000000000,"state":"active","ping":164},{"user_id":432,"name":"yall need me frfr","steam_id":76561198294192287,"connected_time":34000000000,"state":"active","ping":49},{"user_id":401,"name":"set","steam_id":76561198294281809,"connected_time":3090000000000,"state":"active","ping":58},{"user_id":360,"name":"Casual Shitter #SaveTf2","steam_id":76561199126330009,"connected_time":5095000000000,"state":"active","ping":132},{"user_id":402,"name":"no :)","steam_id":76561198028612613,"connected_time":2962000000000,"state":"active","ping":82},{"user_id":400,"name":"-Z-","steam_id":76561198194361333,"connected_time":3247000000000,"state":"active","ping":65},{"user_id":414,"name":"Patrick \" Muhammad \" Star","steam_id":76561198163168789,"connected_time":1450000000000,"state":"active","ping":65},{"user_id":416,"name":"Mocha Josie","steam_id":76561198066452726,"connected_time":1372000000000,"state":"active","ping":49},{"user_id":390,"name":"naturia","steam_id":76561198092317849,"connected_time":3756000000000,"state":"active","ping":49},{"user_id":433,"name":"eyesack","steam_id":76561198353654220,"connected_time":9000000000,"state":"spawning","ping":104},{"user_id":391,"name":"yellow ·óúÀ¨·óú","steam_id":76561198366474647,"connected_time":3633000000000,"state":"active","ping":45},{"user_id":424,"name":"Raian","steam_id":76561199138048671,"connected_time":1111000000000,"state":"active","ping":44},{"user_id":365,"name":"bocaJ","steam_id":76561198374535092,"connected_time":4856000000000,"state":"active","ping":30},{"user_id":381,"name":"DaBeatGoOff2?","steam_id":76561198106507400,"connected_time":4096000000000,"state":"active","ping":68},{"user_id":346,"name":"selvhat","steam_id":76561198114225509,"connected_time":6671000000000,"state":"active","ping":51},{"user_id":405,"name":"mac_cheese","steam_id":76561198071334162,"connected_time":2699000000000,"state":"active","ping":74}]},{"server_id":25,"name":"Uncletopia | Los Angeles | 4 | Stopwatch Beta","name_short":"lax-4","host":"lax-1.us.uncletopia.com","port":27045,"enabled":true,"region":"us-west","cc":"us","latitude":33.94279,"longitude":-118.41004,"reserved":0,"last_update":"0001-01-01T00:00:00Z","name_a2s":"Uncletopia | Los Angeles | 4 | Stopwatch Beta","protocol":17,"map":"pl_swiftwater_final1","folder":"tf","game":"Team Fortress","app_id":440,"player_count":0,"max_players":24,"Bots":0,"server_type":"Dedicated","server_os":"Linux","password":true,"vac":true,"version":"7932396","steam_id":85568392924510199,"keywords":["nocrits","nodmgspread","payload","uncletopia"],"game_id":440,"stv_port":27046,"stv_name":"Uncletopia | Los Angeles | 4 | Stopwatch Beta | STV","players":null},{"server_id":11,"name":"Uncletopia | London | 1 | All Maps","name_short":"lon-1","host":"lon-1.uk.uncletopia.com","port":27015,"enabled":true,"region":"eu","cc":"gb","latitude":51.509865,"longitude":-0.118092,"reserved":0,"last_update":"0001-01-01T00:00:00Z","name_a2s":"Uncletopia | London | 1 | All Maps","protocol":17,"map":"pl_badwater","folder":"tf","game":"Team Fortress","app_id":440,"player_count":22,"max_players":24,"Bots":0,"server_type":"Dedicated","server_os":"Linux","password":true,"vac":true,"version":"7932396","steam_id":85568392924367362,"keywords":["nocrits","nodmgspread","payload","uncletopia"],"game_id":440,"stv_port":27016,"stv_name":"Uncletopia | London | 1 | All Maps | STV","players":[{"user_id":15,"name":"toomas2018(real)","steam_id":76561199105796083,"connected_time":2273000000000,"state":"active","ping":76},{"user_id":38,"name":"zorze supreme.exe","steam_id":76561198996333022,"connected_time":886000000000,"state":"active","ping":70},{"user_id":26,"name":"MeBandae","steam_id":76561198910770432,"connected_time":1416000000000,"state":"active","ping":69},{"user_id":27,"name":"Genesis","steam_id":76561198999652040,"connected_time":1250000000000,"state":"active","ping":52},{"user_id":19,"name":"wise ukrainian shaman","steam_id":76561198989398023,"connected_time":1869000000000,"state":"active","ping":122},{"user_id":20,"name":"cookie enchanter","steam_id":76561199162894483,"connected_time":1850000000000,"state":"active","ping":175},{"user_id":48,"name":"OOF","steam_id":76561198263698995,"connected_time":465000000000,"state":"active","ping":76},{"user_id":29,"name":"hsn‚Åß‚Åß741","steam_id":76561198307602421,"connected_time":1162000000000,"state":"active","ping":102},{"user_id":60,"name":"Bepperman","steam_id":76561198397517828,"connected_time":99000000000,"state":"active","ping":56},{"user_id":34,"name":"Master Of Noob","steam_id":76561198217926783,"connected_time":954000000000,"state":"active","ping":79},{"user_id":47,"name":"JAZZ COMMANDO","steam_id":76561198031766068,"connected_time":505000000000,"state":"active","ping":51},{"user_id":55,"name":"Delab Le Fou","steam_id":76561198846356572,"connected_time":294000000000,"state":"active","ping":105},{"user_id":37,"name":"sethlington14","steam_id":76561199438357690,"connected_time":906000000000,"state":"active","ping":56},{"user_id":51,"name":"Rin-Nakaret","steam_id":76561197971051188,"connected_time":416000000000,"state":"active","ping":59},{"user_id":40,"name":"Purpurea","steam_id":76561198075376419,"connected_time":753000000000,"state":"active","ping":66},{"user_id":41,"name":"ermes‚ù§","steam_id":76561198308441724,"connected_time":751000000000,"state":"active","ping":58},{"user_id":43,"name":"Nobody","steam_id":76561199113947978,"connected_time":682000000000,"state":"active","ping":85},{"user_id":46,"name":"Fake DoctorPacman","steam_id":76561198228084504,"connected_time":549000000000,"state":"active","ping":47},{"user_id":54,"name":"generic alias","steam_id":76561198271607226,"connected_time":317000000000,"state":"active","ping":97},{"user_id":57,"name":"BillY_BaD_GuY","steam_id":76561198059686064,"connected_time":260000000000,"state":"active","ping":60},{"user_id":58,"name":"errisauroh","steam_id":76561198112701938,"connected_time":219000000000,"state":"active","ping":62},{"user_id":59,"name":"Pink Milk","steam_id":76561198096132157,"connected_time":210000000000,"state":"active","ping":51}]},{"server_id":114,"name":"Uncletopia | London | 2 | All Maps","name_short":"lon-2","host":"lon-1.uk.uncletopia.com","port":27025,"enabled":true,"region":"eu","cc":"gb","latitude":51.509865,"longitude":-0.118092,"reserved":0,"last_update":"0001-01-01T00:00:00Z","name_a2s":"Uncletopia | London | 2 | All Maps","protocol":17,"map":"cp_sunshine","folder":"tf","game":"Team Fortress","app_id":440,"player_count":0,"max_players":24,"Bots":0,"server_type":"Dedicated","server_os":"Linux","password":true,"vac":true,"version":"7932396","steam_id":85568392924470941,"keywords":["cp","nocrits","nodmgspread","uncletopia"],"game_id":440,"stv_port":27026,"stv_name":"Uncletopia | London | 2 | All Maps | STV","players":null},{"server_id":320,"name":"Uncletopia | London | 3 | All Maps","name_short":"lon-3","host":"lon-1.uk.uncletopia.com","port":27035,"enabled":true,"region":"eu","cc":"gb","latitude":51.509865,"longitude":-0.118092,"reserved":0,"last_update":"0001-01-01T00:00:00Z","name_a2s":"Uncletopia | London | 3 | All Maps","protocol":17,"map":"koth_highpass","folder":"tf","game":"Team Fortress","app_id":440,"player_count":0,"max_players":24,"Bots":0,"server_type":"Dedicated","server_os":"Linux","password":true,"vac":true,"version":"7932396","steam_id":85568392924510192,"keywords":["cp","nocrits","nodmgspread","uncletopia"],"game_id":440,"stv_port":27036,"stv_name":"Uncletopia | London | 3 | All Maps | STV","players":null},{"server_id":321,"name":"Uncletopia | London | 4 | All Maps","name_short":"lon-4","host":"lon-1.uk.uncletopia.com","port":27045,"enabled":true,"region":"eu","cc":"gb","latitude":51.509865,"longitude":-0.118092,"reserved":0,"last_update":"0001-01-01T00:00:00Z","name_a2s":"Uncletopia | London | 4 | All Maps","protocol":17,"map":"cp_snakewater_final1","folder":"tf","game":"Team Fortress","app_id":440,"player_count":0,"max_players":24,"Bots":0,"server_type":"Dedicated","server_os":"Linux","password":true,"vac":true,"version":"7932396","steam_id":85568392924510193,"keywords":["cp","nocrits","nodmgspread","uncletopia"],"game_id":440,"stv_port":27046,"stv_name":"Uncletopia | London | 4 | All Maps | STV","players":null},{"server_id":21,"name":"Uncletopia | London | 5 | All Maps","name_short":"lon-5","host":"lon-1.uk.uncletopia.com","port":27055,"enabled":true,"region":"eu","cc":"gb","latitude":51.509865,"longitude":-0.118092,"reserved":0,"last_update":"0001-01-01T00:00:00Z","name_a2s":"Uncletopia | London | 5 | All Maps","protocol":17,"map":"pl_badwater","folder":"tf","game":"Team Fortress","app_id":440,"player_count":23,"max_players":24,"Bots":0,"server_type":"Dedicated","server_os":"Linux","password":true,"vac":true,"version":"7932396","steam_id":85568392924742829,"keywords":["nocrits","nodmgspread","payload","uncletopia"],"game_id":440,"stv_port":27056,"stv_name":"Uncletopia | London | 5 | All Maps | STV","players":[{"user_id":116,"name":"spxcy","steam_id":76561198080296853,"connected_time":2568000000000,"state":"active","ping":77},{"user_id":131,"name":"ZzanN :D","steam_id":76561198836772776,"connected_time":1256000000000,"state":"active","ping":135},{"user_id":121,"name":"ThaumielAT","steam_id":76561199488559560,"connected_time":1986000000000,"state":"active","ping":134},{"user_id":128,"name":"eva.","steam_id":76561198054474684,"connected_time":1543000000000,"state":"active","ping":89},{"user_id":107,"name":"Lernix","steam_id":76561198382328645,"connected_time":3206000000000,"state":"active","ping":68},{"user_id":106,"name":"Maybe Jetstream Sam","steam_id":76561198987390492,"connected_time":3367000000000,"state":"active","ping":90},{"user_id":143,"name":"Romultra","steam_id":76561198354105082,"connected_time":284000000000,"state":"active","ping":40},{"user_id":83,"name":"Deki","steam_id":76561198031914490,"connected_time":4353000000000,"state":"active","ping":65},{"user_id":133,"name":"Penis Gaming","steam_id":76561199198623988,"connected_time":1149000000000,"state":"active","ping":67},{"user_id":140,"name":"WolfmanCZ","steam_id":76561199157141414,"connected_time":632000000000,"state":"active","ping":74},{"user_id":18,"name":"Idk What Im Doing","steam_id":76561198833068074,"connected_time":11802000000000,"state":"active","ping":94},{"user_id":125,"name":"clunk","steam_id":76561198836460767,"connected_time":1591000000000,"state":"active","ping":74},{"user_id":119,"name":"RLCrazyCat3","steam_id":76561197983757878,"connected_time":2269000000000,"state":"active","ping":54},{"user_id":144,"name":"Nao","steam_id":76561199001979254,"connected_time":241000000000,"state":"active","ping":85},{"user_id":130,"name":"GEP Gun","steam_id":76561197981821003,"connected_time":1323000000000,"state":"active","ping":51},{"user_id":134,"name":"tf2 snake","steam_id":76561198193971167,"connected_time":1074000000000,"state":"active","ping":61},{"user_id":118,"name":"nymph","steam_id":76561199249569889,"connected_time":2547000000000,"state":"active","ping":60},{"user_id":139,"name":"videogamer9000","steam_id":76561199488761580,"connected_time":741000000000,"state":"active","ping":80},{"user_id":147,"name":"zebulon","steam_id":76561198384683504,"connected_time":83000000000,"state":"active","ping":54},{"user_id":145,"name":"SirSangoor","steam_id":76561198044462559,"connected_time":130000000000,"state":"active","ping":111},{"user_id":138,"name":"SpilledMilk","steam_id":76561198174123971,"connected_time":765000000000,"state":"active","ping":64},{"user_id":108,"name":"Salamon","steam_id":76561198280756561,"connected_time":3134000000000,"state":"active","ping":119},{"user_id":146,"name":"greg's mom","steam_id":76561198050525471,"connected_time":101000000000,"state":"active","ping":78}]},{"server_id":22,"name":"Uncletopia | London | 6 | All Maps","name_short":"lon-6","host":"lon-1.uk.uncletopia.com","port":27065,"enabled":true,"region":"eu","cc":"gb","latitude":51.509865,"longitude":-0.118092,"reserved":0,"last_update":"0001-01-01T00:00:00Z","name_a2s":"Uncletopia | London | 6 | All Maps","protocol":17,"map":"pl_upward","folder":"tf","game":"Team Fortress","app_id":440,"player_count":0,"max_players":24,"Bots":0,"server_type":"Dedicated","server_os":"Linux","password":true,"vac":true,"version":"7932396","steam_id":85568392924742830,"keywords":["nocrits","nodmgspread","payload","uncletopia"],"game_id":440,"stv_port":27066,"stv_name":"Uncletopia | London | 6 | All Maps | STV","players":null},{"server_id":40,"name":"Uncletopia | London | 7 | No Payload","name_short":"lon-7","host":"lon-1.uk.uncletopia.com","port":27075,"enabled":true,"region":"eu","cc":"gb","latitude":51.509865,"longitude":-0.118092,"reserved":0,"last_update":"0001-01-01T00:00:00Z","name_a2s":"Uncletopia | London | 7 | No Payload","protocol":17,"map":"pl_snowycoast","folder":"tf","game":"Team Fortress","app_id":440,"player_count":0,"max_players":24,"Bots":0,"server_type":"Dedicated","server_os":"Linux","password":true,"vac":true,"version":"7932396","steam_id":85568392924964314,"keywords":["nocrits","nodmgspread","payload","uncletopia"],"game_id":440,"stv_port":27076,"stv_name":"Uncletopia | London | 7 | No Payload | STV","players":null},{"server_id":41,"name":"Uncletopia | London | 8 | Community","name_short":"lon-8","host":"lon-1.uk.uncletopia.com","port":27085,"enabled":true,"region":"eu","cc":"gb","latitude":51.509865,"longitude":-0.118092,"reserved":0,"last_update":"0001-01-01T00:00:00Z","name_a2s":"Uncletopia | London | 8 | Community","protocol":17,"map":"pl_barnblitz","folder":"tf","game":"Team Fortress","app_id":440,"player_count":0,"max_players":24,"Bots":0,"server_type":"Dedicated","server_os":"Linux","password":true,"vac":true,"version":"7932396","steam_id":85568392924964315,"keywords":["nocrits","nodmgspread","payload","uncletopia"],"game_id":440,"stv_port":27086,"stv_name":"Uncletopia | London | 8 | Community | STV","players":null},{"server_id":300,"name":"Uncletopia | Montr√©al | 1 | All Maps","name_short":"mtl-1","host":"mtl-1.ca.uncletopia.com","port":27015,"enabled":true,"region":"us-east","cc":"ca","latitude":45.50889,"longitude":-73.56167,"reserved":0,"last_update":"0001-01-01T00:00:00Z","name_a2s":"Uncletopia | Montr√©al | 1 | All Maps","protocol":17,"map":"cp_altitude","folder":"tf","game":"Team Fortress","app_id":440,"player_count":0,"max_players":24,"Bots":0,"server_type":"Dedicated","server_os":"Linux","password":true,"vac":true,"version":"7932396","steam_id":85568392924500087,"keywords":["cp","nocrits","nodmgspread","uncletopia"],"game_id":440,"stv_port":27016,"stv_name":"Uncletopia | Montr√©al | 1 | All Maps | STV","players":null},{"server_id":301,"name":"Uncletopia | Montr√©al | 2 | All Maps","name_short":"mtl-2","host":"mtl-1.ca.uncletopia.com","port":27025,"enabled":true,"region":"us-east","cc":"ca","latitude":45.50889,"longitude":-73.56167,"reserved":0,"last_update":"0001-01-01T00:00:00Z","name_a2s":"Uncletopia | Montr√©al | 2 | All Maps","protocol":17,"map":"cp_snakewater_final1","folder":"tf","game":"Team Fortress","app_id":440,"player_count":0,"max_players":24,"Bots":0,"server_type":"Dedicated","server_os":"Linux","password":true,"vac":true,"version":"7932396","steam_id":85568392924500088,"keywords":["cp","nocrits","nodmgspread","uncletopia"],"game_id":440,"stv_port":27026,"stv_name":"Uncletopia | Montr√©al | 2 | All Maps | STV","players":null},{"server_id":302,"name":"Uncletopia | Montr√©al | 3 | All Maps","name_short":"mtl-3","host":"mtl-1.ca.uncletopia.com","port":27035,"enabled":true,"region":"us-east","cc":"ca","latitude":45.50889,"longitude":-73.56167,"reserved":0,"last_update":"0001-01-01T00:00:00Z","name_a2s":"Uncletopia | Montr√©al | 3 | All Maps","protocol":17,"map":"pl_frontier_final","folder":"tf","game":"Team Fortress","app_id":440,"player_count":0,"max_players":24,"Bots":0,"server_type":"Dedicated","server_os":"Linux","password":true,"vac":true,"version":"7932396","steam_id":85568392924500089,"keywords":["nocrits","nodmgspread","payload","uncletopia"],"game_id":440,"stv_port":27036,"stv_name":"Uncletopia | Montr√©al | 3 | All Maps | STV","players":null},{"server_id":303,"name":"Uncletopia | Montr√©al | 4 | No Payload","name_short":"mtl-4","host":"mtl-1.ca.uncletopia.com","port":27045,"enabled":true,"region":"us-east","cc":"ca","latitude":45.50889,"longitude":-73.56167,"reserved":0,"last_update":"0001-01-01T00:00:00Z","name_a2s":"Uncletopia | Montr√©al | 4 | No Payload","protocol":17,"map":"koth_lakeside_final","folder":"tf","game":"Team Fortress","app_id":440,"player_count":0,"max_players":24,"Bots":0,"server_type":"Dedicated","server_os":"Linux","password":true,"vac":true,"version":"7932396","steam_id":85568392924500090,"keywords":["cp","nocrits","nodmgspread","uncletopia"],"game_id":440,"stv_port":27046,"stv_name":"Uncletopia | Montr√©al | 4 | No Payload | STV","players":null},{"server_id":13,"name":"Uncletopia | New York City | 1 | All Maps","name_short":"nyc-1","host":"nyc-1.us.uncletopia.com","port":27015,"enabled":true,"region":"us-east","cc":"us","latitude":40.73061,"longitude":-73.93524,"reserved":0,"last_update":"0001-01-01T00:00:00Z","name_a2s":"Uncletopia | New York City | 1 | All Maps","protocol":17,"map":"koth_lakeside_final","folder":"tf","game":"Team Fortress","app_id":440,"player_count":0,"max_players":24,"Bots":0,"server_type":"Dedicated","server_os":"Linux","password":true,"vac":true,"version":"7932396","steam_id":85568392924469993,"keywords":["cp","nocrits","nodmgspread","uncletopia"],"game_id":440,"stv_port":27016,"stv_name":"Uncletopia | New York City | 1 | All Maps | STV","players":null},{"server_id":14,"name":"Uncletopia | New York City | 2 | All Maps","name_short":"nyc-2","host":"nyc-1.us.uncletopia.com","port":27025,"enabled":true,"region":"us-east","cc":"us","latitude":40.73061,"longitude":-73.93524,"reserved":0,"last_update":"0001-01-01T00:00:00Z","name_a2s":"Uncletopia | New York City | 2 | All Maps","protocol":17,"map":"pl_pier","folder":"tf","game":"Team Fortress","app_id":440,"player_count":0,"max_players":24,"Bots":0,"server_type":"Dedicated","server_os":"Linux","password":true,"vac":true,"version":"7932396","steam_id":85568392924469994,"keywords":["nocrits","nodmgspread","payload","uncletopia"],"game_id":440,"stv_port":27026,"stv_name":"Uncletopia | New York City | 2 | All Maps | STV","players":null},{"server_id":15,"name":"Uncletopia | New York City | 3 | Stopwatch Beta","name_short":"nyc-3","host":"nyc-1.us.uncletopia.com","port":27035,"enabled":true,"region":"us-east","cc":"us","latitude":40.73061,"longitude":-73.93524,"reserved":0,"last_update":"0001-01-01T00:00:00Z","name_a2s":"Uncletopia | New York City | 3 | Stopwatch Beta","protocol":17,"map":"workshop/koth_bagel_rc6.ugc2514036946","folder":"tf","game":"Team Fortress","app_id":440,"player_count":0,"max_players":24,"Bots":0,"server_type":"Dedicated","server_os":"Linux","password":true,"vac":true,"version":"7932396","steam_id":85568392924742820,"keywords":["cp","nocrits","nodmgspread","uncletopia"],"game_id":440,"stv_port":27036,"stv_name":"Uncletopia | New York City | 3 | Stopwatch Beta | STV","players":null},{"server_id":16,"name":"Uncletopia | New York City | 4 | Community","name_short":"nyc-4","host":"nyc-1.us.uncletopia.com","port":27045,"enabled":true,"region":"us-east","cc":"us","latitude":40.73061,"longitude":-73.93524,"reserved":0,"last_update":"0001-01-01T00:00:00Z","name_a2s":"Uncletopia | New York City | 4 | Community","protocol":17,"map":"workshop/pl_cactuscanyon_redux_final2.ugc2579644293","folder":"tf","game":"Team Fortress","app_id":440,"player_count":0,"max_players":24,"Bots":0,"server_type":"Dedicated","server_os":"Linux","password":true,"vac":true,"version":"7932396","steam_id":85568392924742821,"keywords":["nocrits","nodmgspread","payload","uncletopia"],"game_id":440,"stv_port":27046,"stv_name":"Uncletopia | New York City | 4 | Community | STV","players":null},{"server_id":142,"name":"Uncletopia | S√£o Paulo | 1 | All Maps","name_short":"sao-1","host":"sao-1.br.uncletopia.com","port":27015,"enabled":true,"region":"sa","cc":"br","latitude":-23.533773,"longitude":-46.62529,"reserved":0,"last_update":"0001-01-01T00:00:00Z","name_a2s":"Uncletopia | S√£o Paulo | 1 | All Maps","protocol":17,"map":"cp_mountainlab","folder":"tf","game":"Team Fortress","app_id":440,"player_count":0,"max_players":24,"Bots":0,"server_type":"Dedicated","server_os":"Linux","password":true,"vac":true,"version":"7932396","steam_id":85568392924469996,"keywords":["cp","nocrits","nodmgspread","uncletopia"],"game_id":440,"stv_port":27016,"stv_name":"Uncletopia | S√£o Paulo | 1 | All Maps | STV","players":null},{"server_id":143,"name":"Uncletopia | S√£o Paulo | 2 | All Maps","name_short":"sao-2","host":"sao-2.br.uncletopia.com","port":27015,"enabled":true,"region":"sa","cc":"br","latitude":-23.533773,"longitude":-46.62529,"reserved":0,"last_update":"0001-01-01T00:00:00Z","name_a2s":"Uncletopia | S√£o Paulo | 2 | All Maps","protocol":17,"map":"pl_swiftwater_final1","folder":"tf","game":"Team Fortress","app_id":440,"player_count":0,"max_players":24,"Bots":0,"server_type":"Dedicated","server_os":"Linux","password":true,"vac":true,"version":"7932396","steam_id":85568392924485349,"keywords":["nocrits","nodmgspread","payload","uncletopia"],"game_id":440,"stv_port":27016,"stv_name":"Uncletopia | S√£o Paulo | 2 | All Maps | STV","players":null},{"server_id":7,"name":"Uncletopia | Seattle | 1 | All Maps","name_short":"sea-1","host":"sea-1.us.uncletopia.com","port":27015,"enabled":true,"region":"us-west","cc":"us","latitude":47.608013,"longitude":-122.33517,"reserved":0,"last_update":"0001-01-01T00:00:00Z","name_a2s":"Uncletopia | Seattle | 1 | All Maps","protocol":17,"map":"pl_barnblitz","folder":"tf","game":"Team Fortress","app_id":440,"player_count":24,"max_players":24,"Bots":0,"server_type":"Dedicated","server_os":"Linux","password":true,"vac":true,"version":"7932396","steam_id":85568392924469997,"keywords":["nocrits","nodmgspread","payload","uncletopia"],"game_id":440,"stv_port":27016,"stv_name":"Uncletopia | Seattle | 1 | All Maps | STV","players":[{"user_id":875,"name":"Sacrificial Wormy","steam_id":76561198054539200,"connected_time":480000000000,"state":"active","ping":54},{"user_id":873,"name":"Disc0","steam_id":76561198067337267,"connected_time":901000000000,"state":"active","ping":45},{"user_id":862,"name":"Drapph","steam_id":76561199384213314,"connected_time":2048000000000,"state":"active","ping":103},{"user_id":864,"name":"Dr.LeatherPsycho","steam_id":76561198800480998,"connected_time":2024000000000,"state":"active","ping":87},{"user_id":878,"name":"Brother Cadfael","steam_id":76561198083996768,"connected_time":454000000000,"state":"active","ping":56},{"user_id":876,"name":"uhoh","steam_id":76561198136967934,"connected_time":467000000000,"state":"active","ping":81},{"user_id":861,"name":"Grill Skills","steam_id":76561198053575147,"connected_time":2054000000000,"state":"active","ping":64},{"user_id":880,"name":"Season Veteran","steam_id":76561198088619665,"connected_time":9000000000,"state":"active","ping":94},{"user_id":863,"name":"Space Magic","steam_id":76561199006292310,"connected_time":2047000000000,"state":"active","ping":82},{"user_id":855,"name":"Swiggs","steam_id":76561198135015291,"connected_time":2583000000000,"state":"active","ping":80},{"user_id":823,"name":"Donny Q","steam_id":76561198020901703,"connected_time":5803000000000,"state":"active","ping":59},{"user_id":865,"name":"BIG HOG","steam_id":76561198079923652,"connected_time":2013000000000,"state":"active","ping":96},{"user_id":858,"name":"Futur","steam_id":76561199096263556,"connected_time":2247000000000,"state":"active","ping":50},{"user_id":781,"name":"Inflight","steam_id":76561198920049475,"connected_time":8372000000000,"state":"active","ping":60},{"user_id":866,"name":"TheXayol","steam_id":76561199177408516,"connected_time":2011000000000,"state":"active","ping":140},{"user_id":847,"name":"lasky","steam_id":76561198017030029,"connected_time":3742000000000,"state":"active","ping":70},{"user_id":857,"name":"lox","steam_id":76561198288531493,"connected_time":2470000000000,"state":"active","ping":54},{"user_id":867,"name":"vfa","steam_id":76561198055729118,"connected_time":2006000000000,"state":"active","ping":57},{"user_id":872,"name":"Yammie","steam_id":76561197987304489,"connected_time":931000000000,"state":"active","ping":45},{"user_id":868,"name":"KonJac","steam_id":76561198027812652,"connected_time":1971000000000,"state":"active","ping":75},{"user_id":871,"name":"D0VE","steam_id":76561198151618566,"connected_time":1220000000000,"state":"active","ping":50},{"user_id":869,"name":"scrapheap","steam_id":76561198202407087,"connected_time":1943000000000,"state":"active","ping":129},{"user_id":827,"name":"..flop","steam_id":76561197989058876,"connected_time":5752000000000,"state":"active","ping":88},{"user_id":874,"name":"RC Polygons","steam_id":76561198843074574,"connected_time":625000000000,"state":"active","ping":77}]},{"server_id":119,"name":"Uncletopia | Seattle | 2 | All Maps","name_short":"sea-2","host":"sea-1.us.uncletopia.com","port":27025,"enabled":true,"region":"us-west","cc":"us","latitude":47.608013,"longitude":-122.33517,"reserved":0,"last_update":"0001-01-01T00:00:00Z","name_a2s":"Uncletopia | Seattle | 2 | All Maps","protocol":17,"map":"cp_snakewater_final1","folder":"tf","game":"Team Fortress","app_id":440,"player_count":0,"max_players":24,"Bots":0,"server_type":"Dedicated","server_os":"Linux","password":true,"vac":true,"version":"7932396","steam_id":85568392924469998,"keywords":["cp","nocrits","nodmgspread","uncletopia"],"game_id":440,"stv_port":27026,"stv_name":"Uncletopia | Seattle | 2 | All Maps | STV","players":null},{"server_id":406,"name":"Uncletopia | Seattle | 3 | Stopwatch Beta","name_short":"sea-3","host":"sea-1.us.uncletopia.com","port":27035,"enabled":true,"region":"us-west","cc":"us","latitude":47.608013,"longitude":-122.33517,"reserved":0,"last_update":"0001-01-01T00:00:00Z","name_a2s":"Uncletopia | Seattle | 3 | Stopwatch Beta","protocol":17,"map":"workshop/cp_process_f12.ugc2302948105","folder":"tf","game":"Team Fortress","app_id":440,"player_count":0,"max_players":24,"Bots":0,"server_type":"Dedicated","server_os":"Linux","password":true,"vac":true,"version":"7932396","steam_id":85568392924515217,"keywords":["cp","nocrits","nodmgspread","uncletopia"],"game_id":440,"stv_port":27036,"stv_name":"Uncletopia | Seattle | 3 | Stopwatch Beta | STV","players":null},{"server_id":17,"name":"Uncletopia | San Francisco | 1 | All Maps","name_short":"sfo-1","host":"sfo-1.us.uncletopia.com","port":27015,"enabled":true,"region":"us-west","cc":"us","latitude":37.77397,"longitude":-122.4313,"reserved":0,"last_update":"0001-01-01T00:00:00Z","name_a2s":"Uncletopia | San Francisco | 1 | All Maps","protocol":17,"map":"koth_suijin","folder":"tf","game":"Team Fortress","app_id":440,"player_count":0,"max_players":24,"Bots":0,"server_type":"Dedicated","server_os":"Linux","password":true,"vac":true,"version":"7932396","steam_id":85568392924469999,"keywords":["cp","nocrits","nodmgspread","uncletopia"],"game_id":440,"stv_port":27016,"stv_name":"Uncletopia | San Francisco | 1 | All Maps | STV","players":null},{"server_id":18,"name":"Uncletopia | San Francisco | 2 | All Maps","name_short":"sfo-2","host":"sfo-1.us.uncletopia.com","port":27025,"enabled":true,"region":"us-west","cc":"us","latitude":37.77397,"longitude":-122.4313,"reserved":0,"last_update":"0001-01-01T00:00:00Z","name_a2s":"Uncletopia | San Francisco | 2 | All Maps","protocol":17,"map":"pl_upward","folder":"tf","game":"Team Fortress","app_id":440,"player_count":0,"max_players":24,"Bots":0,"server_type":"Dedicated","server_os":"Linux","password":true,"vac":true,"version":"7932396","steam_id":85568392924470000,"keywords":["nocrits","nodmgspread","payload","uncletopia"],"game_id":440,"stv_port":27026,"stv_name":"Uncletopia | San Francisco | 2 | All Maps | STV","players":null},{"server_id":19,"name":"Uncletopia | San Francisco | 3 | Stopwatch Beta","name_short":"sfo-3","host":"sfo-1.us.uncletopia.com","port":27035,"enabled":true,"region":"us-west","cc":"us","latitude":37.77397,"longitude":-122.4313,"reserved":0,"last_update":"0001-01-01T00:00:00Z","name_a2s":"Uncletopia | San Francisco | 3 | Stopwatch Beta","protocol":17,"map":"workshop/koth_clearcut_b15.ugc2107050255","folder":"tf","game":"Team Fortress","app_id":440,"player_count":2,"max_players":24,"Bots":0,"server_type":"Dedicated","server_os":"Linux","password":true,"vac":true,"version":"7932396","steam_id":85568392924742824,"keywords":["cp","nocrits","nodmgspread","uncletopia"],"game_id":440,"stv_port":27036,"stv_name":"Uncletopia | San Francisco | 3 | Stopwatch Beta | STV","players":[{"user_id":15,"name":"MeraBlox","steam_id":76561199470938495,"connected_time":606000000000,"state":"active","ping":197},{"user_id":16,"name":"CadHonax","steam_id":76561199245494472,"connected_time":601000000000,"state":"active","ping":219}]},{"server_id":20,"name":"Uncletopia | San Francisco | 4 | Community","name_short":"sfo-4","host":"sfo-1.us.uncletopia.com","port":27045,"enabled":true,"region":"us-west","cc":"us","latitude":37.77397,"longitude":-122.4313,"reserved":0,"last_update":"0001-01-01T00:00:00Z","name_a2s":"Uncletopia | San Francisco | 4 | Community","protocol":17,"map":"workshop/cp_kalinka_rc6a.ugc1272700588","folder":"tf","game":"Team Fortress","app_id":440,"player_count":0,"max_players":24,"Bots":0,"server_type":"Dedicated","server_os":"Linux","password":true,"vac":true,"version":"7932396","steam_id":85568392924742826,"keywords":["cp","nocrits","nodmgspread","uncletopia"],"game_id":440,"stv_port":27046,"stv_name":"Uncletopia | San Francisco | 4 | Community | STV","players":null},{"server_id":141,"name":"Uncletopia | Sydney | 1 | All Maps","name_short":"syd-1","host":"syd-1.au.uncletopia.com","port":27015,"enabled":true,"region":"au","cc":"au","latitude":-33.865143,"longitude":151.2099,"reserved":0,"last_update":"0001-01-01T00:00:00Z","name_a2s":"Uncletopia | Sydney | 1 | All Maps","protocol":17,"map":"cp_dustbowl","folder":"tf","game":"Team Fortress","app_id":440,"player_count":24,"max_players":24,"Bots":0,"server_type":"Dedicated","server_os":"Linux","password":true,"vac":true,"version":"7932396","steam_id":85568392924470001,"keywords":["cp","nocrits","nodmgspread","uncletopia"],"game_id":440,"stv_port":27016,"stv_name":"Uncletopia | Sydney | 1 | All Maps | STV","players":[{"user_id":190,"name":"Dense Snail","steam_id":76561198853407041,"connected_time":1788000000000,"state":"active","ping":45},{"user_id":182,"name":"Doctor Estonia","steam_id":76561198057365089,"connected_time":2562000000000,"state":"active","ping":81},{"user_id":211,"name":"Monkey M√¶n","steam_id":76561198122470022,"connected_time":1187000000000,"state":"active","ping":79},{"user_id":191,"name":"voxii","steam_id":76561198099698281,"connected_time":1779000000000,"state":"active","ping":72},{"user_id":207,"name":"Killing","steam_id":76561198107392931,"connected_time":1397000000000,"state":"active","ping":64},{"user_id":217,"name":"blondie","steam_id":76561198257286963,"connected_time":860000000000,"state":"active","ping":64},{"user_id":184,"name":"\u003e:FrozenDragon:\u003c","steam_id":76561198227960928,"connected_time":2379000000000,"state":"active","ping":98},{"user_id":221,"name":"Not A Clever Man","steam_id":76561198038700246,"connected_time":687000000000,"state":"active","ping":73},{"user_id":189,"name":"Kevin Parker","steam_id":76561198060677406,"connected_time":2040000000000,"state":"active","ping":87},{"user_id":225,"name":"Barry Allen","steam_id":76561198152210509,"connected_time":568000000000,"state":"active","ping":38},{"user_id":200,"name":"Connor","steam_id":76561198088318589,"connected_time":1616000000000,"state":"active","ping":49},{"user_id":223,"name":"using a laptop","steam_id":76561199445302425,"connected_time":619000000000,"state":"active","ping":166},{"user_id":166,"name":"Feoryas","steam_id":76561198129356206,"connected_time":3563000000000,"state":"active","ping":44},{"user_id":215,"name":"WussPoppinJimbo","steam_id":76561199111828033,"connected_time":1002000000000,"state":"active","ping":135},{"user_id":151,"name":"CypressFluff (She/Her)","steam_id":76561198174667818,"connected_time":4383000000000,"state":"active","ping":65},{"user_id":213,"name":"mada","steam_id":76561199436707447,"connected_time":1137000000000,"state":"active","ping":58},{"user_id":196,"name":"Peepo","steam_id":76561198305080905,"connected_time":1684000000000,"state":"active","ping":51},{"user_id":226,"name":"Mark plier","steam_id":76561199163158073,"connected_time":559000000000,"state":"active","ping":163},{"user_id":206,"name":"shaymii","steam_id":76561198058562392,"connected_time":1435000000000,"state":"active","ping":85},{"user_id":222,"name":"ibus","steam_id":76561199026701614,"connected_time":645000000000,"state":"active","ping":58},{"user_id":163,"name":"Jodelk√∂nig Franzl Lang","steam_id":76561198007667830,"connected_time":3579000000000,"state":"active","ping":57},{"user_id":229,"name":"(1)Blondie","steam_id":76561198046977058,"connected_time":233000000000,"state":"active","ping":66},{"user_id":228,"name":"Whyyan","steam_id":76561198123825900,"connected_time":269000000000,"state":"active","ping":65},{"user_id":174,"name":"Chibi Wolf","steam_id":76561198074235306,"connected_time":3020000000000,"state":"active","ping":59}]},{"server_id":123,"name":"Uncletopia | Sydney | 2 | All Maps","name_short":"syd-2","host":"syd-1.au.uncletopia.com","port":27025,"enabled":true,"region":"au","cc":"au","latitude":-33.865143,"longitude":151.2099,"reserved":0,"last_update":"0001-01-01T00:00:00Z","name_a2s":"Uncletopia | Sydney | 2 | All Maps","protocol":17,"map":"cp_process_final","folder":"tf","game":"Team Fortress","app_id":440,"player_count":23,"max_players":24,"Bots":0,"server_type":"Dedicated","server_os":"Linux","password":true,"vac":true,"version":"7932396","steam_id":85568392924470002,"keywords":["cp","nocrits","nodmgspread","uncletopia"],"game_id":440,"stv_port":27026,"stv_name":"Uncletopia | Sydney | 2 | All Maps | STV","players":[{"user_id":196,"name":"Frog Friend","steam_id":76561198054505772,"connected_time":208000000000,"state":"active","ping":59},{"user_id":188,"name":"Tiger_Tan","steam_id":76561198221733844,"connected_time":768000000000,"state":"active","ping":74},{"user_id":153,"name":"twist","steam_id":76561198115372764,"connected_time":2493000000000,"state":"active","ping":57},{"user_id":197,"name":"·ä•·à≠·åç·â•","steam_id":76561198061572340,"connected_time":201000000000,"state":"active","ping":276},{"user_id":180,"name":"Worcestershire","steam_id":76561198305930200,"connected_time":1430000000000,"state":"active","ping":45},{"user_id":191,"name":"Team Fartress Poo","steam_id":76561198139598106,"connected_time":647000000000,"state":"active","ping":60},{"user_id":171,"name":"e_o","steam_id":76561198040405520,"connected_time":1705000000000,"state":"active","ping":63},{"user_id":199,"name":"[MORB] manglemonster","steam_id":76561198155233607,"connected_time":108000000000,"state":"active","ping":53},{"user_id":157,"name":"quick 1 2 üòµüòµü•¥ü•¥","steam_id":76561199482732718,"connected_time":2418000000000,"state":"active","ping":46},{"user_id":127,"name":"MikkyD","steam_id":76561198043452962,"connected_time":3589000000000,"state":"active","ping":60},{"user_id":130,"name":"Yo","steam_id":76561199071452693,"connected_time":3498000000000,"state":"active","ping":161},{"user_id":198,"name":"Jellyfish_kurage","steam_id":76561198425670698,"connected_time":184000000000,"state":"active","ping":54},{"user_id":192,"name":"nash","steam_id":76561198047549077,"connected_time":643000000000,"state":"active","ping":53},{"user_id":184,"name":"Marmalade Cat","steam_id":76561198086309767,"connected_time":1303000000000,"state":"active","ping":67},{"user_id":200,"name":"dad","steam_id":76561198063032696,"connected_time":108000000000,"state":"active","ping":59},{"user_id":174,"name":"Physkal","steam_id":76561198072140363,"connected_time":1654000000000,"state":"active","ping":73},{"user_id":53,"name":"s0lar","steam_id":76561198200896745,"connected_time":9309000000000,"state":"active","ping":44},{"user_id":201,"name":"Pickled Cow","steam_id":76561198292517991,"connected_time":71000000000,"state":"active","ping":43},{"user_id":193,"name":"Treggles","steam_id":76561198042806226,"connected_time":267000000000,"state":"active","ping":72},{"user_id":186,"name":"Vanessa","steam_id":76561198077728992,"connected_time":926000000000,"state":"active","ping":65},{"user_id":164,"name":"Zepi","steam_id":76561198018887052,"connected_time":2056000000000,"state":"active","ping":47},{"user_id":160,"name":"Mr Doctor","steam_id":76561198081415999,"connected_time":2196000000000,"state":"active","ping":63},{"user_id":185,"name":"Naturesshadow","steam_id":76561198011837590,"connected_time":1247000000000,"state":"active","ping":68}]},{"server_id":395,"name":"Uncletopia | Sydney | 3 | All Maps","name_short":"syd-3","host":"syd-1.au.uncletopia.com","port":27035,"enabled":true,"region":"au","cc":"au","latitude":-33.865143,"longitude":151.2099,"reserved":0,"last_update":"0001-01-01T00:00:00Z","name_a2s":"Uncletopia | Sydney | 3 | All Maps","protocol":17,"map":"koth_highpass","folder":"tf","game":"Team Fortress","app_id":440,"player_count":1,"max_players":24,"Bots":0,"server_type":"Dedicated","server_os":"Linux","password":true,"vac":true,"version":"7932396","steam_id":85568392925194467,"keywords":["cp","nocrits","nodmgspread","uncletopia"],"game_id":440,"stv_port":27036,"stv_name":"Uncletopia | Sydney | 3 | All Maps | STV","players":[{"user_id":158,"name":"TheOrang","steam_id":76561199232263206,"connected_time":215000000000,"state":"active","ping":104}]},{"server_id":396,"name":"Uncletopia | Sydney | 4 | All Maps","name_short":"syd-4","host":"syd-1.au.uncletopia.com","port":27045,"enabled":true,"region":"au","cc":"au","latitude":-33.865143,"longitude":151.2099,"reserved":0,"last_update":"0001-01-01T00:00:00Z","name_a2s":"Uncletopia | Sydney | 4 | All Maps","protocol":17,"map":"pl_frontier_final","folder":"tf","game":"Team Fortress","app_id":440,"player_count":0,"max_players":24,"Bots":0,"server_type":"Dedicated","server_os":"Linux","password":true,"vac":true,"version":"7932396","steam_id":85568392925397958,"keywords":["nocrits","nodmgspread","payload","uncletopia"],"game_id":440,"stv_port":27046,"stv_name":"Uncletopia | Sydney | 4 | All Maps | STV","players":null},{"server_id":58,"name":"Uncletopia | Sydney | 5 | Stopwatch Beta","name_short":"syd-5","host":"syd-1.au.uncletopia.com","port":27055,"enabled":true,"region":"au","cc":"au","latitude":-33.865143,"longitude":151.2099,"reserved":0,"last_update":"0001-01-01T00:00:00Z","name_a2s":"Uncletopia | Sydney | 5 | Stopwatch Beta","protocol":17,"map":"workshop/koth_ashville_final.ugc2130459942","folder":"tf","game":"Team Fortress","app_id":440,"player_count":0,"max_players":24,"Bots":0,"server_type":"Dedicated","server_os":"Linux","password":true,"vac":true,"version":"7932396","steam_id":85568392925397959,"keywords":["cp","nocrits","nodmgspread","uncletopia"],"game_id":440,"stv_port":27056,"stv_name":"Uncletopia | Sydney | 5 | Stopwatch Beta | STV","players":null},{"server_id":59,"name":"Uncletopia | Sydney | 6 | Community","name_short":"syd-6","host":"syd-1.au.uncletopia.com","port":27065,"enabled":true,"region":"au","cc":"au","latitude":-33.865143,"longitude":151.2099,"reserved":0,"last_update":"0001-01-01T00:00:00Z","name_a2s":"Uncletopia | Sydney | 6 | Community","protocol":17,"map":"workshop/cp_villa_b19.ugc2113052569","folder":"tf","game":"Team Fortress","app_id":440,"player_count":0,"max_players":24,"Bots":0,"server_type":"Dedicated","server_os":"Linux","password":true,"vac":true,"version":"7932396","steam_id":85568392925397960,"keywords":["cp","nocrits","nodmgspread","uncletopia"],"game_id":440,"stv_port":27066,"stv_name":"Uncletopia | Sydney | 6 | Community | STV","players":null},{"server_id":49,"name":"Uncletopia | Warsaw | 1 | All Maps","name_short":"waw-1","host":"waw-1.pl.uncletopia.com","port":27015,"enabled":true,"region":"eu","cc":"pl","latitude":52.2297,"longitude":21.017532,"reserved":0,"last_update":"0001-01-01T00:00:00Z","name_a2s":"","protocol":0,"map":"","folder":"","game":"","app_id":0,"player_count":0,"max_players":0,"Bots":0,"server_type":"","server_os":"","password":false,"vac":false,"version":"","steam_id":0,"keywords":null,"game_id":0,"stv_port":0,"stv_name":"","players":null},{"server_id":50,"name":"Uncletopia | Warsaw | 2 | All Maps","name_short":"waw-2","host":"waw-1.pl.uncletopia.com","port":27025,"enabled":true,"region":"eu","cc":"pl","latitude":52.2297,"longitude":21.017532,"reserved":0,"last_update":"0001-01-01T00:00:00Z","name_a2s":"Uncletopia | Warsaw | 2 | All Maps","protocol":17,"map":"pl_badwater","folder":"tf","game":"Team Fortress","app_id":440,"player_count":5,"max_players":24,"Bots":0,"server_type":"Dedicated","server_os":"Linux","password":true,"vac":true,"version":"7932396","steam_id":85568392925397851,"keywords":["nocrits","nodmgspread","payload","uncletopia"],"game_id":440,"stv_port":27026,"stv_name":"Uncletopia | Warsaw | 2 | All Maps | STV","players":[{"user_id":20,"name":"Eno I 217","steam_id":76561199106317833,"connected_time":1094000000000,"state":"active","ping":92},{"user_id":21,"name":"stefanbejenari","steam_id":76561199466718294,"connected_time":936000000000,"state":"active","ping":90},{"user_id":22,"name":"Jack.Orlando","steam_id":76561198802400236,"connected_time":655000000000,"state":"active","ping":86},{"user_id":23,"name":"Mido","steam_id":76561198014315688,"connected_time":313000000000,"state":"active","ping":43},{"user_id":24,"name":"Walter Griffin","steam_id":76561199415989636,"connected_time":48000000000,"state":"active","ping":104}]},{"server_id":51,"name":"Uncletopia | Warsaw | 3 | All Maps","name_short":"waw-3","host":"waw-1.pl.uncletopia.com","port":27035,"enabled":true,"region":"eu","cc":"pl","latitude":52.2297,"longitude":21.017532,"reserved":0,"last_update":"0001-01-01T00:00:00Z","name_a2s":"Uncletopia | Warsaw | 3 | All Maps","protocol":17,"map":"koth_lakeside_final","folder":"tf","game":"Team Fortress","app_id":440,"player_count":0,"max_players":24,"Bots":0,"server_type":"Dedicated","server_os":"Linux","password":true,"vac":true,"version":"7932396","steam_id":85568392925397852,"keywords":["cp","nocrits","nodmgspread","uncletopia"],"game_id":440,"stv_port":27036,"stv_name":"Uncletopia | Warsaw | 3 | All Maps | STV","players":null},{"server_id":52,"name":"Uncletopia | Warsaw | 4 | All Maps","name_short":"waw-4","host":"waw-1.pl.uncletopia.com","port":27045,"enabled":true,"region":"eu","cc":"pl","latitude":52.2297,"longitude":21.017532,"reserved":0,"last_update":"0001-01-01T00:00:00Z","name_a2s":"Uncletopia | Warsaw | 4 | All Maps","protocol":17,"map":"cp_mountainlab","folder":"tf","game":"Team Fortress","app_id":440,"player_count":0,"max_players":24,"Bots":0,"server_type":"Dedicated","server_os":"Linux","password":true,"vac":true,"version":"7932396","steam_id":85568392925397853,"keywords":["cp","nocrits","nodmgspread","uncletopia"],"game_id":440,"stv_port":27046,"stv_name":"Uncletopia | Warsaw | 4 | All Maps | STV","players":null},{"server_id":53,"name":"Uncletopia | Warsaw | 5 | Stopwatch Beta","name_short":"waw-5","host":"waw-1.pl.uncletopia.com","port":27055,"enabled":true,"region":"eu","cc":"pl","latitude":52.2297,"longitude":21.017532,"reserved":0,"last_update":"0001-01-01T00:00:00Z","name_a2s":"Uncletopia | Warsaw | 5 | Stopwatch Beta","protocol":17,"map":"koth_highpass","folder":"tf","game":"Team Fortress","app_id":440,"player_count":0,"max_players":24,"Bots":0,"server_type":"Dedicated","server_os":"Linux","password":true,"vac":true,"version":"7932396","steam_id":85568392925397854,"keywords":["cp","nocrits","nodmgspread","uncletopia"],"game_id":440,"stv_port":27056,"stv_name":"Uncletopia | Warsaw | 5 | Stopwatch Beta | STV","players":null},{"server_id":54,"name":"Uncletopia | Warsaw | 6 | Community","name_short":"waw-6","host":"waw-1.pl.uncletopia.com","port":27065,"enabled":true,"region":"eu","cc":"pl","latitude":52.2297,"longitude":21.017532,"reserved":0,"last_update":"0001-01-01T00:00:00Z","name_a2s":"Uncletopia | Warsaw | 6 | Community","protocol":17,"map":"pl_upward","folder":"tf","game":"Team Fortress","app_id":440,"player_count":0,"max_players":24,"Bots":0,"server_type":"Dedicated","server_os":"Linux","password":true,"vac":true,"version":"7932396","steam_id":85568392925397856,"keywords":["nocrits","nodmgspread","payload","uncletopia"],"game_id":440,"stv_port":27066,"stv_name":"Uncletopia | Warsaw | 6 | Community | STV","players":null}]}