{"status":true,"message":"","result":[{"server_id":9,"name":"Uncletopia | Atlanta | 1 | All Maps","name_short":"atl-1","host":"atl-1.us.uncletopia.com","port":27015,"enabled":true,"region":"us-east","cc":"us","latitude":33.753746,"longitude":-84.38633,"reserved":0,"last_update":"0001-01-01T00:00:00Z","name_a2s":"Uncletopia | Atlanta | 1 | All Maps","protocol":17,"map":"ctf_landfall","folder":"tf","game":"Team Fortress","app_id":440,"player_count":24,"max_players":24,"Bots":0,"server_type":"Dedicated","server_os":"Linux","password":true,"vac":true,"version":"7961495","steam_id":85568392924469982,"keywords":["alltalk","ctf","nocrits","nodmgspread","uncletopia"],"game_id":440,"stv_port":27016,"stv_name":"Uncletopia | Atlanta | 1 | All Maps | STV","players":null},{"server_id":104,"name":"Uncletopia | Atlanta | 2 | All Maps","name_short":"atl-2","host":"atl-1.us.uncletopia.com","port":27025,"enabled":true,"region":"us-east","cc":"us","latitude":33.753746,"longitude":-84.38633,"reserved":0,"last_update":"0001-01-01T00:00:00Z","name_a2s":"Uncletopia | Atlanta | 2 | All Maps","protocol":17,"map":"cp_dustbowl","folder":"tf","game":"Team Fortress","app_id":440,"player_count":24,"max_players":24,"Bots":0,"server_type":"Dedicated","server_os":"Linux","password":true,"vac":true,"version":"7961495","steam_id":85568392924469983,"keywords":["cp","nocrits","nodmgspread","uncletopia"],"game_id":440,"stv_port":27026,"stv_name":"Uncletopia | Atlanta | 2 | All Maps | STV","players":null},{"server_id":400,"name":"Uncletopia | Atlanta | 3 | Stopwatch","name_short":"atl-3","host":"atl-1.us.uncletopia.com","port":27035,"enabled":true,"region":"us-east","cc":"us","latitude":33.753746,"longitude":-84.38633,"reserved":0,"last_update":"0001-01-01T00:00:00Z","name_a2s":"Uncletopia | Atlanta | 3 | Stopwatch","protocol":17,"map":"pl_vigil_rc10","folder":"tf","game":"Team Fortress","app_id":440,"player_count":0,"max_players":24,"Bots":0,"server_type":"Dedicated","server_os":"Linux","password":true,"vac":true,"version":"7961495","steam_id":85568392924515187,"keywords":["nocrits","nodmgspread","payload","uncletopia"],"game_id":440,"stv_port":27036,"stv_name":"Uncletopia | Atlanta | 3 | Stopwatch | STV","players":null},{"server_id":401,"name":"Uncletopia | Atlanta | 4 | Community","name_short":"atl-4","host":"atl-1.us.uncletopia.com","port":27045,"enabled":true,"region":"us-east","cc":"us","latitude":33.753746,"longitude":-84.38633,"reserved":0,"last_update":"0001-01-01T00:00:00Z","name_a2s":"Uncletopia | Atlanta | 4 | Community","protocol":17,"map":"koth_slaughter_rc1","folder":"tf","game":"Team Fortress","app_id":440,"player_count":0,"max_players":24,"Bots":0,"server_type":"Dedicated","server_os":"Linux","password":true,"vac":true,"version":"7961495","steam_id":85568392924515188,"keywords":["cp","nocrits","nodmgspread","uncletopia"],"game_id":440,"stv_port":27046,"stv_name":"Uncletopia | Atlanta | 4 | Community | STV","players":null},{"server_id":2,"name":"Uncletopia | Chicago | 1 | All Maps","name_short":"chi-1","host":"chi-1.us.uncletopia.com","port":27015,"enabled":true,"region":"us-central","cc":"us","latitude":41.881832,"longitude":-87.62318,"reserved":0,"last_update":"0001-01-01T00:00:00Z","name_a2s":"Uncletopia | Chicago | 1 | All Maps","protocol":17,"map":"pl_swiftwater_final1","folder":"tf","game":"Team Fortress","app_id":440,"player_count":24,"max_players":24,"Bots":0,"server_type":"Dedicated","server_os":"Linux","password":true,"vac":true,"version":"7961495","steam_id":85568392924469984,"keywords":["nocrits","nodmgspread","payload","uncletopia"],"game_id":440,"stv_port":27016,"stv_name":"Uncletopia | Chicago | 1 | All Maps | STV","players":[{"user_id":542,"name":"Enstabanger","steam_id":76561198140736928,"connected_time":1568000000000,"state":"active","ping":96},{"user_id":551,"name":"Alag","steam_id":76561197998580969,"connected_time":717000000000,"state":"active","ping":79},{"user_id":511,"name":"Lyathan","steam_id":76561198062773218,"connected_time":3495000000000,"state":"active","ping":75},{"user_id":544,"name":"Looking for BBW in stanfield nc","steam_id":76561199207371234,"connected_time":1543000000000,"state":"active","ping":80},{"user_id":558,"name":"Sleepy Chlo","steam_id":76561198128537564,"connected_time":402000000000,"state":"active","ping":45},{"user_id":509,"name":"aiden","steam_id":76561198449527009,"connected_time":3803000000000,"state":"active","ping":90},{"user_id":552,"name":"RedMint","steam_id":76561198169352967,"connected_time":533000000000,"state":"active","ping":67},{"user_id":559,"name":"hot glass of onionaid","steam_id":76561198065266282,"connected_time":206000000000,"state":"active","ping":69},{"user_id":537,"name":"man of the hour","steam_id":76561198264601809,"connected_time":1950000000000,"state":"active","ping":79},{"user_id":554,"name":"HoaroBatty","steam_id":76561198120361221,"connected_time":453000000000,"state":"active","ping":68},{"user_id":519,"name":"God","steam_id":76561198131089513,"connected_time":2810000000000,"state":"active","ping":50},{"user_id":533,"name":"Carton","steam_id":76561198989473391,"connected_time":2435000000000,"state":"active","ping":67},{"user_id":550,"name":"I am a registered sex offender","steam_id":76561199350593469,"connected_time":774000000000,"state":"active","ping":129},{"user_id":524,"name":"Franticraven177","steam_id":76561198334105579,"connected_time":2719000000000,"state":"active","ping":85},{"user_id":539,"name":"Dry Bones","steam_id":76561198341537452,"connected_time":1620000000000,"state":"active","ping":80},{"user_id":468,"name":"fish","steam_id":76561199008362890,"connected_time":6994000000000,"state":"active","ping":60},{"user_id":556,"name":"hellstar","steam_id":76561198065877269,"connected_time":447000000000,"state":"active","ping":60},{"user_id":557,"name":"remina","steam_id":76561198046091954,"connected_time":412000000000,"state":"active","ping":73},{"user_id":493,"name":"DrD","steam_id":76561198067266383,"connected_time":5551000000000,"state":"active","ping":88},{"user_id":496,"name":"Bobbn","steam_id":76561198876124683,"connected_time":5469000000000,"state":"active","ping":75},{"user_id":540,"name":"rontu","steam_id":76561199072955534,"connected_time":1616000000000,"state":"active","ping":53},{"user_id":498,"name":"Astoriae!","steam_id":76561199090168858,"connected_time":5144000000000,"state":"active","ping":68},{"user_id":528,"name":"beta central","steam_id":76561198301876831,"connected_time":2631000000000,"state":"active","ping":63},{"user_id":553,"name":"ReDiculous22","steam_id":76561198038391383,"connected_time":533000000000,"state":"active","ping":71}]},{"server_id":106,"name":"Uncletopia | Chicago | 2 | All Maps","name_short":"chi-2","host":"chi-1.us.uncletopia.com","port":27025,"enabled":true,"region":"us-central","cc":"us","latitude":41.881832,"longitude":-87.62318,"reserved":0,"last_update":"0001-01-01T00:00:00Z","name_a2s":"Uncletopia | Chicago | 2 | All Maps","protocol":17,"map":"ctf_2fort","folder":"tf","game":"Team Fortress","app_id":440,"player_count":22,"max_players":24,"Bots":0,"server_type":"Dedicated","server_os":"Linux","password":true,"vac":true,"version":"7961495","steam_id":85568392924469985,"keywords":["ctf","nocrits","nodmgspread","uncletopia"],"game_id":440,"stv_port":27026,"stv_name":"Uncletopia | Chicago | 2 | All Maps | STV","players":[{"user_id":489,"name":"Bobby Dazzler 魔鐘","steam_id":76561198007405067,"connected_time":199000000000,"state":"active","ping":45},{"user_id":438,"name":"chesterwnimitz","steam_id":76561198062664377,"connected_time":5301000000000,"state":"active","ping":81},{"user_id":473,"name":"Amari","steam_id":76561198272446730,"connected_time":2912000000000,"state":"active","ping":53},{"user_id":454,"name":"DiamondEpsilon","steam_id":76561198203883311,"connected_time":4945000000000,"state":"active","ping":82},{"user_id":480,"name":"Mediocre Gaming","steam_id":76561199230467980,"connected_time":1420000000000,"state":"active","ping":57},{"user_id":475,"name":"Ringo x Seiran","steam_id":76561198357437908,"connected_time":2060000000000,"state":"active","ping":68},{"user_id":498,"name":"Mr. Mime","steam_id":76561199197676776,"connected_time":114000000000,"state":"active","ping":60},{"user_id":436,"name":"wwhg","steam_id":76561198140658919,"connected_time":5324000000000,"state":"active","ping":67},{"user_id":493,"name":"guac","steam_id":76561199046667189,"connected_time":154000000000,"state":"active","ping":58},{"user_id":486,"name":"Pipnirsian","steam_id":76561198380976416,"connected_time":1037000000000,"state":"active","ping":75},{"user_id":440,"name":"I'm a Fungi","steam_id":76561198061507741,"connected_time":5265000000000,"state":"active","ping":60},{"user_id":469,"name":"vv","steam_id":76561198134813102,"connected_time":3067000000000,"state":"active","ping":59},{"user_id":477,"name":"category 5 girl moment","steam_id":76561198972801541,"connected_time":2028000000000,"state":"active","ping":54},{"user_id":500,"name":"Robot_mann","steam_id":76561198340434264,"connected_time":59000000000,"state":"active","ping":74},{"user_id":481,"name":"winrarFanatic","steam_id":76561198026538317,"connected_time":1414000000000,"state":"active","ping":59},{"user_id":474,"name":"Discourse","steam_id":76561198984286678,"connected_time":2537000000000,"state":"active","ping":54},{"user_id":391,"name":"Mer","steam_id":76561198192171041,"connected_time":8827000000000,"state":"active","ping":140},{"user_id":501,"name":"kingmrharvey","steam_id":76561198093909870,"connected_time":56000000000,"state":"active","ping":63},{"user_id":494,"name":"WimpySpace","steam_id":76561198970544732,"connected_time":138000000000,"state":"active","ping":64},{"user_id":497,"name":"jerry.gonzalez.2077","steam_id":76561198858445311,"connected_time":136000000000,"state":"active","ping":59},{"user_id":483,"name":"Skyline","steam_id":76561199123685934,"connected_time":1406000000000,"state":"active","ping":90},{"user_id":478,"name":"Hobo Joe","steam_id":76561198021453917,"connected_time":1925000000000,"state":"active","ping":64}]},{"server_id":402,"name":"Uncletopia | Chicago | 3 | All Maps","name_short":"chi-3","host":"chi-1.us.uncletopia.com","port":27035,"enabled":true,"region":"us-central","cc":"us","latitude":41.881832,"longitude":-87.62318,"reserved":0,"last_update":"0001-01-01T00:00:00Z","name_a2s":"Uncletopia | Chicago | 3 | All Maps","protocol":17,"map":"pl_snowycoast","folder":"tf","game":"Team Fortress","app_id":440,"player_count":24,"max_players":24,"Bots":0,"server_type":"Dedicated","server_os":"Linux","password":true,"vac":true,"version":"7961495","steam_id":85568392924515191,"keywords":["nocrits","nodmgspread","payload","uncletopia"],"game_id":440,"stv_port":27036,"stv_name":"Uncletopia | Chicago | 3 | All Maps | STV","players":[{"user_id":301,"name":"TheNightBeforeChristmas","steam_id":76561198143826450,"connected_time":2385000000000,"state":"active","ping":45},{"user_id":332,"name":"gooch_masta","steam_id":76561198151578423,"connected_time":73000000000,"state":"active","ping":91},{"user_id":322,"name":"sugoiboi48","steam_id":76561198060056280,"connected_time":236000000000,"state":"active","ping":60},{"user_id":323,"name":"my name jeff","steam_id":76561198179816898,"connected_time":234000000000,"state":"active","ping":76},{"user_id":305,"name":"Mint Jelly","steam_id":76561197991286751,"connected_time":2239000000000,"state":"active","ping":48},{"user_id":255,"name":"oppenheimer style","steam_id":76561198026664629,"connected_time":6027000000000,"state":"active","ping":60},{"user_id":304,"name":"BUT COME TUESDAY","steam_id":76561198119220289,"connected_time":2245000000000,"state":"active","ping":79},{"user_id":294,"name":"bluebird","steam_id":76561198065219155,"connected_time":3214000000000,"state":"active","ping":43},{"user_id":324,"name":"attentiondeficit","steam_id":76561198129682583,"connected_time":233000000000,"state":"active","ping":76},{"user_id":319,"name":"pisssmart","steam_id":76561199097253232,"connected_time":564000000000,"state":"active","ping":49},{"user_id":331,"name":"BIG TRUCK FARTS","steam_id":76561198154123084,"connected_time":123000000000,"state":"active","ping":82},{"user_id":237,"name":"the zoo","steam_id":76561198013732450,"connected_time":7519000000000,"state":"active","ping":49},{"user_id":326,"name":"Dullahan","steam_id":76561198119668908,"connected_time":203000000000,"state":"active","ping":102},{"user_id":210,"name":"[Bandit]","steam_id":76561197986919852,"connected_time":9115000000000,"state":"active","ping":90},{"user_id":307,"name":"Samrizo el Chorizo","steam_id":76561198009838162,"connected_time":2211000000000,"state":"active","ping":69},{"user_id":327,"name":"GreenApples","steam_id":76561198120559543,"connected_time":198000000000,"state":"active","ping":103},{"user_id":328,"name":"Nathan","steam_id":76561199132214008,"connected_time":190000000000,"state":"active","ping":101},{"user_id":329,"name":"D(b) Hell","steam_id":76561198067869016,"connected_time":168000000000,"state":"active","ping":45},{"user_id":306,"name":"Bullshell","steam_id":76561198154430083,"connected_time":2234000000000,"state":"active","ping":81},{"user_id":253,"name":"Liebesträume","steam_id":76561198038862034,"connected_time":6218000000000,"state":"active","ping":101},{"user_id":316,"name":"totoro","steam_id":76561198210420871,"connected_time":672000000000,"state":"active","ping":45},{"user_id":317,"name":"mach10monkey","steam_id":76561198272659023,"connected_time":669000000000,"state":"active","ping":123},{"user_id":302,"name":"rickyrickyricky","steam_id":76561198041765918,"connected_time":2354000000000,"state":"active","ping":85},{"user_id":330,"name":"Jacob","steam_id":76561198144613386,"connected_time":164000000000,"state":"active","ping":90}]},{"server_id":403,"name":"Uncletopia | Chicago | 4 | All Maps","name_short":"chi-4","host":"chi-1.us.uncletopia.com","port":27045,"enabled":true,"region":"us-central","cc":"us","latitude":41.881832,"longitude":-87.62318,"reserved":0,"last_update":"0001-01-01T00:00:00Z","name_a2s":"Uncletopia | Chicago | 4 | All Maps","protocol":17,"map":"pl_snowycoast","folder":"tf","game":"Team Fortress","app_id":440,"player_count":23,"max_players":24,"Bots":0,"server_type":"Dedicated","server_os":"Linux","password":true,"vac":true,"version":"7961495","steam_id":85568392924515193,"keywords":["nocrits","nodmgspread","payload","uncletopia"],"game_id":440,"stv_port":27046,"stv_name":"Uncletopia | Chicago | 4 | All Maps | STV","players":[{"user_id":177,"name":"Boboblin","steam_id":76561199030131717,"connected_time":3941000000000,"state":"active","ping":109},{"user_id":206,"name":"Kentucky Fried Lullaby","steam_id":76561198047845399,"connected_time":2071000000000,"state":"active","ping":69},{"user_id":193,"name":"The Rock","steam_id":76561198433328517,"connected_time":3085000000000,"state":"active","ping":70},{"user_id":200,"name":"_SANDBLADE_","steam_id":76561199082847007,"connected_time":2498000000000,"state":"active","ping":70},{"user_id":221,"name":"ATastyDonut","steam_id":76561198984819894,"connected_time":563000000000,"state":"active","ping":70},{"user_id":224,"name":"Acuzik","steam_id":76561198045453400,"connected_time":420000000000,"state":"active","ping":53},{"user_id":218,"name":"CyborgHexapus4","steam_id":76561198160335724,"connected_time":1224000000000,"state":"active","ping":107},{"user_id":194,"name":"Berb","steam_id":76561198193911899,"connected_time":2772000000000,"state":"active","ping":102},{"user_id":222,"name":"chuck","steam_id":76561198102300433,"connected_time":489000000000,"state":"active","ping":90},{"user_id":212,"name":"JellyParrot","steam_id":76561199190990163,"connected_time":1310000000000,"state":"active","ping":70},{"user_id":213,"name":"BookBurner23","steam_id":76561198034771185,"connected_time":1289000000000,"state":"active","ping":69},{"user_id":187,"name":"GuyGoom","steam_id":76561198254522178,"connected_time":3409000000000,"state":"active","ping":57},{"user_id":207,"name":"Tuffy","steam_id":76561198044179049,"connected_time":1885000000000,"state":"active","ping":70},{"user_id":214,"name":"IcyScrumpy","steam_id":76561198084605065,"connected_time":1288000000000,"state":"active","ping":63},{"user_id":215,"name":"Peketo","steam_id":76561199104376294,"connected_time":1286000000000,"state":"active","ping":72},{"user_id":219,"name":"The Notorious RBG","steam_id":76561198014275148,"connected_time":1222000000000,"state":"active","ping":76},{"user_id":181,"name":"Epha","steam_id":76561198079379951,"connected_time":3693000000000,"state":"active","ping":64},{"user_id":216,"name":"MontellWilliams","steam_id":76561198172143015,"connected_time":1262000000000,"state":"active","ping":72},{"user_id":225,"name":"BobbyLord_II","steam_id":76561198062356650,"connected_time":401000000000,"state":"active","ping":85},{"user_id":72,"name":"Mr_Frosty","steam_id":76561199380389079,"connected_time":11413000000000,"state":"active","ping":91},{"user_id":202,"name":"alfoam","steam_id":76561198353067162,"connected_time":2473000000000,"state":"active","ping":53},{"user_id":226,"name":"Wiggle Wiggle","steam_id":76561199053447896,"connected_time":330000000000,"state":"active","ping":77},{"user_id":220,"name":"Stoopnagle","steam_id":76561198011942560,"connected_time":1165000000000,"state":"active","ping":84}]},{"server_id":36,"name":"Uncletopia | Chicago | 5 | All Maps","name_short":"chi-5","host":"chi-2.us.uncletopia.com","port":27015,"enabled":true,"region":"us-central","cc":"us","latitude":41.881832,"longitude":-87.62318,"reserved":0,"last_update":"0001-01-01T00:00:00Z","name_a2s":"Uncletopia | Chicago | 5 | All Maps","protocol":17,"map":"pl_badwater","folder":"tf","game":"Team Fortress","app_id":440,"player_count":24,"max_players":24,"Bots":0,"server_type":"Dedicated","server_os":"Linux","password":true,"vac":true,"version":"7961495","steam_id":85568392924866362,"keywords":["nocrits","nodmgspread","payload","uncletopia"],"game_id":440,"stv_port":27016,"stv_name":"Uncletopia | Chicago | 5 | All Maps | STV","players":[{"user_id":446,"name":"Christian Brutal Sniper","steam_id":76561198103653795,"connected_time":307000000000,"state":"active","ping":118},{"user_id":447,"name":"ImmortalProphet","steam_id":76561198012352477,"connected_time":299000000000,"state":"active","ping":46},{"user_id":434,"name":"sansa musa","steam_id":76561198163723555,"connected_time":1115000000000,"state":"active","ping":62},{"user_id":392,"name":"zpalmtree","steam_id":76561198134307620,"connected_time":2695000000000,"state":"active","ping":72},{"user_id":430,"name":"YORCHspartan117","steam_id":76561198272955205,"connected_time":1227000000000,"state":"active","ping":88},{"user_id":415,"name":"Ejaculation Zach","steam_id":76561198203765200,"connected_time":1997000000000,"state":"active","ping":60},{"user_id":445,"name":"The Juicer","steam_id":76561198027247542,"connected_time":336000000000,"state":"active","ping":86},{"user_id":451,"name":"Zombie_Damage","steam_id":76561197963901630,"connected_time":222000000000,"state":"active","ping":58},{"user_id":452,"name":"Sicko Mode (Chris Pratt Cover)","steam_id":76561198315786174,"connected_time":198000000000,"state":"active","ping":72},{"user_id":448,"name":"Kreld","steam_id":76561198047794615,"connected_time":292000000000,"state":"active","ping":169},{"user_id":435,"name":"djungleskog","steam_id":76561199050193731,"connected_time":1093000000000,"state":"active","ping":72},{"user_id":421,"name":"rudy","steam_id":76561198088712799,"connected_time":1787000000000,"state":"active","ping":100},{"user_id":453,"name":"Sex Defender","steam_id":76561199085877419,"connected_time":192000000000,"state":"active","ping":70},{"user_id":372,"name":"The One True Luke","steam_id":76561198180891187,"connected_time":4015000000000,"state":"active","ping":75},{"user_id":441,"name":"gen","steam_id":76561199118569153,"connected_time":690000000000,"state":"active","ping":60},{"user_id":439,"name":"Calypso","steam_id":76561199015827567,"connected_time":802000000000,"state":"active","ping":92},{"user_id":437,"name":"Master Oogway","steam_id":76561198051869638,"connected_time":961000000000,"state":"active","ping":61},{"user_id":456,"name":"R O D G E D A N","steam_id":76561198226236524,"connected_time":43000000000,"state":"active","ping":71},{"user_id":412,"name":"rin","steam_id":76561198155841915,"connected_time":2059000000000,"state":"active","ping":68},{"user_id":384,"name":"Weerk","steam_id":76561199209543551,"connected_time":3298000000000,"state":"active","ping":98},{"user_id":449,"name":"Ahmed","steam_id":76561198123927752,"connected_time":257000000000,"state":"active","ping":58},{"user_id":413,"name":"[NAME-REDACTED]","steam_id":76561198035682975,"connected_time":2040000000000,"state":"active","ping":74},{"user_id":455,"name":"Aster","steam_id":76561198037920420,"connected_time":126000000000,"state":"active","ping":84},{"user_id":454,"name":"a table","steam_id":76561198158461279,"connected_time":174000000000,"state":"active","ping":76}]},{"server_id":37,"name":"Uncletopia | Chicago | 6 | All Maps","name_short":"chi-6","host":"chi-2.us.uncletopia.com","port":27025,"enabled":true,"region":"us-central","cc":"us","latitude":41.881832,"longitude":-87.62318,"reserved":0,"last_update":"0001-01-01T00:00:00Z","name_a2s":"Uncletopia | Chicago | 6 | All Maps","protocol":17,"map":"pl_swiftwater_final1","folder":"tf","game":"Team Fortress","app_id":440,"player_count":24,"max_players":24,"Bots":0,"server_type":"Dedicated","server_os":"Linux","password":true,"vac":true,"version":"7961495","steam_id":85568392924866363,"keywords":["nocrits","nodmgspread","payload","uncletopia"],"game_id":440,"stv_port":27026,"stv_name":"Uncletopia | Chicago | 6 | All Maps | STV","players":[{"user_id":405,"name":"Sergeant Joker #savetf2","steam_id":76561198854616604,"connected_time":852000000000,"state":"active","ping":63},{"user_id":402,"name":"npc energy","steam_id":76561198035342207,"connected_time":1051000000000,"state":"active","ping":45},{"user_id":406,"name":"Seskova","steam_id":76561198090207032,"connected_time":845000000000,"state":"active","ping":107},{"user_id":412,"name":"div?","steam_id":76561198413930183,"connected_time":722000000000,"state":"active","ping":60},{"user_id":392,"name":"Captain","steam_id":76561198155723294,"connected_time":1949000000000,"state":"active","ping":61},{"user_id":416,"name":"PGT diceroller521","steam_id":76561198100048412,"connected_time":296000000000,"state":"active","ping":58},{"user_id":407,"name":"king sir glorious","steam_id":76561198115676070,"connected_time":842000000000,"state":"active","ping":114},{"user_id":399,"name":"pHsHy","steam_id":76561198013195018,"connected_time":1173000000000,"state":"active","ping":78},{"user_id":403,"name":"Vox Vulpera","steam_id":76561198796227041,"connected_time":1023000000000,"state":"active","ping":79},{"user_id":415,"name":"waxdood","steam_id":76561198117546063,"connected_time":473000000000,"state":"active","ping":80},{"user_id":360,"name":"averted","steam_id":76561198067784310,"connected_time":4709000000000,"state":"active","ping":60},{"user_id":419,"name":"the keebler","steam_id":76561199486326945,"connected_time":76000000000,"state":"active","ping":75},{"user_id":414,"name":"Yummy Kabobz","steam_id":76561198067661705,"connected_time":585000000000,"state":"active","ping":68},{"user_id":390,"name":"TRIPLE AAARON","steam_id":76561198066835150,"connected_time":1968000000000,"state":"active","ping":56},{"user_id":387,"name":"Dongus","steam_id":76561197979056451,"connected_time":2006000000000,"state":"active","ping":91},{"user_id":408,"name":"KazmirlYT","steam_id":76561198116008410,"connected_time":830000000000,"state":"active","ping":105},{"user_id":397,"name":"Jrock","steam_id":76561198045715996,"connected_time":1393000000000,"state":"active","ping":92},{"user_id":421,"name":"❤Breadshot (She)❤","steam_id":76561199005756738,"connected_time":30000000000,"state":"active","ping":57},{"user_id":411,"name":"Call me the sleeps","steam_id":76561198121245586,"connected_time":768000000000,"state":"active","ping":93},{"user_id":418,"name":"Capn. Wing Ding","steam_id":76561198076068424,"connected_time":227000000000,"state":"active","ping":88},{"user_id":420,"name":"spy has a gun?","steam_id":76561199241619967,"connected_time":52000000000,"state":"active","ping":72},{"user_id":404,"name":"Eminem Guardian","steam_id":76561198064631314,"connected_time":960000000000,"state":"active","ping":73},{"user_id":371,"name":"MechaSixVII","steam_id":76561198014927379,"connected_time":4417000000000,"state":"active","ping":82},{"user_id":417,"name":"John16Mark","steam_id":76561198119445407,"connected_time":265000000000,"state":"active","ping":85}]},{"server_id":38,"name":"Uncletopia | Chicago | 7 | Stopwatch","name_short":"chi-7","host":"chi-2.us.uncletopia.com","port":27035,"enabled":true,"region":"us-central","cc":"us","latitude":41.881832,"longitude":-87.62318,"reserved":0,"last_update":"0001-01-01T00:00:00Z","name_a2s":"Uncletopia | Chicago | 7 | Stopwatch","protocol":17,"map":"workshop/koth_product_final.ugc454272353","folder":"tf","game":"Team Fortress","app_id":440,"player_count":0,"max_players":24,"Bots":0,"server_type":"Dedicated","server_os":"Linux","password":true,"vac":true,"version":"7961495","steam_id":85568392924866364,"keywords":["cp","nocrits","nodmgspread","uncletopia"],"game_id":440,"stv_port":27036,"stv_name":"Uncletopia | Chicago | 7 | Stopwatch | STV","players":null},{"server_id":39,"name":"Uncletopia | Chicago | 8 | Community","name_short":"chi-8","host":"chi-2.us.uncletopia.com","port":27045,"enabled":true,"region":"us-central","cc":"us","latitude":41.881832,"longitude":-87.62318,"reserved":0,"last_update":"0001-01-01T00:00:00Z","name_a2s":"Uncletopia | Chicago | 8 | Community","protocol":17,"map":"workshop/cp_fulgur_rc2a.ugc2068252300","folder":"tf","game":"Team Fortress","app_id":440,"player_count":0,"max_players":24,"Bots":0,"server_type":"Dedicated","server_os":"Linux","password":true,"vac":true,"version":"7961495","steam_id":85568392924866365,"keywords":["cp","nocrits","nodmgspread","uncletopia"],"game_id":440,"stv_port":27046,"stv_name":"Uncletopia | Chicago | 8 | Community | STV","players":null},{"server_id":8,"name":"Uncletopia | Dallas | 1 | All Maps","name_short":"dal-1","host":"dal-1.us.uncletopia.com","port":27015,"enabled":true,"region":"us-central","cc":"us","latitude":32.779167,"longitude":-96.80889,"reserved":0,"last_update":"0001-01-01T00:00:00Z","name_a2s":"Uncletopia | Dallas | 1 | All Maps","protocol":17,"map":"pl_barnblitz","folder":"tf","game":"Team Fortress","app_id":440,"player_count":24,"max_players":24,"Bots":0,"server_type":"Dedicated","server_os":"Linux","password":true,"vac":true,"version":"7961495","steam_id":85568392924469986,"keywords":["nocrits","nodmgspread","payload","uncletopia"],"game_id":440,"stv_port":27016,"stv_name":"Uncletopia | Dallas | 1 | All Maps | STV","players":[{"user_id":478,"name":"frank","steam_id":76561198137777483,"connected_time":1436000000000,"state":"active","ping":90},{"user_id":479,"name":"penzfan","steam_id":76561198230422640,"connected_time":1422000000000,"state":"active","ping":70},{"user_id":490,"name":"Fredrick","steam_id":76561197981419964,"connected_time":629000000000,"state":"active","ping":92},{"user_id":392,"name":"THRONGLER","steam_id":76561198198563466,"connected_time":7611000000000,"state":"active","ping":39},{"user_id":464,"name":"Gary Busey","steam_id":76561197970096950,"connected_time":2521000000000,"state":"active","ping":45},{"user_id":480,"name":"Lezabel","steam_id":76561198970753261,"connected_time":1329000000000,"state":"active","ping":75},{"user_id":489,"name":"Cursed","steam_id":76561199161458959,"connected_time":649000000000,"state":"active","ping":78},{"user_id":486,"name":"Who loves orange soda?","steam_id":76561198059808982,"connected_time":1052000000000,"state":"active","ping":60},{"user_id":484,"name":"Herothroughtime","steam_id":76561198104355231,"connected_time":1183000000000,"state":"active","ping":89},{"user_id":372,"name":"The Jar","steam_id":76561198146013385,"connected_time":9303000000000,"state":"active","ping":96},{"user_id":470,"name":"gung6n","steam_id":76561198099843841,"connected_time":2183000000000,"state":"active","ping":61},{"user_id":433,"name":"lker","steam_id":76561197976975075,"connected_time":5329000000000,"state":"active","ping":59},{"user_id":437,"name":"LampMan","steam_id":76561198079857527,"connected_time":4897000000000,"state":"active","ping":61},{"user_id":447,"name":"Zam","steam_id":76561198295713840,"connected_time":4093000000000,"state":"active","ping":60},{"user_id":493,"name":"Inflation Jumpscare","steam_id":76561198137862444,"connected_time":6000000000,"state":"spawning","ping":35},{"user_id":430,"name":"^;;^","steam_id":76561198164460801,"connected_time":5450000000000,"state":"active","ping":109},{"user_id":459,"name":"PiolaCat","steam_id":76561199100535345,"connected_time":3479000000000,"state":"active","ping":170},{"user_id":463,"name":"Sweet Tooth","steam_id":76561198830158092,"connected_time":2526000000000,"state":"active","ping":84},{"user_id":488,"name":"tophatter","steam_id":76561199487676443,"connected_time":693000000000,"state":"active","ping":69},{"user_id":374,"name":"Bread Makes you Fat","steam_id":76561198985126532,"connected_time":9179000000000,"state":"active","ping":55},{"user_id":467,"name":"corned beef","steam_id":76561199366782761,"connected_time":2457000000000,"state":"active","ping":144},{"user_id":468,"name":"-π- BakaD","steam_id":76561197960559169,"connected_time":2424000000000,"state":"active","ping":76},{"user_id":491,"name":"Cyborgx10","steam_id":76561198951730223,"connected_time":320000000000,"state":"active","ping":87},{"user_id":477,"name":"speedy","steam_id":76561197974493959,"connected_time":1446000000000,"state":"active","ping":94}]},{"server_id":108,"name":"Uncletopia | Dallas | 2 | All Maps","name_short":"dal-2","host":"dal-1.us.uncletopia.com","port":27025,"enabled":true,"region":"us-central","cc":"us","latitude":32.779167,"longitude":-96.80889,"reserved":0,"last_update":"0001-01-01T00:00:00Z","name_a2s":"Uncletopia | Dallas | 2 | All Maps","protocol":17,"map":"cp_dustbowl","folder":"tf","game":"Team Fortress","app_id":440,"player_count":24,"max_players":24,"Bots":0,"server_type":"Dedicated","server_os":"Linux","password":true,"vac":true,"version":"7961495","steam_id":85568392924469988,"keywords":["cp","nocrits","nodmgspread","uncletopia"],"game_id":440,"stv_port":27026,"stv_name":"Uncletopia | Dallas | 2 | All Maps | STV","players":[{"user_id":379,"name":"kid named weezer","steam_id":76561198813566335,"connected_time":2205000000000,"state":"active","ping":97},{"user_id":397,"name":"dalehunter","steam_id":76561199158974920,"connected_time":1235000000000,"state":"active","ping":123},{"user_id":414,"name":"N A R W O O L","steam_id":76561198175955138,"connected_time":329000000000,"state":"active","ping":86},{"user_id":374,"name":"thug shaker #enablecrits","steam_id":76561198081220016,"connected_time":2432000000000,"state":"active","ping":72},{"user_id":392,"name":"Spank McDugan","steam_id":76561198046401833,"connected_time":1655000000000,"state":"active","ping":76},{"user_id":375,"name":"hl3 hot gay sex","steam_id":76561199122281764,"connected_time":2345000000000,"state":"active","ping":75},{"user_id":409,"name":"Streetwise","steam_id":76561197971684268,"connected_time":659000000000,"state":"active","ping":121},{"user_id":398,"name":"RATATATATATA","steam_id":76561198288458595,"connected_time":1145000000000,"state":"active","ping":82},{"user_id":350,"name":"mkl","steam_id":76561197986401685,"connected_time":4011000000000,"state":"active","ping":60},{"user_id":372,"name":"muck","steam_id":76561198120437909,"connected_time":2466000000000,"state":"active","ping":42},{"user_id":390,"name":"Oopsie Daisy ❋","steam_id":76561198042144492,"connected_time":1797000000000,"state":"active","ping":74},{"user_id":385,"name":"Zimil","steam_id":76561199187045818,"connected_time":1949000000000,"state":"active","ping":122},{"user_id":395,"name":"We Go Crazy","steam_id":76561198209641359,"connected_time":1449000000000,"state":"active","ping":77},{"user_id":405,"name":"Normalux","steam_id":76561198293891426,"connected_time":791000000000,"state":"active","ping":112},{"user_id":417,"name":"Pumpkin Hugger","steam_id":76561198834875100,"connected_time":187000000000,"state":"active","ping":50},{"user_id":416,"name":"b","steam_id":76561198087200115,"connected_time":214000000000,"state":"active","ping":91},{"user_id":404,"name":"hoOmIN","steam_id":76561198334947079,"connected_time":815000000000,"state":"active","ping":75},{"user_id":396,"name":"White_Wizard_Named_Corona","steam_id":76561198055652735,"connected_time":1368000000000,"state":"active","ping":73},{"user_id":420,"name":"hart","steam_id":76561198094780633,"connected_time":145000000000,"state":"active","ping":63},{"user_id":402,"name":"Jonatello","steam_id":76561198045699189,"connected_time":954000000000,"state":"active","ping":110},{"user_id":411,"name":"carrot cake","steam_id":76561198055174915,"connected_time":564000000000,"state":"active","ping":90},{"user_id":406,"name":"Lunacy","steam_id":76561198400892015,"connected_time":780000000000,"state":"active","ping":86},{"user_id":412,"name":"Withered Bonnie (Real)","steam_id":76561198423310113,"connected_time":529000000000,"state":"active","ping":54},{"user_id":363,"name":"smetc","steam_id":76561198240696986,"connected_time":3134000000000,"state":"active","ping":87}]},{"server_id":404,"name":"Uncletopia | Dallas | 3 | All Maps","name_short":"dal-3","host":"dal-1.us.uncletopia.com","port":27035,"enabled":true,"region":"us-central","cc":"us","latitude":32.779167,"longitude":-96.80889,"reserved":0,"last_update":"0001-01-01T00:00:00Z","name_a2s":"Uncletopia | Dallas | 3 | All Maps","protocol":17,"map":"pl_goldrush","folder":"tf","game":"Team Fortress","app_id":440,"player_count":23,"max_players":24,"Bots":0,"server_type":"Dedicated","server_os":"Linux","password":true,"vac":true,"version":"7961495","steam_id":85568392924515219,"keywords":["nocrits","nodmgspread","payload","uncletopia"],"game_id":440,"stv_port":27036,"stv_name":"Uncletopia | Dallas | 3 | All Maps | STV","players":[{"user_id":269,"name":"Iron","steam_id":76561198247918478,"connected_time":1651000000000,"state":"active","ping":114},{"user_id":257,"name":"TechnoBear2099","steam_id":76561198238863596,"connected_time":1894000000000,"state":"active","ping":55},{"user_id":283,"name":"monkaHeal","steam_id":76561198127039453,"connected_time":860000000000,"state":"active","ping":76},{"user_id":211,"name":"CDBeans","steam_id":76561198046990367,"connected_time":4788000000000,"state":"active","ping":113},{"user_id":285,"name":"Queuetimeevent","steam_id":76561198079438423,"connected_time":761000000000,"state":"active","ping":58},{"user_id":291,"name":"Chazby","steam_id":76561198038016423,"connected_time":266000000000,"state":"active","ping":63},{"user_id":262,"name":"nbwingdinger","steam_id":76561198412627015,"connected_time":1746000000000,"state":"active","ping":113},{"user_id":261,"name":"Whompert","steam_id":76561198042939624,"connected_time":1759000000000,"state":"active","ping":98},{"user_id":279,"name":"Eclipse.","steam_id":76561199014132160,"connected_time":1338000000000,"state":"active","ping":102},{"user_id":263,"name":"Stauxie","steam_id":76561198255030077,"connected_time":1745000000000,"state":"active","ping":94},{"user_id":264,"name":"Khaki","steam_id":76561197991523078,"connected_time":1727000000000,"state":"active","ping":73},{"user_id":280,"name":"Sparse","steam_id":76561198865084441,"connected_time":1311000000000,"state":"active","ping":50},{"user_id":292,"name":"Menacing","steam_id":76561198009093788,"connected_time":261000000000,"state":"active","ping":41},{"user_id":267,"name":"BigBubble42","steam_id":76561198136286123,"connected_time":1680000000000,"state":"active","ping":35},{"user_id":284,"name":"Big McThankies From McSpankies","steam_id":76561198020516880,"connected_time":775000000000,"state":"active","ping":60},{"user_id":290,"name":"Texas guy","steam_id":76561198082315370,"connected_time":450000000000,"state":"active","ping":91},{"user_id":244,"name":"doughboy","steam_id":76561198219012928,"connected_time":2598000000000,"state":"active","ping":86},{"user_id":293,"name":"You Don't Nomi.","steam_id":76561197969137836,"connected_time":243000000000,"state":"active","ping":95},{"user_id":294,"name":"dog","steam_id":76561198263873491,"connected_time":235000000000,"state":"active","ping":62},{"user_id":268,"name":"SomeRandomCat","steam_id":76561199107044061,"connected_time":1673000000000,"state":"active","ping":49},{"user_id":277,"name":"TheAilingSword","steam_id":76561198250350844,"connected_time":1489000000000,"state":"active","ping":51},{"user_id":296,"name":"leesh","steam_id":76561198079603938,"connected_time":154000000000,"state":"active","ping":68},{"user_id":216,"name":"Wild Meep","steam_id":76561198199271438,"connected_time":4759000000000,"state":"active","ping":108}]},{"server_id":405,"name":"Uncletopia | Dallas | 4 | Community","name_short":"dal-4","host":"dal-1.us.uncletopia.com","port":27045,"enabled":true,"region":"us-central","cc":"us","latitude":32.779167,"longitude":-96.80889,"reserved":0,"last_update":"0001-01-01T00:00:00Z","name_a2s":"Uncletopia | Dallas | 4 | Community","protocol":17,"map":"workshop/cp_hazyfort_rc6.ugc1365963729","folder":"tf","game":"Team Fortress","app_id":440,"player_count":0,"max_players":24,"Bots":0,"server_type":"Dedicated","server_os":"Linux","password":true,"vac":true,"version":"7961495","steam_id":85568392924515220,"keywords":["cp","nocrits","nodmgspread","uncletopia"],"game_id":440,"stv_port":27046,"stv_name":"Uncletopia | Dallas | 4 | Community | STV","players":null},{"server_id":5,"name":"Uncletopia | Frankfurt | 1 | All Maps","name_short":"frk-1","host":"frk-1.de.uncletopia.com","port":27015,"enabled":true,"region":"eu","cc":"de","latitude":50.110924,"longitude":8.682127,"reserved":0,"last_update":"0001-01-01T00:00:00Z","name_a2s":"Uncletopia | Frankfurt | 1 | All Maps","protocol":17,"map":"koth_nucleus","folder":"tf","game":"Team Fortress","app_id":440,"player_count":22,"max_players":24,"Bots":0,"server_type":"Dedicated","server_os":"Linux","password":true,"vac":true,"version":"7961495","steam_id":85568392924469989,"keywords":["cp","nocrits","nodmgspread","uncletopia"],"game_id":440,"stv_port":27016,"stv_name":"Uncletopia | Frankfurt | 1 | All Maps | STV","players":[{"user_id":483,"name":"_Shkoot","steam_id":76561198318170398,"connected_time":6189000000000,"state":"active","ping":42},{"user_id":568,"name":"[10thAL] Ballix","steam_id":76561198217495645,"connected_time":760000000000,"state":"active","ping":57},{"user_id":562,"name":"Qdarks","steam_id":76561198013391340,"connected_time":1019000000000,"state":"active","ping":146},{"user_id":575,"name":"Hitotsume","steam_id":76561198129157178,"connected_time":233000000000,"state":"active","ping":80},{"user_id":569,"name":"yuck","steam_id":76561197987249568,"connected_time":705000000000,"state":"active","ping":93},{"user_id":586,"name":"M2rtRa","steam_id":76561198111036466,"connected_time":11000000000,"state":"spawning","ping":59},{"user_id":573,"name":"Basil","steam_id":76561198046832312,"connected_time":288000000000,"state":"active","ping":78},{"user_id":570,"name":"Qketzki","steam_id":76561198397728735,"connected_time":666000000000,"state":"active","ping":90},{"user_id":574,"name":"bot or not? (guess)","steam_id":76561199036865103,"connected_time":260000000000,"state":"active","ping":93},{"user_id":580,"name":"snowycoast","steam_id":76561198346638308,"connected_time":170000000000,"state":"active","ping":62},{"user_id":536,"name":"Lassie","steam_id":76561198131924713,"connected_time":2719000000000,"state":"active","ping":54},{"user_id":548,"name":"Brutausky :3","steam_id":76561198100767533,"connected_time":2086000000000,"state":"active","ping":66},{"user_id":540,"name":"GGlut","steam_id":76561198034281473,"connected_time":2558000000000,"state":"active","ping":37},{"user_id":541,"name":"Quodino Brostofaldo","steam_id":76561198258741488,"connected_time":2525000000000,"state":"active","ping":55},{"user_id":551,"name":"ArcX","steam_id":76561198805049375,"connected_time":1756000000000,"state":"active","ping":48},{"user_id":578,"name":"race car driver jerry","steam_id":76561198054047446,"connected_time":205000000000,"state":"active","ping":59},{"user_id":581,"name":"Q U E E N A L E X","steam_id":76561198186341157,"connected_time":134000000000,"state":"active","ping":56},{"user_id":564,"name":"Tichy☆","steam_id":76561198026218934,"connected_time":907000000000,"state":"active","ping":49},{"user_id":571,"name":"el beefy bean burrito","steam_id":76561199404568590,"connected_time":615000000000,"state":"active","ping":157},{"user_id":585,"name":"Shallaska","steam_id":76561198019030896,"connected_time":102000000000,"state":"active","ping":60},{"user_id":582,"name":"Vinnidict","steam_id":76561198037087000,"connected_time":120000000000,"state":"active","ping":76},{"user_id":448,"name":"xTheDarkLight","steam_id":76561198239128298,"connected_time":8608000000000,"state":"active","ping":46}]},{"server_id":110,"name":"Uncletopia | Frankfurt | 2 | All Maps","name_short":"frk-2","host":"frk-1.de.uncletopia.com","port":27025,"enabled":true,"region":"eu","cc":"de","latitude":50.110924,"longitude":8.682127,"reserved":0,"last_update":"0001-01-01T00:00:00Z","name_a2s":"Uncletopia | Frankfurt | 2 | All Maps","protocol":17,"map":"cp_sunshine","folder":"tf","game":"Team Fortress","app_id":440,"player_count":2,"max_players":24,"Bots":0,"server_type":"Dedicated","server_os":"Linux","password":true,"vac":true,"version":"7961495","steam_id":85568392924469990,"keywords":["cp","nocrits","nodmgspread","uncletopia"],"game_id":440,"stv_port":27026,"stv_name":"Uncletopia | Frankfurt | 2 | All Maps | STV","players":[{"user_id":344,"name":"Ade","steam_id":76561198974207724,"connected_time":11500000000000,"state":"active","ping":97},{"user_id":336,"name":"fynta","steam_id":76561198315371425,"connected_time":12365000000000,"state":"active","ping":45}]},{"server_id":308,"name":"Uncletopia | Frankfurt | 3 | All Maps","name_short":"frk-3","host":"frk-1.de.uncletopia.com","port":27035,"enabled":true,"region":"eu","cc":"de","latitude":50.110924,"longitude":8.682127,"reserved":0,"last_update":"0001-01-01T00:00:00Z","name_a2s":"Uncletopia | Frankfurt | 3 | All Maps","protocol":17,"map":"cp_mountainlab","folder":"tf","game":"Team Fortress","app_id":440,"player_count":0,"max_players":24,"Bots":0,"server_type":"Dedicated","server_os":"Linux","password":true,"vac":true,"version":"7961495","steam_id":85568392924504274,"keywords":["cp","nocrits","nodmgspread","uncletopia"],"game_id":440,"stv_port":27036,"stv_name":"Uncletopia | Frankfurt | 3 | All Maps | STV","players":null},{"server_id":309,"name":"Uncletopia | Frankfurt | 4 | All Maps","name_short":"frk-4","host":"frk-1.de.uncletopia.com","port":27045,"enabled":true,"region":"eu","cc":"de","latitude":50.110924,"longitude":8.682127,"reserved":0,"last_update":"0001-01-01T00:00:00Z","name_a2s":"Uncletopia | Frankfurt | 4 | All Maps","protocol":17,"map":"pl_upward","folder":"tf","game":"Team Fortress","app_id":440,"player_count":4,"max_players":24,"Bots":0,"server_type":"Dedicated","server_os":"Linux","password":true,"vac":true,"version":"7961495","steam_id":85568392924504275,"keywords":["nocrits","nodmgspread","payload","uncletopia"],"game_id":440,"stv_port":27046,"stv_name":"Uncletopia | Frankfurt | 4 | All Maps | STV","players":[{"user_id":744,"name":"kalaa †","steam_id":76561198134652336,"connected_time":470000000000,"state":"active","ping":52},{"user_id":731,"name":"Mi cara","steam_id":76561198190771759,"connected_time":5129000000000,"state":"active","ping":222},{"user_id":740,"name":"matt_","steam_id":76561199121285443,"connected_time":3717000000000,"state":"active","ping":129},{"user_id":719,"name":"Black Corvette","steam_id":76561198856943897,"connected_time":6111000000000,"state":"active","ping":90}]},{"server_id":310,"name":"Uncletopia | Frankfurt | 5 | All Maps","name_short":"frk-5","host":"frk-1.de.uncletopia.com","port":27055,"enabled":true,"region":"eu","cc":"de","latitude":50.110924,"longitude":8.682127,"reserved":0,"last_update":"0001-01-01T00:00:00Z","name_a2s":"Uncletopia | Frankfurt | 5 | All Maps","protocol":17,"map":"pl_borneo","folder":"tf","game":"Team Fortress","app_id":440,"player_count":24,"max_players":24,"Bots":0,"server_type":"Dedicated","server_os":"Linux","password":true,"vac":true,"version":"7961495","steam_id":85568392924504277,"keywords":["nocrits","nodmgspread","payload","uncletopia"],"game_id":440,"stv_port":27056,"stv_name":"Uncletopia | Frankfurt | 5 | All Maps | STV","players":[{"user_id":976,"name":"Catnip Smoker","steam_id":76561198284519569,"connected_time":303000000000,"state":"active","ping":104},{"user_id":911,"name":"Ozzie","steam_id":76561197992915315,"connected_time":4335000000000,"state":"active","ping":72},{"user_id":929,"name":"foureyesfries","steam_id":76561198271831555,"connected_time":2653000000000,"state":"active","ping":55},{"user_id":930,"name":"Phalcon","steam_id":76561197987051394,"connected_time":2639000000000,"state":"active","ping":75},{"user_id":977,"name":"JujuBalu","steam_id":76561198207253071,"connected_time":301000000000,"state":"active","ping":56},{"user_id":978,"name":"Sabour","steam_id":76561197963965445,"connected_time":300000000000,"state":"active","ping":57},{"user_id":883,"name":"ywyw","steam_id":76561198088624259,"connected_time":5967000000000,"state":"active","ping":61},{"user_id":961,"name":"bubbleTea 60hz","steam_id":76561199487938189,"connected_time":838000000000,"state":"active","ping":60},{"user_id":979,"name":"DOTY","steam_id":76561198056790920,"connected_time":291000000000,"state":"active","ping":59},{"user_id":931,"name":"DarthMurloc_OW","steam_id":76561198075577711,"connected_time":2635000000000,"state":"active","ping":72},{"user_id":975,"name":"Economic crisis","steam_id":76561198063562843,"connected_time":377000000000,"state":"active","ping":53},{"user_id":980,"name":"kurage","steam_id":76561198021221288,"connected_time":277000000000,"state":"active","ping":59},{"user_id":981,"name":"AsuX","steam_id":76561197990333289,"connected_time":247000000000,"state":"active","ping":60},{"user_id":934,"name":"Lord Odment","steam_id":76561198044354976,"connected_time":2481000000000,"state":"active","ping":103},{"user_id":959,"name":"Cleaner 0-1 | Ichinose Asuna","steam_id":76561198985309519,"connected_time":1116000000000,"state":"active","ping":92},{"user_id":971,"name":"Kaupsýslumaðurinn","steam_id":76561198070358944,"connected_time":547000000000,"state":"active","ping":59},{"user_id":926,"name":"stun","steam_id":76561198276681691,"connected_time":3031000000000,"state":"active","ping":55},{"user_id":974,"name":"LJ","steam_id":76561198026723805,"connected_time":480000000000,"state":"active","ping":61},{"user_id":964,"name":"Houwska","steam_id":76561198269659028,"connected_time":771000000000,"state":"active","ping":72},{"user_id":966,"name":"Tusho","steam_id":76561198115447383,"connected_time":759000000000,"state":"active","ping":67},{"user_id":918,"name":"Jeryx","steam_id":76561197995602803,"connected_time":4054000000000,"state":"active","ping":59},{"user_id":967,"name":"падонкин","steam_id":76561198158382633,"connected_time":753000000000,"state":"active","ping":97},{"user_id":970,"name":"highest noon","steam_id":76561199103959197,"connected_time":628000000000,"state":"active","ping":86},{"user_id":982,"name":"Palm Trees","steam_id":76561198111462976,"connected_time":245000000000,"state":"active","ping":82}]},{"server_id":311,"name":"Uncletopia | Frankfurt | 6 | All Maps","name_short":"frk-6","host":"frk-1.de.uncletopia.com","port":27065,"enabled":true,"region":"eu","cc":"de","latitude":50.110924,"longitude":8.682127,"reserved":0,"last_update":"0001-01-01T00:00:00Z","name_a2s":"Uncletopia | Frankfurt | 6 | All Maps","protocol":17,"map":"ctf_2fort","folder":"tf","game":"Team Fortress","app_id":440,"player_count":0,"max_players":24,"Bots":0,"server_type":"Dedicated","server_os":"Linux","password":true,"vac":true,"version":"7961495","steam_id":85568392924504278,"keywords":["ctf","nocrits","nodmgspread","uncletopia"],"game_id":440,"stv_port":27066,"stv_name":"Uncletopia | Frankfurt | 6 | All Maps | STV","players":null},{"server_id":23,"name":"Uncletopia | Frankfurt | 7 | Stopwatch","name_short":"frk-7","host":"frk-1.de.uncletopia.com","port":27075,"enabled":true,"region":"eu","cc":"de","latitude":50.110924,"longitude":8.682127,"reserved":0,"last_update":"0001-01-01T00:00:00Z","name_a2s":"Uncletopia | Frankfurt | 7 | Stopwatch","protocol":17,"map":"pl_borneo","folder":"tf","game":"Team Fortress","app_id":440,"player_count":0,"max_players":24,"Bots":0,"server_type":"Dedicated","server_os":"Linux","password":true,"vac":true,"version":"7961495","steam_id":85568392924742827,"keywords":["nocrits","nodmgspread","payload","uncletopia"],"game_id":440,"stv_port":27076,"stv_name":"Uncletopia | Frankfurt | 7 | Stopwatch | STV","players":null},{"server_id":24,"name":"Uncletopia | Frankfurt | 8 | Community","name_short":"frk-8","host":"frk-1.de.uncletopia.com","port":27085,"enabled":true,"region":"eu","cc":"de","latitude":50.110924,"longitude":8.682127,"reserved":0,"last_update":"0001-01-01T00:00:00Z","name_a2s":"Uncletopia | Frankfurt | 8 | Community","protocol":17,"map":"workshop/pl_boundary_final1.ugc456799153","folder":"tf","game":"Team Fortress","app_id":440,"player_count":0,"max_players":24,"Bots":0,"server_type":"Dedicated","server_os":"Linux","password":true,"vac":true,"version":"7961495","steam_id":85568392924742828,"keywords":["nocrits","nodmgspread","payload","uncletopia"],"game_id":440,"stv_port":27086,"stv_name":"Uncletopia | Frankfurt | 8 | Community | STV","players":null},{"server_id":202,"name":"Uncletopia | Hong Kong | 1 | All Maps","name_short":"hgk-1","host":"hgk-1.hk.uncletopia.com","port":27015,"enabled":true,"region":"asia","cc":"hk","latitude":22.302711,"longitude":114.177216,"reserved":0,"last_update":"0001-01-01T00:00:00Z","name_a2s":"Uncletopia | Hong Kong | 1 | All Maps","protocol":17,"map":"cp_snakewater_final1","folder":"tf","game":"Team Fortress","app_id":440,"player_count":0,"max_players":24,"Bots":0,"server_type":"Dedicated","server_os":"Linux","password":true,"vac":true,"version":"7961495","steam_id":85568392924494504,"keywords":["cp","nocrits","nodmgspread","uncletopia"],"game_id":440,"stv_port":27016,"stv_name":"Uncletopia | Hong Kong | 1 | All Maps | STV","players":null},{"server_id":1,"name":"Uncletopia | Los Angeles | 1 | All Maps","name_short":"lax-1","host":"lax-1.us.uncletopia.com","port":27015,"enabled":true,"region":"us-west","cc":"us","latitude":33.94279,"longitude":-118.41004,"reserved":0,"last_update":"0001-01-01T00:00:00Z","name_a2s":"Uncletopia | Los Angeles | 1 | All Maps","protocol":17,"map":"pl_badwater","folder":"tf","game":"Team Fortress","app_id":440,"player_count":0,"max_players":24,"Bots":0,"server_type":"Dedicated","server_os":"Linux","password":true,"vac":true,"version":"7961495","steam_id":85568392924469991,"keywords":["nocrits","nodmgspread","payload","uncletopia"],"game_id":440,"stv_port":27016,"stv_name":"Uncletopia | Los Angeles | 1 | All Maps | STV","players":null},{"server_id":112,"name":"Uncletopia | Los Angeles | 2 | All Maps","name_short":"lax-2","host":"lax-1.us.uncletopia.com","port":27025,"enabled":true,"region":"us-west","cc":"us","latitude":33.94279,"longitude":-118.41004,"reserved":0,"last_update":"0001-01-01T00:00:00Z","name_a2s":"Uncletopia | Los Angeles | 2 | All Maps","protocol":17,"map":"cp_snakewater_final1","folder":"tf","game":"Team Fortress","app_id":440,"player_count":24,"max_players":24,"Bots":0,"server_type":"Dedicated","server_os":"Linux","password":true,"vac":true,"version":"7961495","steam_id":85568392924469992,"keywords":["cp","nocrits","nodmgspread","uncletopia"],"game_id":440,"stv_port":27026,"stv_name":"Uncletopia | Los Angeles | 2 | All Maps | STV","players":[{"user_id":287,"name":"Smashing93","steam_id":76561199058453316,"connected_time":174000000000,"state":"active","ping":107},{"user_id":104,"name":"selvhat","steam_id":76561198114225509,"connected_time":12643000000000,"state":"active","ping":51},{"user_id":190,"name":"BitPieStudios","steam_id":76561198059216393,"connected_time":7292000000000,"state":"active","ping":48},{"user_id":241,"name":"Da Bird","steam_id":76561198215677985,"connected_time":4415000000000,"state":"active","ping":69},{"user_id":288,"name":"emusaurus rex","steam_id":76561198991938829,"connected_time":157000000000,"state":"active","ping":55},{"user_id":281,"name":"Poodwecker","steam_id":76561198344264859,"connected_time":520000000000,"state":"active","ping":90},{"user_id":275,"name":"Klopo","steam_id":76561198871108633,"connected_time":1350000000000,"state":"active","ping":44},{"user_id":295,"name":"milo","steam_id":76561199081639163,"connected_time":36000000000,"state":"active","ping":73},{"user_id":289,"name":"cran","steam_id":76561198178840075,"connected_time":134000000000,"state":"active","ping":85},{"user_id":290,"name":"The Caffeinated Knight of Red","steam_id":76561198101152114,"connected_time":101000000000,"state":"active","ping":57},{"user_id":164,"name":"moe","steam_id":76561198929586245,"connected_time":8435000000000,"state":"active","ping":45},{"user_id":232,"name":"cycoone","steam_id":76561198059745285,"connected_time":4943000000000,"state":"active","ping":108},{"user_id":291,"name":"lemon","steam_id":76561198086406706,"connected_time":98000000000,"state":"active","ping":90},{"user_id":286,"name":"level 7 firemancer","steam_id":76561198209571677,"connected_time":199000000000,"state":"active","ping":100},{"user_id":278,"name":"Link_Starr","steam_id":76561198133884015,"connected_time":909000000000,"state":"active","ping":56},{"user_id":284,"name":"Pablo.Gonzalez.2007","steam_id":76561199083115222,"connected_time":427000000000,"state":"active","ping":118},{"user_id":292,"name":"d4ngerd4n","steam_id":76561198043758735,"connected_time":85000000000,"state":"active","ping":64},{"user_id":280,"name":"a chicken","steam_id":76561198313121580,"connected_time":563000000000,"state":"active","ping":45},{"user_id":279,"name":"Schnitz","steam_id":76561198265484253,"connected_time":580000000000,"state":"active","ping":57},{"user_id":165,"name":"basedball","steam_id":76561198385887698,"connected_time":8432000000000,"state":"active","ping":78},{"user_id":293,"name":"[BC] Blahaj Gaming","steam_id":76561198373703835,"connected_time":68000000000,"state":"active","ping":73},{"user_id":266,"name":"Gerbias","steam_id":76561198001002427,"connected_time":2267000000000,"state":"active","ping":58},{"user_id":294,"name":"ninja45","steam_id":76561198150619521,"connected_time":63000000000,"state":"active","ping":70},{"user_id":274,"name":"Bodhi","steam_id":76561198043199143,"connected_time":1386000000000,"state":"active","ping":61}]},{"server_id":324,"name":"Uncletopia | Los Angeles | 3 | All Maps","name_short":"lax-3","host":"lax-1.us.uncletopia.com","port":27035,"enabled":true,"region":"us-west","cc":"us","latitude":33.94279,"longitude":-118.41004,"reserved":0,"last_update":"0001-01-01T00:00:00Z","name_a2s":"Uncletopia | Los Angeles | 3 | All Maps","protocol":17,"map":"koth_highpass","folder":"tf","game":"Team Fortress","app_id":440,"player_count":0,"max_players":24,"Bots":0,"server_type":"Dedicated","server_os":"Linux","password":true,"vac":true,"version":"7961495","steam_id":85568392924510198,"keywords":["cp","nocrits","nodmgspread","uncletopia"],"game_id":440,"stv_port":27036,"stv_name":"Uncletopia | Los Angeles | 3 | All Maps | STV","players":null},{"server_id":25,"name":"Uncletopia | Los Angeles | 4 | Stopwatch","name_short":"lax-4","host":"lax-1.us.uncletopia.com","port":27045,"enabled":true,"region":"us-west","cc":"us","latitude":33.94279,"longitude":-118.41004,"reserved":0,"last_update":"0001-01-01T00:00:00Z","name_a2s":"Uncletopia | Los Angeles | 4 | Stopwatch","protocol":17,"map":"cp_sunshine","folder":"tf","game":"Team Fortress","app_id":440,"player_count":0,"max_players":24,"Bots":0,"server_type":"Dedicated","server_os":"Linux","password":true,"vac":true,"version":"7961495","steam_id":85568392924510199,"keywords":["cp","nocrits","nodmgspread","uncletopia"],"game_id":440,"stv_port":27046,"stv_name":"Uncletopia | Los Angeles | 4 | Stopwatch | STV","players":null},{"server_id":11,"name":"Uncletopia | London | 1 | All Maps","name_short":"lon-1","host":"lon-1.uk.uncletopia.com","port":27015,"enabled":true,"region":"eu","cc":"gb","latitude":51.509865,"longitude":-0.118092,"reserved":0,"last_update":"0001-01-01T00:00:00Z","name_a2s":"Uncletopia | London | 1 | All Maps","protocol":17,"map":"pl_borneo","folder":"tf","game":"Team Fortress","app_id":440,"player_count":24,"max_players":24,"Bots":0,"server_type":"Dedicated","server_os":"Linux","password":true,"vac":true,"version":"7961495","steam_id":85568392924367362,"keywords":["nocrits","nodmgspread","payload","uncletopia"],"game_id":440,"stv_port":27016,"stv_name":"Uncletopia | London | 1 | All Maps | STV","players":[{"user_id":539,"name":"L+bozo+get cooked","steam_id":76561198126762760,"connected_time":477000000000,"state":"active","ping":58},{"user_id":544,"name":"Dart Monkey's Dont Miss","steam_id":76561198359189256,"connected_time":18000000000,"state":"active","ping":51},{"user_id":529,"name":"✪ Danny","steam_id":76561198104483241,"connected_time":1364000000000,"state":"active","ping":54},{"user_id":465,"name":"Purps","steam_id":76561198053886680,"connected_time":5749000000000,"state":"active","ping":38},{"user_id":402,"name":"Galien","steam_id":76561198833491310,"connected_time":10992000000000,"state":"active","ping":40},{"user_id":478,"name":"Mirror","steam_id":76561197963954925,"connected_time":3923000000000,"state":"active","ping":36},{"user_id":512,"name":"SuperBob103","steam_id":76561199175360012,"connected_time":2648000000000,"state":"active","ping":48},{"user_id":536,"name":"starlightartist","steam_id":76561198050608456,"connected_time":757000000000,"state":"active","ping":34},{"user_id":473,"name":"Pantroglodytestherapy","steam_id":76561198236015392,"connected_time":4572000000000,"state":"active","ping":119},{"user_id":531,"name":"Yikes_uwu","steam_id":76561199072646478,"connected_time":1317000000000,"state":"active","ping":143},{"user_id":452,"name":"sora","steam_id":76561198096547662,"connected_time":8518000000000,"state":"active","ping":50},{"user_id":534,"name":"Tattletails","steam_id":76561198055690341,"connected_time":1049000000000,"state":"active","ping":57},{"user_id":543,"name":"Jouppi","steam_id":76561198063725468,"connected_time":199000000000,"state":"active","ping":108},{"user_id":533,"name":"DDGAF","steam_id":76561198257836694,"connected_time":1284000000000,"state":"active","ping":44},{"user_id":528,"name":"lillunya ♡","steam_id":76561198330418866,"connected_time":1731000000000,"state":"active","ping":68},{"user_id":482,"name":"Σ-男","steam_id":76561199124332716,"connected_time":3914000000000,"state":"active","ping":150},{"user_id":498,"name":"MyAnacondaDontWantNone","steam_id":76561199044028826,"connected_time":3234000000000,"state":"active","ping":44},{"user_id":520,"name":"SAS41","steam_id":76561197998649851,"connected_time":2356000000000,"state":"active","ping":73},{"user_id":527,"name":"Piney💙","steam_id":76561198050910939,"connected_time":2004000000000,"state":"active","ping":55},{"user_id":540,"name":"игла","steam_id":76561198120760515,"connected_time":451000000000,"state":"active","ping":78},{"user_id":524,"name":"cansado","steam_id":76561198003898089,"connected_time":2199000000000,"state":"active","ping":73},{"user_id":541,"name":"badrobot","steam_id":76561198322878356,"connected_time":406000000000,"state":"active","ping":109},{"user_id":538,"name":"King of Kongs","steam_id":76561199067807193,"connected_time":741000000000,"state":"active","ping":60},{"user_id":516,"name":"LuCroGi","steam_id":76561198057283891,"connected_time":2578000000000,"state":"active","ping":60}]},{"server_id":114,"name":"Uncletopia | London | 2 | All Maps","name_short":"lon-2","host":"lon-1.uk.uncletopia.com","port":27025,"enabled":true,"region":"eu","cc":"gb","latitude":51.509865,"longitude":-0.118092,"reserved":0,"last_update":"0001-01-01T00:00:00Z","name_a2s":"Uncletopia | London | 2 | All Maps","protocol":17,"map":"koth_highpass","folder":"tf","game":"Team Fortress","app_id":440,"player_count":0,"max_players":24,"Bots":0,"server_type":"Dedicated","server_os":"Linux","password":true,"vac":true,"version":"7961495","steam_id":85568392924470941,"keywords":["cp","nocrits","nodmgspread","uncletopia"],"game_id":440,"stv_port":27026,"stv_name":"Uncletopia | London | 2 | All Maps | STV","players":null},{"server_id":320,"name":"Uncletopia | London | 3 | All Maps","name_short":"lon-3","host":"lon-1.uk.uncletopia.com","port":27035,"enabled":true,"region":"eu","cc":"gb","latitude":51.509865,"longitude":-0.118092,"reserved":0,"last_update":"0001-01-01T00:00:00Z","name_a2s":"Uncletopia | London | 3 | All Maps","protocol":17,"map":"pl_goldrush","folder":"tf","game":"Team Fortress","app_id":440,"player_count":0,"max_players":24,"Bots":0,"server_type":"Dedicated","server_os":"Linux","password":true,"vac":true,"version":"7961495","steam_id":85568392924510192,"keywords":["nocrits","nodmgspread","payload","uncletopia"],"game_id":440,"stv_port":27036,"stv_name":"Uncletopia | London | 3 | All Maps | STV","players":null},{"server_id":321,"name":"Uncletopia | London | 4 | All Maps","name_short":"lon-4","host":"lon-1.uk.uncletopia.com","port":27045,"enabled":true,"region":"eu","cc":"gb","latitude":51.509865,"longitude":-0.118092,"reserved":0,"last_update":"0001-01-01T00:00:00Z","name_a2s":"Uncletopia | London | 4 | All Maps","protocol":17,"map":"cp_sunshine","folder":"tf","game":"Team Fortress","app_id":440,"player_count":2,"max_players":24,"Bots":0,"server_type":"Dedicated","server_os":"Linux","password":true,"vac":true,"version":"7961495","steam_id":85568392924510193,"keywords":["cp","nocrits","nodmgspread","uncletopia"],"game_id":440,"stv_port":27046,"stv_name":"Uncletopia | London | 4 | All Maps | STV","players":[{"user_id":833,"name":"vi","steam_id":76561198303147966,"connected_time":3968000000000,"state":"active","ping":45},{"user_id":801,"name":"GZimmer","steam_id":76561198088794767,"connected_time":5607000000000,"state":"active","ping":47}]},{"server_id":21,"name":"Uncletopia | London | 5 | All Maps","name_short":"lon-5","host":"lon-1.uk.uncletopia.com","port":27055,"enabled":true,"region":"eu","cc":"gb","latitude":51.509865,"longitude":-0.118092,"reserved":0,"last_update":"0001-01-01T00:00:00Z","name_a2s":"Uncletopia | London | 5 | All Maps","protocol":17,"map":"cp_dustbowl","folder":"tf","game":"Team Fortress","app_id":440,"player_count":24,"max_players":24,"Bots":0,"server_type":"Dedicated","server_os":"Linux","password":true,"vac":true,"version":"7961495","steam_id":85568392924742829,"keywords":["cp","nocrits","nodmgspread","uncletopia"],"game_id":440,"stv_port":27056,"stv_name":"Uncletopia | London | 5 | All Maps | STV","players":[{"user_id":509,"name":"Dacon","steam_id":76561198018582112,"connected_time":3223000000000,"state":"active","ping":69},{"user_id":515,"name":"paypig","steam_id":76561198035137115,"connected_time":2859000000000,"state":"active","ping":44},{"user_id":560,"name":"Vitchu","steam_id":76561198071068710,"connected_time":310000000000,"state":"active","ping":47},{"user_id":561,"name":"SketchyEtchaSketch","steam_id":76561198143747486,"connected_time":270000000000,"state":"active","ping":168},{"user_id":538,"name":"hardway","steam_id":76561198272529254,"connected_time":1987000000000,"state":"active","ping":59},{"user_id":556,"name":"yavaş","steam_id":76561198170334258,"connected_time":505000000000,"state":"active","ping":75},{"user_id":550,"name":"Twerno","steam_id":76561198026985365,"connected_time":883000000000,"state":"active","ping":54},{"user_id":501,"name":"grassesmode.exe","steam_id":76561198090167960,"connected_time":4356000000000,"state":"active","ping":84},{"user_id":567,"name":"Baba Sraka","steam_id":76561198128292318,"connected_time":59000000000,"state":"active","ping":126},{"user_id":557,"name":"Bart","steam_id":76561198276910428,"connected_time":497000000000,"state":"active","ping":72},{"user_id":507,"name":"drwhut","steam_id":76561198070218857,"connected_time":3323000000000,"state":"active","ping":44},{"user_id":547,"name":"Peepster","steam_id":76561198297854733,"connected_time":990000000000,"state":"active","ping":160},{"user_id":518,"name":"Mr_Pulse_","steam_id":76561198095001602,"connected_time":2750000000000,"state":"active","ping":100},{"user_id":552,"name":"piper","steam_id":76561198112687349,"connected_time":690000000000,"state":"active","ping":52},{"user_id":542,"name":"Savetf2 #RemoveRandomCrits","steam_id":76561198062075870,"connected_time":1619000000000,"state":"active","ping":61},{"user_id":553,"name":"Sonofawesker","steam_id":76561198149753537,"connected_time":689000000000,"state":"active","ping":46},{"user_id":546,"name":"Coconuttii","steam_id":76561198006974800,"connected_time":1105000000000,"state":"active","ping":45},{"user_id":562,"name":"yenai","steam_id":76561199497830604,"connected_time":241000000000,"state":"active","ping":71},{"user_id":559,"name":"ThornDrayton","steam_id":76561198141985675,"connected_time":402000000000,"state":"active","ping":54},{"user_id":526,"name":"SuntanPikachu","steam_id":76561198121242476,"connected_time":2515000000000,"state":"active","ping":63},{"user_id":563,"name":"Frögg-Kät","steam_id":76561198263561004,"connected_time":233000000000,"state":"active","ping":60},{"user_id":564,"name":"Wodaz","steam_id":76561198043263557,"connected_time":177000000000,"state":"active","ping":71},{"user_id":565,"name":"kbourbery","steam_id":76561198109943492,"connected_time":176000000000,"state":"active","ping":57},{"user_id":566,"name":"Naomi","steam_id":76561198060307235,"connected_time":167000000000,"state":"active","ping":66}]},{"server_id":22,"name":"Uncletopia | London | 6 | All Maps","name_short":"lon-6","host":"lon-1.uk.uncletopia.com","port":27065,"enabled":true,"region":"eu","cc":"gb","latitude":51.509865,"longitude":-0.118092,"reserved":0,"last_update":"0001-01-01T00:00:00Z","name_a2s":"Uncletopia | London | 6 | All Maps","protocol":17,"map":"koth_viaduct","folder":"tf","game":"Team Fortress","app_id":440,"player_count":0,"max_players":24,"Bots":0,"server_type":"Dedicated","server_os":"Linux","password":true,"vac":true,"version":"7961495","steam_id":85568392924742830,"keywords":["cp","nocrits","nodmgspread","uncletopia"],"game_id":440,"stv_port":27066,"stv_name":"Uncletopia | London | 6 | All Maps | STV","players":null},{"server_id":40,"name":"Uncletopia | London | 7 | Stopwatch","name_short":"lon-7","host":"lon-1.uk.uncletopia.com","port":27075,"enabled":true,"region":"eu","cc":"gb","latitude":51.509865,"longitude":-0.118092,"reserved":0,"last_update":"0001-01-01T00:00:00Z","name_a2s":"Uncletopia | London | 7 | Stopwatch","protocol":17,"map":"pl_upward","folder":"tf","game":"Team Fortress","app_id":440,"player_count":0,"max_players":24,"Bots":0,"server_type":"Dedicated","server_os":"Linux","password":true,"vac":true,"version":"7961495","steam_id":85568392924964314,"keywords":["nocrits","nodmgspread","payload","uncletopia"],"game_id":440,"stv_port":27076,"stv_name":"Uncletopia | London | 7 | Stopwatch | STV","players":null},{"server_id":41,"name":"Uncletopia | London | 8 | Community","name_short":"lon-8","host":"lon-1.uk.uncletopia.com","port":27085,"enabled":true,"region":"eu","cc":"gb","latitude":51.509865,"longitude":-0.118092,"reserved":0,"last_update":"0001-01-01T00:00:00Z","name_a2s":"Uncletopia | London | 8 | Community","protocol":17,"map":"workshop/cp_reckoner_rc6.ugc674719999","folder":"tf","game":"Team Fortress","app_id":440,"player_count":0,"max_players":24,"Bots":0,"server_type":"Dedicated","server_os":"Linux","password":true,"vac":true,"version":"7961495","steam_id":85568392924964315,"keywords":["cp","nocrits","nodmgspread","uncletopia"],"game_id":440,"stv_port":27086,"stv_name":"Uncletopia | London | 8 | Community | STV","players":null},{"server_id":300,"name":"Uncletopia | Montréal | 1 | One Thousand Uncles","name_short":"mtl-1","host":"mtl-1.ca.uncletopia.com","port":27015,"enabled":true,"region":"us-east","cc":"ca","latitude":45.50889,"longitude":-73.56167,"reserved":0,"last_update":"0001-01-01T00:00:00Z","name_a2s":"","protocol":0,"map":"","folder":"","game":"","app_id":0,"player_count":8,"max_players":0,"Bots":0,"server_type":"","server_os":"","password":false,"vac":false,"version":"","steam_id":0,"keywords":null,"game_id":0,"stv_port":0,"stv_name":"","players":[{"user_id":494,"name":"Nansral26","steam_id":76561198886650496,"connected_time":3502000000000,"state":"active","ping":57},{"user_id":521,"name":"tom_no_h","steam_id":76561198388785222,"connected_time":2243000000000,"state":"active","ping":72},{"user_id":534,"name":"worker","steam_id":76561198039608940,"connected_time":786000000000,"state":"active","ping":107},{"user_id":523,"name":"ʕ•ᴥ•ʔ the bear","steam_id":76561197989591976,"connected_time":1722000000000,"state":"active","ping":59},{"user_id":535,"name":"FreonAddict9x19","steam_id":76561198060010824,"connected_time":778000000000,"state":"active","ping":54},{"user_id":496,"name":"swooce","steam_id":76561198156232484,"connected_time":3438000000000,"state":"active","ping":60},{"user_id":536,"name":"76561199221669701","steam_id":76561199221669701,"connected_time":666000000000,"state":"active","ping":97},{"user_id":540,"name":"mountainkug","steam_id":76561199491802535,"connected_time":365000000000,"state":"active","ping":76}]},{"server_id":301,"name":"Uncletopia | Montréal | 2 | One Thousand Uncles","name_short":"mtl-2","host":"mtl-1.ca.uncletopia.com","port":27025,"enabled":true,"region":"us-east","cc":"ca","latitude":45.50889,"longitude":-73.56167,"reserved":0,"last_update":"0001-01-01T00:00:00Z","name_a2s":"","protocol":0,"map":"","folder":"","game":"","app_id":0,"player_count":8,"max_players":0,"Bots":0,"server_type":"","server_os":"","password":false,"vac":false,"version":"","steam_id":0,"keywords":null,"game_id":0,"stv_port":0,"stv_name":"","players":[{"user_id":191,"name":"walterfishing_17","steam_id":76561198976904099,"connected_time":1486000000000,"state":"active","ping":83},{"user_id":192,"name":"neet","steam_id":76561197968115168,"connected_time":1471000000000,"state":"active","ping":57},{"user_id":193,"name":"RacoonGamer","steam_id":76561198100907657,"connected_time":1219000000000,"state":"active","ping":46},{"user_id":120,"name":"joachym","steam_id":76561198428579761,"connected_time":8829000000000,"state":"active","ping":151},{"user_id":197,"name":"gnoll filth","steam_id":76561198066123607,"connected_time":436000000000,"state":"active","ping":71},{"user_id":198,"name":"Scrunkly","steam_id":76561198078089930,"connected_time":314000000000,"state":"active","ping":173},{"user_id":153,"name":"Dr Madness The Octoling","steam_id":76561198065407703,"connected_time":5167000000000,"state":"active","ping":51},{"user_id":163,"name":"superbug3003","steam_id":76561198311447642,"connected_time":4249000000000,"state":"active","ping":48}]},{"server_id":302,"name":"Uncletopia | Montréal | 3 | One Thousand Uncles","name_short":"mtl-3","host":"mtl-1.ca.uncletopia.com","port":27035,"enabled":true,"region":"us-east","cc":"ca","latitude":45.50889,"longitude":-73.56167,"reserved":0,"last_update":"0001-01-01T00:00:00Z","name_a2s":"","protocol":0,"map":"","folder":"","game":"","app_id":0,"player_count":0,"max_players":0,"Bots":0,"server_type":"","server_os":"","password":false,"vac":false,"version":"","steam_id":0,"keywords":null,"game_id":0,"stv_port":0,"stv_name":"","players":null},{"server_id":13,"name":"Uncletopia | New York City | 1 | All Maps","name_short":"nyc-1","host":"nyc-1.us.uncletopia.com","port":27015,"enabled":true,"region":"us-east","cc":"us","latitude":40.73061,"longitude":-73.93524,"reserved":0,"last_update":"0001-01-01T00:00:00Z","name_a2s":"Uncletopia | New York City | 1 | All Maps","protocol":17,"map":"pl_rumford_event","folder":"tf","game":"Team Fortress","app_id":440,"player_count":24,"max_players":24,"Bots":0,"server_type":"Dedicated","server_os":"Linux","password":true,"vac":true,"version":"7961495","steam_id":85568392924469993,"keywords":["nocrits","nodmgspread","payload","uncletopia"],"game_id":440,"stv_port":27016,"stv_name":"Uncletopia | New York City | 1 | All Maps | STV","players":[{"user_id":397,"name":"The Wave","steam_id":76561198268225109,"connected_time":859000000000,"state":"active","ping":80},{"user_id":392,"name":"DivineBanana","steam_id":76561198026529731,"connected_time":1128000000000,"state":"active","ping":85},{"user_id":383,"name":"Parth Makeo","steam_id":76561198002516581,"connected_time":1532000000000,"state":"active","ping":35},{"user_id":368,"name":"Comfy!","steam_id":76561198008818346,"connected_time":2721000000000,"state":"active","ping":45},{"user_id":403,"name":"Hellmonger","steam_id":76561198016058155,"connected_time":581000000000,"state":"active","ping":67},{"user_id":384,"name":"BroBama","steam_id":76561198203732587,"connected_time":1527000000000,"state":"active","ping":105},{"user_id":391,"name":"Jonny4Balls","steam_id":76561198979333994,"connected_time":1153000000000,"state":"active","ping":71},{"user_id":406,"name":"nilftb","steam_id":76561198161952186,"connected_time":299000000000,"state":"active","ping":58},{"user_id":377,"name":"Queso2469","steam_id":76561197993024580,"connected_time":2158000000000,"state":"active","ping":48},{"user_id":318,"name":"Toxic Ron","steam_id":76561198089302972,"connected_time":7657000000000,"state":"active","ping":69},{"user_id":402,"name":"Exio","steam_id":76561198218639325,"connected_time":588000000000,"state":"active","ping":98},{"user_id":389,"name":"Gardyloo_","steam_id":76561198353424759,"connected_time":1216000000000,"state":"active","ping":55},{"user_id":385,"name":"LegendaireNic","steam_id":76561198211753861,"connected_time":1489000000000,"state":"active","ping":53},{"user_id":357,"name":"lexi","steam_id":76561198176299759,"connected_time":4220000000000,"state":"active","ping":77},{"user_id":396,"name":"Mirelas","steam_id":76561198839360212,"connected_time":884000000000,"state":"active","ping":79},{"user_id":353,"name":"็Periculosum PhD in Funny","steam_id":76561198123370914,"connected_time":4754000000000,"state":"active","ping":92},{"user_id":390,"name":"Wafflehead","steam_id":76561198051895288,"connected_time":1213000000000,"state":"active","ping":68},{"user_id":361,"name":"WibbyOne","steam_id":76561198052843846,"connected_time":3776000000000,"state":"active","ping":37},{"user_id":394,"name":"MondoDong","steam_id":76561197991400109,"connected_time":989000000000,"state":"active","ping":55},{"user_id":373,"name":"Thilo","steam_id":76561197987278784,"connected_time":2451000000000,"state":"active","ping":80},{"user_id":398,"name":"amanofboys91","steam_id":76561199474653798,"connected_time":842000000000,"state":"active","ping":149},{"user_id":379,"name":"Zerk","steam_id":76561198133060530,"connected_time":1946000000000,"state":"active","ping":58},{"user_id":378,"name":"bunny rabbit 🐇","steam_id":76561198124998397,"connected_time":2044000000000,"state":"active","ping":65},{"user_id":405,"name":"Xx_Savage_Twerks_xX","steam_id":76561198011665915,"connected_time":364000000000,"state":"active","ping":37}]},{"server_id":14,"name":"Uncletopia | New York City | 2 | All Maps","name_short":"nyc-2","host":"nyc-1.us.uncletopia.com","port":27025,"enabled":true,"region":"us-east","cc":"us","latitude":40.73061,"longitude":-73.93524,"reserved":0,"last_update":"0001-01-01T00:00:00Z","name_a2s":"Uncletopia | New York City | 2 | All Maps","protocol":17,"map":"pl_upward","folder":"tf","game":"Team Fortress","app_id":440,"player_count":24,"max_players":24,"Bots":0,"server_type":"Dedicated","server_os":"Linux","password":true,"vac":true,"version":"7961495","steam_id":85568392924469994,"keywords":["nocrits","nodmgspread","payload","uncletopia"],"game_id":440,"stv_port":27026,"stv_name":"Uncletopia | New York City | 2 | All Maps | STV","players":[{"user_id":494,"name":"Olifont","steam_id":76561198141162919,"connected_time":2353000000000,"state":"active","ping":66},{"user_id":493,"name":"Mr. CubeX","steam_id":76561198805603832,"connected_time":2370000000000,"state":"active","ping":70},{"user_id":503,"name":"Twilo","steam_id":76561198044179256,"connected_time":1523000000000,"state":"active","ping":32},{"user_id":509,"name":"Zanartan","steam_id":76561198050528902,"connected_time":789000000000,"state":"active","ping":162},{"user_id":498,"name":"Victor Skull","steam_id":76561198352212864,"connected_time":1887000000000,"state":"active","ping":53},{"user_id":455,"name":"gertchy","steam_id":76561199111932529,"connected_time":5423000000000,"state":"active","ping":32},{"user_id":508,"name":"artichoke","steam_id":76561198980994364,"connected_time":871000000000,"state":"active","ping":84},{"user_id":504,"name":"Tank Chili","steam_id":76561198161183031,"connected_time":906000000000,"state":"active","ping":80},{"user_id":517,"name":"baconlover09","steam_id":76561198060684892,"connected_time":639000000000,"state":"active","ping":36},{"user_id":496,"name":"Atomic Ursa","steam_id":76561198032246421,"connected_time":2164000000000,"state":"active","ping":66},{"user_id":499,"name":"femtofarad™","steam_id":76561198308583053,"connected_time":1739000000000,"state":"active","ping":69},{"user_id":506,"name":"Tony hawks pro skater 2 dlc","steam_id":76561198243387974,"connected_time":893000000000,"state":"active","ping":57},{"user_id":511,"name":"Havok","steam_id":76561198063455003,"connected_time":767000000000,"state":"active","ping":55},{"user_id":512,"name":"concrete_car","steam_id":76561198388207363,"connected_time":739000000000,"state":"active","ping":73},{"user_id":513,"name":"E.V.I.L BEAN","steam_id":76561198069909083,"connected_time":730000000000,"state":"active","ping":60},{"user_id":518,"name":"TheBoxWizard","steam_id":76561198447992832,"connected_time":524000000000,"state":"active","ping":53},{"user_id":497,"name":"Wild Ginger","steam_id":76561198099458157,"connected_time":1911000000000,"state":"active","ping":72},{"user_id":483,"name":"Raccoon","steam_id":76561199189494190,"connected_time":3338000000000,"state":"active","ping":85},{"user_id":515,"name":"Pfc. BRUH [10th MD]","steam_id":76561198870051584,"connected_time":691000000000,"state":"active","ping":92},{"user_id":448,"name":"Copland OS","steam_id":76561198041800378,"connected_time":5561000000000,"state":"active","ping":72},{"user_id":516,"name":"Punished Kong","steam_id":76561198973620882,"connected_time":666000000000,"state":"active","ping":75},{"user_id":484,"name":"Kraftlos","steam_id":76561198074350350,"connected_time":3310000000000,"state":"active","ping":59},{"user_id":520,"name":"I HATE A.I ART I HATE A.I ART I","steam_id":76561199101373436,"connected_time":90000000000,"state":"active","ping":83},{"user_id":502,"name":"MILF Gaming","steam_id":76561198155378170,"connected_time":1585000000000,"state":"active","ping":40}]},{"server_id":15,"name":"Uncletopia | New York City | 3 | Stopwatch","name_short":"nyc-3","host":"nyc-1.us.uncletopia.com","port":27035,"enabled":true,"region":"us-east","cc":"us","latitude":40.73061,"longitude":-73.93524,"reserved":0,"last_update":"0001-01-01T00:00:00Z","name_a2s":"Uncletopia | New York City | 3 | Stopwatch","protocol":17,"map":"workshop/koth_ashville_final.ugc2130459942","folder":"tf","game":"Team Fortress","app_id":440,"player_count":0,"max_players":24,"Bots":0,"server_type":"Dedicated","server_os":"Linux","password":true,"vac":true,"version":"7961495","steam_id":85568392924742820,"keywords":["cp","nocrits","nodmgspread","uncletopia"],"game_id":440,"stv_port":27036,"stv_name":"Uncletopia | New York City | 3 | Stopwatch | STV","players":null},{"server_id":16,"name":"Uncletopia | New York City | 4 | Community","name_short":"nyc-4","host":"nyc-1.us.uncletopia.com","port":27045,"enabled":true,"region":"us-east","cc":"us","latitude":40.73061,"longitude":-73.93524,"reserved":0,"last_update":"0001-01-01T00:00:00Z","name_a2s":"Uncletopia | New York City | 4 | Community","protocol":17,"map":"workshop/pl_fifthcurve_rc1.ugc648227046","folder":"tf","game":"Team Fortress","app_id":440,"player_count":24,"max_players":24,"Bots":0,"server_type":"Dedicated","server_os":"Linux","password":true,"vac":true,"version":"7961495","steam_id":85568392924742821,"keywords":["nocrits","nodmgspread","payload","uncletopia"],"game_id":440,"stv_port":27046,"stv_name":"Uncletopia | New York City | 4 | Community | STV","players":[{"user_id":39,"name":"DogeEatMeat","steam_id":76561199051212534,"connected_time":3615000000000,"state":"active","ping":85},{"user_id":20,"name":"helmut","steam_id":76561197987025017,"connected_time":4346000000000,"state":"active","ping":133},{"user_id":77,"name":"a victim of soicumstance","steam_id":76561198375575841,"connected_time":2038000000000,"state":"active","ping":70},{"user_id":84,"name":"☼Barracuda☼","steam_id":76561198013022083,"connected_time":1225000000000,"state":"active","ping":90},{"user_id":87,"name":"Oogle","steam_id":76561198041815877,"connected_time":1051000000000,"state":"active","ping":56},{"user_id":29,"name":"remanedur","steam_id":76561198059459507,"connected_time":4022000000000,"state":"active","ping":69},{"user_id":83,"name":"Kelpy","steam_id":76561198294906383,"connected_time":1422000000000,"state":"active","ping":55},{"user_id":91,"name":"Captain Chicken","steam_id":76561198047767530,"connected_time":269000000000,"state":"active","ping":110},{"user_id":66,"name":"Riske","steam_id":76561198115840568,"connected_time":2490000000000,"state":"active","ping":66},{"user_id":88,"name":"Wengatang","steam_id":76561198021747059,"connected_time":1000000000000,"state":"active","ping":58},{"user_id":89,"name":"Berries","steam_id":76561198109312962,"connected_time":868000000000,"state":"active","ping":60},{"user_id":90,"name":"weridmak","steam_id":76561198856016840,"connected_time":854000000000,"state":"active","ping":54},{"user_id":25,"name":"I'mWalkerHere","steam_id":76561199310055450,"connected_time":4192000000000,"state":"active","ping":78},{"user_id":92,"name":"Disco Fever","steam_id":76561198069532215,"connected_time":242000000000,"state":"active","ping":55},{"user_id":93,"name":"INCONCEIVABLE!","steam_id":76561198088023835,"connected_time":242000000000,"state":"active","ping":74},{"user_id":85,"name":"kingofsoup4168","steam_id":76561198968162492,"connected_time":1068000000000,"state":"active","ping":71},{"user_id":62,"name":"Crabohydrate","steam_id":76561198157019155,"connected_time":2791000000000,"state":"active","ping":130},{"user_id":43,"name":"minte","steam_id":76561198012914428,"connected_time":3416000000000,"state":"active","ping":80},{"user_id":44,"name":"phonedirectory","steam_id":76561198102360911,"connected_time":3394000000000,"state":"active","ping":71},{"user_id":80,"name":"Noahthecrazy1","steam_id":76561199152995909,"connected_time":1860000000000,"state":"active","ping":70},{"user_id":82,"name":"Vegerot","steam_id":76561197997843710,"connected_time":1508000000000,"state":"active","ping":45},{"user_id":50,"name":"Persona404","steam_id":76561198109635077,"connected_time":3145000000000,"state":"active","ping":121},{"user_id":76,"name":"Zen Skye","steam_id":76561198114452552,"connected_time":2068000000000,"state":"active","ping":81},{"user_id":86,"name":"Billow","steam_id":76561198056794144,"connected_time":1068000000000,"state":"active","ping":60}]},{"server_id":142,"name":"Uncletopia | São Paulo | 1 | All Maps","name_short":"sao-1","host":"sao-1.br.uncletopia.com","port":27015,"enabled":true,"region":"sa","cc":"br","latitude":-23.533773,"longitude":-46.62529,"reserved":0,"last_update":"0001-01-01T00:00:00Z","name_a2s":"Uncletopia | São Paulo | 1 | All Maps","protocol":17,"map":"koth_highpass","folder":"tf","game":"Team Fortress","app_id":440,"player_count":0,"max_players":24,"Bots":0,"server_type":"Dedicated","server_os":"Linux","password":true,"vac":true,"version":"7961495","steam_id":85568392924469996,"keywords":["cp","nocrits","nodmgspread","uncletopia"],"game_id":440,"stv_port":27016,"stv_name":"Uncletopia | São Paulo | 1 | All Maps | STV","players":null},{"server_id":143,"name":"Uncletopia | São Paulo | 2 | Community","name_short":"sao-2","host":"sao-2.br.uncletopia.com","port":27015,"enabled":true,"region":"sa","cc":"br","latitude":-23.533773,"longitude":-46.62529,"reserved":0,"last_update":"0001-01-01T00:00:00Z","name_a2s":"Uncletopia | São Paulo | 2 | Community","protocol":17,"map":"workshop/koth_slaughter_rc1.ugc1712845210","folder":"tf","game":"Team Fortress","app_id":440,"player_count":0,"max_players":24,"Bots":0,"server_type":"Dedicated","server_os":"Linux","password":true,"vac":true,"version":"7961495","steam_id":85568392924485349,"keywords":["cp","nocrits","nodmgspread","uncletopia"],"game_id":440,"stv_port":27016,"stv_name":"Uncletopia | São Paulo | 2 | Community | STV","players":null},{"server_id":7,"name":"Uncletopia | Seattle | 1 | All Maps","name_short":"sea-1","host":"sea-1.us.uncletopia.com","port":27015,"enabled":true,"region":"us-west","cc":"us","latitude":47.608013,"longitude":-122.33517,"reserved":0,"last_update":"0001-01-01T00:00:00Z","name_a2s":"Uncletopia | Seattle | 1 | All Maps","protocol":17,"map":"cp_fastlane","folder":"tf","game":"Team Fortress","app_id":440,"player_count":23,"max_players":24,"Bots":0,"server_type":"Dedicated","server_os":"Linux","password":true,"vac":true,"version":"7961495","steam_id":85568392924469997,"keywords":["cp","nocrits","nodmgspread","uncletopia"],"game_id":440,"stv_port":27016,"stv_name":"Uncletopia | Seattle | 1 | All Maps | STV","players":[{"user_id":388,"name":"Erk-Kirk","steam_id":76561198288954914,"connected_time":2791000000000,"state":"active","ping":85},{"user_id":390,"name":"Poundcake","steam_id":76561198042196918,"connected_time":2758000000000,"state":"active","ping":47},{"user_id":336,"name":"triph","steam_id":76561198067196509,"connected_time":7019000000000,"state":"active","ping":66},{"user_id":380,"name":"Elfy","steam_id":76561199166448617,"connected_time":3758000000000,"state":"active","ping":44},{"user_id":405,"name":"Choco","steam_id":76561198051146422,"connected_time":1183000000000,"state":"active","ping":119},{"user_id":419,"name":"SonicFan","steam_id":76561198871858478,"connected_time":45000000000,"state":"spawning","ping":431},{"user_id":392,"name":"Grweb","steam_id":76561198316741856,"connected_time":2582000000000,"state":"active","ping":45},{"user_id":377,"name":"Peppy","steam_id":76561198866629645,"connected_time":3939000000000,"state":"active","ping":59},{"user_id":391,"name":"(K.A.T) Iris","steam_id":76561199247095754,"connected_time":2754000000000,"state":"active","ping":79},{"user_id":402,"name":"Tibetan Pop Star","steam_id":76561198844903984,"connected_time":1213000000000,"state":"active","ping":72},{"user_id":416,"name":"toasterturret5","steam_id":76561199406940732,"connected_time":593000000000,"state":"active","ping":100},{"user_id":354,"name":"Daz","steam_id":76561198041431938,"connected_time":5126000000000,"state":"active","ping":49},{"user_id":408,"name":"zzz","steam_id":76561198962606396,"connected_time":1116000000000,"state":"active","ping":71},{"user_id":414,"name":"mike, no sound","steam_id":76561198225411004,"connected_time":693000000000,"state":"active","ping":60},{"user_id":330,"name":"Snale","steam_id":76561198039517965,"connected_time":8020000000000,"state":"active","ping":60},{"user_id":400,"name":"Ayayayayayahuasca","steam_id":76561199002906056,"connected_time":1227000000000,"state":"active","ping":49},{"user_id":415,"name":"TheCowledWiz","steam_id":76561198016735868,"connected_time":656000000000,"state":"active","ping":47},{"user_id":394,"name":"Retroliar","steam_id":76561199004899484,"connected_time":1879000000000,"state":"active","ping":69},{"user_id":410,"name":"Dimple","steam_id":76561198980324190,"connected_time":1037000000000,"state":"active","ping":48},{"user_id":362,"name":"babywhoa","steam_id":76561198070854627,"connected_time":4970000000000,"state":"active","ping":82},{"user_id":420,"name":"Gamekiller839","steam_id":76561199475400469,"connected_time":4000000000,"state":"spawning","ping":37},{"user_id":411,"name":"nifty","steam_id":76561198056630017,"connected_time":978000000000,"state":"active","ping":45},{"user_id":413,"name":"pentath","steam_id":76561197984737021,"connected_time":758000000000,"state":"active","ping":60}]},{"server_id":119,"name":"Uncletopia | Seattle | 2 | All Maps","name_short":"sea-2","host":"sea-1.us.uncletopia.com","port":27025,"enabled":true,"region":"us-west","cc":"us","latitude":47.608013,"longitude":-122.33517,"reserved":0,"last_update":"0001-01-01T00:00:00Z","name_a2s":"Uncletopia | Seattle | 2 | All Maps","protocol":17,"map":"pl_frontier_final","folder":"tf","game":"Team Fortress","app_id":440,"player_count":23,"max_players":24,"Bots":0,"server_type":"Dedicated","server_os":"Linux","password":true,"vac":true,"version":"7961495","steam_id":85568392924469998,"keywords":["nocrits","nodmgspread","payload","uncletopia"],"game_id":440,"stv_port":27026,"stv_name":"Uncletopia | Seattle | 2 | All Maps | STV","players":[{"user_id":337,"name":"prime example of furry L","steam_id":76561198097745857,"connected_time":1834000000000,"state":"active","ping":61},{"user_id":371,"name":"Gunboats Mouthbreather","steam_id":76561198046526036,"connected_time":13000000000,"state":"active","ping":71},{"user_id":343,"name":"CadenLCheese","steam_id":76561199105517435,"connected_time":1123000000000,"state":"active","ping":45},{"user_id":306,"name":"«Dᵃʳᵏ.,,.Tᵉᵐᵖ»","steam_id":76561198018185884,"connected_time":4777000000000,"state":"active","ping":153},{"user_id":369,"name":"rocketman","steam_id":76561198067173482,"connected_time":46000000000,"state":"connecting","ping":75},{"user_id":367,"name":"Paper Fire","steam_id":76561199462907840,"connected_time":323000000000,"state":"active","ping":61},{"user_id":345,"name":"T/3. Blerb [10th MD]","steam_id":76561197978567794,"connected_time":1083000000000,"state":"active","ping":44},{"user_id":365,"name":"PSZ","steam_id":76561199013787448,"connected_time":454000000000,"state":"active","ping":63},{"user_id":346,"name":"Flex Glue Clear™","steam_id":76561199014482073,"connected_time":1071000000000,"state":"active","ping":37},{"user_id":332,"name":"Lol","steam_id":76561198201418517,"connected_time":2399000000000,"state":"active","ping":73},{"user_id":360,"name":"Rude Dog","steam_id":76561197980385816,"connected_time":674000000000,"state":"active","ping":35},{"user_id":348,"name":"Wulf","steam_id":76561198006072568,"connected_time":1007000000000,"state":"active","ping":38},{"user_id":354,"name":"D","steam_id":76561198130086000,"connected_time":789000000000,"state":"active","ping":77},{"user_id":362,"name":"I HATE  GGOROPUS","steam_id":76561198251672386,"connected_time":627000000000,"state":"active","ping":89},{"user_id":368,"name":"Arkus","steam_id":76561199092478198,"connected_time":152000000000,"state":"active","ping":45},{"user_id":353,"name":"LIAM","steam_id":76561198324691143,"connected_time":814000000000,"state":"active","ping":75},{"user_id":355,"name":"vfa","steam_id":76561198055729118,"connected_time":727000000000,"state":"active","ping":59},{"user_id":244,"name":"COOL master_9","steam_id":76561198073041151,"connected_time":9779000000000,"state":"active","ping":81},{"user_id":366,"name":"cubibluer","steam_id":76561198197405295,"connected_time":446000000000,"state":"active","ping":61},{"user_id":357,"name":"Streamline","steam_id":76561198031098638,"connected_time":706000000000,"state":"spawning","ping":95},{"user_id":358,"name":"hatsune miku","steam_id":76561199445009981,"connected_time":704000000000,"state":"active","ping":24},{"user_id":372,"name":"GregGaming098","steam_id":76561198882415360,"connected_time":3000000000,"state":"spawning","ping":42},{"user_id":370,"name":"Spectre","steam_id":76561198037535169,"connected_time":28000000000,"state":"active","ping":72}]},{"server_id":406,"name":"Uncletopia | Seattle | 3 | Stopwatch","name_short":"sea-3","host":"sea-1.us.uncletopia.com","port":27035,"enabled":true,"region":"us-west","cc":"us","latitude":47.608013,"longitude":-122.33517,"reserved":0,"last_update":"0001-01-01T00:00:00Z","name_a2s":"Uncletopia | Seattle | 3 | Stopwatch","protocol":17,"map":"workshop/koth_ramjam_rc1.ugc459778887","folder":"tf","game":"Team Fortress","app_id":440,"player_count":3,"max_players":24,"Bots":0,"server_type":"Dedicated","server_os":"Linux","password":true,"vac":true,"version":"7961495","steam_id":85568392924515217,"keywords":["cp","nocrits","nodmgspread","uncletopia"],"game_id":440,"stv_port":27036,"stv_name":"Uncletopia | Seattle | 3 | Stopwatch | STV","players":[{"user_id":50,"name":"Morse","steam_id":76561198039944542,"connected_time":1895000000000,"state":"active","ping":45},{"user_id":52,"name":"PhilNyeTheCrystalGuy","steam_id":76561198051437466,"connected_time":1578000000000,"state":"active","ping":57},{"user_id":53,"name":"O","steam_id":76561198450073779,"connected_time":1482000000000,"state":"active","ping":38}]},{"server_id":17,"name":"Uncletopia | San Francisco | 1 | All Maps","name_short":"sfo-1","host":"sfo-1.us.uncletopia.com","port":27015,"enabled":true,"region":"us-west","cc":"us","latitude":37.77397,"longitude":-122.4313,"reserved":0,"last_update":"0001-01-01T00:00:00Z","name_a2s":"Uncletopia | San Francisco | 1 | All Maps","protocol":17,"map":"pl_badwater","folder":"tf","game":"Team Fortress","app_id":440,"player_count":24,"max_players":24,"Bots":0,"server_type":"Dedicated","server_os":"Linux","password":true,"vac":true,"version":"7961495","steam_id":85568392924469999,"keywords":["nocrits","nodmgspread","payload","uncletopia"],"game_id":440,"stv_port":27016,"stv_name":"Uncletopia | San Francisco | 1 | All Maps | STV","players":[{"user_id":172,"name":"Argon","steam_id":76561199254804349,"connected_time":354000000000,"state":"active","ping":129},{"user_id":130,"name":"Anotherordinary1","steam_id":76561199258223335,"connected_time":2658000000000,"state":"active","ping":73},{"user_id":118,"name":"Pyrotek⁴","steam_id":76561198072747672,"connected_time":3262000000000,"state":"active","ping":50},{"user_id":55,"name":"Pie","steam_id":76561198054721133,"connected_time":7285000000000,"state":"active","ping":64},{"user_id":165,"name":"havarti gaming","steam_id":76561198069895678,"connected_time":905000000000,"state":"active","ping":91},{"user_id":182,"name":"dynamite","steam_id":76561198217242365,"connected_time":158000000000,"state":"active","ping":58},{"user_id":164,"name":"ForAPessimistImPrettyOptimistic","steam_id":76561198170128009,"connected_time":956000000000,"state":"active","ping":58},{"user_id":145,"name":"Silvermace","steam_id":76561198090696843,"connected_time":1768000000000,"state":"active","ping":51},{"user_id":154,"name":"bobtheninjaman","steam_id":76561198066424544,"connected_time":1416000000000,"state":"active","ping":69},{"user_id":170,"name":"body machine dick into bird dic","steam_id":76561198026635388,"connected_time":468000000000,"state":"active","ping":60},{"user_id":169,"name":"Styil","steam_id":76561198075555802,"connected_time":574000000000,"state":"active","ping":47},{"user_id":185,"name":"Ricky Dicky Doo Dah Grimes","steam_id":76561198143221900,"connected_time":96000000000,"state":"active","ping":105},{"user_id":161,"name":"UnwantedBody","steam_id":76561199207425066,"connected_time":1213000000000,"state":"active","ping":58},{"user_id":120,"name":"GrinchsUltimatum","steam_id":76561198075366657,"connected_time":3136000000000,"state":"active","ping":52},{"user_id":162,"name":"BigGoose","steam_id":76561198833281392,"connected_time":1195000000000,"state":"active","ping":79},{"user_id":141,"name":"Just washed","steam_id":76561199030160932,"connected_time":1952000000000,"state":"active","ping":119},{"user_id":180,"name":"Granny from Hoodwinked","steam_id":76561198116389072,"connected_time":259000000000,"state":"active","ping":84},{"user_id":178,"name":"Captain Underbelly","steam_id":76561198811270935,"connected_time":312000000000,"state":"active","ping":99},{"user_id":159,"name":"roach","steam_id":76561198354811369,"connected_time":1281000000000,"state":"active","ping":58},{"user_id":160,"name":"FI LO","steam_id":76561198976530881,"connected_time":1241000000000,"state":"active","ping":45},{"user_id":117,"name":"Cobaltion","steam_id":76561198035701210,"connected_time":3300000000000,"state":"active","ping":63},{"user_id":171,"name":"c0wmanglr","steam_id":76561198025342064,"connected_time":362000000000,"state":"active","ping":66},{"user_id":181,"name":"LAB8","steam_id":76561198047743526,"connected_time":236000000000,"state":"active","ping":60},{"user_id":184,"name":"Babe Ruthless","steam_id":76561198079421448,"connected_time":135000000000,"state":"active","ping":112}]},{"server_id":18,"name":"Uncletopia | San Francisco | 2 | All Maps","name_short":"sfo-2","host":"sfo-1.us.uncletopia.com","port":27025,"enabled":true,"region":"us-west","cc":"us","latitude":37.77397,"longitude":-122.4313,"reserved":0,"last_update":"0001-01-01T00:00:00Z","name_a2s":"Uncletopia | San Francisco | 2 | All Maps","protocol":17,"map":"pl_frontier_final","folder":"tf","game":"Team Fortress","app_id":440,"player_count":24,"max_players":24,"Bots":0,"server_type":"Dedicated","server_os":"Linux","password":true,"vac":true,"version":"7961495","steam_id":85568392924470000,"keywords":["nocrits","nodmgspread","payload","uncletopia"],"game_id":440,"stv_port":27026,"stv_name":"Uncletopia | San Francisco | 2 | All Maps | STV","players":[{"user_id":155,"name":"cool beans","steam_id":76561198321591685,"connected_time":3966000000000,"state":"active","ping":105},{"user_id":156,"name":"Dr,Dan64","steam_id":76561199013363718,"connected_time":3962000000000,"state":"active","ping":112},{"user_id":172,"name":"Abraham Spielberg","steam_id":76561198308817394,"connected_time":2170000000000,"state":"active","ping":106},{"user_id":158,"name":"lolzfrdawin21","steam_id":76561199006665979,"connected_time":3930000000000,"state":"active","ping":123},{"user_id":195,"name":"ElectronX","steam_id":76561198116034988,"connected_time":1104000000000,"state":"active","ping":57},{"user_id":160,"name":"don't get mad","steam_id":76561198064662875,"connected_time":3484000000000,"state":"active","ping":45},{"user_id":192,"name":"Laxoloni","steam_id":76561199197045700,"connected_time":1419000000000,"state":"active","ping":76},{"user_id":170,"name":"Scoperaider","steam_id":76561199068449848,"connected_time":2334000000000,"state":"active","ping":51},{"user_id":176,"name":"Dr. Nefario","steam_id":76561199098901078,"connected_time":1838000000000,"state":"active","ping":56},{"user_id":167,"name":"Sean","steam_id":76561199367470003,"connected_time":2643000000000,"state":"active","ping":69},{"user_id":199,"name":"Bheem","steam_id":76561198170453459,"connected_time":640000000000,"state":"active","ping":60},{"user_id":193,"name":"SHADOW","steam_id":76561198207768148,"connected_time":1329000000000,"state":"active","ping":58},{"user_id":173,"name":"imng","steam_id":76561198014988031,"connected_time":1930000000000,"state":"active","ping":108},{"user_id":174,"name":"ballmuncher69","steam_id":76561199122915452,"connected_time":1921000000000,"state":"active","ping":71},{"user_id":204,"name":"Charles","steam_id":76561198155322277,"connected_time":75000000000,"state":"active","ping":61},{"user_id":203,"name":"Quigi","steam_id":76561198144645874,"connected_time":280000000000,"state":"active","ping":78},{"user_id":201,"name":"King Sized Bed","steam_id":76561198058956253,"connected_time":526000000000,"state":"active","ping":62},{"user_id":179,"name":"Wordly Eggplant","steam_id":76561198166704083,"connected_time":1750000000000,"state":"active","ping":89},{"user_id":202,"name":"Big Yoshi","steam_id":76561199160576376,"connected_time":521000000000,"state":"active","ping":73},{"user_id":205,"name":"Renz","steam_id":76561198118995036,"connected_time":58000000000,"state":"active","ping":71},{"user_id":185,"name":"Pim","steam_id":76561198046050375,"connected_time":1639000000000,"state":"active","ping":85},{"user_id":188,"name":"MrEdman4","steam_id":76561198062233923,"connected_time":1554000000000,"state":"active","ping":119},{"user_id":189,"name":"Lean(Mean)machine","steam_id":76561198087571586,"connected_time":1529000000000,"state":"active","ping":89},{"user_id":198,"name":"Aequalis747","steam_id":76561199456589841,"connected_time":708000000000,"state":"active","ping":76}]},{"server_id":19,"name":"Uncletopia | San Francisco | 3 | Stopwatch","name_short":"sfo-3","host":"sfo-1.us.uncletopia.com","port":27035,"enabled":true,"region":"us-west","cc":"us","latitude":37.77397,"longitude":-122.4313,"reserved":0,"last_update":"0001-01-01T00:00:00Z","name_a2s":"Uncletopia | San Francisco | 3 | Stopwatch","protocol":17,"map":"workshop/cp_reckoner_rc6.ugc674719999","folder":"tf","game":"Team Fortress","app_id":440,"player_count":0,"max_players":24,"Bots":0,"server_type":"Dedicated","server_os":"Linux","password":true,"vac":true,"version":"7961495","steam_id":85568392924742824,"keywords":["cp","nocrits","nodmgspread","uncletopia"],"game_id":440,"stv_port":27036,"stv_name":"Uncletopia | San Francisco | 3 | Stopwatch | STV","players":null},{"server_id":20,"name":"Uncletopia | San Francisco | 4 | Community","name_short":"sfo-4","host":"sfo-1.us.uncletopia.com","port":27045,"enabled":true,"region":"us-west","cc":"us","latitude":37.77397,"longitude":-122.4313,"reserved":0,"last_update":"0001-01-01T00:00:00Z","name_a2s":"Uncletopia | San Francisco | 4 | Community","protocol":17,"map":"workshop/koth_product_final.ugc454272353","folder":"tf","game":"Team Fortress","app_id":440,"player_count":0,"max_players":24,"Bots":0,"server_type":"Dedicated","server_os":"Linux","password":true,"vac":true,"version":"7961495","steam_id":85568392924742826,"keywords":["cp","nocrits","nodmgspread","uncletopia"],"game_id":440,"stv_port":27046,"stv_name":"Uncletopia | San Francisco | 4 | Community | STV","players":null},{"server_id":141,"name":"Uncletopia | Sydney | 1 | All Maps","name_short":"syd-1","host":"syd-1.au.uncletopia.com","port":27015,"enabled":true,"region":"au","cc":"au","latitude":-33.865143,"longitude":151.2099,"reserved":0,"last_update":"0001-01-01T00:00:00Z","name_a2s":"Uncletopia | Sydney | 1 | All Maps","protocol":17,"map":"koth_viaduct","folder":"tf","game":"Team Fortress","app_id":440,"player_count":0,"max_players":24,"Bots":0,"server_type":"Dedicated","server_os":"Linux","password":true,"vac":true,"version":"7961495","steam_id":85568392924470001,"keywords":["cp","nocrits","nodmgspread","uncletopia"],"game_id":440,"stv_port":27016,"stv_name":"Uncletopia | Sydney | 1 | All Maps | STV","players":null},{"server_id":123,"name":"Uncletopia | Sydney | 2 | All Maps","name_short":"syd-2","host":"syd-1.au.uncletopia.com","port":27025,"enabled":true,"region":"au","cc":"au","latitude":-33.865143,"longitude":151.2099,"reserved":0,"last_update":"0001-01-01T00:00:00Z","name_a2s":"Uncletopia | Sydney | 2 | All Maps","protocol":17,"map":"koth_lakeside_final","folder":"tf","game":"Team Fortress","app_id":440,"player_count":0,"max_players":24,"Bots":0,"server_type":"Dedicated","server_os":"Linux","password":true,"vac":true,"version":"7961495","steam_id":85568392924470002,"keywords":["cp","nocrits","nodmgspread","uncletopia"],"game_id":440,"stv_port":27026,"stv_name":"Uncletopia | Sydney | 2 | All Maps | STV","players":null},{"server_id":395,"name":"Uncletopia | Sydney | 3 | All Maps","name_short":"syd-3","host":"syd-1.au.uncletopia.com","port":27035,"enabled":true,"region":"au","cc":"au","latitude":-33.865143,"longitude":151.2099,"reserved":0,"last_update":"0001-01-01T00:00:00Z","name_a2s":"Uncletopia | Sydney | 3 | All Maps","protocol":17,"map":"pl_frontier_final","folder":"tf","game":"Team Fortress","app_id":440,"player_count":0,"max_players":24,"Bots":0,"server_type":"Dedicated","server_os":"Linux","password":true,"vac":true,"version":"7961495","steam_id":85568392925194467,"keywords":["nocrits","nodmgspread","payload","uncletopia"],"game_id":440,"stv_port":27036,"stv_name":"Uncletopia | Sydney | 3 | All Maps | STV","players":null},{"server_id":396,"name":"Uncletopia | Sydney | 4 | All Maps","name_short":"syd-4","host":"syd-1.au.uncletopia.com","port":27045,"enabled":true,"region":"au","cc":"au","latitude":-33.865143,"longitude":151.2099,"reserved":0,"last_update":"0001-01-01T00:00:00Z","name_a2s":"Uncletopia | Sydney | 4 | All Maps","protocol":17,"map":"cp_process_final","folder":"tf","game":"Team Fortress","app_id":440,"player_count":0,"max_players":24,"Bots":0,"server_type":"Dedicated","server_os":"Linux","password":true,"vac":true,"version":"7961495","steam_id":85568392925397958,"keywords":["cp","nocrits","nodmgspread","uncletopia"],"game_id":440,"stv_port":27046,"stv_name":"Uncletopia | Sydney | 4 | All Maps | STV","players":null},{"server_id":58,"name":"Uncletopia | Sydney | 5 | Stopwatch","name_short":"syd-5","host":"syd-1.au.uncletopia.com","port":27055,"enabled":true,"region":"au","cc":"au","latitude":-33.865143,"longitude":151.2099,"reserved":0,"last_update":"0001-01-01T00:00:00Z","name_a2s":"Uncletopia | Sydney | 5 | Stopwatch","protocol":17,"map":"pl_frontier_final","folder":"tf","game":"Team Fortress","app_id":440,"player_count":0,"max_players":24,"Bots":0,"server_type":"Dedicated","server_os":"Linux","password":true,"vac":true,"version":"7961495","steam_id":85568392925397959,"keywords":["nocrits","nodmgspread","payload","uncletopia"],"game_id":440,"stv_port":27056,"stv_name":"Uncletopia | Sydney | 5 | Stopwatch | STV","players":null},{"server_id":59,"name":"Uncletopia | Sydney | 6 | Community","name_short":"syd-6","host":"syd-1.au.uncletopia.com","port":27065,"enabled":true,"region":"au","cc":"au","latitude":-33.865143,"longitude":151.2099,"reserved":0,"last_update":"0001-01-01T00:00:00Z","name_a2s":"Uncletopia | Sydney | 6 | Community","protocol":17,"map":"workshop/pl_cactuscanyon_redux_final2.ugc2579644293","folder":"tf","game":"Team Fortress","app_id":440,"player_count":4,"max_players":24,"Bots":0,"server_type":"Dedicated","server_os":"Linux","password":true,"vac":true,"version":"7961495","steam_id":85568392925397960,"keywords":["nocrits","nodmgspread","payload","uncletopia"],"game_id":440,"stv_port":27066,"stv_name":"Uncletopia | Sydney | 6 | Community | STV","players":[{"user_id":5,"name":"Mike1225","steam_id":76561198861615835,"connected_time":809000000000,"state":"active","ping":263},{"user_id":6,"name":"Kkirkland6","steam_id":76561199259050037,"connected_time":804000000000,"state":"active","ping":278},{"user_id":7,"name":"Prongles","steam_id":76561199062407056,"connected_time":804000000000,"state":"active","ping":260},{"user_id":8,"name":"kirklandjacob01","steam_id":76561199258746330,"connected_time":791000000000,"state":"active","ping":262}]},{"server_id":49,"name":"Uncletopia | Warsaw | 1 | One Thousand Uncles","name_short":"waw-1","host":"waw-1.pl.uncletopia.com","port":27015,"enabled":true,"region":"eu","cc":"pl","latitude":52.2297,"longitude":21.017532,"reserved":0,"last_update":"0001-01-01T00:00:00Z","name_a2s":"Uncletopia | Warsaw | 1 | One Thousand Uncles","protocol":17,"map":"cp_mossrock","folder":"tf","game":"Team Fortress","app_id":440,"player_count":19,"max_players":32,"Bots":16,"server_type":"Dedicated","server_os":"Linux","password":true,"vac":true,"version":"7961495","steam_id":85568392925397850,"keywords":["alltalk","bots","cp","danepve","increased_maxplayers","nocrits","norespawntime","uncletopia"],"game_id":440,"stv_port":0,"stv_name":"","players":[{"user_id":69,"name":"Samuel L. Jackson","steam_id":76561198130427881,"connected_time":1347000000000,"state":"active","ping":175},{"user_id":86,"name":"Mr. Fox","steam_id":76561198803610709,"connected_time":534000000000,"state":"active","ping":128},{"user_id":87,"name":"Goon Spoons","steam_id":76561198116391675,"connected_time":329000000000,"state":"active","ping":93}]},{"server_id":50,"name":"Uncletopia | Warsaw | 2 | One Thousand Uncles","name_short":"waw-2","host":"waw-1.pl.uncletopia.com","port":27025,"enabled":true,"region":"eu","cc":"pl","latitude":52.2297,"longitude":21.017532,"reserved":0,"last_update":"0001-01-01T00:00:00Z","name_a2s":"Uncletopia | Warsaw | 2 | One Thousand Uncles","protocol":17,"map":"pl_goldrush","folder":"tf","game":"Team Fortress","app_id":440,"player_count":0,"max_players":32,"Bots":0,"server_type":"Dedicated","server_os":"Linux","password":true,"vac":true,"version":"7961495","steam_id":85568392925397851,"keywords":["alltalk","danepve","increased_maxplayers","nocrits","norespawntime","payload","uncletopia"],"game_id":440,"stv_port":0,"stv_name":"","players":null},{"server_id":51,"name":"Uncletopia | Warsaw | 3 | All Maps","name_short":"waw-3","host":"waw-1.pl.uncletopia.com","port":27035,"enabled":true,"region":"eu","cc":"pl","latitude":52.2297,"longitude":21.017532,"reserved":0,"last_update":"0001-01-01T00:00:00Z","name_a2s":"Uncletopia | Warsaw | 3 | All Maps","protocol":17,"map":"koth_viaduct","folder":"tf","game":"Team Fortress","app_id":440,"player_count":0,"max_players":24,"Bots":0,"server_type":"Dedicated","server_os":"Linux","password":true,"vac":true,"version":"7961495","steam_id":85568392925397852,"keywords":["cp","nocrits","nodmgspread","uncletopia"],"game_id":440,"stv_port":27036,"stv_name":"Uncletopia | Warsaw | 3 | All Maps | STV","players":null},{"server_id":52,"name":"Uncletopia | Warsaw | 4 | All Maps","name_short":"waw-4","host":"waw-1.pl.uncletopia.com","port":27045,"enabled":true,"region":"eu","cc":"pl","latitude":52.2297,"longitude":21.017532,"reserved":0,"last_update":"0001-01-01T00:00:00Z","name_a2s":"Uncletopia | Warsaw | 4 | All Maps","protocol":17,"map":"pl_swiftwater_final1","folder":"tf","game":"Team Fortress","app_id":440,"player_count":0,"max_players":24,"Bots":0,"server_type":"Dedicated","server_os":"Linux","password":true,"vac":true,"version":"7961495","steam_id":85568392925397853,"keywords":["nocrits","nodmgspread","payload","uncletopia"],"game_id":440,"stv_port":27046,"stv_name":"Uncletopia | Warsaw | 4 | All Maps | STV","players":null},{"server_id":53,"name":"Uncletopia | Warsaw | 5 | Stopwatch","name_short":"waw-5","host":"waw-1.pl.uncletopia.com","port":27055,"enabled":true,"region":"eu","cc":"pl","latitude":52.2297,"longitude":21.017532,"reserved":0,"last_update":"0001-01-01T00:00:00Z","name_a2s":"Uncletopia | Warsaw | 5 | Stopwatch","protocol":17,"map":"workshop/pl_summercoast_rc8e.ugc1761528829","folder":"tf","game":"Team Fortress","app_id":440,"player_count":1,"max_players":24,"Bots":0,"server_type":"Dedicated","server_os":"Linux","password":true,"vac":true,"version":"7961495","steam_id":85568392925397854,"keywords":["nocrits","nodmgspread","payload","uncletopia"],"game_id":440,"stv_port":27056,"stv_name":"Uncletopia | Warsaw | 5 | Stopwatch | STV","players":[{"user_id":6,"name":"justpixels","steam_id":76561198143717568,"connected_time":70000000000,"state":"active","ping":120}]},{"server_id":54,"name":"Uncletopia | Warsaw | 6 | Community","name_short":"waw-6","host":"waw-1.pl.uncletopia.com","port":27065,"enabled":true,"region":"eu","cc":"pl","latitude":52.2297,"longitude":21.017532,"reserved":0,"last_update":"0001-01-01T00:00:00Z","name_a2s":"Uncletopia | Warsaw | 6 | Community","protocol":17,"map":"workshop/koth_trenchfoot_b1a.ugc731436616","folder":"tf","game":"Team Fortress","app_id":440,"player_count":0,"max_players":24,"Bots":0,"server_type":"Dedicated","server_os":"Linux","password":true,"vac":true,"version":"7961495","steam_id":85568392925397856,"keywords":["cp","nocrits","nodmgspread","uncletopia"],"game_id":440,"stv_port":27066,"stv_name":"Uncletopia | Warsaw | 6 | Community | STV","players":null}]}