{"status":true,"message":"","result":[{"server_id":9,"name":"Uncletopia | Atlanta | 1 | All Maps","name_short":"atl-1","host":"atl-1.us.uncletopia.com","port":27015,"enabled":true,"region":"us-east","cc":"us","latitude":33.753746,"longitude":-84.38633,"reserved":0,"last_update":"0001-01-01T00:00:00Z","name_a2s":"Uncletopia | Atlanta | 1 | All Maps","protocol":17,"map":"koth_highpass","folder":"tf","game":"Team Fortress","app_id":440,"player_count":23,"max_players":24,"Bots":0,"server_type":"Dedicated","server_os":"Linux","password":true,"vac":true,"version":"7757534","steam_id":85568392924469982,"keywords":["cp","nocrits","nodmgspread","uncletopia"],"game_id":440,"stv_port":27016,"stv_name":"Uncletopia | Atlanta | 1 | All Maps | STV","players":[{"user_id":175,"name":"NovaSc6ut","steam_id":76561198277163301,"connected_time":1705000000000,"state":"active","ping":79},{"user_id":155,"name":"lil hog","steam_id":76561199230929836,"connected_time":4722000000000,"state":"active","ping":99},{"user_id":186,"name":"Mister","steam_id":76561198097164652,"connected_time":1404000000000,"state":"active","ping":63},{"user_id":156,"name":"BIG HOG","steam_id":76561198079923652,"connected_time":4643000000000,"state":"active","ping":65},{"user_id":187,"name":"hoboways","steam_id":76561198168035195,"connected_time":1258000000000,"state":"active","ping":76},{"user_id":194,"name":"Grandpa Simpson (Official)","steam_id":76561198057607033,"connected_time":1021000000000,"state":"active","ping":79},{"user_id":204,"name":"Gordon Ramsay","steam_id":76561198123893900,"connected_time":8000000000,"state":"spawning","ping":85},{"user_id":185,"name":"Doomagedden","steam_id":76561198272589475,"connected_time":1486000000000,"state":"active","ping":75},{"user_id":193,"name":"floofy","steam_id":76561198389769098,"connected_time":1170000000000,"state":"active","ping":87},{"user_id":184,"name":"Zillers","steam_id":76561198095248744,"connected_time":1566000000000,"state":"active","ping":66},{"user_id":203,"name":"john_minecraft05","steam_id":76561198354026474,"connected_time":41000000000,"state":"active","ping":78},{"user_id":158,"name":"William Wallace","steam_id":76561199343316814,"connected_time":3736000000000,"state":"active","ping":60},{"user_id":109,"name":"shaderoses","steam_id":76561198070800500,"connected_time":8716000000000,"state":"active","ping":65},{"user_id":173,"name":"chexo4","steam_id":76561198150532531,"connected_time":2013000000000,"state":"active","ping":50},{"user_id":195,"name":"Decs","steam_id":76561198825197974,"connected_time":1014000000000,"state":"active","ping":113},{"user_id":200,"name":"Nighthawk","steam_id":76561198125875536,"connected_time":552000000000,"state":"active","ping":45},{"user_id":146,"name":"Whopper Enjoyer","steam_id":76561199163263543,"connected_time":5802000000000,"state":"active","ping":74},{"user_id":196,"name":"chanoc","steam_id":76561198026734746,"connected_time":956000000000,"state":"active","ping":104},{"user_id":159,"name":"ATL1 | cola","steam_id":76561198374390458,"connected_time":3436000000000,"state":"active","ping":59},{"user_id":164,"name":"Kiso ÁÅ´","steam_id":76561198141026844,"connected_time":3307000000000,"state":"active","ping":108},{"user_id":205,"name":"Florist","steam_id":76561198009121060,"connected_time":4000000000,"state":"spawning","ping":98},{"user_id":182,"name":"Walter White","steam_id":76561198875469297,"connected_time":1630000000000,"state":"active","ping":91},{"user_id":183,"name":"Benpai","steam_id":76561198129143866,"connected_time":1601000000000,"state":"active","ping":84}]},{"server_id":104,"name":"Uncletopia | Atlanta | 2 | All Maps","name_short":"atl-2","host":"atl-1.us.uncletopia.com","port":27025,"enabled":true,"region":"us-east","cc":"us","latitude":33.753746,"longitude":-84.38633,"reserved":0,"last_update":"0001-01-01T00:00:00Z","name_a2s":"Uncletopia | Atlanta | 2 | All Maps","protocol":17,"map":"pl_frontier_final","folder":"tf","game":"Team Fortress","app_id":440,"player_count":0,"max_players":24,"Bots":0,"server_type":"Dedicated","server_os":"Linux","password":true,"vac":true,"version":"7757534","steam_id":85568392924469983,"keywords":["nocrits","nodmgspread","payload","uncletopia"],"game_id":440,"stv_port":27026,"stv_name":"Uncletopia | Atlanta | 2 | All Maps | STV","players":null},{"server_id":400,"name":"Uncletopia | Atlanta | 3 | Community","name_short":"atl-3","host":"atl-1.us.uncletopia.com","port":27035,"enabled":true,"region":"us-east","cc":"us","latitude":33.753746,"longitude":-84.38633,"reserved":0,"last_update":"0001-01-01T00:00:00Z","name_a2s":"Uncletopia | Atlanta | 3 | Community","protocol":17,"map":"cp_snakewater_final1","folder":"tf","game":"Team Fortress","app_id":440,"player_count":0,"max_players":24,"Bots":0,"server_type":"Dedicated","server_os":"Linux","password":true,"vac":true,"version":"7757534","steam_id":85568392924515187,"keywords":["cp","nocrits","nodmgspread","uncletopia"],"game_id":440,"stv_port":27036,"stv_name":"Uncletopia | Atlanta | 3 | Community | STV","players":null},{"server_id":401,"name":"Uncletopia | Atlanta | 4 | No Payload","name_short":"atl-4","host":"atl-1.us.uncletopia.com","port":27045,"enabled":true,"region":"us-east","cc":"us","latitude":33.753746,"longitude":-84.38633,"reserved":0,"last_update":"0001-01-01T00:00:00Z","name_a2s":"","protocol":0,"map":"","folder":"","game":"","app_id":0,"player_count":0,"max_players":0,"Bots":0,"server_type":"","server_os":"","password":false,"vac":false,"version":"","steam_id":0,"keywords":null,"game_id":0,"stv_port":0,"stv_name":"","players":null},{"server_id":2,"name":"Uncletopia | Chicago | 1 | All Maps","name_short":"chi-1","host":"chi-1.us.uncletopia.com","port":27015,"enabled":true,"region":"us-central","cc":"us","latitude":41.881832,"longitude":-87.62318,"reserved":0,"last_update":"0001-01-01T00:00:00Z","name_a2s":"Uncletopia | Chicago | 1 | All Maps","protocol":17,"map":"koth_viaduct","folder":"tf","game":"Team Fortress","app_id":440,"player_count":24,"max_players":24,"Bots":0,"server_type":"Dedicated","server_os":"Linux","password":true,"vac":true,"version":"7757534","steam_id":85568392924469984,"keywords":["cp","nocrits","nodmgspread","uncletopia"],"game_id":440,"stv_port":27016,"stv_name":"Uncletopia | Chicago | 1 | All Maps | STV","players":[{"user_id":333,"name":"dangergirl99","steam_id":76561198121651564,"connected_time":3568000000000,"state":"active","ping":56},{"user_id":375,"name":"Quark","steam_id":76561198328155605,"connected_time":169000000000,"state":"active","ping":51},{"user_id":370,"name":"rivera","steam_id":76561198051058706,"connected_time":571000000000,"state":"active","ping":57},{"user_id":366,"name":"Rein","steam_id":76561198300340427,"connected_time":825000000000,"state":"active","ping":56},{"user_id":352,"name":"Jamie","steam_id":76561198917309036,"connected_time":2201000000000,"state":"active","ping":66},{"user_id":371,"name":"Triforce141","steam_id":76561198063896776,"connected_time":523000000000,"state":"active","ping":68},{"user_id":339,"name":"Littletoughie","steam_id":76561198066103628,"connected_time":3034000000000,"state":"active","ping":71},{"user_id":361,"name":"Architect","steam_id":76561198015242016,"connected_time":1188000000000,"state":"active","ping":45},{"user_id":330,"name":"Zoawsome","steam_id":76561198018758753,"connected_time":3763000000000,"state":"active","ping":60},{"user_id":341,"name":"stoned jester","steam_id":76561198079609974,"connected_time":2851000000000,"state":"active","ping":115},{"user_id":367,"name":"Neon","steam_id":76561198089067907,"connected_time":738000000000,"state":"active","ping":62},{"user_id":372,"name":"Alara","steam_id":76561198083144491,"connected_time":500000000000,"state":"active","ping":54},{"user_id":349,"name":"SkrubWrecker","steam_id":76561198044717015,"connected_time":2626000000000,"state":"active","ping":67},{"user_id":327,"name":"Bot Karma","steam_id":76561198422386331,"connected_time":3823000000000,"state":"active","ping":137},{"user_id":346,"name":"Goober","steam_id":76561198988863807,"connected_time":2668000000000,"state":"active","ping":80},{"user_id":362,"name":"Lusty","steam_id":76561198446378419,"connected_time":1179000000000,"state":"active","ping":84},{"user_id":379,"name":"Kiss Master","steam_id":76561198289572271,"connected_time":58000000000,"state":"active","ping":78},{"user_id":368,"name":"The Noble Lavender","steam_id":76561198078395639,"connected_time":737000000000,"state":"active","ping":129},{"user_id":377,"name":"Deez","steam_id":76561198063894068,"connected_time":98000000000,"state":"active","ping":78},{"user_id":378,"name":"conscripted monk","steam_id":76561199029246232,"connected_time":95000000000,"state":"active","ping":70},{"user_id":364,"name":"sam","steam_id":76561198217362968,"connected_time":1136000000000,"state":"active","ping":60},{"user_id":355,"name":"Sunflower","steam_id":76561198081223793,"connected_time":1662000000000,"state":"active","ping":58},{"user_id":376,"name":"BigBubble42","steam_id":76561198136286123,"connected_time":139000000000,"state":"active","ping":59},{"user_id":336,"name":"Scuot","steam_id":76561199195737328,"connected_time":3554000000000,"state":"active","ping":153}]},{"server_id":106,"name":"Uncletopia | Chicago | 2 | All Maps","name_short":"chi-2","host":"chi-1.us.uncletopia.com","port":27025,"enabled":true,"region":"us-central","cc":"us","latitude":41.881832,"longitude":-87.62318,"reserved":0,"last_update":"0001-01-01T00:00:00Z","name_a2s":"Uncletopia | Chicago | 2 | All Maps","protocol":17,"map":"pl_barnblitz","folder":"tf","game":"Team Fortress","app_id":440,"player_count":24,"max_players":24,"Bots":0,"server_type":"Dedicated","server_os":"Linux","password":true,"vac":true,"version":"7757534","steam_id":85568392924469985,"keywords":["nocrits","nodmgspread","payload","uncletopia"],"game_id":440,"stv_port":27026,"stv_name":"Uncletopia | Chicago | 2 | All Maps | STV","players":[{"user_id":190,"name":"Owl Pacino","steam_id":76561197979970666,"connected_time":2836000000000,"state":"active","ping":54},{"user_id":154,"name":"bo scrungulus","steam_id":76561198038036122,"connected_time":4897000000000,"state":"active","ping":75},{"user_id":203,"name":"kildraxx","steam_id":76561198042575486,"connected_time":1412000000000,"state":"active","ping":60},{"user_id":210,"name":"Banks","steam_id":76561198276505537,"connected_time":920000000000,"state":"active","ping":70},{"user_id":171,"name":"2EggsScrambled","steam_id":76561198052364159,"connected_time":4327000000000,"state":"active","ping":75},{"user_id":201,"name":"Nickson1","steam_id":76561198175839309,"connected_time":1585000000000,"state":"active","ping":74},{"user_id":109,"name":"Dilly Pickles","steam_id":76561198312068499,"connected_time":8650000000000,"state":"active","ping":82},{"user_id":172,"name":"Pintinkio","steam_id":76561198061714136,"connected_time":4297000000000,"state":"active","ping":57},{"user_id":182,"name":"River Rat","steam_id":76561198116383976,"connected_time":3310000000000,"state":"active","ping":115},{"user_id":211,"name":"Shrek I Guess","steam_id":76561198152587680,"connected_time":695000000000,"state":"active","ping":103},{"user_id":170,"name":"new and improved washing machin","steam_id":76561199160873100,"connected_time":4344000000000,"state":"active","ping":83},{"user_id":200,"name":"Aircraft Carrier Princess","steam_id":76561198348354629,"connected_time":1604000000000,"state":"active","ping":92},{"user_id":212,"name":"HarryjusttHarry","steam_id":76561198982810452,"connected_time":600000000000,"state":"active","ping":73},{"user_id":204,"name":"LitlToast","steam_id":76561198353473171,"connected_time":1391000000000,"state":"active","ping":71},{"user_id":199,"name":"Voodo133","steam_id":76561198042670351,"connected_time":1706000000000,"state":"active","ping":88},{"user_id":215,"name":"Peter Popoff","steam_id":76561198027171160,"connected_time":361000000000,"state":"active","ping":49},{"user_id":205,"name":"LunarrD","steam_id":76561198811220107,"connected_time":1378000000000,"state":"active","ping":86},{"user_id":206,"name":"Pussy Slambasket","steam_id":76561198093694322,"connected_time":1377000000000,"state":"active","ping":54},{"user_id":216,"name":"Alkaios","steam_id":76561198246193520,"connected_time":276000000000,"state":"active","ping":54},{"user_id":179,"name":"Take the L","steam_id":76561198379223875,"connected_time":3877000000000,"state":"active","ping":64},{"user_id":207,"name":"‚ñ≥","steam_id":76561198060642242,"connected_time":1359000000000,"state":"active","ping":85},{"user_id":214,"name":"GamingGod (real)","steam_id":76561199103766971,"connected_time":497000000000,"state":"active","ping":86},{"user_id":209,"name":"Glad","steam_id":76561199388372220,"connected_time":994000000000,"state":"active","ping":72},{"user_id":217,"name":"Assitins","steam_id":76561198041572892,"connected_time":273000000000,"state":"active","ping":77}]},{"server_id":402,"name":"Uncletopia | Chicago | 3 | All Maps","name_short":"chi-3","host":"chi-1.us.uncletopia.com","port":27035,"enabled":true,"region":"us-central","cc":"us","latitude":41.881832,"longitude":-87.62318,"reserved":0,"last_update":"0001-01-01T00:00:00Z","name_a2s":"Uncletopia | Chicago | 3 | All Maps","protocol":17,"map":"pl_upward","folder":"tf","game":"Team Fortress","app_id":440,"player_count":24,"max_players":24,"Bots":0,"server_type":"Dedicated","server_os":"Linux","password":true,"vac":true,"version":"7757534","steam_id":85568392924515191,"keywords":["nocrits","nodmgspread","payload","uncletopia"],"game_id":440,"stv_port":27036,"stv_name":"Uncletopia | Chicago | 3 | All Maps | STV","players":[{"user_id":197,"name":"\u003c\u003c Krag7 \u003e\u003e","steam_id":76561198058695115,"connected_time":4630000000000,"state":"active","ping":75},{"user_id":247,"name":"3ggsalad3","steam_id":76561199386969191,"connected_time":658000000000,"state":"active","ping":45},{"user_id":208,"name":"Schmingus","steam_id":76561199476148332,"connected_time":3343000000000,"state":"active","ping":108},{"user_id":248,"name":"battle clown","steam_id":76561198045788371,"connected_time":504000000000,"state":"active","ping":63},{"user_id":209,"name":"Gingoguy","steam_id":76561198088931297,"connected_time":3342000000000,"state":"active","ping":47},{"user_id":222,"name":"BasicPeaches","steam_id":76561198190890150,"connected_time":2461000000000,"state":"active","ping":77},{"user_id":210,"name":"tesagi","steam_id":76561198026664629,"connected_time":3342000000000,"state":"active","ping":58},{"user_id":223,"name":"GPG puppy","steam_id":76561198056158882,"connected_time":2460000000000,"state":"active","ping":79},{"user_id":233,"name":"BubbaBasher","steam_id":76561198829909547,"connected_time":2320000000000,"state":"active","ping":59},{"user_id":237,"name":"sludge_wizard","steam_id":76561198054482500,"connected_time":1597000000000,"state":"active","ping":65},{"user_id":246,"name":"DagyDin","steam_id":76561199212257554,"connected_time":662000000000,"state":"active","ping":52},{"user_id":231,"name":"9Bendy9","steam_id":76561198164023601,"connected_time":2343000000000,"state":"active","ping":108},{"user_id":207,"name":"glenn swagmire","steam_id":76561199101981082,"connected_time":3586000000000,"state":"active","ping":66},{"user_id":238,"name":"Snivy64","steam_id":76561198423445376,"connected_time":1573000000000,"state":"active","ping":82},{"user_id":193,"name":"orcluvr69","steam_id":76561198068712028,"connected_time":4967000000000,"state":"active","ping":74},{"user_id":245,"name":"Gandalf's Old Man Farts","steam_id":76561198058300151,"connected_time":856000000000,"state":"active","ping":86},{"user_id":240,"name":"CoffeePasta","steam_id":76561198969890522,"connected_time":1535000000000,"state":"active","ping":100},{"user_id":250,"name":"Giddy","steam_id":76561198129732108,"connected_time":212000000000,"state":"active","ping":94},{"user_id":236,"name":"Nephs","steam_id":76561198136763403,"connected_time":1612000000000,"state":"active","ping":84},{"user_id":234,"name":"Waffle Wannabe","steam_id":76561198064510650,"connected_time":2259000000000,"state":"active","ping":58},{"user_id":232,"name":"‚òºBarracuda‚òº","steam_id":76561198013022083,"connected_time":2341000000000,"state":"active","ping":59},{"user_id":241,"name":"WOOOOOOOOOOOOOOOOOOOOOOOO-WEE","steam_id":76561199127423378,"connected_time":1517000000000,"state":"active","ping":115},{"user_id":244,"name":"Howard Hamlin","steam_id":76561198881039861,"connected_time":1279000000000,"state":"active","ping":56},{"user_id":219,"name":"HOTA","steam_id":76561199002778841,"connected_time":2601000000000,"state":"active","ping":76}]},{"server_id":403,"name":"Uncletopia | Chicago | 4 | All Maps","name_short":"chi-4","host":"chi-1.us.uncletopia.com","port":27045,"enabled":true,"region":"us-central","cc":"us","latitude":41.881832,"longitude":-87.62318,"reserved":0,"last_update":"0001-01-01T00:00:00Z","name_a2s":"Uncletopia | Chicago | 4 | All Maps","protocol":17,"map":"koth_lakeside_final","folder":"tf","game":"Team Fortress","app_id":440,"player_count":0,"max_players":24,"Bots":0,"server_type":"Dedicated","server_os":"Linux","password":true,"vac":true,"version":"7757534","steam_id":85568392924515193,"keywords":["cp","nocrits","nodmgspread","uncletopia"],"game_id":440,"stv_port":27046,"stv_name":"Uncletopia | Chicago | 4 | All Maps | STV","players":null},{"server_id":36,"name":"Uncletopia | Chicago | 5 | All Maps","name_short":"chi-5","host":"chi-2.us.uncletopia.com","port":27015,"enabled":true,"region":"us-central","cc":"us","latitude":41.881832,"longitude":-87.62318,"reserved":0,"last_update":"0001-01-01T00:00:00Z","name_a2s":"Uncletopia | Chicago | 5 | All Maps","protocol":17,"map":"koth_cascade","folder":"tf","game":"Team Fortress","app_id":440,"player_count":0,"max_players":24,"Bots":0,"server_type":"Dedicated","server_os":"Linux","password":true,"vac":true,"version":"7757534","steam_id":85568392924866362,"keywords":["cp","nocrits","nodmgspread","uncletopia"],"game_id":440,"stv_port":27016,"stv_name":"Uncletopia | Chicago | 5 | All Maps | STV","players":null},{"server_id":37,"name":"Uncletopia | Chicago | 6 | All Maps","name_short":"chi-6","host":"chi-2.us.uncletopia.com","port":27025,"enabled":true,"region":"us-central","cc":"us","latitude":41.881832,"longitude":-87.62318,"reserved":0,"last_update":"0001-01-01T00:00:00Z","name_a2s":"Uncletopia | Chicago | 6 | All Maps","protocol":17,"map":"cp_dustbowl","folder":"tf","game":"Team Fortress","app_id":440,"player_count":3,"max_players":24,"Bots":0,"server_type":"Dedicated","server_os":"Linux","password":true,"vac":true,"version":"7757534","steam_id":85568392924866363,"keywords":["cp","nocrits","nodmgspread","uncletopia"],"game_id":440,"stv_port":27026,"stv_name":"Uncletopia | Chicago | 6 | All Maps | STV","players":[{"user_id":6,"name":"Treebeard","steam_id":76561198053508571,"connected_time":231000000000,"state":"active","ping":80},{"user_id":7,"name":"cj da man","steam_id":76561198303575607,"connected_time":89000000000,"state":"active","ping":72},{"user_id":8,"name":"brandoncg04","steam_id":76561199189398427,"connected_time":45000000000,"state":"active","ping":72}]},{"server_id":38,"name":"Uncletopia | Chicago | 7 | Stopwatch Beta","name_short":"chi-7","host":"chi-2.us.uncletopia.com","port":27035,"enabled":true,"region":"us-central","cc":"us","latitude":41.881832,"longitude":-87.62318,"reserved":0,"last_update":"0001-01-01T00:00:00Z","name_a2s":"Uncletopia | Chicago | 7 | Stopwatch Beta","protocol":17,"map":"pl_barnblitz","folder":"tf","game":"Team Fortress","app_id":440,"player_count":0,"max_players":24,"Bots":0,"server_type":"Dedicated","server_os":"Linux","password":true,"vac":true,"version":"7757534","steam_id":85568392924866364,"keywords":["nocrits","nodmgspread","payload","uncletopia"],"game_id":440,"stv_port":27036,"stv_name":"Uncletopia | Chicago | 7 | Stopwatch Beta | STV","players":null},{"server_id":39,"name":"Uncletopia | Chicago | 8 | Community","name_short":"chi-8","host":"chi-2.us.uncletopia.com","port":27045,"enabled":true,"region":"us-central","cc":"us","latitude":41.881832,"longitude":-87.62318,"reserved":0,"last_update":"0001-01-01T00:00:00Z","name_a2s":"Uncletopia | Chicago | 8 | Community","protocol":17,"map":"koth_cascade","folder":"tf","game":"Team Fortress","app_id":440,"player_count":0,"max_players":24,"Bots":0,"server_type":"Dedicated","server_os":"Linux","password":true,"vac":true,"version":"7757534","steam_id":85568392924866365,"keywords":["cp","nocrits","nodmgspread","uncletopia"],"game_id":440,"stv_port":27046,"stv_name":"Uncletopia | Chicago | 8 | Community | STV","players":null},{"server_id":8,"name":"Uncletopia | Dallas | 1 | All Maps","name_short":"dal-1","host":"dal-1.us.uncletopia.com","port":27015,"enabled":true,"region":"us-central","cc":"us","latitude":32.779167,"longitude":-96.80889,"reserved":0,"last_update":"0001-01-01T00:00:00Z","name_a2s":"Uncletopia | Dallas | 1 | All Maps","protocol":17,"map":"cp_snakewater_final1","folder":"tf","game":"Team Fortress","app_id":440,"player_count":24,"max_players":24,"Bots":0,"server_type":"Dedicated","server_os":"Linux","password":true,"vac":true,"version":"7757534","steam_id":85568392924469986,"keywords":["cp","nocrits","nodmgspread","uncletopia"],"game_id":440,"stv_port":27016,"stv_name":"Uncletopia | Dallas | 1 | All Maps | STV","players":[{"user_id":63,"name":"Arrluk","steam_id":76561198396679452,"connected_time":1230000000000,"state":"active","ping":61},{"user_id":64,"name":"Can You Feel It Mr.Krabs","steam_id":76561198128302414,"connected_time":1145000000000,"state":"active","ping":62},{"user_id":55,"name":"Searot","steam_id":76561198070800170,"connected_time":1515000000000,"state":"active","ping":58},{"user_id":40,"name":"m9tt4","steam_id":76561198069075801,"connected_time":2123000000000,"state":"active","ping":98},{"user_id":42,"name":"sheep girl \u003c3","steam_id":76561198068189558,"connected_time":1897000000000,"state":"active","ping":85},{"user_id":48,"name":"Lemmers235","steam_id":76561199192668922,"connected_time":1768000000000,"state":"active","ping":88},{"user_id":80,"name":"neet","steam_id":76561197968115168,"connected_time":77000000000,"state":"active","ping":69},{"user_id":49,"name":"Honeybunch","steam_id":76561198014850580,"connected_time":1730000000000,"state":"active","ping":91},{"user_id":46,"name":"ÔºäTerminalÔºä","steam_id":76561198321541054,"connected_time":1784000000000,"state":"active","ping":160},{"user_id":51,"name":"DragonHeart","steam_id":76561198013245625,"connected_time":1663000000000,"state":"active","ping":71},{"user_id":52,"name":"The Woman Disrespecter","steam_id":76561198964373968,"connected_time":1633000000000,"state":"active","ping":82},{"user_id":79,"name":"MasterGoop","steam_id":76561198285594777,"connected_time":256000000000,"state":"active","ping":73},{"user_id":58,"name":"Vortiger","steam_id":76561198275813176,"connected_time":1406000000000,"state":"active","ping":100},{"user_id":57,"name":"clammy egg","steam_id":76561198151876384,"connected_time":1464000000000,"state":"active","ping":76},{"user_id":59,"name":"YoteDab McFapDab.jpg","steam_id":76561197984870380,"connected_time":1402000000000,"state":"active","ping":86},{"user_id":60,"name":"F2P cuz this client won't allow","steam_id":76561199162375033,"connected_time":1359000000000,"state":"active","ping":118},{"user_id":67,"name":"hotpocket","steam_id":76561199070028098,"connected_time":1097000000000,"state":"active","ping":95},{"user_id":68,"name":"Shook","steam_id":76561198054064995,"connected_time":1065000000000,"state":"active","ping":87},{"user_id":69,"name":"Jib","steam_id":76561198328210524,"connected_time":1050000000000,"state":"active","ping":89},{"user_id":71,"name":"BajaBlast76","steam_id":76561198144272437,"connected_time":977000000000,"state":"active","ping":84},{"user_id":78,"name":"DerpFamous","steam_id":76561198046167888,"connected_time":535000000000,"state":"active","ping":58},{"user_id":74,"name":"rkp!","steam_id":76561199053070819,"connected_time":896000000000,"state":"active","ping":70},{"user_id":77,"name":"Joe Swanson","steam_id":76561199089907740,"connected_time":651000000000,"state":"active","ping":68},{"user_id":76,"name":"the killer","steam_id":76561198300167622,"connected_time":841000000000,"state":"active","ping":103}]},{"server_id":108,"name":"Uncletopia | Dallas | 2 | All Maps","name_short":"dal-2","host":"dal-1.us.uncletopia.com","port":27025,"enabled":true,"region":"us-central","cc":"us","latitude":32.779167,"longitude":-96.80889,"reserved":0,"last_update":"0001-01-01T00:00:00Z","name_a2s":"Uncletopia | Dallas | 2 | All Maps","protocol":17,"map":"koth_cascade","folder":"tf","game":"Team Fortress","app_id":440,"player_count":23,"max_players":24,"Bots":0,"server_type":"Dedicated","server_os":"Linux","password":true,"vac":true,"version":"7757534","steam_id":85568392924469988,"keywords":["cp","nocrits","nodmgspread","uncletopia"],"game_id":440,"stv_port":27026,"stv_name":"Uncletopia | Dallas | 2 | All Maps | STV","players":[{"user_id":279,"name":"TechnoBear2099","steam_id":76561198238863596,"connected_time":1162000000000,"state":"active","ping":51},{"user_id":280,"name":"Sour Grapes Radio Hour","steam_id":76561198121372198,"connected_time":1043000000000,"state":"active","ping":97},{"user_id":302,"name":"ShapedSilver","steam_id":76561199073305310,"connected_time":24000000000,"state":"active","ping":84},{"user_id":282,"name":"{·¥õ Ä_·¥Ñ·¥á Ä·¥ò} shullers","steam_id":76561198889997809,"connected_time":986000000000,"state":"active","ping":75},{"user_id":283,"name":"merci","steam_id":76561198103898698,"connected_time":969000000000,"state":"active","ping":60},{"user_id":278,"name":"Dejected Jester","steam_id":76561197972171675,"connected_time":1426000000000,"state":"active","ping":61},{"user_id":284,"name":"ÔºîÔºê Ôº¶Ôº∞Ôº≥","steam_id":76561198272394965,"connected_time":958000000000,"state":"active","ping":149},{"user_id":276,"name":"Kid named download","steam_id":76561199192074448,"connected_time":1816000000000,"state":"active","ping":108},{"user_id":256,"name":"BigWack","steam_id":76561198334878169,"connected_time":3275000000000,"state":"active","ping":69},{"user_id":268,"name":"Rafl","steam_id":76561198055222756,"connected_time":2420000000000,"state":"active","ping":45},{"user_id":296,"name":"ÔΩì","steam_id":76561198153137314,"connected_time":402000000000,"state":"active","ping":84},{"user_id":300,"name":"Bunchie","steam_id":76561198011549808,"connected_time":153000000000,"state":"active","ping":47},{"user_id":240,"name":"Nightlygalad","steam_id":76561198170693990,"connected_time":5217000000000,"state":"active","ping":81},{"user_id":143,"name":"in shambles","steam_id":76561198062763756,"connected_time":11543000000000,"state":"active","ping":80},{"user_id":277,"name":"Please_insert_id","steam_id":76561198058140301,"connected_time":1457000000000,"state":"active","ping":159},{"user_id":31,"name":"Moonflower ‚ú¶","steam_id":76561198191782483,"connected_time":14566000000000,"state":"active","ping":50},{"user_id":301,"name":"Bacon Hoodie","steam_id":76561198843822629,"connected_time":44000000000,"state":"active","ping":63},{"user_id":297,"name":"Mellou","steam_id":76561198212048740,"connected_time":273000000000,"state":"active","ping":53},{"user_id":288,"name":"Fresh0c0","steam_id":76561198271933283,"connected_time":814000000000,"state":"active","ping":86},{"user_id":289,"name":"ËõãÊç≤:D","steam_id":76561198353606160,"connected_time":806000000000,"state":"active","ping":98},{"user_id":267,"name":"craxyt","steam_id":76561198050192689,"connected_time":2492000000000,"state":"active","ping":76},{"user_id":293,"name":"Mr Bones","steam_id":76561198148667535,"connected_time":504000000000,"state":"active","ping":105},{"user_id":291,"name":"remilia","steam_id":76561198069180543,"connected_time":781000000000,"state":"active","ping":74}]},{"server_id":5,"name":"Uncletopia | Frankfurt | 1 | All Maps","name_short":"frk-1","host":"frk-1.de.uncletopia.com","port":27015,"enabled":true,"region":"eu","cc":"de","latitude":50.110924,"longitude":8.682127,"reserved":0,"last_update":"0001-01-01T00:00:00Z","name_a2s":"Uncletopia | Frankfurt | 1 | All Maps","protocol":17,"map":"pl_snowycoast","folder":"tf","game":"Team Fortress","app_id":440,"player_count":23,"max_players":24,"Bots":0,"server_type":"Dedicated","server_os":"Linux","password":true,"vac":true,"version":"7757534","steam_id":85568392924469989,"keywords":["nocrits","nodmgspread","payload","uncletopia"],"game_id":440,"stv_port":27016,"stv_name":"Uncletopia | Frankfurt | 1 | All Maps | STV","players":[{"user_id":911,"name":"Beni ü¶ßüçå","steam_id":76561198011340227,"connected_time":4025000000000,"state":"active","ping":65},{"user_id":915,"name":"Carrotcracker","steam_id":76561198034862396,"connected_time":3716000000000,"state":"active","ping":68},{"user_id":919,"name":"Mati [EST]","steam_id":76561197994743813,"connected_time":3483000000000,"state":"active","ping":96},{"user_id":939,"name":"sork","steam_id":76561198082446459,"connected_time":1300000000000,"state":"active","ping":68},{"user_id":925,"name":"[Walmart] HatsuneMiku","steam_id":76561198843075093,"connected_time":2777000000000,"state":"active","ping":68},{"user_id":946,"name":"ja","steam_id":76561199228540618,"connected_time":678000000000,"state":"active","ping":70},{"user_id":926,"name":"20BB Raxor","steam_id":76561198239927434,"connected_time":2741000000000,"state":"active","ping":88},{"user_id":927,"name":"Miiukade","steam_id":76561198089157860,"connected_time":2710000000000,"state":"active","ping":138},{"user_id":954,"name":"ERDAL K√ñM√úRC√ú","steam_id":76561198971156373,"connected_time":325000000000,"state":"active","ping":106},{"user_id":944,"name":"C.dat","steam_id":76561198261169912,"connected_time":986000000000,"state":"active","ping":37},{"user_id":878,"name":"Er Pomata","steam_id":76561198133085347,"connected_time":5939000000000,"state":"active","ping":59},{"user_id":947,"name":"Mell","steam_id":76561198356521260,"connected_time":644000000000,"state":"active","ping":88},{"user_id":882,"name":"lol","steam_id":76561198322087870,"connected_time":5708000000000,"state":"active","ping":105},{"user_id":938,"name":"ghenios","steam_id":76561198030011207,"connected_time":1321000000000,"state":"active","ping":97},{"user_id":906,"name":"medium rare chicken enjoyer","steam_id":76561198050214002,"connected_time":4183000000000,"state":"active","ping":55},{"user_id":875,"name":"cursedbygod‚ô°","steam_id":76561198318291047,"connected_time":6447000000000,"state":"active","ping":108},{"user_id":941,"name":"anders McFlanders","steam_id":76561198022811995,"connected_time":1212000000000,"state":"active","ping":66},{"user_id":956,"name":"mp1mp2mp3","steam_id":76561198088967665,"connected_time":197000000000,"state":"active","ping":103},{"user_id":952,"name":"Opti","steam_id":76561197968902518,"connected_time":451000000000,"state":"active","ping":66},{"user_id":950,"name":"FartGoing","steam_id":76561198122284275,"connected_time":609000000000,"state":"active","ping":74},{"user_id":953,"name":"Wubbles","steam_id":76561197970314906,"connected_time":436000000000,"state":"active","ping":74},{"user_id":942,"name":"‚òÖpoyo‚òÖ","steam_id":76561198150078959,"connected_time":1207000000000,"state":"active","ping":70},{"user_id":957,"name":"[Mg] Z√© P√©qu√©no","steam_id":76561198000927489,"connected_time":177000000000,"state":"active","ping":84}]},{"server_id":110,"name":"Uncletopia | Frankfurt | 2 | All Maps","name_short":"frk-2","host":"frk-1.de.uncletopia.com","port":27025,"enabled":true,"region":"eu","cc":"de","latitude":50.110924,"longitude":8.682127,"reserved":0,"last_update":"0001-01-01T00:00:00Z","name_a2s":"Uncletopia | Frankfurt | 2 | All Maps","protocol":17,"map":"pl_barnblitz","folder":"tf","game":"Team Fortress","app_id":440,"player_count":0,"max_players":24,"Bots":0,"server_type":"Dedicated","server_os":"Linux","password":true,"vac":true,"version":"7757534","steam_id":85568392924469990,"keywords":["nocrits","nodmgspread","payload","uncletopia"],"game_id":440,"stv_port":27026,"stv_name":"Uncletopia | Frankfurt | 2 | All Maps | STV","players":null},{"server_id":308,"name":"Uncletopia | Frankfurt | 3 | All Maps","name_short":"frk-3","host":"frk-1.de.uncletopia.com","port":27035,"enabled":true,"region":"eu","cc":"de","latitude":50.110924,"longitude":8.682127,"reserved":0,"last_update":"0001-01-01T00:00:00Z","name_a2s":"Uncletopia | Frankfurt | 3 | All Maps","protocol":17,"map":"cp_snakewater_final1","folder":"tf","game":"Team Fortress","app_id":440,"player_count":2,"max_players":24,"Bots":0,"server_type":"Dedicated","server_os":"Linux","password":true,"vac":true,"version":"7757534","steam_id":85568392924504274,"keywords":["cp","nocrits","nodmgspread","uncletopia"],"game_id":440,"stv_port":27036,"stv_name":"Uncletopia | Frankfurt | 3 | All Maps | STV","players":[{"user_id":20,"name":"turntechCathead","steam_id":76561198351249088,"connected_time":3836000000000,"state":"active","ping":93},{"user_id":21,"name":"ros","steam_id":76561198859332989,"connected_time":3678000000000,"state":"active","ping":154}]},{"server_id":309,"name":"Uncletopia | Frankfurt | 4 | All Maps","name_short":"frk-4","host":"frk-1.de.uncletopia.com","port":27045,"enabled":true,"region":"eu","cc":"de","latitude":50.110924,"longitude":8.682127,"reserved":0,"last_update":"0001-01-01T00:00:00Z","name_a2s":"Uncletopia | Frankfurt | 4 | All Maps","protocol":17,"map":"pl_badwater","folder":"tf","game":"Team Fortress","app_id":440,"player_count":24,"max_players":24,"Bots":0,"server_type":"Dedicated","server_os":"Linux","password":true,"vac":true,"version":"7757534","steam_id":85568392924504275,"keywords":["nocrits","nodmgspread","payload","uncletopia"],"game_id":440,"stv_port":27046,"stv_name":"Uncletopia | Frankfurt | 4 | All Maps | STV","players":[{"user_id":249,"name":"MAKENTAKEN","steam_id":76561199127359587,"connected_time":1313000000000,"state":"active","ping":92},{"user_id":259,"name":"ToTenLis","steam_id":76561198168581334,"connected_time":961000000000,"state":"active","ping":89},{"user_id":233,"name":"_Starlight_","steam_id":76561197993885738,"connected_time":2311000000000,"state":"active","ping":71},{"user_id":244,"name":"sv_opor 13123","steam_id":76561198002229612,"connected_time":1768000000000,"state":"active","ping":72},{"user_id":224,"name":"frosty","steam_id":76561198094560834,"connected_time":3080000000000,"state":"active","ping":64},{"user_id":253,"name":"pspkacper141","steam_id":76561198276161359,"connected_time":1151000000000,"state":"active","ping":64},{"user_id":238,"name":"Doctor Glizzy","steam_id":76561198315474018,"connected_time":2149000000000,"state":"active","ping":77},{"user_id":239,"name":"gagalak","steam_id":76561198089979108,"connected_time":2064000000000,"state":"active","ping":88},{"user_id":254,"name":"Ooze","steam_id":76561198039642637,"connected_time":1145000000000,"state":"active","ping":74},{"user_id":247,"name":"LightBulbGlue #SaveTF2","steam_id":76561198329573529,"connected_time":1617000000000,"state":"active","ping":169},{"user_id":258,"name":"nynon","steam_id":76561197998432126,"connected_time":1096000000000,"state":"active","ping":85},{"user_id":261,"name":"Sandvich","steam_id":76561199079493666,"connected_time":474000000000,"state":"active","ping":96},{"user_id":255,"name":"Dag!","steam_id":76561198030147941,"connected_time":1133000000000,"state":"active","ping":64},{"user_id":260,"name":"Barbiehunter #SaveTF2","steam_id":76561198071630928,"connected_time":912000000000,"state":"active","ping":54},{"user_id":214,"name":"ManuL #SaveTF2","steam_id":76561198862759538,"connected_time":3654000000000,"state":"active","ping":60},{"user_id":177,"name":"Dictatorial Karelian","steam_id":76561198196736457,"connected_time":5618000000000,"state":"active","ping":74},{"user_id":248,"name":"Zune","steam_id":76561198119382708,"connected_time":1480000000000,"state":"active","ping":96},{"user_id":262,"name":"Giggen","steam_id":76561198070986689,"connected_time":376000000000,"state":"active","ping":45},{"user_id":181,"name":"Typs","steam_id":76561198011748555,"connected_time":5433000000000,"state":"active","ping":49},{"user_id":211,"name":"homeinvasion$","steam_id":76561199111905021,"connected_time":3777000000000,"state":"active","ping":128},{"user_id":256,"name":"ldshwt","steam_id":76561198090364357,"connected_time":1123000000000,"state":"active","ping":59},{"user_id":219,"name":"maci","steam_id":76561198029150178,"connected_time":3488000000000,"state":"active","ping":61},{"user_id":220,"name":"rwota","steam_id":76561198385769722,"connected_time":3467000000000,"state":"active","ping":102},{"user_id":250,"name":"Niki","steam_id":76561198028601798,"connected_time":1231000000000,"state":"active","ping":66}]},{"server_id":310,"name":"Uncletopia | Frankfurt | 5 | All Maps","name_short":"frk-5","host":"frk-1.de.uncletopia.com","port":27055,"enabled":true,"region":"eu","cc":"de","latitude":50.110924,"longitude":8.682127,"reserved":0,"last_update":"0001-01-01T00:00:00Z","name_a2s":"Uncletopia | Frankfurt | 5 | All Maps","protocol":17,"map":"koth_lakeside_final","folder":"tf","game":"Team Fortress","app_id":440,"player_count":0,"max_players":24,"Bots":0,"server_type":"Dedicated","server_os":"Linux","password":true,"vac":true,"version":"7757534","steam_id":85568392924504277,"keywords":["cp","nocrits","nodmgspread","uncletopia"],"game_id":440,"stv_port":27056,"stv_name":"Uncletopia | Frankfurt | 5 | All Maps | STV","players":null},{"server_id":311,"name":"Uncletopia | Frankfurt | 6 | All Maps","name_short":"frk-6","host":"frk-1.de.uncletopia.com","port":27065,"enabled":true,"region":"eu","cc":"de","latitude":50.110924,"longitude":8.682127,"reserved":0,"last_update":"0001-01-01T00:00:00Z","name_a2s":"Uncletopia | Frankfurt | 6 | All Maps","protocol":17,"map":"koth_lakeside_final","folder":"tf","game":"Team Fortress","app_id":440,"player_count":0,"max_players":24,"Bots":0,"server_type":"Dedicated","server_os":"Linux","password":true,"vac":true,"version":"7757534","steam_id":85568392924504278,"keywords":["cp","nocrits","nodmgspread","uncletopia"],"game_id":440,"stv_port":27066,"stv_name":"Uncletopia | Frankfurt | 6 | All Maps | STV","players":null},{"server_id":23,"name":"Uncletopia | Frankfurt | 7 | Stopwatch Beta","name_short":"frk-7","host":"frk-1.de.uncletopia.com","port":27075,"enabled":true,"region":"eu","cc":"de","latitude":50.110924,"longitude":8.682127,"reserved":0,"last_update":"0001-01-01T00:00:00Z","name_a2s":"Uncletopia | Frankfurt | 7 | Stopwatch Beta","protocol":17,"map":"koth_highpass","folder":"tf","game":"Team Fortress","app_id":440,"player_count":0,"max_players":24,"Bots":0,"server_type":"Dedicated","server_os":"Linux","password":true,"vac":true,"version":"7757534","steam_id":85568392924742827,"keywords":["cp","nocrits","nodmgspread","uncletopia"],"game_id":440,"stv_port":27076,"stv_name":"Uncletopia | Frankfurt | 7 | Stopwatch Beta | STV","players":null},{"server_id":24,"name":"Uncletopia | Frankfurt | 8 | Community","name_short":"frk-8","host":"frk-1.de.uncletopia.com","port":27085,"enabled":true,"region":"eu","cc":"de","latitude":50.110924,"longitude":8.682127,"reserved":0,"last_update":"0001-01-01T00:00:00Z","name_a2s":"Uncletopia | Frankfurt | 8 | Community","protocol":17,"map":"workshop/cp_croissant_final.ugc458840209","folder":"tf","game":"Team Fortress","app_id":440,"player_count":24,"max_players":24,"Bots":0,"server_type":"Dedicated","server_os":"Linux","password":true,"vac":true,"version":"7757534","steam_id":85568392924742828,"keywords":["cp","nocrits","nodmgspread","uncletopia"],"game_id":440,"stv_port":27086,"stv_name":"Uncletopia | Frankfurt | 8 | Community | STV","players":[{"user_id":48,"name":"Dor_atar","steam_id":76561198973980542,"connected_time":3035000000000,"state":"active","ping":69},{"user_id":70,"name":"Operunter","steam_id":76561198059937616,"connected_time":1065000000000,"state":"active","ping":75},{"user_id":71,"name":"Papperskorg","steam_id":76561197963615539,"connected_time":1051000000000,"state":"active","ping":42},{"user_id":50,"name":"Dzan50","steam_id":76561198059758591,"connected_time":2557000000000,"state":"active","ping":83},{"user_id":84,"name":"gamer","steam_id":76561198209101861,"connected_time":348000000000,"state":"active","ping":71},{"user_id":87,"name":"Ineluctable Sex Predator","steam_id":76561197995971061,"connected_time":195000000000,"state":"active","ping":91},{"user_id":89,"name":"Iceeagle","steam_id":76561198056328858,"connected_time":161000000000,"state":"active","ping":60},{"user_id":51,"name":"isterkvarn","steam_id":76561198080064844,"connected_time":2514000000000,"state":"active","ping":67},{"user_id":68,"name":"Krabs","steam_id":76561198161679477,"connected_time":1385000000000,"state":"active","ping":61},{"user_id":73,"name":"TinkyWinky","steam_id":76561197989926561,"connected_time":908000000000,"state":"active","ping":60},{"user_id":61,"name":"torn","steam_id":76561198223003236,"connected_time":1956000000000,"state":"active","ping":46},{"user_id":74,"name":"Terrans","steam_id":76561198307559896,"connected_time":878000000000,"state":"active","ping":63},{"user_id":53,"name":"BobTheBox","steam_id":76561198080894136,"connected_time":2491000000000,"state":"active","ping":145},{"user_id":55,"name":"rabbitface26","steam_id":76561198327540113,"connected_time":2198000000000,"state":"active","ping":57},{"user_id":90,"name":"Bobunny McGlitter","steam_id":76561198057403817,"connected_time":151000000000,"state":"active","ping":73},{"user_id":75,"name":"Guaguing","steam_id":76561198068961508,"connected_time":876000000000,"state":"active","ping":62},{"user_id":58,"name":"waffle toaster","steam_id":76561198799089628,"connected_time":2106000000000,"state":"active","ping":59},{"user_id":86,"name":"edsuedi","steam_id":76561198074722832,"connected_time":291000000000,"state":"active","ping":49},{"user_id":91,"name":"Ember (she/her) Nya","steam_id":76561199403820517,"connected_time":80000000000,"state":"active","ping":71},{"user_id":92,"name":"Mental","steam_id":76561198057117092,"connected_time":73000000000,"state":"active","ping":57},{"user_id":76,"name":"ele","steam_id":76561198194876459,"connected_time":792000000000,"state":"active","ping":72},{"user_id":77,"name":"Sketchthekiller91","steam_id":76561197972578692,"connected_time":687000000000,"state":"active","ping":55},{"user_id":93,"name":"Arti","steam_id":76561197983352845,"connected_time":41000000000,"state":"active","ping":68},{"user_id":94,"name":"Scaly","steam_id":76561198321748417,"connected_time":41000000000,"state":"active","ping":79}]},{"server_id":202,"name":"Uncletopia | Hong Kong | 1 | All Maps","name_short":"hgk-1","host":"hgk-1.hk.uncletopia.com","port":27015,"enabled":true,"region":"asia","cc":"hk","latitude":22.302711,"longitude":114.177216,"reserved":0,"last_update":"0001-01-01T00:00:00Z","name_a2s":"Uncletopia | Hong Kong | 1 | All Maps","protocol":17,"map":"pl_frontier_final","folder":"tf","game":"Team Fortress","app_id":440,"player_count":0,"max_players":24,"Bots":0,"server_type":"Dedicated","server_os":"Linux","password":true,"vac":true,"version":"7757534","steam_id":85568392924494504,"keywords":["nocrits","nodmgspread","payload","uncletopia"],"game_id":440,"stv_port":27016,"stv_name":"Uncletopia | Hong Kong | 1 | All Maps | STV","players":null},{"server_id":1,"name":"Uncletopia | Los Angeles | 1 | All Maps","name_short":"lax-1","host":"lax-1.us.uncletopia.com","port":27015,"enabled":true,"region":"us-west","cc":"us","latitude":33.94279,"longitude":-118.41004,"reserved":0,"last_update":"0001-01-01T00:00:00Z","name_a2s":"Uncletopia | Los Angeles | 1 | All Maps","protocol":17,"map":"koth_lakeside_final","folder":"tf","game":"Team Fortress","app_id":440,"player_count":0,"max_players":24,"Bots":0,"server_type":"Dedicated","server_os":"Linux","password":true,"vac":true,"version":"7757534","steam_id":85568392924469991,"keywords":["cp","nocrits","nodmgspread","uncletopia"],"game_id":440,"stv_port":27016,"stv_name":"Uncletopia | Los Angeles | 1 | All Maps | STV","players":null},{"server_id":112,"name":"Uncletopia | Los Angeles | 2 | All Maps","name_short":"lax-2","host":"lax-1.us.uncletopia.com","port":27025,"enabled":true,"region":"us-west","cc":"us","latitude":33.94279,"longitude":-118.41004,"reserved":0,"last_update":"0001-01-01T00:00:00Z","name_a2s":"Uncletopia | Los Angeles | 2 | All Maps","protocol":17,"map":"pl_swiftwater_final1","folder":"tf","game":"Team Fortress","app_id":440,"player_count":0,"max_players":24,"Bots":0,"server_type":"Dedicated","server_os":"Linux","password":true,"vac":true,"version":"7757534","steam_id":85568392924469992,"keywords":["nocrits","nodmgspread","payload","uncletopia"],"game_id":440,"stv_port":27026,"stv_name":"Uncletopia | Los Angeles | 2 | All Maps | STV","players":null},{"server_id":324,"name":"Uncletopia | Los Angeles | 3 | All Maps","name_short":"lax-3","host":"lax-1.us.uncletopia.com","port":27035,"enabled":true,"region":"us-west","cc":"us","latitude":33.94279,"longitude":-118.41004,"reserved":0,"last_update":"0001-01-01T00:00:00Z","name_a2s":"Uncletopia | Los Angeles | 3 | All Maps","protocol":17,"map":"koth_cascade","folder":"tf","game":"Team Fortress","app_id":440,"player_count":0,"max_players":24,"Bots":0,"server_type":"Dedicated","server_os":"Linux","password":true,"vac":true,"version":"7757534","steam_id":85568392924510198,"keywords":["cp","nocrits","nodmgspread","uncletopia"],"game_id":440,"stv_port":27036,"stv_name":"Uncletopia | Los Angeles | 3 | All Maps | STV","players":null},{"server_id":25,"name":"Uncletopia | Los Angeles | 4 | Stopwatch Beta","name_short":"lax-4","host":"lax-1.us.uncletopia.com","port":27045,"enabled":true,"region":"us-west","cc":"us","latitude":33.94279,"longitude":-118.41004,"reserved":0,"last_update":"0001-01-01T00:00:00Z","name_a2s":"Uncletopia | Los Angeles | 4 | Stopwatch Beta","protocol":17,"map":"pl_swiftwater_final1","folder":"tf","game":"Team Fortress","app_id":440,"player_count":0,"max_players":24,"Bots":0,"server_type":"Dedicated","server_os":"Linux","password":true,"vac":true,"version":"7757534","steam_id":85568392924510199,"keywords":["nocrits","nodmgspread","payload","uncletopia"],"game_id":440,"stv_port":27046,"stv_name":"Uncletopia | Los Angeles | 4 | Stopwatch Beta | STV","players":null},{"server_id":11,"name":"Uncletopia | London | 1 | All Maps","name_short":"lon-1","host":"lon-1.uk.uncletopia.com","port":27015,"enabled":true,"region":"eu","cc":"gb","latitude":51.509865,"longitude":-0.118092,"reserved":0,"last_update":"0001-01-01T00:00:00Z","name_a2s":"Uncletopia | London | 1 | All Maps","protocol":17,"map":"pl_snowycoast","folder":"tf","game":"Team Fortress","app_id":440,"player_count":23,"max_players":24,"Bots":0,"server_type":"Dedicated","server_os":"Linux","password":true,"vac":true,"version":"7757534","steam_id":85568392924367362,"keywords":["nocrits","nodmgspread","payload","uncletopia"],"game_id":440,"stv_port":27016,"stv_name":"Uncletopia | London | 1 | All Maps | STV","players":[{"user_id":704,"name":"wave","steam_id":76561198014688238,"connected_time":64000000000,"state":"active","ping":51},{"user_id":690,"name":"nedilya","steam_id":76561198039692077,"connected_time":1910000000000,"state":"active","ping":60},{"user_id":663,"name":"mike\"3loavesofbread\"jones","steam_id":76561198064342804,"connected_time":4363000000000,"state":"active","ping":93},{"user_id":683,"name":"Kretur","steam_id":76561198161086266,"connected_time":2589000000000,"state":"active","ping":98},{"user_id":689,"name":"CarBombEnthusiast","steam_id":76561199448185434,"connected_time":1917000000000,"state":"active","ping":68},{"user_id":673,"name":"Hookiest Owler","steam_id":76561198872013525,"connected_time":3040000000000,"state":"active","ping":103},{"user_id":701,"name":"SirToast","steam_id":76561199229729107,"connected_time":1175000000000,"state":"active","ping":76},{"user_id":643,"name":"rented","steam_id":76561198302716983,"connected_time":5731000000000,"state":"active","ping":54},{"user_id":706,"name":"Salty_shark","steam_id":76561198300798280,"connected_time":29000000000,"state":"active","ping":146},{"user_id":665,"name":"Baki ‡∂û","steam_id":76561198193615529,"connected_time":4299000000000,"state":"active","ping":61},{"user_id":656,"name":"flora","steam_id":76561197994492154,"connected_time":5140000000000,"state":"active","ping":75},{"user_id":705,"name":"Joe","steam_id":76561198061717026,"connected_time":60000000000,"state":"active","ping":39},{"user_id":700,"name":"Robbie","steam_id":76561198017504503,"connected_time":1515000000000,"state":"active","ping":50},{"user_id":685,"name":"Ampiong99","steam_id":76561199245197481,"connected_time":1958000000000,"state":"active","ping":46},{"user_id":703,"name":"Phil","steam_id":76561198056877069,"connected_time":77000000000,"state":"active","ping":55},{"user_id":635,"name":"shooer","steam_id":76561198110531281,"connected_time":6560000000000,"state":"active","ping":76},{"user_id":692,"name":"yiabayrak","steam_id":76561198241873438,"connected_time":1892000000000,"state":"active","ping":90},{"user_id":707,"name":"Hildreth","steam_id":76561197995254867,"connected_time":20000000000,"state":"active","ping":46},{"user_id":708,"name":"Lyell","steam_id":76561198350329389,"connected_time":5000000000,"state":"spawning","ping":91},{"user_id":709,"name":"Samplee","steam_id":76561198063406140,"connected_time":1000000000,"state":"spawning","ping":61},{"user_id":680,"name":"Subterranean","steam_id":76561198106684566,"connected_time":2740000000000,"state":"active","ping":77},{"user_id":666,"name":"dec","steam_id":76561198009660168,"connected_time":4093000000000,"state":"active","ping":45},{"user_id":697,"name":"ant753","steam_id":76561198103458889,"connected_time":1827000000000,"state":"active","ping":60}]},{"server_id":114,"name":"Uncletopia | London | 2 | All Maps","name_short":"lon-2","host":"lon-1.uk.uncletopia.com","port":27025,"enabled":true,"region":"eu","cc":"gb","latitude":51.509865,"longitude":-0.118092,"reserved":0,"last_update":"0001-01-01T00:00:00Z","name_a2s":"Uncletopia | London | 2 | All Maps","protocol":17,"map":"pl_pier","folder":"tf","game":"Team Fortress","app_id":440,"player_count":24,"max_players":24,"Bots":0,"server_type":"Dedicated","server_os":"Linux","password":true,"vac":true,"version":"7757534","steam_id":85568392924470941,"keywords":["nocrits","nodmgspread","payload","uncletopia"],"game_id":440,"stv_port":27026,"stv_name":"Uncletopia | London | 2 | All Maps | STV","players":[{"user_id":628,"name":"the_Qcumber","steam_id":76561199152515819,"connected_time":1141000000000,"state":"active","ping":76},{"user_id":647,"name":"BurritoCake_","steam_id":76561198124018697,"connected_time":455000000000,"state":"active","ping":101},{"user_id":630,"name":"‚ù§ shrimpee‚ù§ | [she/they]","steam_id":76561198303128670,"connected_time":993000000000,"state":"active","ping":43},{"user_id":648,"name":"Vv","steam_id":76561199052196750,"connected_time":420000000000,"state":"active","ping":156},{"user_id":632,"name":"Ing","steam_id":76561198389212543,"connected_time":947000000000,"state":"active","ping":86},{"user_id":461,"name":"Grumtsior","steam_id":76561198043563111,"connected_time":7160000000000,"state":"active","ping":75},{"user_id":633,"name":"Ozy","steam_id":76561198257359584,"connected_time":918000000000,"state":"active","ping":59},{"user_id":634,"name":"‚ú™ qua ‚ú™","steam_id":76561198066408333,"connected_time":870000000000,"state":"active","ping":75},{"user_id":613,"name":"heavy sings (real)","steam_id":76561199023804405,"connected_time":2289000000000,"state":"active","ping":76},{"user_id":635,"name":"Nifi","steam_id":76561198102682566,"connected_time":863000000000,"state":"active","ping":75},{"user_id":639,"name":"PLcrusader","steam_id":76561198365768626,"connected_time":719000000000,"state":"active","ping":46},{"user_id":646,"name":"Edla","steam_id":76561198062815315,"connected_time":468000000000,"state":"active","ping":106},{"user_id":642,"name":"Pills","steam_id":76561198163561677,"connected_time":569000000000,"state":"active","ping":59},{"user_id":623,"name":"breedable","steam_id":76561198010300032,"connected_time":1526000000000,"state":"active","ping":75},{"user_id":608,"name":"P Diddy","steam_id":76561198829344838,"connected_time":2488000000000,"state":"active","ping":38},{"user_id":638,"name":"Evil weed wizard","steam_id":76561198076137526,"connected_time":802000000000,"state":"active","ping":49},{"user_id":460,"name":"‚ú™ m_br3","steam_id":76561198044981990,"connected_time":7181000000000,"state":"active","ping":75},{"user_id":643,"name":"bowchika wowa #SlavaUkraine","steam_id":76561198159564550,"connected_time":555000000000,"state":"active","ping":71},{"user_id":649,"name":"Jnyu","steam_id":76561198070532575,"connected_time":306000000000,"state":"active","ping":80},{"user_id":520,"name":"degu","steam_id":76561198180823942,"connected_time":5783000000000,"state":"active","ping":89},{"user_id":579,"name":"Extra-Crispy","steam_id":76561198871762093,"connected_time":3488000000000,"state":"active","ping":55},{"user_id":651,"name":"Blud walked 0 miles üò≠üò≠\ufffd\ufffd\ufffd","steam_id":76561199285074344,"connected_time":134000000000,"state":"active","ping":135},{"user_id":627,"name":"Jabussy","steam_id":76561198111148719,"connected_time":1300000000000,"state":"active","ping":71},{"user_id":652,"name":"Renard pos4","steam_id":76561197998908594,"connected_time":115000000000,"state":"active","ping":59}]},{"server_id":320,"name":"Uncletopia | London | 3 | All Maps","name_short":"lon-3","host":"lon-1.uk.uncletopia.com","port":27035,"enabled":true,"region":"eu","cc":"gb","latitude":51.509865,"longitude":-0.118092,"reserved":0,"last_update":"0001-01-01T00:00:00Z","name_a2s":"Uncletopia | London | 3 | All Maps","protocol":17,"map":"pl_frontier_final","folder":"tf","game":"Team Fortress","app_id":440,"player_count":24,"max_players":24,"Bots":0,"server_type":"Dedicated","server_os":"Linux","password":true,"vac":true,"version":"7757534","steam_id":85568392924510192,"keywords":["nocrits","nodmgspread","payload","uncletopia"],"game_id":440,"stv_port":27036,"stv_name":"Uncletopia | London | 3 | All Maps | STV","players":[{"user_id":387,"name":"D_Ink","steam_id":76561198267716662,"connected_time":995000000000,"state":"active","ping":34},{"user_id":378,"name":"Zulutron1800","steam_id":76561199169607968,"connected_time":1770000000000,"state":"active","ping":52},{"user_id":388,"name":"Corutax","steam_id":76561198868549543,"connected_time":978000000000,"state":"active","ping":128},{"user_id":345,"name":"Captain HandicappedCock","steam_id":76561198109850402,"connected_time":3428000000000,"state":"active","ping":71},{"user_id":353,"name":"Space Rimmer","steam_id":76561198069243201,"connected_time":3325000000000,"state":"active","ping":47},{"user_id":397,"name":"Rammtrait","steam_id":76561198016436610,"connected_time":133000000000,"state":"active","ping":81},{"user_id":389,"name":"Woa","steam_id":76561198345683201,"connected_time":916000000000,"state":"active","ping":97},{"user_id":344,"name":"Majima Gaming HD","steam_id":76561198365750503,"connected_time":3716000000000,"state":"active","ping":39},{"user_id":390,"name":"Sagger","steam_id":76561198065915748,"connected_time":850000000000,"state":"active","ping":53},{"user_id":371,"name":"Acey","steam_id":76561198114457284,"connected_time":2566000000000,"state":"active","ping":74},{"user_id":379,"name":"Lukas","steam_id":76561198009118452,"connected_time":1554000000000,"state":"active","ping":67},{"user_id":341,"name":"kektuse","steam_id":76561198088426580,"connected_time":3788000000000,"state":"active","ping":75},{"user_id":381,"name":"Mistress of the universe","steam_id":76561198115988477,"connected_time":1325000000000,"state":"active","ping":71},{"user_id":375,"name":"Seaney","steam_id":76561198059138839,"connected_time":1859000000000,"state":"active","ping":58},{"user_id":394,"name":"Gerald","steam_id":76561198400746168,"connected_time":470000000000,"state":"active","ping":89},{"user_id":367,"name":"MedicMania","steam_id":76561199013190566,"connected_time":2862000000000,"state":"active","ping":47},{"user_id":391,"name":"Illegally Legal","steam_id":76561198982674420,"connected_time":820000000000,"state":"active","ping":43},{"user_id":385,"name":"Sparky","steam_id":76561198036754195,"connected_time":1051000000000,"state":"active","ping":47},{"user_id":337,"name":"rz-/Atomic Punch","steam_id":76561199195508541,"connected_time":3864000000000,"state":"active","ping":72},{"user_id":386,"name":"ruskie (fake)","steam_id":76561199106215999,"connected_time":1037000000000,"state":"active","ping":127},{"user_id":395,"name":"Crylec","steam_id":76561198092755279,"connected_time":401000000000,"state":"active","ping":119},{"user_id":370,"name":"$n√òw","steam_id":76561198238781028,"connected_time":2844000000000,"state":"active","ping":104},{"user_id":358,"name":"FoOzTV","steam_id":76561197998636728,"connected_time":3183000000000,"state":"active","ping":71},{"user_id":396,"name":"i stomp with my boots","steam_id":76561199474154775,"connected_time":388000000000,"state":"active","ping":59}]},{"server_id":321,"name":"Uncletopia | London | 4 | All Maps","name_short":"lon-4","host":"lon-1.uk.uncletopia.com","port":27045,"enabled":true,"region":"eu","cc":"gb","latitude":51.509865,"longitude":-0.118092,"reserved":0,"last_update":"0001-01-01T00:00:00Z","name_a2s":"Uncletopia | London | 4 | All Maps","protocol":17,"map":"pl_badwater","folder":"tf","game":"Team Fortress","app_id":440,"player_count":24,"max_players":24,"Bots":0,"server_type":"Dedicated","server_os":"Linux","password":true,"vac":true,"version":"7757534","steam_id":85568392924510193,"keywords":["nocrits","nodmgspread","payload","uncletopia"],"game_id":440,"stv_port":27046,"stv_name":"Uncletopia | London | 4 | All Maps | STV","players":[{"user_id":368,"name":"Thalash","steam_id":76561198064052251,"connected_time":1038000000000,"state":"active","ping":59},{"user_id":340,"name":"I have a dream... mrNiceguy","steam_id":76561198053176402,"connected_time":2592000000000,"state":"active","ping":86},{"user_id":357,"name":"Engi-Nearing","steam_id":76561199221172552,"connected_time":1438000000000,"state":"active","ping":57},{"user_id":372,"name":"‚òú(Ôæü„ÉÆÔæü‚òú) fribs","steam_id":76561198000461999,"connected_time":801000000000,"state":"active","ping":59},{"user_id":339,"name":"AJsurfer","steam_id":76561198897045252,"connected_time":2652000000000,"state":"active","ping":124},{"user_id":341,"name":"Molly","steam_id":76561198327905969,"connected_time":2486000000000,"state":"active","ping":42},{"user_id":354,"name":"Tyra","steam_id":76561198043739064,"connected_time":2093000000000,"state":"active","ping":60},{"user_id":342,"name":"TayTay","steam_id":76561198115819111,"connected_time":2472000000000,"state":"active","ping":129},{"user_id":373,"name":"jun0","steam_id":76561197984763237,"connected_time":733000000000,"state":"active","ping":44},{"user_id":344,"name":"Meatballgirl","steam_id":76561198049902502,"connected_time":2451000000000,"state":"active","ping":130},{"user_id":374,"name":"Knapka","steam_id":76561198090422767,"connected_time":705000000000,"state":"active","ping":62},{"user_id":377,"name":"Butt Hurling","steam_id":76561198093229786,"connected_time":378000000000,"state":"active","ping":81},{"user_id":363,"name":"samscodeco","steam_id":76561198143598076,"connected_time":1265000000000,"state":"active","ping":46},{"user_id":365,"name":"B ull","steam_id":76561199233979726,"connected_time":1220000000000,"state":"active","ping":85},{"user_id":314,"name":"arcSolver","steam_id":76561198212013944,"connected_time":4252000000000,"state":"active","ping":52},{"user_id":376,"name":"MINORITY REPORT","steam_id":76561198059635136,"connected_time":579000000000,"state":"active","ping":58},{"user_id":293,"name":"MagicA","steam_id":76561198454494204,"connected_time":6400000000000,"state":"active","ping":65},{"user_id":366,"name":"Tilty üë•","steam_id":76561198141834089,"connected_time":1159000000000,"state":"active","ping":56},{"user_id":317,"name":"Aregularhuman","steam_id":76561198343319848,"connected_time":4169000000000,"state":"active","ping":49},{"user_id":348,"name":"Senior","steam_id":76561198065014164,"connected_time":2330000000000,"state":"active","ping":54},{"user_id":369,"name":"marmiteontoast","steam_id":76561198373670299,"connected_time":1011000000000,"state":"active","ping":47},{"user_id":355,"name":"Tort","steam_id":76561198329646769,"connected_time":1991000000000,"state":"active","ping":56},{"user_id":280,"name":"Mind Fuzz","steam_id":76561199443547191,"connected_time":7947000000000,"state":"active","ping":64},{"user_id":275,"name":"Concorde","steam_id":76561199141714627,"connected_time":8034000000000,"state":"active","ping":69}]},{"server_id":21,"name":"Uncletopia | London | 5 | All Maps","name_short":"lon-5","host":"lon-1.uk.uncletopia.com","port":27055,"enabled":true,"region":"eu","cc":"gb","latitude":51.509865,"longitude":-0.118092,"reserved":0,"last_update":"0001-01-01T00:00:00Z","name_a2s":"Uncletopia | London | 5 | All Maps","protocol":17,"map":"cp_metalworks","folder":"tf","game":"Team Fortress","app_id":440,"player_count":24,"max_players":24,"Bots":0,"server_type":"Dedicated","server_os":"Linux","password":true,"vac":true,"version":"7757534","steam_id":85568392924742829,"keywords":["cp","nocrits","nodmgspread","uncletopia"],"game_id":440,"stv_port":27056,"stv_name":"Uncletopia | London | 5 | All Maps | STV","players":[{"user_id":114,"name":"Endi","steam_id":76561198914938199,"connected_time":4709000000000,"state":"active","ping":100},{"user_id":147,"name":"X-tis","steam_id":76561198043837480,"connected_time":1926000000000,"state":"active","ping":61},{"user_id":151,"name":"œÉsiris","steam_id":76561198050791602,"connected_time":1273000000000,"state":"active","ping":57},{"user_id":129,"name":"‚ô• Aura ‚òÖ","steam_id":76561198066258544,"connected_time":3583000000000,"state":"active","ping":68},{"user_id":165,"name":"froufrou","steam_id":76561198129110010,"connected_time":103000000000,"state":"active","ping":85},{"user_id":166,"name":"Big Benn","steam_id":76561199024168373,"connected_time":88000000000,"state":"active","ping":94},{"user_id":135,"name":"Jonathan","steam_id":76561198087988880,"connected_time":3293000000000,"state":"active","ping":59},{"user_id":17,"name":"Balls","steam_id":76561198086400484,"connected_time":10648000000000,"state":"active","ping":73},{"user_id":153,"name":"Nithle","steam_id":76561198025372740,"connected_time":864000000000,"state":"active","ping":30},{"user_id":154,"name":"Firiak","steam_id":76561198050216930,"connected_time":826000000000,"state":"active","ping":56},{"user_id":163,"name":"n174","steam_id":76561199465285458,"connected_time":156000000000,"state":"active","ping":60},{"user_id":131,"name":"Fat Pigeon","steam_id":76561198817940142,"connected_time":3485000000000,"state":"active","ping":45},{"user_id":156,"name":"darke","steam_id":76561198211553036,"connected_time":664000000000,"state":"active","ping":99},{"user_id":121,"name":"Udinese Dion","steam_id":76561198067931573,"connected_time":4215000000000,"state":"active","ping":61},{"user_id":139,"name":"Mor'du","steam_id":76561198274105878,"connected_time":3172000000000,"state":"active","ping":96},{"user_id":161,"name":"–°—Ç–†–∞–®–Ω–û–µ –î–ï—Ä–ï–≤","steam_id":76561198271350885,"connected_time":498000000000,"state":"active","ping":88},{"user_id":140,"name":"FeminineAtom [LOS]","steam_id":76561198311208470,"connected_time":3132000000000,"state":"active","ping":50},{"user_id":143,"name":"Blob","steam_id":76561197971418993,"connected_time":2289000000000,"state":"active","ping":94},{"user_id":162,"name":"Lukullu","steam_id":76561198269414258,"connected_time":460000000000,"state":"active","ping":84},{"user_id":167,"name":"KLAMA  ‚ù§","steam_id":76561198351549661,"connected_time":68000000000,"state":"active","ping":76},{"user_id":112,"name":"Sgreff","steam_id":76561198036304365,"connected_time":5053000000000,"state":"active","ping":44},{"user_id":150,"name":"Egor Pomidor","steam_id":76561199175688390,"connected_time":1594000000000,"state":"active","ping":89},{"user_id":160,"name":"mesoni","steam_id":76561199141290973,"connected_time":532000000000,"state":"active","ping":91},{"user_id":159,"name":"Sinny","steam_id":76561197999598422,"connected_time":618000000000,"state":"active","ping":82}]},{"server_id":22,"name":"Uncletopia | London | 6 | All Maps","name_short":"lon-6","host":"lon-1.uk.uncletopia.com","port":27065,"enabled":true,"region":"eu","cc":"gb","latitude":51.509865,"longitude":-0.118092,"reserved":0,"last_update":"0001-01-01T00:00:00Z","name_a2s":"Uncletopia | London | 6 | All Maps","protocol":17,"map":"cp_junction_final","folder":"tf","game":"Team Fortress","app_id":440,"player_count":22,"max_players":24,"Bots":0,"server_type":"Dedicated","server_os":"Linux","password":true,"vac":true,"version":"7757534","steam_id":85568392924742830,"keywords":["cp","nocrits","nodmgspread","uncletopia"],"game_id":440,"stv_port":27066,"stv_name":"Uncletopia | London | 6 | All Maps | STV","players":[{"user_id":469,"name":"GogsCrunchyNuts","steam_id":76561198150599213,"connected_time":3892000000000,"state":"active","ping":99},{"user_id":484,"name":"Welder","steam_id":76561198355300561,"connected_time":2907000000000,"state":"active","ping":72},{"user_id":493,"name":"SirSangoor","steam_id":76561198044462559,"connected_time":1781000000000,"state":"active","ping":118},{"user_id":513,"name":"Jeeworth","steam_id":76561198797972504,"connected_time":286000000000,"state":"active","ping":73},{"user_id":490,"name":"Fifourche","steam_id":76561198078209480,"connected_time":1905000000000,"state":"active","ping":59},{"user_id":509,"name":"Swift","steam_id":76561197998799889,"connected_time":558000000000,"state":"active","ping":45},{"user_id":520,"name":"Mr Weatherman","steam_id":76561198435297875,"connected_time":134000000000,"state":"active","ping":48},{"user_id":488,"name":"Rolloden","steam_id":76561198069414404,"connected_time":2484000000000,"state":"active","ping":70},{"user_id":512,"name":"Davey","steam_id":76561198256879107,"connected_time":326000000000,"state":"active","ping":74},{"user_id":409,"name":"Zerfesh","steam_id":76561198117534358,"connected_time":7684000000000,"state":"active","ping":102},{"user_id":515,"name":"Burpman","steam_id":76561198022897937,"connected_time":249000000000,"state":"active","ping":52},{"user_id":495,"name":"‚ù§ milkkore","steam_id":76561198019165469,"connected_time":1761000000000,"state":"active","ping":63},{"user_id":516,"name":"DjinnKinn","steam_id":76561198029913860,"connected_time":246000000000,"state":"active","ping":65},{"user_id":496,"name":"Ginger Jesus","steam_id":76561198052386458,"connected_time":1755000000000,"state":"active","ping":109},{"user_id":502,"name":"Tea","steam_id":76561198799243030,"connected_time":1555000000000,"state":"active","ping":57},{"user_id":497,"name":"BetrayedBanana","steam_id":76561198053470223,"connected_time":1738000000000,"state":"active","ping":45},{"user_id":507,"name":"Laurie","steam_id":76561198082951750,"connected_time":881000000000,"state":"active","ping":50},{"user_id":517,"name":"Mango-Man","steam_id":76561198840558687,"connected_time":234000000000,"state":"active","ping":69},{"user_id":518,"name":"Average chronic pain enjoyer","steam_id":76561198059375315,"connected_time":222000000000,"state":"active","ping":70},{"user_id":506,"name":"Dwevy","steam_id":76561198090379437,"connected_time":1052000000000,"state":"active","ping":55},{"user_id":519,"name":"scott steiners strongest warrio","steam_id":76561198148888622,"connected_time":172000000000,"state":"active","ping":57},{"user_id":508,"name":"[Kry]","steam_id":76561198145756066,"connected_time":747000000000,"state":"active","ping":44}]},{"server_id":40,"name":"Uncletopia | London | 7 | No Payload","name_short":"lon-7","host":"lon-1.uk.uncletopia.com","port":27075,"enabled":true,"region":"eu","cc":"gb","latitude":51.509865,"longitude":-0.118092,"reserved":0,"last_update":"0001-01-01T00:00:00Z","name_a2s":"Uncletopia | London | 7 | No Payload","protocol":17,"map":"cp_altitude","folder":"tf","game":"Team Fortress","app_id":440,"player_count":9,"max_players":24,"Bots":0,"server_type":"Dedicated","server_os":"Linux","password":true,"vac":true,"version":"7757534","steam_id":85568392924964314,"keywords":["cp","nocrits","nodmgspread","uncletopia"],"game_id":440,"stv_port":27076,"stv_name":"Uncletopia | London | 7 | No Payload | STV","players":[{"user_id":351,"name":"mewcat","steam_id":76561199087050938,"connected_time":4936000000000,"state":"active","ping":81},{"user_id":374,"name":"NOM","steam_id":76561198062033234,"connected_time":3168000000000,"state":"active","ping":71},{"user_id":401,"name":"JOABOA","steam_id":76561198924895050,"connected_time":1357000000000,"state":"active","ping":54},{"user_id":404,"name":"BeefHammer","steam_id":76561198078426223,"connected_time":522000000000,"state":"active","ping":82},{"user_id":402,"name":"Munibe","steam_id":76561198107967904,"connected_time":1122000000000,"state":"active","ping":63},{"user_id":405,"name":"Thanks babe","steam_id":76561198091969871,"connected_time":351000000000,"state":"active","ping":82},{"user_id":393,"name":"Puck :))","steam_id":76561198378295653,"connected_time":2247000000000,"state":"active","ping":76},{"user_id":326,"name":"Camping Dad","steam_id":76561198240354040,"connected_time":7502000000000,"state":"active","ping":30},{"user_id":391,"name":"me","steam_id":76561198363841749,"connected_time":2328000000000,"state":"active","ping":88}]},{"server_id":41,"name":"Uncletopia | London | 8 | Community","name_short":"lon-8","host":"lon-1.uk.uncletopia.com","port":27085,"enabled":true,"region":"eu","cc":"gb","latitude":51.509865,"longitude":-0.118092,"reserved":0,"last_update":"0001-01-01T00:00:00Z","name_a2s":"Uncletopia | London | 8 | Community","protocol":17,"map":"workshop/koth_ramjam_rc1.ugc459778887","folder":"tf","game":"Team Fortress","app_id":440,"player_count":0,"max_players":24,"Bots":0,"server_type":"Dedicated","server_os":"Linux","password":true,"vac":true,"version":"7757534","steam_id":85568392924964315,"keywords":["cp","nocrits","nodmgspread","uncletopia"],"game_id":440,"stv_port":27086,"stv_name":"Uncletopia | London | 8 | Community | STV","players":null},{"server_id":300,"name":"Uncletopia | Montr√©al | 1 | All Maps","name_short":"mtl-1","host":"mtl-1.ca.uncletopia.com","port":27015,"enabled":true,"region":"us-east","cc":"ca","latitude":45.50889,"longitude":-73.56167,"reserved":0,"last_update":"0001-01-01T00:00:00Z","name_a2s":"Uncletopia | Montr√©al | 1 | All Maps","protocol":17,"map":"koth_viaduct","folder":"tf","game":"Team Fortress","app_id":440,"player_count":0,"max_players":24,"Bots":0,"server_type":"Dedicated","server_os":"Linux","password":true,"vac":true,"version":"7757534","steam_id":85568392924500087,"keywords":["cp","nocrits","nodmgspread","uncletopia"],"game_id":440,"stv_port":27016,"stv_name":"Uncletopia | Montr√©al | 1 | All Maps | STV","players":null},{"server_id":301,"name":"Uncletopia | Montr√©al | 2 | All Maps","name_short":"mtl-2","host":"mtl-1.ca.uncletopia.com","port":27025,"enabled":true,"region":"us-east","cc":"ca","latitude":45.50889,"longitude":-73.56167,"reserved":0,"last_update":"0001-01-01T00:00:00Z","name_a2s":"Uncletopia | Montr√©al | 2 | All Maps","protocol":17,"map":"pl_snowycoast","folder":"tf","game":"Team Fortress","app_id":440,"player_count":0,"max_players":24,"Bots":0,"server_type":"Dedicated","server_os":"Linux","password":true,"vac":true,"version":"7757534","steam_id":85568392924500088,"keywords":["nocrits","nodmgspread","payload","uncletopia"],"game_id":440,"stv_port":27026,"stv_name":"Uncletopia | Montr√©al | 2 | All Maps | STV","players":null},{"server_id":302,"name":"Uncletopia | Montr√©al | 3 | All Maps","name_short":"mtl-3","host":"mtl-1.ca.uncletopia.com","port":27035,"enabled":true,"region":"us-east","cc":"ca","latitude":45.50889,"longitude":-73.56167,"reserved":0,"last_update":"0001-01-01T00:00:00Z","name_a2s":"Uncletopia | Montr√©al | 3 | All Maps","protocol":17,"map":"koth_highpass","folder":"tf","game":"Team Fortress","app_id":440,"player_count":0,"max_players":24,"Bots":0,"server_type":"Dedicated","server_os":"Linux","password":true,"vac":true,"version":"7757534","steam_id":85568392924500089,"keywords":["cp","nocrits","nodmgspread","uncletopia"],"game_id":440,"stv_port":27036,"stv_name":"Uncletopia | Montr√©al | 3 | All Maps | STV","players":null},{"server_id":303,"name":"Uncletopia | Montr√©al | 4 | No Payload","name_short":"mtl-4","host":"mtl-1.ca.uncletopia.com","port":27045,"enabled":true,"region":"us-east","cc":"ca","latitude":45.50889,"longitude":-73.56167,"reserved":0,"last_update":"0001-01-01T00:00:00Z","name_a2s":"Uncletopia | Montr√©al | 4 | No Payload","protocol":17,"map":"koth_lakeside_final","folder":"tf","game":"Team Fortress","app_id":440,"player_count":0,"max_players":24,"Bots":0,"server_type":"Dedicated","server_os":"Linux","password":true,"vac":true,"version":"7757534","steam_id":85568392924500090,"keywords":["cp","nocrits","nodmgspread","uncletopia"],"game_id":440,"stv_port":27046,"stv_name":"Uncletopia | Montr√©al | 4 | No Payload | STV","players":null},{"server_id":13,"name":"Uncletopia | New York City | 1 | All Maps","name_short":"nyc-1","host":"nyc-1.us.uncletopia.com","port":27015,"enabled":true,"region":"us-east","cc":"us","latitude":40.73061,"longitude":-73.93524,"reserved":0,"last_update":"0001-01-01T00:00:00Z","name_a2s":"Uncletopia | New York City | 1 | All Maps","protocol":17,"map":"koth_cascade","folder":"tf","game":"Team Fortress","app_id":440,"player_count":24,"max_players":24,"Bots":0,"server_type":"Dedicated","server_os":"Linux","password":true,"vac":true,"version":"7757534","steam_id":85568392924469993,"keywords":["cp","nocrits","nodmgspread","uncletopia"],"game_id":440,"stv_port":27016,"stv_name":"Uncletopia | New York City | 1 | All Maps | STV","players":[{"user_id":144,"name":"Draco6257","steam_id":76561199147322448,"connected_time":1549000000000,"state":"active","ping":29},{"user_id":142,"name":"chikin.sauce","steam_id":76561198042464635,"connected_time":1983000000000,"state":"active","ping":91},{"user_id":104,"name":"Asthmatic boi","steam_id":76561198197796766,"connected_time":4642000000000,"state":"active","ping":60},{"user_id":52,"name":"üÖúüÖîüÖîüÖöüÖ¢üÖ£üÖî\ufffd\ufffd\ufffd","steam_id":76561197999748343,"connected_time":7897000000000,"state":"active","ping":77},{"user_id":146,"name":"MrrPickle","steam_id":76561198122046514,"connected_time":917000000000,"state":"active","ping":57},{"user_id":121,"name":"ZetTheZucc","steam_id":76561198173421749,"connected_time":3143000000000,"state":"active","ping":83},{"user_id":136,"name":"bojack from the show bojack hor","steam_id":76561198053006712,"connected_time":2401000000000,"state":"active","ping":42},{"user_id":157,"name":"barbara","steam_id":76561198072417792,"connected_time":411000000000,"state":"active","ping":90},{"user_id":96,"name":"noided","steam_id":76561198353924837,"connected_time":4986000000000,"state":"active","ping":73},{"user_id":114,"name":"Bozanimal","steam_id":76561198044096897,"connected_time":3726000000000,"state":"active","ping":49},{"user_id":145,"name":"ThePacBruno","steam_id":76561198046084545,"connected_time":1102000000000,"state":"active","ping":181},{"user_id":98,"name":"WibbyOne","steam_id":76561198052843846,"connected_time":4968000000000,"state":"active","ping":44},{"user_id":137,"name":"sock","steam_id":76561198278457431,"connected_time":2393000000000,"state":"active","ping":80},{"user_id":155,"name":"Repent","steam_id":76561198121933439,"connected_time":654000000000,"state":"active","ping":62},{"user_id":159,"name":"proon","steam_id":76561198155983535,"connected_time":236000000000,"state":"active","ping":50},{"user_id":148,"name":"ThiccThighedCatboy","steam_id":76561198154916862,"connected_time":901000000000,"state":"active","ping":50},{"user_id":160,"name":"qpid","steam_id":76561198004481006,"connected_time":62000000000,"state":"active","ping":107},{"user_id":149,"name":"Blitzy","steam_id":76561198149472890,"connected_time":891000000000,"state":"active","ping":94},{"user_id":158,"name":"Swifgz","steam_id":76561198162875756,"connected_time":323000000000,"state":"active","ping":40},{"user_id":112,"name":"CakeBlock","steam_id":76561198067238228,"connected_time":4365000000000,"state":"active","ping":51},{"user_id":141,"name":"Doctor Glocktorpus [NGC]","steam_id":76561198049194645,"connected_time":2077000000000,"state":"active","ping":55},{"user_id":116,"name":"Lexabyte","steam_id":76561198065032237,"connected_time":3455000000000,"state":"active","ping":81},{"user_id":156,"name":"wùëíùëívil","steam_id":76561198081260791,"connected_time":458000000000,"state":"active","ping":132},{"user_id":154,"name":"PeachFlavoredBleach","steam_id":76561198116226449,"connected_time":738000000000,"state":"active","ping":50}]},{"server_id":14,"name":"Uncletopia | New York City | 2 | All Maps","name_short":"nyc-2","host":"nyc-1.us.uncletopia.com","port":27025,"enabled":true,"region":"us-east","cc":"us","latitude":40.73061,"longitude":-73.93524,"reserved":0,"last_update":"0001-01-01T00:00:00Z","name_a2s":"Uncletopia | New York City | 2 | All Maps","protocol":17,"map":"pl_snowycoast","folder":"tf","game":"Team Fortress","app_id":440,"player_count":23,"max_players":24,"Bots":0,"server_type":"Dedicated","server_os":"Linux","password":true,"vac":true,"version":"7757534","steam_id":85568392924469994,"keywords":["nocrits","nodmgspread","payload","uncletopia"],"game_id":440,"stv_port":27026,"stv_name":"Uncletopia | New York City | 2 | All Maps | STV","players":[{"user_id":422,"name":"Vince Offer","steam_id":76561198991008825,"connected_time":804000000000,"state":"active","ping":81},{"user_id":408,"name":"ItsBakerboyJ","steam_id":76561198183654439,"connected_time":1547000000000,"state":"active","ping":71},{"user_id":411,"name":"kametro4","steam_id":76561198835430429,"connected_time":1355000000000,"state":"active","ping":61},{"user_id":379,"name":"PapaCheungus","steam_id":76561198052262520,"connected_time":3984000000000,"state":"active","ping":66},{"user_id":407,"name":"The magic doo bus","steam_id":76561198243387974,"connected_time":1615000000000,"state":"active","ping":53},{"user_id":430,"name":"Fishy","steam_id":76561198819316173,"connected_time":401000000000,"state":"active","ping":116},{"user_id":423,"name":"Goose of Wisdom","steam_id":76561198233465044,"connected_time":753000000000,"state":"active","ping":84},{"user_id":413,"name":"arch_knight321","steam_id":76561198436797625,"connected_time":1331000000000,"state":"active","ping":63},{"user_id":346,"name":"SIGMA [BS]","steam_id":76561197962604879,"connected_time":6474000000000,"state":"active","ping":46},{"user_id":429,"name":"colefry","steam_id":76561199073301732,"connected_time":602000000000,"state":"active","ping":68},{"user_id":401,"name":"JayBurb","steam_id":76561199119579978,"connected_time":2777000000000,"state":"active","ping":55},{"user_id":405,"name":"boat","steam_id":76561198157124609,"connected_time":2215000000000,"state":"active","ping":54},{"user_id":427,"name":"IcyBabyBeluga","steam_id":76561198997668793,"connected_time":637000000000,"state":"active","ping":94},{"user_id":334,"name":"Disqordant","steam_id":76561198052514978,"connected_time":7864000000000,"state":"active","ping":74},{"user_id":425,"name":"Shattered Glass","steam_id":76561198116835391,"connected_time":639000000000,"state":"active","ping":98},{"user_id":389,"name":"A Trigger Happy Chipmunk","steam_id":76561198013608736,"connected_time":3688000000000,"state":"active","ping":54},{"user_id":419,"name":"Hamhog","steam_id":76561198353967566,"connected_time":1147000000000,"state":"active","ping":62},{"user_id":431,"name":"Dr Oshawott","steam_id":76561198042021629,"connected_time":76000000000,"state":"active","ping":87},{"user_id":420,"name":"Bee","steam_id":76561198074681324,"connected_time":1118000000000,"state":"active","ping":38},{"user_id":421,"name":"Windup Monkey in a Human Suit","steam_id":76561198119501444,"connected_time":1114000000000,"state":"active","ping":83},{"user_id":395,"name":"shinji_w","steam_id":76561198340837015,"connected_time":3552000000000,"state":"active","ping":87},{"user_id":396,"name":"ok","steam_id":76561198445140249,"connected_time":3538000000000,"state":"active","ping":71},{"user_id":402,"name":"AtomicW1nter","steam_id":76561199081646462,"connected_time":2641000000000,"state":"active","ping":64}]},{"server_id":15,"name":"Uncletopia | New York City | 3 | Stopwatch Beta","name_short":"nyc-3","host":"nyc-1.us.uncletopia.com","port":27035,"enabled":true,"region":"us-east","cc":"us","latitude":40.73061,"longitude":-73.93524,"reserved":0,"last_update":"0001-01-01T00:00:00Z","name_a2s":"Uncletopia | New York City | 3 | Stopwatch Beta","protocol":17,"map":"pl_upward","folder":"tf","game":"Team Fortress","app_id":440,"player_count":0,"max_players":24,"Bots":0,"server_type":"Dedicated","server_os":"Linux","password":true,"vac":true,"version":"7757534","steam_id":85568392924742820,"keywords":["nocrits","nodmgspread","payload","uncletopia"],"game_id":440,"stv_port":27036,"stv_name":"Uncletopia | New York City | 3 | Stopwatch Beta | STV","players":null},{"server_id":16,"name":"Uncletopia | New York City | 4 | Community","name_short":"nyc-4","host":"nyc-1.us.uncletopia.com","port":27045,"enabled":true,"region":"us-east","cc":"us","latitude":40.73061,"longitude":-73.93524,"reserved":0,"last_update":"0001-01-01T00:00:00Z","name_a2s":"Uncletopia | New York City | 4 | Community","protocol":17,"map":"workshop/koth_ashville_final.ugc2130459942","folder":"tf","game":"Team Fortress","app_id":440,"player_count":0,"max_players":24,"Bots":0,"server_type":"Dedicated","server_os":"Linux","password":true,"vac":true,"version":"7757534","steam_id":85568392924742821,"keywords":["cp","nocrits","nodmgspread","uncletopia"],"game_id":440,"stv_port":27046,"stv_name":"Uncletopia | New York City | 4 | Community | STV","players":null},{"server_id":142,"name":"Uncletopia | S√£o Paulo | 1 | All Maps","name_short":"sao-1","host":"sao-1.br.uncletopia.com","port":27015,"enabled":true,"region":"sa","cc":"br","latitude":-23.533773,"longitude":-46.62529,"reserved":0,"last_update":"0001-01-01T00:00:00Z","name_a2s":"Uncletopia | S√£o Paulo | 1 | All Maps","protocol":17,"map":"koth_lakeside_final","folder":"tf","game":"Team Fortress","app_id":440,"player_count":0,"max_players":24,"Bots":0,"server_type":"Dedicated","server_os":"Linux","password":true,"vac":true,"version":"7757534","steam_id":85568392924469996,"keywords":["cp","nocrits","nodmgspread","uncletopia"],"game_id":440,"stv_port":27016,"stv_name":"Uncletopia | S√£o Paulo | 1 | All Maps | STV","players":null},{"server_id":143,"name":"Uncletopia | S√£o Paulo | 2 | All Maps","name_short":"sao-2","host":"sao-2.br.uncletopia.com","port":27015,"enabled":true,"region":"sa","cc":"br","latitude":-23.533773,"longitude":-46.62529,"reserved":0,"last_update":"0001-01-01T00:00:00Z","name_a2s":"Uncletopia | S√£o Paulo | 2 | All Maps","protocol":17,"map":"pl_upward","folder":"tf","game":"Team Fortress","app_id":440,"player_count":1,"max_players":24,"Bots":0,"server_type":"Dedicated","server_os":"Linux","password":true,"vac":true,"version":"7757534","steam_id":85568392924485349,"keywords":["nocrits","nodmgspread","payload","uncletopia"],"game_id":440,"stv_port":27016,"stv_name":"Uncletopia | S√£o Paulo | 2 | All Maps | STV","players":[{"user_id":27,"name":"FakoTF","steam_id":76561199273744916,"connected_time":247000000000,"state":"active","ping":177}]},{"server_id":7,"name":"Uncletopia | Seattle | 1 | All Maps","name_short":"sea-1","host":"sea-1.us.uncletopia.com","port":27015,"enabled":true,"region":"us-west","cc":"us","latitude":47.608013,"longitude":-122.33517,"reserved":0,"last_update":"0001-01-01T00:00:00Z","name_a2s":"Uncletopia | Seattle | 1 | All Maps","protocol":17,"map":"pl_badwater","folder":"tf","game":"Team Fortress","app_id":440,"player_count":24,"max_players":24,"Bots":0,"server_type":"Dedicated","server_os":"Linux","password":true,"vac":true,"version":"7757534","steam_id":85568392924469997,"keywords":["nocrits","nodmgspread","payload","uncletopia"],"game_id":440,"stv_port":27016,"stv_name":"Uncletopia | Seattle | 1 | All Maps | STV","players":[{"user_id":311,"name":"The Pepsi¬Æ Superbowl¬Æ!","steam_id":76561198080828981,"connected_time":4102000000000,"state":"active","ping":71},{"user_id":270,"name":"Breasticle Gaming","steam_id":76561198081765494,"connected_time":6522000000000,"state":"active","ping":78},{"user_id":339,"name":"duddlee","steam_id":76561198030052564,"connected_time":1072000000000,"state":"active","ping":49},{"user_id":346,"name":"Z71Jeffrey05","steam_id":76561198045992418,"connected_time":182000000000,"state":"active","ping":56},{"user_id":322,"name":"Dorte Voloxi","steam_id":76561198118620969,"connected_time":2353000000000,"state":"active","ping":45},{"user_id":330,"name":"Cleetus","steam_id":76561198334734408,"connected_time":1712000000000,"state":"active","ping":47},{"user_id":350,"name":"Positive0","steam_id":76561198035780181,"connected_time":78000000000,"state":"active","ping":112},{"user_id":284,"name":"cool beans","steam_id":76561198045758072,"connected_time":6066000000000,"state":"active","ping":60},{"user_id":312,"name":"Blank_Sicon","steam_id":76561198887041407,"connected_time":3858000000000,"state":"active","ping":84},{"user_id":342,"name":"June","steam_id":76561198141803658,"connected_time":773000000000,"state":"active","ping":74},{"user_id":329,"name":"JawnyMac","steam_id":76561198179529599,"connected_time":1818000000000,"state":"active","ping":62},{"user_id":351,"name":"Luca","steam_id":76561198125087140,"connected_time":20000000000,"state":"spawning","ping":47},{"user_id":324,"name":"AAGooseman","steam_id":76561198378941369,"connected_time":2156000000000,"state":"active","ping":82},{"user_id":332,"name":"roody","steam_id":76561198066260405,"connected_time":1691000000000,"state":"active","ping":44},{"user_id":348,"name":"mega","steam_id":76561198089520959,"connected_time":129000000000,"state":"active","ping":90},{"user_id":326,"name":"Jase","steam_id":76561198122564176,"connected_time":1990000000000,"state":"active","ping":65},{"user_id":340,"name":"oil","steam_id":76561198099980149,"connected_time":1003000000000,"state":"active","ping":76},{"user_id":336,"name":"Robert E.T.","steam_id":76561197986439371,"connected_time":1661000000000,"state":"active","ping":49},{"user_id":353,"name":"Blue Banana","steam_id":76561198100077411,"connected_time":8000000000,"state":"active","ping":198},{"user_id":344,"name":"Mediarch","steam_id":76561198050765729,"connected_time":752000000000,"state":"active","ping":51},{"user_id":349,"name":"joe rippa","steam_id":76561198170402666,"connected_time":129000000000,"state":"active","ping":72},{"user_id":225,"name":"jayeskae","steam_id":76561198144220801,"connected_time":9155000000000,"state":"active","ping":45},{"user_id":314,"name":"shiadyne","steam_id":76561198271939793,"connected_time":3699000000000,"state":"active","ping":46}]},{"server_id":119,"name":"Uncletopia | Seattle | 2 | All Maps","name_short":"sea-2","host":"sea-1.us.uncletopia.com","port":27025,"enabled":true,"region":"us-west","cc":"us","latitude":47.608013,"longitude":-122.33517,"reserved":0,"last_update":"0001-01-01T00:00:00Z","name_a2s":"Uncletopia | Seattle | 2 | All Maps","protocol":17,"map":"pl_goldrush","folder":"tf","game":"Team Fortress","app_id":440,"player_count":24,"max_players":24,"Bots":0,"server_type":"Dedicated","server_os":"Linux","password":true,"vac":true,"version":"7757534","steam_id":85568392924469998,"keywords":["nocrits","nodmgspread","payload","uncletopia"],"game_id":440,"stv_port":27026,"stv_name":"Uncletopia | Seattle | 2 | All Maps | STV","players":[{"user_id":137,"name":"user10","steam_id":76561198184814466,"connected_time":1352000000000,"state":"active","ping":39},{"user_id":136,"name":"SomeGuyWhoLikesPotatoes","steam_id":76561198110276797,"connected_time":1394000000000,"state":"active","ping":54},{"user_id":10,"name":"dagoth ur","steam_id":76561199338313228,"connected_time":8887000000000,"state":"active","ping":76},{"user_id":61,"name":"face in the dark","steam_id":76561198132755619,"connected_time":6008000000000,"state":"active","ping":57},{"user_id":62,"name":"VoodooPapa","steam_id":76561199160439066,"connected_time":5998000000000,"state":"active","ping":83},{"user_id":138,"name":"superbad","steam_id":76561198065913973,"connected_time":1325000000000,"state":"active","ping":66},{"user_id":122,"name":"Salt and Fries","steam_id":76561198102272728,"connected_time":2595000000000,"state":"active","ping":87},{"user_id":69,"name":"oxbudy","steam_id":76561198022120207,"connected_time":5702000000000,"state":"active","ping":69},{"user_id":142,"name":"MRBREAST","steam_id":76561199243331140,"connected_time":1155000000000,"state":"active","ping":150},{"user_id":147,"name":"Suspicious","steam_id":76561198335210081,"connected_time":391000000000,"state":"active","ping":119},{"user_id":140,"name":"frozenwasanokmovie","steam_id":76561198157407952,"connected_time":1230000000000,"state":"active","ping":97},{"user_id":134,"name":"Shark Sandwich","steam_id":76561198025007938,"connected_time":1706000000000,"state":"active","ping":59},{"user_id":127,"name":"Maid 'n' China","steam_id":76561198423392976,"connected_time":2252000000000,"state":"active","ping":67},{"user_id":135,"name":"Viper_Ray","steam_id":76561199068788737,"connected_time":1420000000000,"state":"active","ping":57},{"user_id":114,"name":"Shamrock Shake Oct.10.2020 @8pm","steam_id":76561198833313201,"connected_time":2965000000000,"state":"active","ping":86},{"user_id":141,"name":"land0","steam_id":76561198321264704,"connected_time":1198000000000,"state":"active","ping":81},{"user_id":150,"name":"a narwhal","steam_id":76561198014527353,"connected_time":20000000000,"state":"active","ping":118},{"user_id":119,"name":"papersamurai","steam_id":76561198313608698,"connected_time":2891000000000,"state":"active","ping":103},{"user_id":146,"name":"Wacks","steam_id":76561198079476100,"connected_time":898000000000,"state":"active","ping":71},{"user_id":73,"name":"Pulse Astra","steam_id":76561198199809253,"connected_time":5342000000000,"state":"active","ping":118},{"user_id":148,"name":"WeebMeisterJoel","steam_id":76561198124159574,"connected_time":389000000000,"state":"active","ping":107},{"user_id":124,"name":"SDL","steam_id":76561198859719985,"connected_time":2584000000000,"state":"active","ping":130},{"user_id":149,"name":"Pipirohnni pitzza","steam_id":76561198414300607,"connected_time":385000000000,"state":"active","ping":91},{"user_id":133,"name":"Moss","steam_id":76561198309118529,"connected_time":1974000000000,"state":"active","ping":126}]},{"server_id":406,"name":"Uncletopia | Seattle | 3 | Stopwatch Beta","name_short":"sea-3","host":"sea-1.us.uncletopia.com","port":27035,"enabled":true,"region":"us-west","cc":"us","latitude":47.608013,"longitude":-122.33517,"reserved":0,"last_update":"0001-01-01T00:00:00Z","name_a2s":"Uncletopia | Seattle | 3 | Stopwatch Beta","protocol":17,"map":"pl_swiftwater_final1","folder":"tf","game":"Team Fortress","app_id":440,"player_count":0,"max_players":24,"Bots":0,"server_type":"Dedicated","server_os":"Linux","password":true,"vac":true,"version":"7757534","steam_id":85568392924515217,"keywords":["nocrits","nodmgspread","payload","uncletopia"],"game_id":440,"stv_port":27036,"stv_name":"Uncletopia | Seattle | 3 | Stopwatch Beta | STV","players":null},{"server_id":17,"name":"Uncletopia | San Francisco | 1 | All Maps","name_short":"sfo-1","host":"sfo-1.us.uncletopia.com","port":27015,"enabled":true,"region":"us-west","cc":"us","latitude":37.77397,"longitude":-122.4313,"reserved":0,"last_update":"0001-01-01T00:00:00Z","name_a2s":"Uncletopia | San Francisco | 1 | All Maps","protocol":17,"map":"cp_process_final","folder":"tf","game":"Team Fortress","app_id":440,"player_count":6,"max_players":24,"Bots":0,"server_type":"Dedicated","server_os":"Linux","password":true,"vac":true,"version":"7757534","steam_id":85568392924469999,"keywords":["cp","nocrits","nodmgspread","uncletopia"],"game_id":440,"stv_port":27016,"stv_name":"Uncletopia | San Francisco | 1 | All Maps | STV","players":[{"user_id":8,"name":"please fart","steam_id":76561198965079927,"connected_time":1768000000000,"state":"active","ping":117},{"user_id":9,"name":"Nick the melon","steam_id":76561198798907871,"connected_time":659000000000,"state":"active","ping":65},{"user_id":11,"name":"CDI_FrEAk","steam_id":76561198004708244,"connected_time":568000000000,"state":"active","ping":63},{"user_id":12,"name":"HappyHitchhiker","steam_id":76561198080228697,"connected_time":291000000000,"state":"active","ping":100},{"user_id":13,"name":"ImBread","steam_id":76561198347426531,"connected_time":280000000000,"state":"active","ping":196},{"user_id":14,"name":"Kit kyat","steam_id":76561198235786296,"connected_time":117000000000,"state":"active","ping":105}]},{"server_id":18,"name":"Uncletopia | San Francisco | 2 | All Maps","name_short":"sfo-2","host":"sfo-1.us.uncletopia.com","port":27025,"enabled":true,"region":"us-west","cc":"us","latitude":37.77397,"longitude":-122.4313,"reserved":0,"last_update":"0001-01-01T00:00:00Z","name_a2s":"Uncletopia | San Francisco | 2 | All Maps","protocol":17,"map":"koth_highpass","folder":"tf","game":"Team Fortress","app_id":440,"player_count":0,"max_players":24,"Bots":0,"server_type":"Dedicated","server_os":"Linux","password":true,"vac":true,"version":"7757534","steam_id":85568392924470000,"keywords":["cp","nocrits","nodmgspread","uncletopia"],"game_id":440,"stv_port":27026,"stv_name":"Uncletopia | San Francisco | 2 | All Maps | STV","players":null},{"server_id":19,"name":"Uncletopia | San Francisco | 3 | Stopwatch Beta","name_short":"sfo-3","host":"sfo-1.us.uncletopia.com","port":27035,"enabled":true,"region":"us-west","cc":"us","latitude":37.77397,"longitude":-122.4313,"reserved":0,"last_update":"0001-01-01T00:00:00Z","name_a2s":"Uncletopia | San Francisco | 3 | Stopwatch Beta","protocol":17,"map":"pl_swiftwater_final1","folder":"tf","game":"Team Fortress","app_id":440,"player_count":0,"max_players":24,"Bots":0,"server_type":"Dedicated","server_os":"Linux","password":true,"vac":true,"version":"7757534","steam_id":85568392924742824,"keywords":["nocrits","nodmgspread","payload","uncletopia"],"game_id":440,"stv_port":27036,"stv_name":"Uncletopia | San Francisco | 3 | Stopwatch Beta | STV","players":null},{"server_id":20,"name":"Uncletopia | San Francisco | 4 | Community","name_short":"sfo-4","host":"sfo-1.us.uncletopia.com","port":27045,"enabled":true,"region":"us-west","cc":"us","latitude":37.77397,"longitude":-122.4313,"reserved":0,"last_update":"0001-01-01T00:00:00Z","name_a2s":"Uncletopia | San Francisco | 4 | Community","protocol":17,"map":"workshop/pl_barnblitz_pro7.ugc582280235","folder":"tf","game":"Team Fortress","app_id":440,"player_count":0,"max_players":24,"Bots":0,"server_type":"Dedicated","server_os":"Linux","password":true,"vac":true,"version":"7757534","steam_id":85568392924742826,"keywords":["nocrits","nodmgspread","payload","uncletopia"],"game_id":440,"stv_port":27046,"stv_name":"Uncletopia | San Francisco | 4 | Community | STV","players":null},{"server_id":141,"name":"Uncletopia | Sydney | 1 | All Maps","name_short":"syd-1","host":"syd-1.au.uncletopia.com","port":27015,"enabled":true,"region":"au","cc":"au","latitude":-33.865143,"longitude":151.2099,"reserved":0,"last_update":"0001-01-01T00:00:00Z","name_a2s":"Uncletopia | Sydney | 1 | All Maps","protocol":17,"map":"koth_viaduct","folder":"tf","game":"Team Fortress","app_id":440,"player_count":0,"max_players":24,"Bots":0,"server_type":"Dedicated","server_os":"Linux","password":true,"vac":true,"version":"7757534","steam_id":85568392924470001,"keywords":["cp","nocrits","nodmgspread","uncletopia"],"game_id":440,"stv_port":27016,"stv_name":"Uncletopia | Sydney | 1 | All Maps | STV","players":null},{"server_id":123,"name":"Uncletopia | Sydney | 2 | All Maps","name_short":"syd-2","host":"syd-1.au.uncletopia.com","port":27025,"enabled":true,"region":"au","cc":"au","latitude":-33.865143,"longitude":151.2099,"reserved":0,"last_update":"0001-01-01T00:00:00Z","name_a2s":"Uncletopia | Sydney | 2 | All Maps","protocol":17,"map":"cp_process_final","folder":"tf","game":"Team Fortress","app_id":440,"player_count":0,"max_players":24,"Bots":0,"server_type":"Dedicated","server_os":"Linux","password":true,"vac":true,"version":"7757534","steam_id":85568392924470002,"keywords":["cp","nocrits","nodmgspread","uncletopia"],"game_id":440,"stv_port":27026,"stv_name":"Uncletopia | Sydney | 2 | All Maps | STV","players":null},{"server_id":395,"name":"Uncletopia | Sydney | 3 | All Maps","name_short":"syd-3","host":"syd-1.au.uncletopia.com","port":27035,"enabled":true,"region":"au","cc":"au","latitude":-33.865143,"longitude":151.2099,"reserved":0,"last_update":"0001-01-01T00:00:00Z","name_a2s":"Uncletopia | Sydney | 3 | All Maps","protocol":17,"map":"pl_swiftwater_final1","folder":"tf","game":"Team Fortress","app_id":440,"player_count":0,"max_players":24,"Bots":0,"server_type":"Dedicated","server_os":"Linux","password":true,"vac":true,"version":"7757534","steam_id":85568392925194467,"keywords":["nocrits","nodmgspread","payload","uncletopia"],"game_id":440,"stv_port":27036,"stv_name":"Uncletopia | Sydney | 3 | All Maps | STV","players":null},{"server_id":396,"name":"Uncletopia | Sydney | 4 | All Maps","name_short":"syd-4","host":"syd-1.au.uncletopia.com","port":27045,"enabled":true,"region":"au","cc":"au","latitude":-33.865143,"longitude":151.2099,"reserved":0,"last_update":"0001-01-01T00:00:00Z","name_a2s":"Uncletopia | Sydney | 4 | All Maps","protocol":17,"map":"koth_highpass","folder":"tf","game":"Team Fortress","app_id":440,"player_count":0,"max_players":24,"Bots":0,"server_type":"Dedicated","server_os":"Linux","password":true,"vac":true,"version":"7757534","steam_id":85568392925397958,"keywords":["cp","nocrits","nodmgspread","uncletopia"],"game_id":440,"stv_port":27046,"stv_name":"Uncletopia | Sydney | 4 | All Maps | STV","players":null},{"server_id":58,"name":"Uncletopia | Sydney | 5 | Stopwatch Beta","name_short":"syd-5","host":"syd-1.au.uncletopia.com","port":27055,"enabled":true,"region":"au","cc":"au","latitude":-33.865143,"longitude":151.2099,"reserved":0,"last_update":"0001-01-01T00:00:00Z","name_a2s":"Uncletopia | Sydney | 5 | Stopwatch Beta","protocol":17,"map":"workshop/koth_ashville_final.ugc2130459942","folder":"tf","game":"Team Fortress","app_id":440,"player_count":0,"max_players":24,"Bots":0,"server_type":"Dedicated","server_os":"Linux","password":true,"vac":true,"version":"7757534","steam_id":85568392925397959,"keywords":["cp","nocrits","nodmgspread","uncletopia"],"game_id":440,"stv_port":27056,"stv_name":"Uncletopia | Sydney | 5 | Stopwatch Beta | STV","players":null},{"server_id":59,"name":"Uncletopia | Sydney | 6 | Community","name_short":"syd-6","host":"syd-1.au.uncletopia.com","port":27065,"enabled":true,"region":"au","cc":"au","latitude":-33.865143,"longitude":151.2099,"reserved":0,"last_update":"0001-01-01T00:00:00Z","name_a2s":"Uncletopia | Sydney | 6 | Community","protocol":17,"map":"cp_snakewater_final1","folder":"tf","game":"Team Fortress","app_id":440,"player_count":0,"max_players":24,"Bots":0,"server_type":"Dedicated","server_os":"Linux","password":true,"vac":true,"version":"7757534","steam_id":85568392925397960,"keywords":["cp","nocrits","nodmgspread","uncletopia"],"game_id":440,"stv_port":27066,"stv_name":"Uncletopia | Sydney | 6 | Community | STV","players":null},{"server_id":49,"name":"Uncletopia | Warsaw | 1 | All Maps","name_short":"waw-1","host":"waw-1.pl.uncletopia.com","port":27015,"enabled":true,"region":"eu","cc":"pl","latitude":52.2297,"longitude":21.017532,"reserved":0,"last_update":"0001-01-01T00:00:00Z","name_a2s":"","protocol":0,"map":"","folder":"","game":"","app_id":0,"player_count":0,"max_players":0,"Bots":0,"server_type":"","server_os":"","password":false,"vac":false,"version":"","steam_id":0,"keywords":null,"game_id":0,"stv_port":0,"stv_name":"","players":null},{"server_id":50,"name":"Uncletopia | Warsaw | 2 | All Maps","name_short":"waw-2","host":"waw-1.pl.uncletopia.com","port":27025,"enabled":true,"region":"eu","cc":"pl","latitude":52.2297,"longitude":21.017532,"reserved":0,"last_update":"0001-01-01T00:00:00Z","name_a2s":"Uncletopia | Warsaw | 2 | All Maps","protocol":17,"map":"cp_snakewater_final1","folder":"tf","game":"Team Fortress","app_id":440,"player_count":0,"max_players":24,"Bots":0,"server_type":"Dedicated","server_os":"Linux","password":true,"vac":true,"version":"7757534","steam_id":85568392925397851,"keywords":["cp","nocrits","nodmgspread","uncletopia"],"game_id":440,"stv_port":27026,"stv_name":"Uncletopia | Warsaw | 2 | All Maps | STV","players":null},{"server_id":51,"name":"Uncletopia | Warsaw | 3 | All Maps","name_short":"waw-3","host":"waw-1.pl.uncletopia.com","port":27035,"enabled":true,"region":"eu","cc":"pl","latitude":52.2297,"longitude":21.017532,"reserved":0,"last_update":"0001-01-01T00:00:00Z","name_a2s":"Uncletopia | Warsaw | 3 | All Maps","protocol":17,"map":"cp_sunshine","folder":"tf","game":"Team Fortress","app_id":440,"player_count":0,"max_players":24,"Bots":0,"server_type":"Dedicated","server_os":"Linux","password":true,"vac":true,"version":"7757534","steam_id":85568392925397852,"keywords":["cp","nocrits","nodmgspread","uncletopia"],"game_id":440,"stv_port":27036,"stv_name":"Uncletopia | Warsaw | 3 | All Maps | STV","players":null},{"server_id":52,"name":"Uncletopia | Warsaw | 4 | All Maps","name_short":"waw-4","host":"waw-1.pl.uncletopia.com","port":27045,"enabled":true,"region":"eu","cc":"pl","latitude":52.2297,"longitude":21.017532,"reserved":0,"last_update":"0001-01-01T00:00:00Z","name_a2s":"Uncletopia | Warsaw | 4 | All Maps","protocol":17,"map":"koth_lakeside_final","folder":"tf","game":"Team Fortress","app_id":440,"player_count":0,"max_players":24,"Bots":0,"server_type":"Dedicated","server_os":"Linux","password":true,"vac":true,"version":"7757534","steam_id":85568392925397853,"keywords":["cp","nocrits","nodmgspread","uncletopia"],"game_id":440,"stv_port":27046,"stv_name":"Uncletopia | Warsaw | 4 | All Maps | STV","players":null},{"server_id":53,"name":"Uncletopia | Warsaw | 5 | Stopwatch Beta","name_short":"waw-5","host":"waw-1.pl.uncletopia.com","port":27055,"enabled":true,"region":"eu","cc":"pl","latitude":52.2297,"longitude":21.017532,"reserved":0,"last_update":"0001-01-01T00:00:00Z","name_a2s":"Uncletopia | Warsaw | 5 | Stopwatch Beta","protocol":17,"map":"pl_borneo","folder":"tf","game":"Team Fortress","app_id":440,"player_count":0,"max_players":24,"Bots":0,"server_type":"Dedicated","server_os":"Linux","password":true,"vac":true,"version":"7757534","steam_id":85568392925397854,"keywords":["nocrits","nodmgspread","payload","uncletopia"],"game_id":440,"stv_port":27056,"stv_name":"Uncletopia | Warsaw | 5 | Stopwatch Beta | STV","players":null},{"server_id":54,"name":"Uncletopia | Warsaw | 6 | Community","name_short":"waw-6","host":"waw-1.pl.uncletopia.com","port":27065,"enabled":true,"region":"eu","cc":"pl","latitude":52.2297,"longitude":21.017532,"reserved":0,"last_update":"0001-01-01T00:00:00Z","name_a2s":"Uncletopia | Warsaw | 6 | Community","protocol":17,"map":"workshop/cp_kalinka_rc6a.ugc1272700588","folder":"tf","game":"Team Fortress","app_id":440,"player_count":0,"max_players":24,"Bots":0,"server_type":"Dedicated","server_os":"Linux","password":true,"vac":true,"version":"7757534","steam_id":85568392925397856,"keywords":["cp","nocrits","nodmgspread","uncletopia"],"game_id":440,"stv_port":27066,"stv_name":"Uncletopia | Warsaw | 6 | Community | STV","players":null}]}