{"status":true,"message":"","result":[{"server_id":9,"name":"Uncletopia | Atlanta | 1 | All Maps","name_short":"atl-1","host":"atl-1.us.uncletopia.com","port":27015,"enabled":true,"region":"us-east","cc":"us","latitude":33.753746,"longitude":-84.38633,"reserved":0,"last_update":"0001-01-01T00:00:00Z","name_a2s":"Uncletopia | Atlanta | 1 | All Maps","protocol":17,"map":"cp_mountainlab","folder":"tf","game":"Team Fortress","app_id":440,"player_count":21,"max_players":24,"Bots":0,"server_type":"Dedicated","server_os":"Linux","password":true,"vac":true,"version":"7757534","steam_id":85568392924469982,"keywords":["cp","nocrits","nodmgspread","uncletopia"],"game_id":440,"stv_port":27016,"stv_name":"Uncletopia | Atlanta | 1 | All Maps | STV","players":[{"user_id":195,"name":"nat","steam_id":76561198865090309,"connected_time":1102000000000,"state":"active","ping":99},{"user_id":211,"name":"ATL1 | Pango","steam_id":76561198069811545,"connected_time":222000000000,"state":"active","ping":34},{"user_id":203,"name":"William Wallace","steam_id":76561199343316814,"connected_time":759000000000,"state":"active","ping":54},{"user_id":218,"name":"DeadMeme","steam_id":76561198269707793,"connected_time":129000000000,"state":"active","ping":91},{"user_id":165,"name":"minimalpair","steam_id":76561198071788709,"connected_time":3431000000000,"state":"active","ping":108},{"user_id":73,"name":"Pixler544","steam_id":76561198240575132,"connected_time":9985000000000,"state":"active","ping":61},{"user_id":216,"name":"bass player","steam_id":76561198203357580,"connected_time":132000000000,"state":"active","ping":62},{"user_id":213,"name":"Trey The Awesome","steam_id":76561198370718264,"connected_time":203000000000,"state":"active","ping":61},{"user_id":205,"name":"AttackCommander","steam_id":76561198111522679,"connected_time":385000000000,"state":"active","ping":75},{"user_id":219,"name":"OpenDown","steam_id":76561198064132688,"connected_time":122000000000,"state":"active","ping":73},{"user_id":217,"name":"gib b","steam_id":76561198048425690,"connected_time":132000000000,"state":"active","ping":59},{"user_id":187,"name":"AureateAura","steam_id":76561198046902265,"connected_time":1507000000000,"state":"active","ping":73},{"user_id":214,"name":"Boogie","steam_id":76561198043626626,"connected_time":202000000000,"state":"active","ping":71},{"user_id":206,"name":"Brain Rot Zee","steam_id":76561198094070642,"connected_time":369000000000,"state":"active","ping":99},{"user_id":207,"name":"Got Hat?","steam_id":76561197998486431,"connected_time":359000000000,"state":"active","ping":59},{"user_id":220,"name":"LerN","steam_id":76561198083463877,"connected_time":53000000000,"state":"active","ping":61},{"user_id":215,"name":"Possessd Pyro","steam_id":76561198389830988,"connected_time":184000000000,"state":"active","ping":65},{"user_id":210,"name":"teddyswk","steam_id":76561198404939571,"connected_time":299000000000,"state":"active","ping":166},{"user_id":221,"name":"Minlit","steam_id":76561198205832799,"connected_time":51000000000,"state":"active","ping":74},{"user_id":201,"name":"GatorAIDS","steam_id":76561198043220092,"connected_time":835000000000,"state":"active","ping":61},{"user_id":202,"name":"magotago","steam_id":76561198013650292,"connected_time":826000000000,"state":"active","ping":87}]},{"server_id":400,"name":"Uncletopia | Atlanta | 3 | Community","name_short":"atl-3","host":"atl-1.us.uncletopia.com","port":27035,"enabled":true,"region":"us-east","cc":"us","latitude":33.753746,"longitude":-84.38633,"reserved":0,"last_update":"0001-01-01T00:00:00Z","name_a2s":"Uncletopia | Atlanta | 3 | Community","protocol":17,"map":"cp_mountainlab","folder":"tf","game":"Team Fortress","app_id":440,"player_count":0,"max_players":24,"Bots":0,"server_type":"Dedicated","server_os":"Linux","password":true,"vac":true,"version":"7757534","steam_id":85568392924515187,"keywords":["cp","nocrits","nodmgspread","uncletopia"],"game_id":440,"stv_port":27036,"stv_name":"Uncletopia | Atlanta | 3 | Community | STV","players":null},{"server_id":401,"name":"Uncletopia | Atlanta | 4 | No Payload","name_short":"atl-4","host":"atl-1.us.uncletopia.com","port":27045,"enabled":true,"region":"us-east","cc":"us","latitude":33.753746,"longitude":-84.38633,"reserved":0,"last_update":"0001-01-01T00:00:00Z","name_a2s":"","protocol":0,"map":"","folder":"","game":"","app_id":0,"player_count":0,"max_players":0,"Bots":0,"server_type":"","server_os":"","password":false,"vac":false,"version":"","steam_id":0,"keywords":null,"game_id":0,"stv_port":0,"stv_name":"","players":null},{"server_id":2,"name":"Uncletopia | Chicago | 1 | All Maps","name_short":"chi-1","host":"chi-1.us.uncletopia.com","port":27015,"enabled":true,"region":"us-central","cc":"us","latitude":41.881832,"longitude":-87.62318,"reserved":0,"last_update":"0001-01-01T00:00:00Z","name_a2s":"Uncletopia | Chicago | 1 | All Maps","protocol":17,"map":"cp_dustbowl","folder":"tf","game":"Team Fortress","app_id":440,"player_count":0,"max_players":24,"Bots":0,"server_type":"Dedicated","server_os":"Linux","password":true,"vac":true,"version":"7757534","steam_id":85568392924469984,"keywords":["cp","nocrits","nodmgspread","uncletopia"],"game_id":440,"stv_port":27016,"stv_name":"Uncletopia | Chicago | 1 | All Maps | STV","players":null},{"server_id":106,"name":"Uncletopia | Chicago | 2 | All Maps","name_short":"chi-2","host":"chi-1.us.uncletopia.com","port":27025,"enabled":true,"region":"us-central","cc":"us","latitude":41.881832,"longitude":-87.62318,"reserved":0,"last_update":"0001-01-01T00:00:00Z","name_a2s":"Uncletopia | Chicago | 2 | All Maps","protocol":17,"map":"pl_barnblitz","folder":"tf","game":"Team Fortress","app_id":440,"player_count":24,"max_players":24,"Bots":0,"server_type":"Dedicated","server_os":"Linux","password":true,"vac":true,"version":"7757534","steam_id":85568392924469985,"keywords":["nocrits","nodmgspread","payload","uncletopia"],"game_id":440,"stv_port":27026,"stv_name":"Uncletopia | Chicago | 2 | All Maps | STV","players":[{"user_id":129,"name":"googy doogy","steam_id":76561199025852100,"connected_time":296000000000,"state":"active","ping":60},{"user_id":131,"name":"Matisguy","steam_id":76561199020903681,"connected_time":283000000000,"state":"active","ping":81},{"user_id":104,"name":"Goatüêê","steam_id":76561198156459220,"connected_time":1518000000000,"state":"active","ping":72},{"user_id":124,"name":"Florist","steam_id":76561198009121060,"connected_time":521000000000,"state":"active","ping":91},{"user_id":121,"name":"Pinto","steam_id":76561199105386998,"connected_time":603000000000,"state":"active","ping":75},{"user_id":119,"name":"a_person_159","steam_id":76561199024416326,"connected_time":671000000000,"state":"active","ping":60},{"user_id":91,"name":"Cryonics","steam_id":76561198314197911,"connected_time":2010000000000,"state":"active","ping":62},{"user_id":111,"name":"int","steam_id":76561198155720118,"connected_time":1323000000000,"state":"active","ping":57},{"user_id":92,"name":"sax","steam_id":76561198094788852,"connected_time":1998000000000,"state":"active","ping":46},{"user_id":132,"name":"yomommasabitch","steam_id":76561198323217150,"connected_time":17000000000,"state":"active","ping":60},{"user_id":70,"name":"tyg","steam_id":76561198056246867,"connected_time":4102000000000,"state":"active","ping":66},{"user_id":93,"name":"nao","steam_id":76561199067925855,"connected_time":1993000000000,"state":"active","ping":53},{"user_id":122,"name":"uzr","steam_id":76561198799343084,"connected_time":592000000000,"state":"active","ping":107},{"user_id":117,"name":"Critscare","steam_id":76561198087712508,"connected_time":775000000000,"state":"active","ping":44},{"user_id":127,"name":"jn tr po","steam_id":76561198120327601,"connected_time":309000000000,"state":"active","ping":81},{"user_id":107,"name":"vv","steam_id":76561198134813102,"connected_time":1428000000000,"state":"active","ping":60},{"user_id":108,"name":"turd ferguson","steam_id":76561198071620782,"connected_time":1421000000000,"state":"active","ping":99},{"user_id":120,"name":"ƒ†1 ‚ô¶ Synth","steam_id":76561198058660228,"connected_time":636000000000,"state":"active","ping":58},{"user_id":125,"name":"Satan-2","steam_id":76561199231742764,"connected_time":470000000000,"state":"active","ping":69},{"user_id":118,"name":"Tingus Pingus","steam_id":76561198155412348,"connected_time":719000000000,"state":"active","ping":63},{"user_id":126,"name":"Thumbs","steam_id":76561199065890132,"connected_time":321000000000,"state":"active","ping":66},{"user_id":85,"name":"Ceiling Man","steam_id":76561198003959902,"connected_time":2396000000000,"state":"active","ping":58},{"user_id":109,"name":"‚ù§ThatKidNextDoor‚ù§","steam_id":76561198301473912,"connected_time":1418000000000,"state":"active","ping":58},{"user_id":115,"name":"crusty toilet stains","steam_id":76561198156873737,"connected_time":915000000000,"state":"active","ping":59}]},{"server_id":402,"name":"Uncletopia | Chicago | 3 | All Maps","name_short":"chi-3","host":"chi-1.us.uncletopia.com","port":27035,"enabled":true,"region":"us-central","cc":"us","latitude":41.881832,"longitude":-87.62318,"reserved":0,"last_update":"0001-01-01T00:00:00Z","name_a2s":"Uncletopia | Chicago | 3 | All Maps","protocol":17,"map":"koth_cascade","folder":"tf","game":"Team Fortress","app_id":440,"player_count":0,"max_players":24,"Bots":0,"server_type":"Dedicated","server_os":"Linux","password":true,"vac":true,"version":"7757534","steam_id":85568392924515191,"keywords":["cp","nocrits","nodmgspread","uncletopia"],"game_id":440,"stv_port":27036,"stv_name":"Uncletopia | Chicago | 3 | All Maps | STV","players":null},{"server_id":403,"name":"Uncletopia | Chicago | 4 | All Maps","name_short":"chi-4","host":"chi-1.us.uncletopia.com","port":27045,"enabled":true,"region":"us-central","cc":"us","latitude":41.881832,"longitude":-87.62318,"reserved":0,"last_update":"0001-01-01T00:00:00Z","name_a2s":"Uncletopia | Chicago | 4 | All Maps","protocol":17,"map":"pl_snowycoast","folder":"tf","game":"Team Fortress","app_id":440,"player_count":6,"max_players":24,"Bots":0,"server_type":"Dedicated","server_os":"Linux","password":true,"vac":true,"version":"7757534","steam_id":85568392924515193,"keywords":["nocrits","nodmgspread","payload","uncletopia"],"game_id":440,"stv_port":27046,"stv_name":"Uncletopia | Chicago | 4 | All Maps | STV","players":[{"user_id":339,"name":"TheMilkMan","steam_id":76561199068930228,"connected_time":81000000000,"state":"active","ping":86},{"user_id":328,"name":"xd Clover","steam_id":76561198038905361,"connected_time":1355000000000,"state":"active","ping":60},{"user_id":329,"name":"ShadBad","steam_id":76561198248287390,"connected_time":1230000000000,"state":"active","ping":95},{"user_id":335,"name":"Infinity_player","steam_id":76561198289537274,"connected_time":641000000000,"state":"active","ping":205},{"user_id":337,"name":"TacticalGlizzy","steam_id":76561198144786171,"connected_time":446000000000,"state":"active","ping":62},{"user_id":331,"name":"[DEEP] Danmar33","steam_id":76561198056453091,"connected_time":1181000000000,"state":"active","ping":46}]},{"server_id":36,"name":"Uncletopia | Chicago | 5 | All Maps","name_short":"chi-5","host":"chi-2.us.uncletopia.com","port":27015,"enabled":true,"region":"us-central","cc":"us","latitude":41.881832,"longitude":-87.62318,"reserved":0,"last_update":"0001-01-01T00:00:00Z","name_a2s":"Uncletopia | Chicago | 5 | All Maps","protocol":17,"map":"koth_lakeside_final","folder":"tf","game":"Team Fortress","app_id":440,"player_count":0,"max_players":24,"Bots":0,"server_type":"Dedicated","server_os":"Linux","password":true,"vac":true,"version":"7757534","steam_id":85568392924866362,"keywords":["cp","nocrits","nodmgspread","uncletopia"],"game_id":440,"stv_port":27016,"stv_name":"Uncletopia | Chicago | 5 | All Maps | STV","players":null},{"server_id":37,"name":"Uncletopia | Chicago | 6 | All Maps","name_short":"chi-6","host":"chi-2.us.uncletopia.com","port":27025,"enabled":true,"region":"us-central","cc":"us","latitude":41.881832,"longitude":-87.62318,"reserved":0,"last_update":"0001-01-01T00:00:00Z","name_a2s":"Uncletopia | Chicago | 6 | All Maps","protocol":17,"map":"koth_highpass","folder":"tf","game":"Team Fortress","app_id":440,"player_count":24,"max_players":24,"Bots":0,"server_type":"Dedicated","server_os":"Linux","password":true,"vac":true,"version":"7757534","steam_id":85568392924866363,"keywords":["cp","nocrits","nodmgspread","uncletopia"],"game_id":440,"stv_port":27026,"stv_name":"Uncletopia | Chicago | 6 | All Maps | STV","players":[{"user_id":155,"name":"Bali","steam_id":76561198038693845,"connected_time":555000000000,"state":"active","ping":88},{"user_id":148,"name":"Goofball","steam_id":76561198074189084,"connected_time":1095000000000,"state":"active","ping":54},{"user_id":152,"name":"Jacket","steam_id":76561198941391790,"connected_time":628000000000,"state":"active","ping":55},{"user_id":150,"name":"Kohbold","steam_id":76561198996480140,"connected_time":712000000000,"state":"active","ping":94},{"user_id":143,"name":"SturmTea","steam_id":76561198027371308,"connected_time":1293000000000,"state":"active","ping":77},{"user_id":151,"name":"chulps","steam_id":76561198217058421,"connected_time":663000000000,"state":"active","ping":59},{"user_id":129,"name":"sometimes your made of stupid \u003c","steam_id":76561198849924462,"connected_time":2150000000000,"state":"active","ping":79},{"user_id":160,"name":"ArrowOmega","steam_id":76561198079364917,"connected_time":439000000000,"state":"active","ping":65},{"user_id":145,"name":"I can't heal","steam_id":76561198039763676,"connected_time":1156000000000,"state":"active","ping":60},{"user_id":156,"name":"rustyorion","steam_id":76561198439186347,"connected_time":530000000000,"state":"active","ping":99},{"user_id":166,"name":"Cousin Corn on the Cob","steam_id":76561198049837377,"connected_time":116000000000,"state":"active","ping":50},{"user_id":158,"name":"voidpuppy","steam_id":76561198799922000,"connected_time":497000000000,"state":"active","ping":98},{"user_id":162,"name":"huh","steam_id":76561198068654532,"connected_time":407000000000,"state":"active","ping":85},{"user_id":116,"name":"lavender","steam_id":76561199069518286,"connected_time":3142000000000,"state":"active","ping":100},{"user_id":141,"name":"Zach_The_Flower","steam_id":76561199151266003,"connected_time":1569000000000,"state":"active","ping":82},{"user_id":124,"name":"fish","steam_id":76561199072142013,"connected_time":2316000000000,"state":"active","ping":143},{"user_id":159,"name":"manbearswineflu","steam_id":76561198083945137,"connected_time":470000000000,"state":"active","ping":65},{"user_id":164,"name":"Gordon Ramsay","steam_id":76561198123893900,"connected_time":302000000000,"state":"active","ping":75},{"user_id":142,"name":"[LINUX] Purple Penguin Pybro","steam_id":76561198093538786,"connected_time":1358000000000,"state":"active","ping":67},{"user_id":123,"name":"Mask","steam_id":76561198877649728,"connected_time":2433000000000,"state":"active","ping":167},{"user_id":161,"name":"Mr.Gingersnap","steam_id":76561197996625467,"connected_time":423000000000,"state":"active","ping":116},{"user_id":139,"name":"Jared In Target","steam_id":76561198372449718,"connected_time":1668000000000,"state":"active","ping":82},{"user_id":165,"name":"Acro Banwagon","steam_id":76561198092451804,"connected_time":270000000000,"state":"active","ping":68},{"user_id":134,"name":"faxxy","steam_id":76561198079621240,"connected_time":2025000000000,"state":"active","ping":81}]},{"server_id":38,"name":"Uncletopia | Chicago | 7 | Stopwatch Beta","name_short":"chi-7","host":"chi-2.us.uncletopia.com","port":27035,"enabled":true,"region":"us-central","cc":"us","latitude":41.881832,"longitude":-87.62318,"reserved":0,"last_update":"0001-01-01T00:00:00Z","name_a2s":"Uncletopia | Chicago | 7 | Stopwatch Beta","protocol":17,"map":"koth_viaduct","folder":"tf","game":"Team Fortress","app_id":440,"player_count":0,"max_players":24,"Bots":0,"server_type":"Dedicated","server_os":"Linux","password":true,"vac":true,"version":"7757534","steam_id":85568392924866364,"keywords":["cp","nocrits","nodmgspread","uncletopia"],"game_id":440,"stv_port":27036,"stv_name":"Uncletopia | Chicago | 7 | Stopwatch Beta | STV","players":null},{"server_id":39,"name":"Uncletopia | Chicago | 8 | Community","name_short":"chi-8","host":"chi-2.us.uncletopia.com","port":27045,"enabled":true,"region":"us-central","cc":"us","latitude":41.881832,"longitude":-87.62318,"reserved":0,"last_update":"0001-01-01T00:00:00Z","name_a2s":"Uncletopia | Chicago | 8 | Community","protocol":17,"map":"koth_lakeside_final","folder":"tf","game":"Team Fortress","app_id":440,"player_count":0,"max_players":24,"Bots":0,"server_type":"Dedicated","server_os":"Linux","password":true,"vac":true,"version":"7757534","steam_id":85568392924866365,"keywords":["cp","nocrits","nodmgspread","uncletopia"],"game_id":440,"stv_port":27046,"stv_name":"Uncletopia | Chicago | 8 | Community | STV","players":null},{"server_id":8,"name":"Uncletopia | Dallas | 1 | All Maps","name_short":"dal-1","host":"dal-1.us.uncletopia.com","port":27015,"enabled":true,"region":"us-central","cc":"us","latitude":32.779167,"longitude":-96.80889,"reserved":0,"last_update":"0001-01-01T00:00:00Z","name_a2s":"Uncletopia | Dallas | 1 | All Maps","protocol":17,"map":"cp_process_final","folder":"tf","game":"Team Fortress","app_id":440,"player_count":4,"max_players":24,"Bots":0,"server_type":"Dedicated","server_os":"Linux","password":true,"vac":true,"version":"7757534","steam_id":85568392924469986,"keywords":["cp","nocrits","nodmgspread","uncletopia"],"game_id":440,"stv_port":27016,"stv_name":"Uncletopia | Dallas | 1 | All Maps | STV","players":[{"user_id":18,"name":"SamTheSUS42069","steam_id":76561199107726672,"connected_time":1662000000000,"state":"active","ping":84},{"user_id":21,"name":"radiohead enjoyer","steam_id":76561198397662124,"connected_time":1330000000000,"state":"active","ping":61},{"user_id":22,"name":"SinkPinkles","steam_id":76561197987805095,"connected_time":873000000000,"state":"active","ping":74},{"user_id":25,"name":"Derply","steam_id":76561198871211642,"connected_time":224000000000,"state":"active","ping":70}]},{"server_id":108,"name":"Uncletopia | Dallas | 2 | All Maps","name_short":"dal-2","host":"dal-1.us.uncletopia.com","port":27025,"enabled":true,"region":"us-central","cc":"us","latitude":32.779167,"longitude":-96.80889,"reserved":0,"last_update":"0001-01-01T00:00:00Z","name_a2s":"Uncletopia | Dallas | 2 | All Maps","protocol":17,"map":"cp_process_final","folder":"tf","game":"Team Fortress","app_id":440,"player_count":0,"max_players":24,"Bots":0,"server_type":"Dedicated","server_os":"Linux","password":true,"vac":true,"version":"7757534","steam_id":85568392924469988,"keywords":["cp","nocrits","nodmgspread","uncletopia"],"game_id":440,"stv_port":27026,"stv_name":"Uncletopia | Dallas | 2 | All Maps | STV","players":null},{"server_id":5,"name":"Uncletopia | Frankfurt | 1 | All Maps","name_short":"frk-1","host":"frk-1.de.uncletopia.com","port":27015,"enabled":true,"region":"eu","cc":"de","latitude":50.110924,"longitude":8.682127,"reserved":0,"last_update":"0001-01-01T00:00:00Z","name_a2s":"Uncletopia | Frankfurt | 1 | All Maps","protocol":17,"map":"pl_pier","folder":"tf","game":"Team Fortress","app_id":440,"player_count":24,"max_players":24,"Bots":0,"server_type":"Dedicated","server_os":"Linux","password":true,"vac":true,"version":"7757534","steam_id":85568392924469989,"keywords":["nocrits","nodmgspread","payload","uncletopia"],"game_id":440,"stv_port":27016,"stv_name":"Uncletopia | Frankfurt | 1 | All Maps | STV","players":[{"user_id":394,"name":"Rashid Besythe","steam_id":76561198081477129,"connected_time":120000000000,"state":"active","ping":68},{"user_id":342,"name":"Rodia","steam_id":76561197968293161,"connected_time":4100000000000,"state":"active","ping":60},{"user_id":390,"name":"bAdmon","steam_id":76561197961785793,"connected_time":361000000000,"state":"active","ping":56},{"user_id":357,"name":"Bumblebee","steam_id":76561198033551105,"connected_time":3276000000000,"state":"active","ping":65},{"user_id":363,"name":"Rizzly Bear","steam_id":76561199012155377,"connected_time":2104000000000,"state":"active","ping":43},{"user_id":365,"name":"YuraGreek","steam_id":76561198050182252,"connected_time":2087000000000,"state":"active","ping":75},{"user_id":388,"name":"Diggity","steam_id":76561198297157085,"connected_time":577000000000,"state":"active","ping":60},{"user_id":336,"name":"Taez","steam_id":76561198261820803,"connected_time":5509000000000,"state":"active","ping":66},{"user_id":386,"name":"moser23","steam_id":76561197960543171,"connected_time":704000000000,"state":"active","ping":47},{"user_id":317,"name":"Hegyi tah√≥ F2P","steam_id":76561199219150356,"connected_time":7004000000000,"state":"active","ping":81},{"user_id":391,"name":"Sergeant Soldier","steam_id":76561198054375832,"connected_time":351000000000,"state":"active","ping":56},{"user_id":395,"name":"Michael","steam_id":76561198003146906,"connected_time":63000000000,"state":"active","ping":64},{"user_id":396,"name":"penisfinger","steam_id":76561198103904286,"connected_time":34000000000,"state":"spawning","ping":75},{"user_id":348,"name":"Uncle Owen","steam_id":76561198157999291,"connected_time":3966000000000,"state":"active","ping":81},{"user_id":387,"name":"hapi bananuh","steam_id":76561198091547092,"connected_time":666000000000,"state":"active","ping":160},{"user_id":349,"name":"luma","steam_id":76561198081649669,"connected_time":3962000000000,"state":"active","ping":61},{"user_id":384,"name":"CommanderLex","steam_id":76561198123115529,"connected_time":751000000000,"state":"active","ping":55},{"user_id":389,"name":"Swift","steam_id":76561197998799889,"connected_time":372000000000,"state":"active","ping":58},{"user_id":374,"name":"Pingu","steam_id":76561198207966532,"connected_time":1766000000000,"state":"active","ping":68},{"user_id":376,"name":"hora","steam_id":76561198404470526,"connected_time":1371000000000,"state":"active","ping":99},{"user_id":371,"name":"LivEssense","steam_id":76561198052476979,"connected_time":1958000000000,"state":"active","ping":86},{"user_id":160,"name":"Pico","steam_id":76561198063552545,"connected_time":14626000000000,"state":"active","ping":98},{"user_id":392,"name":"Vad'Qua","steam_id":76561198035745632,"connected_time":327000000000,"state":"active","ping":76},{"user_id":393,"name":"„ÉÜ„Ç§„É´„Çπ","steam_id":76561198022403271,"connected_time":300000000000,"state":"active","ping":45}]},{"server_id":110,"name":"Uncletopia | Frankfurt | 2 | All Maps","name_short":"frk-2","host":"frk-1.de.uncletopia.com","port":27025,"enabled":true,"region":"eu","cc":"de","latitude":50.110924,"longitude":8.682127,"reserved":0,"last_update":"0001-01-01T00:00:00Z","name_a2s":"Uncletopia | Frankfurt | 2 | All Maps","protocol":17,"map":"cp_mountainlab","folder":"tf","game":"Team Fortress","app_id":440,"player_count":0,"max_players":24,"Bots":0,"server_type":"Dedicated","server_os":"Linux","password":true,"vac":true,"version":"7757534","steam_id":85568392924469990,"keywords":["cp","nocrits","nodmgspread","uncletopia"],"game_id":440,"stv_port":27026,"stv_name":"Uncletopia | Frankfurt | 2 | All Maps | STV","players":null},{"server_id":308,"name":"Uncletopia | Frankfurt | 3 | All Maps","name_short":"frk-3","host":"frk-1.de.uncletopia.com","port":27035,"enabled":true,"region":"eu","cc":"de","latitude":50.110924,"longitude":8.682127,"reserved":0,"last_update":"0001-01-01T00:00:00Z","name_a2s":"Uncletopia | Frankfurt | 3 | All Maps","protocol":17,"map":"koth_highpass","folder":"tf","game":"Team Fortress","app_id":440,"player_count":0,"max_players":24,"Bots":0,"server_type":"Dedicated","server_os":"Linux","password":true,"vac":true,"version":"7757534","steam_id":85568392924504274,"keywords":["cp","nocrits","nodmgspread","uncletopia"],"game_id":440,"stv_port":27036,"stv_name":"Uncletopia | Frankfurt | 3 | All Maps | STV","players":null},{"server_id":309,"name":"Uncletopia | Frankfurt | 4 | All Maps","name_short":"frk-4","host":"frk-1.de.uncletopia.com","port":27045,"enabled":true,"region":"eu","cc":"de","latitude":50.110924,"longitude":8.682127,"reserved":0,"last_update":"0001-01-01T00:00:00Z","name_a2s":"Uncletopia | Frankfurt | 4 | All Maps","protocol":17,"map":"pl_borneo","folder":"tf","game":"Team Fortress","app_id":440,"player_count":24,"max_players":24,"Bots":0,"server_type":"Dedicated","server_os":"Linux","password":true,"vac":true,"version":"7757534","steam_id":85568392924504275,"keywords":["nocrits","nodmgspread","payload","uncletopia"],"game_id":440,"stv_port":27046,"stv_name":"Uncletopia | Frankfurt | 4 | All Maps | STV","players":[{"user_id":137,"name":"HOTEL LOBBY","steam_id":76561198048250715,"connected_time":2253000000000,"state":"active","ping":45},{"user_id":123,"name":"christmas with weezer","steam_id":76561198863788240,"connected_time":3317000000000,"state":"active","ping":74},{"user_id":145,"name":"vi hava en usel regering","steam_id":76561198037978654,"connected_time":1342000000000,"state":"active","ping":69},{"user_id":124,"name":"Sky","steam_id":76561198087415698,"connected_time":3140000000000,"state":"active","ping":60},{"user_id":97,"name":"streamer","steam_id":76561199216923710,"connected_time":4878000000000,"state":"active","ping":144},{"user_id":146,"name":"Tlad2","steam_id":76561198854897667,"connected_time":1341000000000,"state":"active","ping":77},{"user_id":148,"name":"outlaw","steam_id":76561198323805289,"connected_time":1332000000000,"state":"active","ping":46},{"user_id":143,"name":"regimiro","steam_id":76561198120457008,"connected_time":1545000000000,"state":"active","ping":61},{"user_id":144,"name":"wxyz kapƒ±cƒ± izzet","steam_id":76561198241873438,"connected_time":1545000000000,"state":"active","ping":75},{"user_id":149,"name":"Spootnak","steam_id":76561198049052518,"connected_time":1326000000000,"state":"active","ping":66},{"user_id":156,"name":"Ledze Shuns Dope","steam_id":76561198049945010,"connected_time":723000000000,"state":"active","ping":57},{"user_id":47,"name":"Khazton","steam_id":76561197985241877,"connected_time":8977000000000,"state":"active","ping":96},{"user_id":129,"name":"GrossViche","steam_id":76561198184620926,"connected_time":2929000000000,"state":"active","ping":60},{"user_id":141,"name":"cazador","steam_id":76561198123096922,"connected_time":1695000000000,"state":"active","ping":97},{"user_id":155,"name":"After8","steam_id":76561198090750865,"connected_time":811000000000,"state":"active","ping":66},{"user_id":134,"name":"Dolcelatte","steam_id":76561198038501770,"connected_time":2611000000000,"state":"active","ping":51},{"user_id":161,"name":"busgrabb","steam_id":76561198055768465,"connected_time":102000000000,"state":"active","ping":63},{"user_id":162,"name":"Archer","steam_id":76561198132860299,"connected_time":72000000000,"state":"active","ping":70},{"user_id":135,"name":"GOD OF CUM","steam_id":76561198417171790,"connected_time":2570000000000,"state":"active","ping":68},{"user_id":136,"name":"idk","steam_id":76561199153286032,"connected_time":2487000000000,"state":"active","ping":94},{"user_id":153,"name":"cinny","steam_id":76561198832112629,"connected_time":1256000000000,"state":"active","ping":89},{"user_id":133,"name":"Mr.Fosty","steam_id":76561198045212783,"connected_time":2677000000000,"state":"active","ping":79},{"user_id":88,"name":"‚ô• TRANS RIGHTS ‚ô•","steam_id":76561198066258544,"connected_time":5370000000000,"state":"active","ping":59},{"user_id":157,"name":"M4R1O","steam_id":76561198050528464,"connected_time":409000000000,"state":"active","ping":63}]},{"server_id":310,"name":"Uncletopia | Frankfurt | 5 | All Maps","name_short":"frk-5","host":"frk-1.de.uncletopia.com","port":27055,"enabled":true,"region":"eu","cc":"de","latitude":50.110924,"longitude":8.682127,"reserved":0,"last_update":"0001-01-01T00:00:00Z","name_a2s":"Uncletopia | Frankfurt | 5 | All Maps","protocol":17,"map":"cp_altitude","folder":"tf","game":"Team Fortress","app_id":440,"player_count":0,"max_players":24,"Bots":0,"server_type":"Dedicated","server_os":"Linux","password":true,"vac":true,"version":"7757534","steam_id":85568392924504277,"keywords":["cp","nocrits","nodmgspread","uncletopia"],"game_id":440,"stv_port":27056,"stv_name":"Uncletopia | Frankfurt | 5 | All Maps | STV","players":null},{"server_id":311,"name":"Uncletopia | Frankfurt | 6 | All Maps","name_short":"frk-6","host":"frk-1.de.uncletopia.com","port":27065,"enabled":true,"region":"eu","cc":"de","latitude":50.110924,"longitude":8.682127,"reserved":0,"last_update":"0001-01-01T00:00:00Z","name_a2s":"Uncletopia | Frankfurt | 6 | All Maps","protocol":17,"map":"pl_pier","folder":"tf","game":"Team Fortress","app_id":440,"player_count":24,"max_players":24,"Bots":0,"server_type":"Dedicated","server_os":"Linux","password":true,"vac":true,"version":"7757534","steam_id":85568392924504278,"keywords":["nocrits","nodmgspread","payload","uncletopia"],"game_id":440,"stv_port":27066,"stv_name":"Uncletopia | Frankfurt | 6 | All Maps | STV","players":[{"user_id":111,"name":"Haku*","steam_id":76561198013292193,"connected_time":1641000000000,"state":"active","ping":60},{"user_id":88,"name":"Hoff","steam_id":76561198138540938,"connected_time":2756000000000,"state":"active","ping":72},{"user_id":130,"name":"Û†Ä°Û†Ä°","steam_id":76561198015585266,"connected_time":363000000000,"state":"active","ping":74},{"user_id":116,"name":"Empress of Blades","steam_id":76561198044798583,"connected_time":1440000000000,"state":"active","ping":75},{"user_id":136,"name":"Boki","steam_id":76561198044553351,"connected_time":162000000000,"state":"active","ping":76},{"user_id":117,"name":"mmlock","steam_id":76561198069516191,"connected_time":1432000000000,"state":"active","ping":45},{"user_id":96,"name":"Seal","steam_id":76561198093461170,"connected_time":2512000000000,"state":"active","ping":58},{"user_id":23,"name":"HeyHoCaptainJack","steam_id":76561198271825794,"connected_time":4837000000000,"state":"active","ping":62},{"user_id":127,"name":"rizook","steam_id":76561198055010039,"connected_time":403000000000,"state":"active","ping":71},{"user_id":102,"name":"_Shkoot","steam_id":76561198318170398,"connected_time":2291000000000,"state":"active","ping":51},{"user_id":126,"name":"‚òÖpoyo‚òÖ","steam_id":76561198150078959,"connected_time":493000000000,"state":"active","ping":64},{"user_id":132,"name":"Neytan","steam_id":76561198027024747,"connected_time":220000000000,"state":"active","ping":114},{"user_id":122,"name":"Cheers Mate!","steam_id":76561198265192382,"connected_time":1050000000000,"state":"active","ping":69},{"user_id":133,"name":"Loki Beaker","steam_id":76561198048086250,"connected_time":201000000000,"state":"active","ping":44},{"user_id":118,"name":"MaxwellSouth","steam_id":76561198819773783,"connected_time":1416000000000,"state":"active","ping":66},{"user_id":131,"name":"Oxer","steam_id":76561198055942412,"connected_time":236000000000,"state":"active","ping":83},{"user_id":134,"name":"ant753","steam_id":76561198103458889,"connected_time":201000000000,"state":"active","ping":115},{"user_id":72,"name":"lazoboy","steam_id":76561199074095198,"connected_time":3290000000000,"state":"active","ping":117},{"user_id":135,"name":"gGABEsz","steam_id":76561198117199068,"connected_time":199000000000,"state":"active","ping":62},{"user_id":113,"name":"alx","steam_id":76561198012445580,"connected_time":1489000000000,"state":"active","ping":104},{"user_id":98,"name":"fried","steam_id":76561198307522022,"connected_time":2468000000000,"state":"active","ping":54},{"user_id":105,"name":"Huuvi","steam_id":76561198265451304,"connected_time":2148000000000,"state":"active","ping":85},{"user_id":128,"name":"Doodski-Swoop","steam_id":76561198190387257,"connected_time":402000000000,"state":"active","ping":107},{"user_id":119,"name":"Solymr ibn Wali Barad","steam_id":76561198044008976,"connected_time":1416000000000,"state":"active","ping":75}]},{"server_id":23,"name":"Uncletopia | Frankfurt | 7 | Stopwatch Beta","name_short":"frk-7","host":"frk-1.de.uncletopia.com","port":27075,"enabled":true,"region":"eu","cc":"de","latitude":50.110924,"longitude":8.682127,"reserved":0,"last_update":"0001-01-01T00:00:00Z","name_a2s":"Uncletopia | Frankfurt | 7 | Stopwatch Beta","protocol":17,"map":"pl_borneo","folder":"tf","game":"Team Fortress","app_id":440,"player_count":0,"max_players":24,"Bots":0,"server_type":"Dedicated","server_os":"Linux","password":true,"vac":true,"version":"7757534","steam_id":85568392924742827,"keywords":["nocrits","nodmgspread","payload","uncletopia"],"game_id":440,"stv_port":27076,"stv_name":"Uncletopia | Frankfurt | 7 | Stopwatch Beta | STV","players":null},{"server_id":24,"name":"Uncletopia | Frankfurt | 8 | Community","name_short":"frk-8","host":"frk-1.de.uncletopia.com","port":27085,"enabled":true,"region":"eu","cc":"de","latitude":50.110924,"longitude":8.682127,"reserved":0,"last_update":"0001-01-01T00:00:00Z","name_a2s":"Uncletopia | Frankfurt | 8 | Community","protocol":17,"map":"workshop/cp_hazyfort_rc6.ugc1365963729","folder":"tf","game":"Team Fortress","app_id":440,"player_count":0,"max_players":24,"Bots":0,"server_type":"Dedicated","server_os":"Linux","password":true,"vac":true,"version":"7757534","steam_id":85568392924742828,"keywords":["cp","nocrits","nodmgspread","uncletopia"],"game_id":440,"stv_port":27086,"stv_name":"Uncletopia | Frankfurt | 8 | Community | STV","players":null},{"server_id":202,"name":"Uncletopia | Hong Kong | 1 | All Maps","name_short":"hgk-1","host":"hgk-1.hk.uncletopia.com","port":27015,"enabled":true,"region":"asia","cc":"hk","latitude":22.302711,"longitude":114.177216,"reserved":0,"last_update":"0001-01-01T00:00:00Z","name_a2s":"Uncletopia | Hong Kong | 1 | All Maps","protocol":17,"map":"koth_cascade","folder":"tf","game":"Team Fortress","app_id":440,"player_count":0,"max_players":24,"Bots":0,"server_type":"Dedicated","server_os":"Linux","password":true,"vac":true,"version":"7757534","steam_id":85568392924494504,"keywords":["cp","nocrits","nodmgspread","uncletopia"],"game_id":440,"stv_port":27016,"stv_name":"Uncletopia | Hong Kong | 1 | All Maps | STV","players":null},{"server_id":1,"name":"Uncletopia | Los Angeles | 1 | All Maps","name_short":"lax-1","host":"lax-1.us.uncletopia.com","port":27015,"enabled":true,"region":"us-west","cc":"us","latitude":33.94279,"longitude":-118.41004,"reserved":0,"last_update":"0001-01-01T00:00:00Z","name_a2s":"Uncletopia | Los Angeles | 1 | All Maps","protocol":17,"map":"cp_process_final","folder":"tf","game":"Team Fortress","app_id":440,"player_count":0,"max_players":24,"Bots":0,"server_type":"Dedicated","server_os":"Linux","password":true,"vac":true,"version":"7757534","steam_id":85568392924469991,"keywords":["cp","nocrits","nodmgspread","uncletopia"],"game_id":440,"stv_port":27016,"stv_name":"Uncletopia | Los Angeles | 1 | All Maps | STV","players":null},{"server_id":112,"name":"Uncletopia | Los Angeles | 2 | All Maps","name_short":"lax-2","host":"lax-1.us.uncletopia.com","port":27025,"enabled":true,"region":"us-west","cc":"us","latitude":33.94279,"longitude":-118.41004,"reserved":0,"last_update":"0001-01-01T00:00:00Z","name_a2s":"Uncletopia | Los Angeles | 2 | All Maps","protocol":17,"map":"koth_viaduct","folder":"tf","game":"Team Fortress","app_id":440,"player_count":0,"max_players":24,"Bots":0,"server_type":"Dedicated","server_os":"Linux","password":true,"vac":true,"version":"7757534","steam_id":85568392924469992,"keywords":["cp","nocrits","nodmgspread","uncletopia"],"game_id":440,"stv_port":27026,"stv_name":"Uncletopia | Los Angeles | 2 | All Maps | STV","players":null},{"server_id":324,"name":"Uncletopia | Los Angeles | 3 | All Maps","name_short":"lax-3","host":"lax-1.us.uncletopia.com","port":27035,"enabled":true,"region":"us-west","cc":"us","latitude":33.94279,"longitude":-118.41004,"reserved":0,"last_update":"0001-01-01T00:00:00Z","name_a2s":"Uncletopia | Los Angeles | 3 | All Maps","protocol":17,"map":"cp_altitude","folder":"tf","game":"Team Fortress","app_id":440,"player_count":0,"max_players":24,"Bots":0,"server_type":"Dedicated","server_os":"Linux","password":true,"vac":true,"version":"7757534","steam_id":85568392924510198,"keywords":["cp","nocrits","nodmgspread","uncletopia"],"game_id":440,"stv_port":27036,"stv_name":"Uncletopia | Los Angeles | 3 | All Maps | STV","players":null},{"server_id":25,"name":"Uncletopia | Los Angeles | 4 | Stopwatch Beta","name_short":"lax-4","host":"lax-1.us.uncletopia.com","port":27045,"enabled":true,"region":"us-west","cc":"us","latitude":33.94279,"longitude":-118.41004,"reserved":0,"last_update":"0001-01-01T00:00:00Z","name_a2s":"Uncletopia | Los Angeles | 4 | Stopwatch Beta","protocol":17,"map":"cp_dustbowl","folder":"tf","game":"Team Fortress","app_id":440,"player_count":0,"max_players":24,"Bots":0,"server_type":"Dedicated","server_os":"Linux","password":true,"vac":true,"version":"7757534","steam_id":85568392924510199,"keywords":["cp","nocrits","nodmgspread","uncletopia"],"game_id":440,"stv_port":27046,"stv_name":"Uncletopia | Los Angeles | 4 | Stopwatch Beta | STV","players":null},{"server_id":11,"name":"Uncletopia | London | 1 | All Maps","name_short":"lon-1","host":"lon-1.uk.uncletopia.com","port":27015,"enabled":true,"region":"eu","cc":"gb","latitude":51.509865,"longitude":-0.118092,"reserved":0,"last_update":"0001-01-01T00:00:00Z","name_a2s":"Uncletopia | London | 1 | All Maps","protocol":17,"map":"pl_borneo","folder":"tf","game":"Team Fortress","app_id":440,"player_count":24,"max_players":24,"Bots":0,"server_type":"Dedicated","server_os":"Linux","password":true,"vac":true,"version":"7757534","steam_id":85568392924367362,"keywords":["nocrits","nodmgspread","payload","uncletopia"],"game_id":440,"stv_port":27016,"stv_name":"Uncletopia | London | 1 | All Maps | STV","players":[{"user_id":372,"name":"dagadt_ty√∫k.69","steam_id":76561198147173457,"connected_time":2049000000000,"state":"active","ping":78},{"user_id":383,"name":"Beni ü¶ßüçå","steam_id":76561198011340227,"connected_time":473000000000,"state":"active","ping":59},{"user_id":352,"name":"SirToastSlice","steam_id":76561199229729107,"connected_time":3490000000000,"state":"active","ping":71},{"user_id":380,"name":"Kray","steam_id":76561198063585742,"connected_time":1169000000000,"state":"active","ping":49},{"user_id":365,"name":"Vitamin Weee","steam_id":76561199183937747,"connected_time":2413000000000,"state":"active","ping":98},{"user_id":363,"name":"COFFEE","steam_id":76561198869355986,"connected_time":2506000000000,"state":"active","ping":75},{"user_id":388,"name":"Mr. Data","steam_id":76561198039083551,"connected_time":267000000000,"state":"active","ping":88},{"user_id":385,"name":"happy","steam_id":76561198053141766,"connected_time":460000000000,"state":"active","ping":118},{"user_id":366,"name":"medium rare chicken enjoyer","steam_id":76561198050214002,"connected_time":2147000000000,"state":"active","ping":57},{"user_id":381,"name":"≈öRUTAAAAA","steam_id":76561198055683394,"connected_time":808000000000,"state":"active","ping":73},{"user_id":390,"name":"froggy","steam_id":76561198064115286,"connected_time":11000000000,"state":"active","ping":120},{"user_id":313,"name":"Piox","steam_id":76561198125689157,"connected_time":6074000000000,"state":"active","ping":75},{"user_id":376,"name":"fire","steam_id":76561198063674613,"connected_time":1436000000000,"state":"active","ping":59},{"user_id":361,"name":"Poppy Stingray","steam_id":76561198049673783,"connected_time":2520000000000,"state":"active","ping":65},{"user_id":340,"name":"medicinal man","steam_id":76561198202668788,"connected_time":4596000000000,"state":"active","ping":72},{"user_id":353,"name":"dominus.","steam_id":76561199065917088,"connected_time":3490000000000,"state":"active","ping":54},{"user_id":345,"name":"the penis balls balls penis","steam_id":76561198315772174,"connected_time":3988000000000,"state":"active","ping":88},{"user_id":373,"name":"benifis163","steam_id":76561198420973492,"connected_time":1803000000000,"state":"active","ping":116},{"user_id":364,"name":"Menty","steam_id":76561198036748212,"connected_time":2497000000000,"state":"active","ping":49},{"user_id":371,"name":"Caerot","steam_id":76561198839000676,"connected_time":2077000000000,"state":"active","ping":72},{"user_id":384,"name":"Son Goku","steam_id":76561199383437138,"connected_time":472000000000,"state":"active","ping":121},{"user_id":389,"name":"Wardruna96","steam_id":76561199057083828,"connected_time":44000000000,"state":"active","ping":89},{"user_id":348,"name":"dochris.2","steam_id":76561198026478625,"connected_time":3903000000000,"state":"active","ping":56},{"user_id":349,"name":"sareena","steam_id":76561198810194062,"connected_time":3872000000000,"state":"active","ping":72}]},{"server_id":114,"name":"Uncletopia | London | 2 | All Maps","name_short":"lon-2","host":"lon-1.uk.uncletopia.com","port":27025,"enabled":true,"region":"eu","cc":"gb","latitude":51.509865,"longitude":-0.118092,"reserved":0,"last_update":"0001-01-01T00:00:00Z","name_a2s":"Uncletopia | London | 2 | All Maps","protocol":17,"map":"pl_swiftwater_final1","folder":"tf","game":"Team Fortress","app_id":440,"player_count":24,"max_players":24,"Bots":0,"server_type":"Dedicated","server_os":"Linux","password":true,"vac":true,"version":"7757534","steam_id":85568392924470941,"keywords":["nocrits","nodmgspread","payload","uncletopia"],"game_id":440,"stv_port":27026,"stv_name":"Uncletopia | London | 2 | All Maps | STV","players":[{"user_id":480,"name":"Packet","steam_id":76561199173195875,"connected_time":714000000000,"state":"active","ping":89},{"user_id":465,"name":"kektuse","steam_id":76561198088426580,"connected_time":1386000000000,"state":"active","ping":70},{"user_id":431,"name":"Yrj√∂ Koskinen Yrj√∂-Koskinen","steam_id":76561198368181145,"connected_time":3406000000000,"state":"active","ping":85},{"user_id":486,"name":"Prinz Eugen","steam_id":76561198129154766,"connected_time":96000000000,"state":"active","ping":54},{"user_id":442,"name":"Chris","steam_id":76561198018626828,"connected_time":2742000000000,"state":"active","ping":53},{"user_id":476,"name":"mei ‚ô•","steam_id":76561198028078806,"connected_time":1163000000000,"state":"active","ping":52},{"user_id":478,"name":"Hey, I¬¥m Andy!","steam_id":76561198060337777,"connected_time":727000000000,"state":"active","ping":85},{"user_id":468,"name":"Captain HandicappedCock","steam_id":76561198109850402,"connected_time":1372000000000,"state":"active","ping":73},{"user_id":460,"name":"M√âZ","steam_id":76561198167504701,"connected_time":1743000000000,"state":"active","ping":70},{"user_id":482,"name":"arim","steam_id":76561197994600818,"connected_time":462000000000,"state":"active","ping":40},{"user_id":448,"name":"bear in the big blue house enjo","steam_id":76561198133532980,"connected_time":2516000000000,"state":"active","ping":45},{"user_id":483,"name":"–ù—ñ–∫—ñ—Ç—Ä–æ–Ω","steam_id":76561198044401080,"connected_time":442000000000,"state":"active","ping":64},{"user_id":426,"name":"oepidus","steam_id":76561198963841479,"connected_time":4114000000000,"state":"active","ping":87},{"user_id":467,"name":"sassy the sasquatch","steam_id":76561198844060342,"connected_time":1377000000000,"state":"active","ping":46},{"user_id":475,"name":"wolffy","steam_id":76561198083145076,"connected_time":1224000000000,"state":"active","ping":57},{"user_id":456,"name":"Lyell","steam_id":76561198350329389,"connected_time":1950000000000,"state":"active","ping":73},{"user_id":452,"name":"Xoukz","steam_id":76561198356014540,"connected_time":1998000000000,"state":"active","ping":99},{"user_id":429,"name":"AfroCookie","steam_id":76561198138362851,"connected_time":3711000000000,"state":"active","ping":101},{"user_id":471,"name":"‚ô´‚òÖXriasp‚òÖ‚ô´","steam_id":76561198104721321,"connected_time":1319000000000,"state":"active","ping":79},{"user_id":463,"name":"Moonlightexel","steam_id":76561198262044897,"connected_time":1504000000000,"state":"active","ping":101},{"user_id":462,"name":"Toast On Cheese","steam_id":76561198078766475,"connected_time":1595000000000,"state":"active","ping":60},{"user_id":470,"name":"!Trying to have fun!","steam_id":76561198151370212,"connected_time":1353000000000,"state":"active","ping":73},{"user_id":428,"name":"Zogg","steam_id":76561198352683491,"connected_time":3874000000000,"state":"active","ping":41},{"user_id":485,"name":"TryX","steam_id":76561199356781475,"connected_time":169000000000,"state":"active","ping":72}]},{"server_id":320,"name":"Uncletopia | London | 3 | All Maps","name_short":"lon-3","host":"lon-1.uk.uncletopia.com","port":27035,"enabled":true,"region":"eu","cc":"gb","latitude":51.509865,"longitude":-0.118092,"reserved":0,"last_update":"0001-01-01T00:00:00Z","name_a2s":"Uncletopia | London | 3 | All Maps","protocol":17,"map":"pl_upward","folder":"tf","game":"Team Fortress","app_id":440,"player_count":24,"max_players":24,"Bots":0,"server_type":"Dedicated","server_os":"Linux","password":true,"vac":true,"version":"7757534","steam_id":85568392924510192,"keywords":["nocrits","nodmgspread","payload","uncletopia"],"game_id":440,"stv_port":27036,"stv_name":"Uncletopia | London | 3 | All Maps | STV","players":[{"user_id":359,"name":"akakez","steam_id":76561198095432821,"connected_time":7988000000000,"state":"active","ping":115},{"user_id":388,"name":"static","steam_id":76561198836825741,"connected_time":5318000000000,"state":"active","ping":44},{"user_id":351,"name":"Fat Pigeon","steam_id":76561198817940142,"connected_time":8194000000000,"state":"active","ping":45},{"user_id":451,"name":"Swedde","steam_id":76561198297296440,"connected_time":632000000000,"state":"active","ping":65},{"user_id":462,"name":"gEyfrogsE","steam_id":76561199385772902,"connected_time":76000000000,"state":"active","ping":92},{"user_id":460,"name":"JOHN GAMING (based)","steam_id":76561199085822219,"connected_time":523000000000,"state":"active","ping":85},{"user_id":457,"name":"JoueurFran√ßais","steam_id":76561198108081068,"connected_time":579000000000,"state":"active","ping":66},{"user_id":454,"name":"Mr Lidl","steam_id":76561198426522902,"connected_time":599000000000,"state":"active","ping":56},{"user_id":339,"name":"Welder","steam_id":76561198355300561,"connected_time":9244000000000,"state":"active","ping":70},{"user_id":419,"name":"Kulkuri","steam_id":76561198003996022,"connected_time":2578000000000,"state":"active","ping":97},{"user_id":461,"name":"TheFallenFox","steam_id":76561199074190919,"connected_time":499000000000,"state":"active","ping":60},{"user_id":396,"name":"fl1p","steam_id":76561198148565659,"connected_time":4643000000000,"state":"active","ping":72},{"user_id":410,"name":"where is my egg?","steam_id":76561198172542535,"connected_time":2924000000000,"state":"active","ping":75},{"user_id":456,"name":"oturanboƒüa","steam_id":76561199050054470,"connected_time":582000000000,"state":"active","ping":149},{"user_id":459,"name":"Hexagon","steam_id":76561198151205758,"connected_time":565000000000,"state":"active","ping":59},{"user_id":437,"name":"Thors","steam_id":76561197968739075,"connected_time":1263000000000,"state":"active","ping":44},{"user_id":436,"name":"Cobb Salads","steam_id":76561197971140507,"connected_time":1649000000000,"state":"active","ping":82},{"user_id":375,"name":"Topme","steam_id":76561198091734693,"connected_time":7207000000000,"state":"active","ping":75},{"user_id":377,"name":"PizzaPete123","steam_id":76561198089478290,"connected_time":6918000000000,"state":"active","ping":44},{"user_id":448,"name":"Aimrow","steam_id":76561198023275245,"connected_time":929000000000,"state":"active","ping":71},{"user_id":440,"name":"Soldoux","steam_id":76561199093055113,"connected_time":1011000000000,"state":"active","ping":50},{"user_id":428,"name":"nky","steam_id":76561198086229832,"connected_time":1905000000000,"state":"active","ping":61},{"user_id":416,"name":"lm","steam_id":76561198836754631,"connected_time":2633000000000,"state":"active","ping":44},{"user_id":405,"name":"Noob_with_source","steam_id":76561198870362103,"connected_time":3939000000000,"state":"active","ping":59}]},{"server_id":321,"name":"Uncletopia | London | 4 | All Maps","name_short":"lon-4","host":"lon-1.uk.uncletopia.com","port":27045,"enabled":true,"region":"eu","cc":"gb","latitude":51.509865,"longitude":-0.118092,"reserved":0,"last_update":"0001-01-01T00:00:00Z","name_a2s":"Uncletopia | London | 4 | All Maps","protocol":17,"map":"cp_mountainlab","folder":"tf","game":"Team Fortress","app_id":440,"player_count":24,"max_players":24,"Bots":0,"server_type":"Dedicated","server_os":"Linux","password":true,"vac":true,"version":"7757534","steam_id":85568392924510193,"keywords":["cp","nocrits","nodmgspread","uncletopia"],"game_id":440,"stv_port":27046,"stv_name":"Uncletopia | London | 4 | All Maps | STV","players":[{"user_id":286,"name":"Rigby","steam_id":76561198021552128,"connected_time":223000000000,"state":"active","ping":115},{"user_id":275,"name":"LordTrap.exe","steam_id":76561198318089716,"connected_time":823000000000,"state":"active","ping":43},{"user_id":270,"name":"Mowelic","steam_id":76561198873641222,"connected_time":840000000000,"state":"active","ping":89},{"user_id":235,"name":"robsan","steam_id":76561198137375391,"connected_time":3351000000000,"state":"active","ping":79},{"user_id":281,"name":"r06u3","steam_id":76561198254099253,"connected_time":586000000000,"state":"active","ping":178},{"user_id":234,"name":"pepper","steam_id":76561198059782462,"connected_time":3442000000000,"state":"active","ping":61},{"user_id":283,"name":"lun4tic","steam_id":76561198850496647,"connected_time":514000000000,"state":"active","ping":55},{"user_id":284,"name":"Artur ‚òª","steam_id":76561198264297604,"connected_time":435000000000,"state":"active","ping":77},{"user_id":273,"name":"Chill Spirit","steam_id":76561198845001725,"connected_time":836000000000,"state":"active","ping":59},{"user_id":289,"name":"Purplish","steam_id":76561198006393993,"connected_time":115000000000,"state":"active","ping":45},{"user_id":274,"name":"[dopijus]","steam_id":76561198943009513,"connected_time":830000000000,"state":"active","ping":101},{"user_id":261,"name":"Universal Credit Crits Division","steam_id":76561198851157897,"connected_time":1378000000000,"state":"active","ping":60},{"user_id":129,"name":"azAZs","steam_id":76561198212338393,"connected_time":7925000000000,"state":"active","ping":100},{"user_id":222,"name":"Kylul_","steam_id":76561198042981061,"connected_time":3861000000000,"state":"active","ping":34},{"user_id":276,"name":"DxLevel","steam_id":76561198084056439,"connected_time":805000000000,"state":"active","ping":45},{"user_id":282,"name":"Ane≈•√°k","steam_id":76561198159294906,"connected_time":583000000000,"state":"active","ping":91},{"user_id":249,"name":"LOBZIK","steam_id":76561198114830120,"connected_time":1992000000000,"state":"active","ping":80},{"user_id":236,"name":"kreeekz","steam_id":76561198014431602,"connected_time":3351000000000,"state":"active","ping":75},{"user_id":287,"name":"FZARKY","steam_id":76561199013370791,"connected_time":172000000000,"state":"active","ping":55},{"user_id":266,"name":"sex havin'","steam_id":76561198169857427,"connected_time":861000000000,"state":"active","ping":62},{"user_id":253,"name":"Benzo Fury","steam_id":76561198025259336,"connected_time":1654000000000,"state":"active","ping":39},{"user_id":265,"name":"cockwater","steam_id":76561198209101861,"connected_time":907000000000,"state":"active","ping":79},{"user_id":277,"name":"the real kenyes1!1!!!1!","steam_id":76561198129726064,"connected_time":795000000000,"state":"active","ping":70},{"user_id":279,"name":"B@yka","steam_id":76561198986736592,"connected_time":732000000000,"state":"active","ping":76}]},{"server_id":21,"name":"Uncletopia | London | 5 | All Maps","name_short":"lon-5","host":"lon-1.uk.uncletopia.com","port":27055,"enabled":true,"region":"eu","cc":"gb","latitude":51.509865,"longitude":-0.118092,"reserved":0,"last_update":"0001-01-01T00:00:00Z","name_a2s":"Uncletopia | London | 5 | All Maps","protocol":17,"map":"pl_borneo","folder":"tf","game":"Team Fortress","app_id":440,"player_count":24,"max_players":24,"Bots":0,"server_type":"Dedicated","server_os":"Linux","password":true,"vac":true,"version":"7757534","steam_id":85568392924742829,"keywords":["nocrits","nodmgspread","payload","uncletopia"],"game_id":440,"stv_port":27056,"stv_name":"Uncletopia | London | 5 | All Maps | STV","players":[{"user_id":100,"name":"Dragul","steam_id":76561198032885938,"connected_time":282000000000,"state":"active","ping":71},{"user_id":81,"name":"NaN","steam_id":76561198071098413,"connected_time":1698000000000,"state":"active","ping":48},{"user_id":91,"name":"X45Y","steam_id":76561198112534025,"connected_time":1170000000000,"state":"active","ping":51},{"user_id":66,"name":"Breadcrab","steam_id":76561198015924039,"connected_time":2405000000000,"state":"active","ping":55},{"user_id":75,"name":"swedishbilly","steam_id":76561198137424821,"connected_time":1943000000000,"state":"active","ping":65},{"user_id":101,"name":"Rachel","steam_id":76561199474256638,"connected_time":275000000000,"state":"active","ping":69},{"user_id":40,"name":"You slumber","steam_id":76561198344639692,"connected_time":2897000000000,"state":"active","ping":80},{"user_id":82,"name":"Archimus","steam_id":76561198097378176,"connected_time":1571000000000,"state":"active","ping":57},{"user_id":17,"name":"fumo?","steam_id":76561198148074472,"connected_time":3523000000000,"state":"active","ping":46},{"user_id":18,"name":"rock","steam_id":76561198147277460,"connected_time":3522000000000,"state":"active","ping":62},{"user_id":89,"name":"Wir suchen dich!","steam_id":76561198307613521,"connected_time":1350000000000,"state":"active","ping":60},{"user_id":90,"name":"poshtoo @_@","steam_id":76561198106182078,"connected_time":1187000000000,"state":"active","ping":105},{"user_id":105,"name":"Silva_mlon","steam_id":76561199310242047,"connected_time":240000000000,"state":"active","ping":65},{"user_id":37,"name":"Joseph Stalin","steam_id":76561198033199746,"connected_time":3252000000000,"state":"active","ping":52},{"user_id":23,"name":"Advokat","steam_id":76561198307121174,"connected_time":3500000000000,"state":"active","ping":69},{"user_id":93,"name":"iBojhut","steam_id":76561198427102646,"connected_time":1162000000000,"state":"active","ping":49},{"user_id":103,"name":"Fancy","steam_id":76561198350658462,"connected_time":249000000000,"state":"active","ping":87},{"user_id":36,"name":"–∞–Ω–∏–º–µ—à–Ω–∏–∫–∞–º –≤—Ö–æ–¥","steam_id":76561198163244605,"connected_time":3265000000000,"state":"active","ping":70},{"user_id":72,"name":"weedeyes","steam_id":76561198256619964,"connected_time":2099000000000,"state":"active","ping":78},{"user_id":94,"name":"pablo","steam_id":76561198002913482,"connected_time":1152000000000,"state":"active","ping":105},{"user_id":97,"name":"Christmas Ham","steam_id":76561198119601623,"connected_time":645000000000,"state":"active","ping":57},{"user_id":33,"name":"Spetse","steam_id":76561197990649972,"connected_time":3387000000000,"state":"active","ping":90},{"user_id":106,"name":"Dr Sex","steam_id":76561198029044617,"connected_time":147000000000,"state":"active","ping":45},{"user_id":56,"name":"spl .davi","steam_id":76561198029015952,"connected_time":2571000000000,"state":"active","ping":67}]},{"server_id":22,"name":"Uncletopia | London | 6 | All Maps","name_short":"lon-6","host":"lon-1.uk.uncletopia.com","port":27065,"enabled":true,"region":"eu","cc":"gb","latitude":51.509865,"longitude":-0.118092,"reserved":0,"last_update":"0001-01-01T00:00:00Z","name_a2s":"Uncletopia | London | 6 | All Maps","protocol":17,"map":"koth_highpass","folder":"tf","game":"Team Fortress","app_id":440,"player_count":0,"max_players":24,"Bots":0,"server_type":"Dedicated","server_os":"Linux","password":true,"vac":true,"version":"7757534","steam_id":85568392924742830,"keywords":["cp","nocrits","nodmgspread","uncletopia"],"game_id":440,"stv_port":27066,"stv_name":"Uncletopia | London | 6 | All Maps | STV","players":null},{"server_id":40,"name":"Uncletopia | London | 7 | No Payload","name_short":"lon-7","host":"lon-1.uk.uncletopia.com","port":27075,"enabled":true,"region":"eu","cc":"gb","latitude":51.509865,"longitude":-0.118092,"reserved":0,"last_update":"0001-01-01T00:00:00Z","name_a2s":"Uncletopia | London | 7 | No Payload","protocol":17,"map":"koth_highpass","folder":"tf","game":"Team Fortress","app_id":440,"player_count":0,"max_players":24,"Bots":0,"server_type":"Dedicated","server_os":"Linux","password":true,"vac":true,"version":"7757534","steam_id":85568392924964314,"keywords":["cp","nocrits","nodmgspread","uncletopia"],"game_id":440,"stv_port":27076,"stv_name":"Uncletopia | London | 7 | No Payload | STV","players":null},{"server_id":41,"name":"Uncletopia | London | 8 | Community","name_short":"lon-8","host":"lon-1.uk.uncletopia.com","port":27085,"enabled":true,"region":"eu","cc":"gb","latitude":51.509865,"longitude":-0.118092,"reserved":0,"last_update":"0001-01-01T00:00:00Z","name_a2s":"Uncletopia | London | 8 | Community","protocol":17,"map":"workshop/cp_hazyfort_rc6.ugc1365963729","folder":"tf","game":"Team Fortress","app_id":440,"player_count":9,"max_players":24,"Bots":0,"server_type":"Dedicated","server_os":"Linux","password":true,"vac":true,"version":"7757534","steam_id":85568392924964315,"keywords":["cp","nocrits","nodmgspread","uncletopia"],"game_id":440,"stv_port":27086,"stv_name":"Uncletopia | London | 8 | Community | STV","players":[{"user_id":20,"name":"toino_PT","steam_id":76561199008999046,"connected_time":945000000000,"state":"active","ping":86},{"user_id":21,"name":"Lag","steam_id":76561198159360376,"connected_time":902000000000,"state":"active","ping":110},{"user_id":22,"name":"wicked","steam_id":76561198164376035,"connected_time":860000000000,"state":"active","ping":73},{"user_id":23,"name":"Truegr","steam_id":76561198811912339,"connected_time":840000000000,"state":"active","ping":55},{"user_id":26,"name":"cof","steam_id":76561199128417805,"connected_time":538000000000,"state":"active","ping":52},{"user_id":27,"name":"skille","steam_id":76561198005794325,"connected_time":270000000000,"state":"active","ping":60},{"user_id":28,"name":"ralph62x","steam_id":76561198865294231,"connected_time":66000000000,"state":"active","ping":61},{"user_id":29,"name":"not today thanks","steam_id":76561198083615367,"connected_time":23000000000,"state":"spawning","ping":108},{"user_id":30,"name":"Tel Ltd.","steam_id":76561198045137670,"connected_time":1000000000,"state":"spawning","ping":34}]},{"server_id":300,"name":"Uncletopia | Montr√©al | 1 | All Maps","name_short":"mtl-1","host":"mtl-1.ca.uncletopia.com","port":27015,"enabled":true,"region":"us-east","cc":"ca","latitude":45.50889,"longitude":-73.56167,"reserved":0,"last_update":"0001-01-01T00:00:00Z","name_a2s":"Uncletopia | Montr√©al | 1 | All Maps","protocol":17,"map":"cp_snakewater_final1","folder":"tf","game":"Team Fortress","app_id":440,"player_count":0,"max_players":24,"Bots":0,"server_type":"Dedicated","server_os":"Linux","password":true,"vac":true,"version":"7757534","steam_id":85568392924500087,"keywords":["cp","nocrits","nodmgspread","uncletopia"],"game_id":440,"stv_port":27016,"stv_name":"Uncletopia | Montr√©al | 1 | All Maps | STV","players":null},{"server_id":301,"name":"Uncletopia | Montr√©al | 2 | All Maps","name_short":"mtl-2","host":"mtl-1.ca.uncletopia.com","port":27025,"enabled":true,"region":"us-east","cc":"ca","latitude":45.50889,"longitude":-73.56167,"reserved":0,"last_update":"0001-01-01T00:00:00Z","name_a2s":"Uncletopia | Montr√©al | 2 | All Maps","protocol":17,"map":"cp_sunshine","folder":"tf","game":"Team Fortress","app_id":440,"player_count":0,"max_players":24,"Bots":0,"server_type":"Dedicated","server_os":"Linux","password":true,"vac":true,"version":"7757534","steam_id":85568392924500088,"keywords":["cp","nocrits","nodmgspread","uncletopia"],"game_id":440,"stv_port":27026,"stv_name":"Uncletopia | Montr√©al | 2 | All Maps | STV","players":null},{"server_id":302,"name":"Uncletopia | Montr√©al | 3 | All Maps","name_short":"mtl-3","host":"mtl-1.ca.uncletopia.com","port":27035,"enabled":true,"region":"us-east","cc":"ca","latitude":45.50889,"longitude":-73.56167,"reserved":0,"last_update":"0001-01-01T00:00:00Z","name_a2s":"Uncletopia | Montr√©al | 3 | All Maps","protocol":17,"map":"cp_dustbowl","folder":"tf","game":"Team Fortress","app_id":440,"player_count":0,"max_players":24,"Bots":0,"server_type":"Dedicated","server_os":"Linux","password":true,"vac":true,"version":"7757534","steam_id":85568392924500089,"keywords":["cp","nocrits","nodmgspread","uncletopia"],"game_id":440,"stv_port":27036,"stv_name":"Uncletopia | Montr√©al | 3 | All Maps | STV","players":null},{"server_id":303,"name":"Uncletopia | Montr√©al | 4 | No Payload","name_short":"mtl-4","host":"mtl-1.ca.uncletopia.com","port":27045,"enabled":true,"region":"us-east","cc":"ca","latitude":45.50889,"longitude":-73.56167,"reserved":0,"last_update":"0001-01-01T00:00:00Z","name_a2s":"Uncletopia | Montr√©al | 4 | No Payload","protocol":17,"map":"pl_pier","folder":"tf","game":"Team Fortress","app_id":440,"player_count":0,"max_players":24,"Bots":0,"server_type":"Dedicated","server_os":"Linux","password":true,"vac":true,"version":"7757534","steam_id":85568392924500090,"keywords":["nocrits","nodmgspread","payload","uncletopia"],"game_id":440,"stv_port":27046,"stv_name":"Uncletopia | Montr√©al | 4 | No Payload | STV","players":null},{"server_id":13,"name":"Uncletopia | New York City | 1 | All Maps","name_short":"nyc-1","host":"nyc-1.us.uncletopia.com","port":27015,"enabled":true,"region":"us-east","cc":"us","latitude":40.73061,"longitude":-73.93524,"reserved":0,"last_update":"0001-01-01T00:00:00Z","name_a2s":"Uncletopia | New York City | 1 | All Maps","protocol":17,"map":"koth_viaduct","folder":"tf","game":"Team Fortress","app_id":440,"player_count":0,"max_players":24,"Bots":0,"server_type":"Dedicated","server_os":"Linux","password":true,"vac":true,"version":"7757534","steam_id":85568392924469993,"keywords":["cp","nocrits","nodmgspread","uncletopia"],"game_id":440,"stv_port":27016,"stv_name":"Uncletopia | New York City | 1 | All Maps | STV","players":null},{"server_id":14,"name":"Uncletopia | New York City | 2 | All Maps","name_short":"nyc-2","host":"nyc-1.us.uncletopia.com","port":27025,"enabled":true,"region":"us-east","cc":"us","latitude":40.73061,"longitude":-73.93524,"reserved":0,"last_update":"0001-01-01T00:00:00Z","name_a2s":"Uncletopia | New York City | 2 | All Maps","protocol":17,"map":"pl_upward","folder":"tf","game":"Team Fortress","app_id":440,"player_count":24,"max_players":24,"Bots":0,"server_type":"Dedicated","server_os":"Linux","password":true,"vac":true,"version":"7757534","steam_id":85568392924469994,"keywords":["nocrits","nodmgspread","payload","uncletopia"],"game_id":440,"stv_port":27026,"stv_name":"Uncletopia | New York City | 2 | All Maps | STV","players":[{"user_id":56,"name":"*Gage*","steam_id":76561197975233869,"connected_time":2780000000000,"state":"active","ping":97},{"user_id":19,"name":"Ata","steam_id":76561198349085545,"connected_time":5297000000000,"state":"active","ping":79},{"user_id":12,"name":"trans woman w/peen","steam_id":76561198352139173,"connected_time":6779000000000,"state":"active","ping":49},{"user_id":76,"name":"StonedGiant","steam_id":76561197984386932,"connected_time":1658000000000,"state":"active","ping":70},{"user_id":87,"name":"Fake Uncle","steam_id":76561198880227689,"connected_time":290000000000,"state":"active","ping":43},{"user_id":82,"name":"GatoSeiko","steam_id":76561198001001360,"connected_time":960000000000,"state":"active","ping":166},{"user_id":43,"name":"wack","steam_id":76561198095697330,"connected_time":4373000000000,"state":"active","ping":61},{"user_id":83,"name":"Tyler\u0026Fingers","steam_id":76561198085154485,"connected_time":924000000000,"state":"active","ping":82},{"user_id":86,"name":"j - „Éï„É©„Ç§„Éâ„ÉÅ„Ç≠„É≥","steam_id":76561198061224922,"connected_time":569000000000,"state":"active","ping":69},{"user_id":88,"name":"Bolgerp","steam_id":76561198007792525,"connected_time":268000000000,"state":"active","ping":113},{"user_id":68,"name":"Simonster","steam_id":76561198046896952,"connected_time":1990000000000,"state":"active","ping":125},{"user_id":61,"name":"beatrix","steam_id":76561199057103062,"connected_time":2367000000000,"state":"active","ping":109},{"user_id":71,"name":"Fudgely","steam_id":76561198039425862,"connected_time":1894000000000,"state":"active","ping":60},{"user_id":84,"name":"scarypeoplearoundme","steam_id":76561198412583999,"connected_time":922000000000,"state":"active","ping":56},{"user_id":64,"name":"ZeFizzyPop‚Ñ¢","steam_id":76561198258104981,"connected_time":2246000000000,"state":"active","ping":66},{"user_id":90,"name":"Recyclops","steam_id":76561197978500605,"connected_time":204000000000,"state":"active","ping":75},{"user_id":89,"name":"Debbie","steam_id":76561198286088502,"connected_time":230000000000,"state":"active","ping":123},{"user_id":33,"name":"\u003c3Elise\u003c3","steam_id":76561198146435005,"connected_time":4940000000000,"state":"active","ping":103},{"user_id":60,"name":"Sexual Butt","steam_id":76561198102241399,"connected_time":2402000000000,"state":"active","ping":79},{"user_id":93,"name":"Wiggle Wiggle","steam_id":76561199053447896,"connected_time":97000000000,"state":"active","ping":76},{"user_id":36,"name":"Soy Blaster","steam_id":76561197971948876,"connected_time":4873000000000,"state":"active","ping":74},{"user_id":78,"name":"mkl","steam_id":76561197986401685,"connected_time":1334000000000,"state":"active","ping":88},{"user_id":92,"name":"Stagred","steam_id":76561198055973266,"connected_time":187000000000,"state":"active","ping":51},{"user_id":62,"name":"Tom Cr√∫aich","steam_id":76561197999439911,"connected_time":2344000000000,"state":"active","ping":99}]},{"server_id":15,"name":"Uncletopia | New York City | 3 | Stopwatch Beta","name_short":"nyc-3","host":"nyc-1.us.uncletopia.com","port":27035,"enabled":true,"region":"us-east","cc":"us","latitude":40.73061,"longitude":-73.93524,"reserved":0,"last_update":"0001-01-01T00:00:00Z","name_a2s":"Uncletopia | New York City | 3 | Stopwatch Beta","protocol":17,"map":"koth_cascade","folder":"tf","game":"Team Fortress","app_id":440,"player_count":0,"max_players":24,"Bots":0,"server_type":"Dedicated","server_os":"Linux","password":true,"vac":true,"version":"7757534","steam_id":85568392924742820,"keywords":["cp","nocrits","nodmgspread","uncletopia"],"game_id":440,"stv_port":27036,"stv_name":"Uncletopia | New York City | 3 | Stopwatch Beta | STV","players":null},{"server_id":16,"name":"Uncletopia | New York City | 4 | Community","name_short":"nyc-4","host":"nyc-1.us.uncletopia.com","port":27045,"enabled":true,"region":"us-east","cc":"us","latitude":40.73061,"longitude":-73.93524,"reserved":0,"last_update":"0001-01-01T00:00:00Z","name_a2s":"Uncletopia | New York City | 4 | Community","protocol":17,"map":"pl_frontier_final","folder":"tf","game":"Team Fortress","app_id":440,"player_count":0,"max_players":24,"Bots":0,"server_type":"Dedicated","server_os":"Linux","password":true,"vac":true,"version":"7757534","steam_id":85568392924742821,"keywords":["nocrits","nodmgspread","payload","uncletopia"],"game_id":440,"stv_port":27046,"stv_name":"Uncletopia | New York City | 4 | Community | STV","players":null},{"server_id":142,"name":"Uncletopia | S√£o Paulo | 1 | All Maps","name_short":"sao-1","host":"sao-1.br.uncletopia.com","port":27015,"enabled":true,"region":"sa","cc":"br","latitude":-23.533773,"longitude":-46.62529,"reserved":0,"last_update":"0001-01-01T00:00:00Z","name_a2s":"Uncletopia | S√£o Paulo | 1 | All Maps","protocol":17,"map":"pl_badwater","folder":"tf","game":"Team Fortress","app_id":440,"player_count":2,"max_players":24,"Bots":0,"server_type":"Dedicated","server_os":"Linux","password":true,"vac":true,"version":"7757534","steam_id":85568392924469996,"keywords":["nocrits","nodmgspread","payload","uncletopia"],"game_id":440,"stv_port":27016,"stv_name":"Uncletopia | S√£o Paulo | 1 | All Maps | STV","players":[{"user_id":9,"name":"Rho'1","steam_id":76561199238656153,"connected_time":355000000000,"state":"active","ping":255},{"user_id":10,"name":"thedeathgun404","steam_id":76561198967052864,"connected_time":272000000000,"state":"active","ping":279}]},{"server_id":143,"name":"Uncletopia | S√£o Paulo | 2 | All Maps","name_short":"sao-2","host":"sao-2.br.uncletopia.com","port":27015,"enabled":true,"region":"sa","cc":"br","latitude":-23.533773,"longitude":-46.62529,"reserved":0,"last_update":"0001-01-01T00:00:00Z","name_a2s":"Uncletopia | S√£o Paulo | 2 | All Maps","protocol":17,"map":"pl_swiftwater_final1","folder":"tf","game":"Team Fortress","app_id":440,"player_count":8,"max_players":24,"Bots":0,"server_type":"Dedicated","server_os":"Linux","password":true,"vac":true,"version":"7757534","steam_id":85568392924485349,"keywords":["nocrits","nodmgspread","payload","uncletopia"],"game_id":440,"stv_port":27016,"stv_name":"Uncletopia | S√£o Paulo | 2 | All Maps | STV","players":[{"user_id":18,"name":"Biker Pyro","steam_id":76561198392528524,"connected_time":1818000000000,"state":"active","ping":45},{"user_id":12,"name":"jr_rusty","steam_id":76561198313937899,"connected_time":2737000000000,"state":"active","ping":46},{"user_id":15,"name":"MGFP","steam_id":76561198887457028,"connected_time":1910000000000,"state":"active","ping":74},{"user_id":34,"name":"Dr. ButtRape","steam_id":76561198089834652,"connected_time":186000000000,"state":"active","ping":189},{"user_id":19,"name":"ARK","steam_id":76561198253139686,"connected_time":1804000000000,"state":"active","ping":89},{"user_id":26,"name":"xableu","steam_id":76561199229314481,"connected_time":866000000000,"state":"active","ping":59},{"user_id":21,"name":"Pietro07","steam_id":76561199017332044,"connected_time":1670000000000,"state":"active","ping":45},{"user_id":35,"name":"Space bar ¬©","steam_id":76561199405318831,"connected_time":171000000000,"state":"active","ping":224}]},{"server_id":7,"name":"Uncletopia | Seattle | 1 | All Maps","name_short":"sea-1","host":"sea-1.us.uncletopia.com","port":27015,"enabled":true,"region":"us-west","cc":"us","latitude":47.608013,"longitude":-122.33517,"reserved":0,"last_update":"0001-01-01T00:00:00Z","name_a2s":"Uncletopia | Seattle | 1 | All Maps","protocol":17,"map":"koth_highpass","folder":"tf","game":"Team Fortress","app_id":440,"player_count":19,"max_players":24,"Bots":0,"server_type":"Dedicated","server_os":"Linux","password":true,"vac":true,"version":"7757534","steam_id":85568392924469997,"keywords":["cp","nocrits","nodmgspread","uncletopia"],"game_id":440,"stv_port":27016,"stv_name":"Uncletopia | Seattle | 1 | All Maps | STV","players":[{"user_id":3,"name":"soda","steam_id":76561198105924953,"connected_time":3743000000000,"state":"active","ping":69},{"user_id":6,"name":"blizz","steam_id":76561199139715539,"connected_time":2586000000000,"state":"active","ping":57},{"user_id":49,"name":"SlappyBack2","steam_id":76561198111367794,"connected_time":341000000000,"state":"active","ping":99},{"user_id":52,"name":"moe","steam_id":76561198929586245,"connected_time":144000000000,"state":"active","ping":62},{"user_id":53,"name":"ceo of sex 2","steam_id":76561198097328127,"connected_time":127000000000,"state":"active","ping":73},{"user_id":31,"name":"Kuyumiester","steam_id":76561198126835302,"connected_time":1644000000000,"state":"active","ping":68},{"user_id":55,"name":"Splat","steam_id":76561198229390204,"connected_time":7000000000,"state":"spawning","ping":283},{"user_id":54,"name":"vortex","steam_id":76561199037197794,"connected_time":37000000000,"state":"active","ping":93},{"user_id":20,"name":"Blitzy","steam_id":76561198149472890,"connected_time":1832000000000,"state":"active","ping":60},{"user_id":51,"name":"Triple Pain","steam_id":76561198103510264,"connected_time":164000000000,"state":"active","ping":105},{"user_id":15,"name":"TheMightyWoz","steam_id":76561198428397322,"connected_time":2056000000000,"state":"active","ping":64},{"user_id":38,"name":"Dr. Delicate Touch","steam_id":76561199120483390,"connected_time":1277000000000,"state":"active","ping":127},{"user_id":23,"name":"resting neutral face","steam_id":76561197999259502,"connected_time":1771000000000,"state":"active","ping":55},{"user_id":40,"name":"chungo","steam_id":76561199127423378,"connected_time":1208000000000,"state":"active","ping":86},{"user_id":35,"name":"Nekogaming1500","steam_id":76561198979123816,"connected_time":1588000000000,"state":"active","ping":57},{"user_id":28,"name":"demomanfan2008","steam_id":76561198077030486,"connected_time":1669000000000,"state":"active","ping":74},{"user_id":45,"name":"SunnySideDown","steam_id":76561199259111611,"connected_time":856000000000,"state":"active","ping":71},{"user_id":30,"name":"Kit Carson","steam_id":76561198115691546,"connected_time":1645000000000,"state":"active","ping":90},{"user_id":37,"name":"azureglxy","steam_id":76561198861388315,"connected_time":1405000000000,"state":"active","ping":71}]},{"server_id":119,"name":"Uncletopia | Seattle | 2 | All Maps","name_short":"sea-2","host":"sea-1.us.uncletopia.com","port":27025,"enabled":true,"region":"us-west","cc":"us","latitude":47.608013,"longitude":-122.33517,"reserved":0,"last_update":"0001-01-01T00:00:00Z","name_a2s":"Uncletopia | Seattle | 2 | All Maps","protocol":17,"map":"pl_badwater","folder":"tf","game":"Team Fortress","app_id":440,"player_count":24,"max_players":24,"Bots":0,"server_type":"Dedicated","server_os":"Linux","password":true,"vac":true,"version":"7757534","steam_id":85568392924469998,"keywords":["nocrits","nodmgspread","payload","uncletopia"],"game_id":440,"stv_port":27026,"stv_name":"Uncletopia | Seattle | 2 | All Maps | STV","players":[{"user_id":297,"name":"totally not a pile of beans","steam_id":76561198119851931,"connected_time":1403000000000,"state":"active","ping":140},{"user_id":302,"name":"Toad :)","steam_id":76561198163008022,"connected_time":1279000000000,"state":"active","ping":47},{"user_id":295,"name":"oo","steam_id":76561198119626492,"connected_time":1501000000000,"state":"active","ping":68},{"user_id":298,"name":"Flooder","steam_id":76561198043792818,"connected_time":1398000000000,"state":"active","ping":61},{"user_id":287,"name":"Babyface","steam_id":76561199240579044,"connected_time":2571000000000,"state":"active","ping":105},{"user_id":286,"name":"o o o o o o o o o","steam_id":76561197993757506,"connected_time":2611000000000,"state":"active","ping":78},{"user_id":241,"name":"Speedy","steam_id":76561198080761661,"connected_time":4636000000000,"state":"active","ping":130},{"user_id":305,"name":"QP of Shake","steam_id":76561198055473605,"connected_time":987000000000,"state":"active","ping":91},{"user_id":310,"name":"Cactus‚Ñ¢ ‚ô•","steam_id":76561198036441270,"connected_time":705000000000,"state":"active","ping":109},{"user_id":296,"name":"SOBRII","steam_id":76561198077438484,"connected_time":1435000000000,"state":"active","ping":58},{"user_id":299,"name":"Kobe","steam_id":76561198041937355,"connected_time":1388000000000,"state":"active","ping":86},{"user_id":262,"name":"Lazy","steam_id":76561198802747832,"connected_time":3557000000000,"state":"active","ping":49},{"user_id":270,"name":"TF3 aflyingmouse","steam_id":76561198058134934,"connected_time":3415000000000,"state":"active","ping":98},{"user_id":232,"name":"t h e n a","steam_id":76561198169736062,"connected_time":5553000000000,"state":"active","ping":129},{"user_id":271,"name":"bird doctor","steam_id":76561199144340440,"connected_time":3275000000000,"state":"active","ping":68},{"user_id":209,"name":"lol","steam_id":76561198026491738,"connected_time":6469000000000,"state":"active","ping":80},{"user_id":308,"name":"Gibus Man","steam_id":76561198257241062,"connected_time":793000000000,"state":"active","ping":57},{"user_id":301,"name":"boobies arc","steam_id":76561198316753540,"connected_time":1339000000000,"state":"active","ping":99},{"user_id":290,"name":"mews","steam_id":76561198118644686,"connected_time":2046000000000,"state":"active","ping":77},{"user_id":277,"name":"Scab Collector","steam_id":76561198346425545,"connected_time":3142000000000,"state":"active","ping":104},{"user_id":311,"name":"Marc G","steam_id":76561198062650363,"connected_time":131000000000,"state":"active","ping":105},{"user_id":285,"name":"poopdog288","steam_id":76561199090287513,"connected_time":2897000000000,"state":"active","ping":67},{"user_id":252,"name":"ThePriceIsRice","steam_id":76561198079069543,"connected_time":4030000000000,"state":"active","ping":63},{"user_id":309,"name":"Tomato Soup","steam_id":76561198051834684,"connected_time":782000000000,"state":"active","ping":67}]},{"server_id":406,"name":"Uncletopia | Seattle | 3 | Stopwatch Beta","name_short":"sea-3","host":"sea-1.us.uncletopia.com","port":27035,"enabled":true,"region":"us-west","cc":"us","latitude":47.608013,"longitude":-122.33517,"reserved":0,"last_update":"0001-01-01T00:00:00Z","name_a2s":"Uncletopia | Seattle | 3 | Stopwatch Beta","protocol":17,"map":"workshop/koth_ramjam_rc1.ugc459778887","folder":"tf","game":"Team Fortress","app_id":440,"player_count":0,"max_players":24,"Bots":0,"server_type":"Dedicated","server_os":"Linux","password":true,"vac":true,"version":"7757534","steam_id":85568392924515217,"keywords":["cp","nocrits","nodmgspread","uncletopia"],"game_id":440,"stv_port":27036,"stv_name":"Uncletopia | Seattle | 3 | Stopwatch Beta | STV","players":null},{"server_id":17,"name":"Uncletopia | San Francisco | 1 | All Maps","name_short":"sfo-1","host":"sfo-1.us.uncletopia.com","port":27015,"enabled":true,"region":"us-west","cc":"us","latitude":37.77397,"longitude":-122.4313,"reserved":0,"last_update":"0001-01-01T00:00:00Z","name_a2s":"Uncletopia | San Francisco | 1 | All Maps","protocol":17,"map":"pl_badwater","folder":"tf","game":"Team Fortress","app_id":440,"player_count":0,"max_players":24,"Bots":0,"server_type":"Dedicated","server_os":"Linux","password":true,"vac":true,"version":"7757534","steam_id":85568392924469999,"keywords":["nocrits","nodmgspread","payload","uncletopia"],"game_id":440,"stv_port":27016,"stv_name":"Uncletopia | San Francisco | 1 | All Maps | STV","players":null},{"server_id":18,"name":"Uncletopia | San Francisco | 2 | All Maps","name_short":"sfo-2","host":"sfo-1.us.uncletopia.com","port":27025,"enabled":true,"region":"us-west","cc":"us","latitude":37.77397,"longitude":-122.4313,"reserved":0,"last_update":"0001-01-01T00:00:00Z","name_a2s":"Uncletopia | San Francisco | 2 | All Maps","protocol":17,"map":"koth_viaduct","folder":"tf","game":"Team Fortress","app_id":440,"player_count":0,"max_players":24,"Bots":0,"server_type":"Dedicated","server_os":"Linux","password":true,"vac":true,"version":"7757534","steam_id":85568392924470000,"keywords":["cp","nocrits","nodmgspread","uncletopia"],"game_id":440,"stv_port":27026,"stv_name":"Uncletopia | San Francisco | 2 | All Maps | STV","players":null},{"server_id":19,"name":"Uncletopia | San Francisco | 3 | Stopwatch Beta","name_short":"sfo-3","host":"sfo-1.us.uncletopia.com","port":27035,"enabled":true,"region":"us-west","cc":"us","latitude":37.77397,"longitude":-122.4313,"reserved":0,"last_update":"0001-01-01T00:00:00Z","name_a2s":"Uncletopia | San Francisco | 3 | Stopwatch Beta","protocol":17,"map":"cp_snakewater_final1","folder":"tf","game":"Team Fortress","app_id":440,"player_count":0,"max_players":24,"Bots":0,"server_type":"Dedicated","server_os":"Linux","password":true,"vac":true,"version":"7757534","steam_id":85568392924742824,"keywords":["cp","nocrits","nodmgspread","uncletopia"],"game_id":440,"stv_port":27036,"stv_name":"Uncletopia | San Francisco | 3 | Stopwatch Beta | STV","players":null},{"server_id":20,"name":"Uncletopia | San Francisco | 4 | Community","name_short":"sfo-4","host":"sfo-1.us.uncletopia.com","port":27045,"enabled":true,"region":"us-west","cc":"us","latitude":37.77397,"longitude":-122.4313,"reserved":0,"last_update":"0001-01-01T00:00:00Z","name_a2s":"Uncletopia | San Francisco | 4 | Community","protocol":17,"map":"pl_frontier_final","folder":"tf","game":"Team Fortress","app_id":440,"player_count":0,"max_players":24,"Bots":0,"server_type":"Dedicated","server_os":"Linux","password":true,"vac":true,"version":"7757534","steam_id":85568392924742826,"keywords":["nocrits","nodmgspread","payload","uncletopia"],"game_id":440,"stv_port":27046,"stv_name":"Uncletopia | San Francisco | 4 | Community | STV","players":null},{"server_id":141,"name":"Uncletopia | Sydney | 1 | All Maps","name_short":"syd-1","host":"syd-1.au.uncletopia.com","port":27015,"enabled":true,"region":"au","cc":"au","latitude":-33.865143,"longitude":151.2099,"reserved":0,"last_update":"0001-01-01T00:00:00Z","name_a2s":"Uncletopia | Sydney | 1 | All Maps","protocol":17,"map":"koth_highpass","folder":"tf","game":"Team Fortress","app_id":440,"player_count":0,"max_players":24,"Bots":0,"server_type":"Dedicated","server_os":"Linux","password":true,"vac":true,"version":"7757534","steam_id":85568392924470001,"keywords":["cp","nocrits","nodmgspread","uncletopia"],"game_id":440,"stv_port":27016,"stv_name":"Uncletopia | Sydney | 1 | All Maps | STV","players":null},{"server_id":123,"name":"Uncletopia | Sydney | 2 | All Maps","name_short":"syd-2","host":"syd-1.au.uncletopia.com","port":27025,"enabled":true,"region":"au","cc":"au","latitude":-33.865143,"longitude":151.2099,"reserved":0,"last_update":"0001-01-01T00:00:00Z","name_a2s":"Uncletopia | Sydney | 2 | All Maps","protocol":17,"map":"koth_lakeside_final","folder":"tf","game":"Team Fortress","app_id":440,"player_count":0,"max_players":24,"Bots":0,"server_type":"Dedicated","server_os":"Linux","password":true,"vac":true,"version":"7757534","steam_id":85568392924470002,"keywords":["cp","nocrits","nodmgspread","uncletopia"],"game_id":440,"stv_port":27026,"stv_name":"Uncletopia | Sydney | 2 | All Maps | STV","players":null},{"server_id":395,"name":"Uncletopia | Sydney | 3 | All Maps","name_short":"syd-3","host":"syd-1.au.uncletopia.com","port":27035,"enabled":true,"region":"au","cc":"au","latitude":-33.865143,"longitude":151.2099,"reserved":0,"last_update":"0001-01-01T00:00:00Z","name_a2s":"Uncletopia | Sydney | 3 | All Maps","protocol":17,"map":"koth_cascade","folder":"tf","game":"Team Fortress","app_id":440,"player_count":0,"max_players":24,"Bots":0,"server_type":"Dedicated","server_os":"Linux","password":true,"vac":true,"version":"7757534","steam_id":85568392925194467,"keywords":["cp","nocrits","nodmgspread","uncletopia"],"game_id":440,"stv_port":27036,"stv_name":"Uncletopia | Sydney | 3 | All Maps | STV","players":null},{"server_id":396,"name":"Uncletopia | Sydney | 4 | All Maps","name_short":"syd-4","host":"syd-1.au.uncletopia.com","port":27045,"enabled":true,"region":"au","cc":"au","latitude":-33.865143,"longitude":151.2099,"reserved":0,"last_update":"0001-01-01T00:00:00Z","name_a2s":"Uncletopia | Sydney | 4 | All Maps","protocol":17,"map":"koth_highpass","folder":"tf","game":"Team Fortress","app_id":440,"player_count":0,"max_players":24,"Bots":0,"server_type":"Dedicated","server_os":"Linux","password":true,"vac":true,"version":"7757534","steam_id":85568392925397958,"keywords":["cp","nocrits","nodmgspread","uncletopia"],"game_id":440,"stv_port":27046,"stv_name":"Uncletopia | Sydney | 4 | All Maps | STV","players":null},{"server_id":58,"name":"Uncletopia | Sydney | 5 | Stopwatch Beta","name_short":"syd-5","host":"syd-1.au.uncletopia.com","port":27055,"enabled":true,"region":"au","cc":"au","latitude":-33.865143,"longitude":151.2099,"reserved":0,"last_update":"0001-01-01T00:00:00Z","name_a2s":"Uncletopia | Sydney | 5 | Stopwatch Beta","protocol":17,"map":"workshop/pl_barnblitz_pro7.ugc582280235","folder":"tf","game":"Team Fortress","app_id":440,"player_count":0,"max_players":24,"Bots":0,"server_type":"Dedicated","server_os":"Linux","password":true,"vac":true,"version":"7757534","steam_id":85568392925397959,"keywords":["nocrits","nodmgspread","payload","uncletopia"],"game_id":440,"stv_port":27056,"stv_name":"Uncletopia | Sydney | 5 | Stopwatch Beta | STV","players":null},{"server_id":59,"name":"Uncletopia | Sydney | 6 | Community","name_short":"syd-6","host":"syd-1.au.uncletopia.com","port":27065,"enabled":true,"region":"au","cc":"au","latitude":-33.865143,"longitude":151.2099,"reserved":0,"last_update":"0001-01-01T00:00:00Z","name_a2s":"Uncletopia | Sydney | 6 | Community","protocol":17,"map":"workshop/pl_eruption_b9a.ugc2807898013","folder":"tf","game":"Team Fortress","app_id":440,"player_count":0,"max_players":24,"Bots":0,"server_type":"Dedicated","server_os":"Linux","password":true,"vac":true,"version":"7757534","steam_id":85568392925397960,"keywords":["nocrits","nodmgspread","payload","uncletopia"],"game_id":440,"stv_port":27066,"stv_name":"Uncletopia | Sydney | 6 | Community | STV","players":null},{"server_id":49,"name":"Uncletopia | Warsaw | 1 | All Maps","name_short":"waw-1","host":"waw-1.pl.uncletopia.com","port":27015,"enabled":true,"region":"eu","cc":"pl","latitude":52.2297,"longitude":21.017532,"reserved":0,"last_update":"0001-01-01T00:00:00Z","name_a2s":"","protocol":0,"map":"","folder":"","game":"","app_id":0,"player_count":0,"max_players":0,"Bots":0,"server_type":"","server_os":"","password":false,"vac":false,"version":"","steam_id":0,"keywords":null,"game_id":0,"stv_port":0,"stv_name":"","players":null},{"server_id":50,"name":"Uncletopia | Warsaw | 2 | All Maps","name_short":"waw-2","host":"waw-1.pl.uncletopia.com","port":27025,"enabled":true,"region":"eu","cc":"pl","latitude":52.2297,"longitude":21.017532,"reserved":0,"last_update":"0001-01-01T00:00:00Z","name_a2s":"Uncletopia | Warsaw | 2 | All Maps","protocol":17,"map":"koth_lakeside_final","folder":"tf","game":"Team Fortress","app_id":440,"player_count":0,"max_players":24,"Bots":0,"server_type":"Dedicated","server_os":"Linux","password":true,"vac":true,"version":"7757534","steam_id":85568392925397851,"keywords":["cp","nocrits","nodmgspread","uncletopia"],"game_id":440,"stv_port":27026,"stv_name":"Uncletopia | Warsaw | 2 | All Maps | STV","players":null},{"server_id":51,"name":"Uncletopia | Warsaw | 3 | All Maps","name_short":"waw-3","host":"waw-1.pl.uncletopia.com","port":27035,"enabled":true,"region":"eu","cc":"pl","latitude":52.2297,"longitude":21.017532,"reserved":0,"last_update":"0001-01-01T00:00:00Z","name_a2s":"Uncletopia | Warsaw | 3 | All Maps","protocol":17,"map":"pl_barnblitz","folder":"tf","game":"Team Fortress","app_id":440,"player_count":0,"max_players":24,"Bots":0,"server_type":"Dedicated","server_os":"Linux","password":true,"vac":true,"version":"7757534","steam_id":85568392925397852,"keywords":["nocrits","nodmgspread","payload","uncletopia"],"game_id":440,"stv_port":27036,"stv_name":"Uncletopia | Warsaw | 3 | All Maps | STV","players":null},{"server_id":52,"name":"Uncletopia | Warsaw | 4 | All Maps","name_short":"waw-4","host":"waw-1.pl.uncletopia.com","port":27045,"enabled":true,"region":"eu","cc":"pl","latitude":52.2297,"longitude":21.017532,"reserved":0,"last_update":"0001-01-01T00:00:00Z","name_a2s":"Uncletopia | Warsaw | 4 | All Maps","protocol":17,"map":"koth_cascade","folder":"tf","game":"Team Fortress","app_id":440,"player_count":0,"max_players":24,"Bots":0,"server_type":"Dedicated","server_os":"Linux","password":true,"vac":true,"version":"7757534","steam_id":85568392925397853,"keywords":["cp","nocrits","nodmgspread","uncletopia"],"game_id":440,"stv_port":27046,"stv_name":"Uncletopia | Warsaw | 4 | All Maps | STV","players":null},{"server_id":53,"name":"Uncletopia | Warsaw | 5 | Stopwatch Beta","name_short":"waw-5","host":"waw-1.pl.uncletopia.com","port":27055,"enabled":true,"region":"eu","cc":"pl","latitude":52.2297,"longitude":21.017532,"reserved":0,"last_update":"0001-01-01T00:00:00Z","name_a2s":"Uncletopia | Warsaw | 5 | Stopwatch Beta","protocol":17,"map":"pl_pier","folder":"tf","game":"Team Fortress","app_id":440,"player_count":0,"max_players":24,"Bots":0,"server_type":"Dedicated","server_os":"Linux","password":true,"vac":true,"version":"7757534","steam_id":85568392925397854,"keywords":["nocrits","nodmgspread","payload","uncletopia"],"game_id":440,"stv_port":27056,"stv_name":"Uncletopia | Warsaw | 5 | Stopwatch Beta | STV","players":null},{"server_id":54,"name":"Uncletopia | Warsaw | 6 | Community","name_short":"waw-6","host":"waw-1.pl.uncletopia.com","port":27065,"enabled":true,"region":"eu","cc":"pl","latitude":52.2297,"longitude":21.017532,"reserved":0,"last_update":"0001-01-01T00:00:00Z","name_a2s":"Uncletopia | Warsaw | 6 | Community","protocol":17,"map":"koth_highpass","folder":"tf","game":"Team Fortress","app_id":440,"player_count":0,"max_players":24,"Bots":0,"server_type":"Dedicated","server_os":"Linux","password":true,"vac":true,"version":"7757534","steam_id":85568392925397856,"keywords":["cp","nocrits","nodmgspread","uncletopia"],"game_id":440,"stv_port":27066,"stv_name":"Uncletopia | Warsaw | 6 | Community | STV","players":null}]}