{"status":true,"message":"","result":[{"server_id":9,"name":"Uncletopia | Atlanta | 1 | All Maps","name_short":"atl-1","host":"atl-1.us.uncletopia.com","port":27015,"enabled":true,"region":"us-east","cc":"us","latitude":33.753746,"longitude":-84.38633,"reserved":0,"last_update":"0001-01-01T00:00:00Z","name_a2s":"Uncletopia | Atlanta | 1 | All Maps","protocol":17,"map":"pl_borneo","folder":"tf","game":"Team Fortress","app_id":440,"player_count":24,"max_players":24,"Bots":0,"server_type":"Dedicated","server_os":"Linux","password":true,"vac":true,"version":"7961495","steam_id":85568392924469982,"keywords":["nocrits","nodmgspread","payload","uncletopia"],"game_id":440,"stv_port":27016,"stv_name":"Uncletopia | Atlanta | 1 | All Maps | STV","players":[{"user_id":563,"name":"freyja","steam_id":76561198249206656,"connected_time":1868000000000,"state":"active","ping":82},{"user_id":575,"name":"Albino Jellyfish","steam_id":76561198208561097,"connected_time":1770000000000,"state":"active","ping":49},{"user_id":468,"name":"DeezNoodlez","steam_id":76561198246700372,"connected_time":5892000000000,"state":"active","ping":58},{"user_id":479,"name":"BIG HOG","steam_id":76561198079923652,"connected_time":4798000000000,"state":"active","ping":64},{"user_id":576,"name":"iluvtoust","steam_id":76561198869269207,"connected_time":1765000000000,"state":"active","ping":65},{"user_id":582,"name":"lu","steam_id":76561198080731872,"connected_time":511000000000,"state":"active","ping":63},{"user_id":583,"name":"YourLocalMedic","steam_id":76561198004148003,"connected_time":509000000000,"state":"active","ping":98},{"user_id":474,"name":"lemme get a bbl the ocky way","steam_id":76561198115458307,"connected_time":5162000000000,"state":"active","ping":110},{"user_id":480,"name":"cp_stealyourgirl","steam_id":76561198092135570,"connected_time":4790000000000,"state":"active","ping":60},{"user_id":585,"name":"joe","steam_id":76561198045781320,"connected_time":430000000000,"state":"active","ping":60},{"user_id":494,"name":"Willly the WHALE","steam_id":76561198927517471,"connected_time":2830000000000,"state":"active","ping":51},{"user_id":444,"name":"rose","steam_id":76561198048882285,"connected_time":10590000000000,"state":"active","ping":64},{"user_id":580,"name":"Shipmunk","steam_id":76561198063062670,"connected_time":1107000000000,"state":"active","ping":47},{"user_id":574,"name":"PinkLemonade","steam_id":76561198799286228,"connected_time":1787000000000,"state":"active","ping":77},{"user_id":457,"name":"Le4n!!!","steam_id":76561198045522596,"connected_time":8356000000000,"state":"active","ping":67},{"user_id":422,"name":"lil hog","steam_id":76561199230929836,"connected_time":12589000000000,"state":"active","ping":85},{"user_id":586,"name":"paetho YT","steam_id":76561198152690003,"connected_time":294000000000,"state":"active","ping":53},{"user_id":495,"name":"Tay1Qr","steam_id":76561198082809935,"connected_time":2757000000000,"state":"active","ping":62},{"user_id":578,"name":"eat salad","steam_id":76561198960183175,"connected_time":1746000000000,"state":"active","ping":90},{"user_id":465,"name":"DuckMann","steam_id":76561198197058638,"connected_time":5906000000000,"state":"active","ping":47},{"user_id":455,"name":"frog from pond AT","steam_id":76561198184900753,"connected_time":9008000000000,"state":"active","ping":81},{"user_id":490,"name":"VidzCMC","steam_id":76561198848142973,"connected_time":3935000000000,"state":"active","ping":77},{"user_id":587,"name":"deadpixel","steam_id":76561198150249843,"connected_time":5000000000,"state":"active","ping":229},{"user_id":473,"name":"substance","steam_id":76561198050103868,"connected_time":5442000000000,"state":"active","ping":83}]},{"server_id":104,"name":"Uncletopia | Atlanta | 2 | All Maps","name_short":"atl-2","host":"atl-1.us.uncletopia.com","port":27025,"enabled":true,"region":"us-east","cc":"us","latitude":33.753746,"longitude":-84.38633,"reserved":0,"last_update":"0001-01-01T00:00:00Z","name_a2s":"Uncletopia | Atlanta | 2 | All Maps","protocol":17,"map":"koth_lakeside_final","folder":"tf","game":"Team Fortress","app_id":440,"player_count":0,"max_players":24,"Bots":0,"server_type":"Dedicated","server_os":"Linux","password":true,"vac":true,"version":"7961495","steam_id":85568392924469983,"keywords":["cp","nocrits","nodmgspread","uncletopia"],"game_id":440,"stv_port":27026,"stv_name":"Uncletopia | Atlanta | 2 | All Maps | STV","players":null},{"server_id":400,"name":"Uncletopia | Atlanta | 3 | Stopwatch","name_short":"atl-3","host":"atl-1.us.uncletopia.com","port":27035,"enabled":true,"region":"us-east","cc":"us","latitude":33.753746,"longitude":-84.38633,"reserved":0,"last_update":"0001-01-01T00:00:00Z","name_a2s":"Uncletopia | Atlanta | 3 | Stopwatch","protocol":17,"map":"koth_highpass","folder":"tf","game":"Team Fortress","app_id":440,"player_count":0,"max_players":24,"Bots":0,"server_type":"Dedicated","server_os":"Linux","password":true,"vac":true,"version":"7961495","steam_id":85568392924515187,"keywords":["cp","nocrits","nodmgspread","uncletopia"],"game_id":440,"stv_port":27036,"stv_name":"Uncletopia | Atlanta | 3 | Stopwatch | STV","players":null},{"server_id":401,"name":"Uncletopia | Atlanta | 4 | Community","name_short":"atl-4","host":"atl-1.us.uncletopia.com","port":27045,"enabled":true,"region":"us-east","cc":"us","latitude":33.753746,"longitude":-84.38633,"reserved":0,"last_update":"0001-01-01T00:00:00Z","name_a2s":"Uncletopia | Atlanta | 4 | Community","protocol":17,"map":"workshop/cp_glassworks_rc7a.ugc454118349","folder":"tf","game":"Team Fortress","app_id":440,"player_count":0,"max_players":24,"Bots":0,"server_type":"Dedicated","server_os":"Linux","password":true,"vac":true,"version":"7961495","steam_id":85568392924515188,"keywords":["cp","nocrits","nodmgspread","uncletopia"],"game_id":440,"stv_port":27046,"stv_name":"Uncletopia | Atlanta | 4 | Community | STV","players":null},{"server_id":2,"name":"Uncletopia | Chicago | 1 | All Maps","name_short":"chi-1","host":"chi-1.us.uncletopia.com","port":27015,"enabled":true,"region":"us-central","cc":"us","latitude":41.881832,"longitude":-87.62318,"reserved":0,"last_update":"0001-01-01T00:00:00Z","name_a2s":"Uncletopia | Chicago | 1 | All Maps","protocol":17,"map":"pl_upward","folder":"tf","game":"Team Fortress","app_id":440,"player_count":24,"max_players":24,"Bots":0,"server_type":"Dedicated","server_os":"Linux","password":true,"vac":true,"version":"7961495","steam_id":85568392924469984,"keywords":["nocrits","nodmgspread","payload","uncletopia"],"game_id":440,"stv_port":27016,"stv_name":"Uncletopia | Chicago | 1 | All Maps | STV","players":[{"user_id":994,"name":"The One True Luke","steam_id":76561198180891187,"connected_time":1237000000000,"state":"active","ping":69},{"user_id":992,"name":"Uriel Septim","steam_id":76561199166617591,"connected_time":1311000000000,"state":"active","ping":70},{"user_id":1012,"name":"EchoHound","steam_id":76561198995264386,"connected_time":209000000000,"state":"active","ping":36},{"user_id":1013,"name":"★TC2","steam_id":76561198026985346,"connected_time":195000000000,"state":"active","ping":47},{"user_id":935,"name":"Boofenshmirtz","steam_id":76561198071649858,"connected_time":4566000000000,"state":"active","ping":57},{"user_id":985,"name":"Scotty","steam_id":76561198268006443,"connected_time":1492000000000,"state":"active","ping":84},{"user_id":1006,"name":"all cock, no balls","steam_id":76561198159823948,"connected_time":354000000000,"state":"active","ping":36},{"user_id":997,"name":"THE DARKNESS","steam_id":76561198311004039,"connected_time":1198000000000,"state":"active","ping":93},{"user_id":1010,"name":"Jw. www.vaticancatholic.com","steam_id":76561198190170075,"connected_time":227000000000,"state":"active","ping":74},{"user_id":1005,"name":"Ademar","steam_id":76561199391802581,"connected_time":380000000000,"state":"active","ping":54},{"user_id":1014,"name":"Scita","steam_id":76561198066861559,"connected_time":176000000000,"state":"active","ping":64},{"user_id":965,"name":"jb","steam_id":76561198038607085,"connected_time":2264000000000,"state":"active","ping":67},{"user_id":956,"name":"Waffle","steam_id":76561199000034608,"connected_time":3147000000000,"state":"active","ping":56},{"user_id":871,"name":"guy","steam_id":76561198138186442,"connected_time":7218000000000,"state":"active","ping":93},{"user_id":1004,"name":"Fuegan Ra","steam_id":76561198287923849,"connected_time":443000000000,"state":"active","ping":47},{"user_id":996,"name":"5k RPM","steam_id":76561198926416886,"connected_time":1229000000000,"state":"active","ping":79},{"user_id":988,"name":"MoomyBoomy","steam_id":76561198150787961,"connected_time":1438000000000,"state":"active","ping":66},{"user_id":1011,"name":"outplayed","steam_id":76561198260527412,"connected_time":225000000000,"state":"active","ping":79},{"user_id":1001,"name":"Muselk, but mexican","steam_id":76561199289676387,"connected_time":986000000000,"state":"active","ping":88},{"user_id":1015,"name":"KATSURB","steam_id":76561199172118456,"connected_time":79000000000,"state":"active","ping":64},{"user_id":941,"name":"Dwanor","steam_id":76561198039571887,"connected_time":4457000000000,"state":"active","ping":68},{"user_id":1016,"name":"ThtGamrW","steam_id":76561199434562549,"connected_time":68000000000,"state":"active","ping":77},{"user_id":918,"name":"DevoutPage14990","steam_id":76561198831347354,"connected_time":5515000000000,"state":"active","ping":75},{"user_id":990,"name":"❤Scrimvle❤","steam_id":76561198132044633,"connected_time":1414000000000,"state":"active","ping":54}]},{"server_id":106,"name":"Uncletopia | Chicago | 2 | All Maps","name_short":"chi-2","host":"chi-1.us.uncletopia.com","port":27025,"enabled":true,"region":"us-central","cc":"us","latitude":41.881832,"longitude":-87.62318,"reserved":0,"last_update":"0001-01-01T00:00:00Z","name_a2s":"Uncletopia | Chicago | 2 | All Maps","protocol":17,"map":"koth_viaduct","folder":"tf","game":"Team Fortress","app_id":440,"player_count":0,"max_players":24,"Bots":0,"server_type":"Dedicated","server_os":"Linux","password":true,"vac":true,"version":"7961495","steam_id":85568392924469985,"keywords":["cp","nocrits","nodmgspread","uncletopia"],"game_id":440,"stv_port":27026,"stv_name":"Uncletopia | Chicago | 2 | All Maps | STV","players":null},{"server_id":402,"name":"Uncletopia | Chicago | 3 | All Maps","name_short":"chi-3","host":"chi-1.us.uncletopia.com","port":27035,"enabled":true,"region":"us-central","cc":"us","latitude":41.881832,"longitude":-87.62318,"reserved":0,"last_update":"0001-01-01T00:00:00Z","name_a2s":"Uncletopia | Chicago | 3 | All Maps","protocol":17,"map":"cp_snakewater_final1","folder":"tf","game":"Team Fortress","app_id":440,"player_count":22,"max_players":24,"Bots":0,"server_type":"Dedicated","server_os":"Linux","password":true,"vac":true,"version":"7961495","steam_id":85568392924515191,"keywords":["cp","nocrits","nodmgspread","uncletopia"],"game_id":440,"stv_port":27036,"stv_name":"Uncletopia | Chicago | 3 | All Maps | STV","players":[{"user_id":315,"name":"Zeelidox","steam_id":76561198110613375,"connected_time":5237000000000,"state":"active","ping":70},{"user_id":383,"name":"Big Chungus Gaming","steam_id":76561198068794194,"connected_time":258000000000,"state":"active","ping":57},{"user_id":364,"name":"james_bondage","steam_id":76561199476062624,"connected_time":1794000000000,"state":"active","ping":60},{"user_id":376,"name":"Mix56374","steam_id":76561199093717909,"connected_time":728000000000,"state":"active","ping":103},{"user_id":384,"name":"Cabbage","steam_id":76561198405573530,"connected_time":93000000000,"state":"active","ping":52},{"user_id":368,"name":"BRONY POWER","steam_id":76561198075510786,"connected_time":1750000000000,"state":"active","ping":59},{"user_id":369,"name":"BrownMemeSter","steam_id":76561198113745020,"connected_time":1719000000000,"state":"active","ping":56},{"user_id":370,"name":"Gugomo","steam_id":76561198121428316,"connected_time":1711000000000,"state":"active","ping":88},{"user_id":377,"name":"J O S H³²","steam_id":76561198122603779,"connected_time":704000000000,"state":"active","ping":98},{"user_id":339,"name":"drats!!!","steam_id":76561198072179483,"connected_time":3195000000000,"state":"active","ping":90},{"user_id":379,"name":"Menachem","steam_id":76561198041226420,"connected_time":577000000000,"state":"active","ping":46},{"user_id":354,"name":"Zoramine Fae","steam_id":76561198346753422,"connected_time":2456000000000,"state":"active","ping":42},{"user_id":371,"name":"Man On Night Mode","steam_id":76561198012469076,"connected_time":1702000000000,"state":"active","ping":60},{"user_id":373,"name":"Pizza Party","steam_id":76561198165730754,"connected_time":1534000000000,"state":"active","ping":107},{"user_id":372,"name":"WhatisKetchup","steam_id":76561199211104298,"connected_time":1702000000000,"state":"active","ping":78},{"user_id":343,"name":"kratomSnorter.1quarter","steam_id":76561198946987511,"connected_time":3090000000000,"state":"active","ping":84},{"user_id":380,"name":"GuyGoom","steam_id":76561198254522178,"connected_time":508000000000,"state":"active","ping":53},{"user_id":382,"name":"yair_1302","steam_id":76561199193064727,"connected_time":291000000000,"state":"active","ping":44},{"user_id":374,"name":"(vc off) Niterux","steam_id":76561198101291574,"connected_time":1529000000000,"state":"active","ping":64},{"user_id":381,"name":"TheTimeLord","steam_id":76561198083715205,"connected_time":498000000000,"state":"active","ping":87},{"user_id":357,"name":"Vind Gnyr","steam_id":76561198042641211,"connected_time":2434000000000,"state":"active","ping":74},{"user_id":316,"name":"Kel","steam_id":76561198046283896,"connected_time":5191000000000,"state":"active","ping":74}]},{"server_id":403,"name":"Uncletopia | Chicago | 4 | All Maps","name_short":"chi-4","host":"chi-1.us.uncletopia.com","port":27045,"enabled":true,"region":"us-central","cc":"us","latitude":41.881832,"longitude":-87.62318,"reserved":0,"last_update":"0001-01-01T00:00:00Z","name_a2s":"Uncletopia | Chicago | 4 | All Maps","protocol":17,"map":"cp_gorge","folder":"tf","game":"Team Fortress","app_id":440,"player_count":0,"max_players":24,"Bots":0,"server_type":"Dedicated","server_os":"Linux","password":true,"vac":true,"version":"7961495","steam_id":85568392924515193,"keywords":["cp","nocrits","nodmgspread","uncletopia"],"game_id":440,"stv_port":27046,"stv_name":"Uncletopia | Chicago | 4 | All Maps | STV","players":null},{"server_id":36,"name":"Uncletopia | Chicago | 5 | All Maps","name_short":"chi-5","host":"chi-2.us.uncletopia.com","port":27015,"enabled":true,"region":"us-central","cc":"us","latitude":41.881832,"longitude":-87.62318,"reserved":0,"last_update":"0001-01-01T00:00:00Z","name_a2s":"Uncletopia | Chicago | 5 | All Maps","protocol":17,"map":"cp_snakewater_final1","folder":"tf","game":"Team Fortress","app_id":440,"player_count":8,"max_players":24,"Bots":0,"server_type":"Dedicated","server_os":"Linux","password":true,"vac":true,"version":"7961495","steam_id":85568392924866362,"keywords":["cp","nocrits","nodmgspread","uncletopia"],"game_id":440,"stv_port":27016,"stv_name":"Uncletopia | Chicago | 5 | All Maps | STV","players":[{"user_id":534,"name":"Arg Noit","steam_id":76561198356729767,"connected_time":2382000000000,"state":"active","ping":95},{"user_id":562,"name":"Game Broke No Fix","steam_id":76561198028271650,"connected_time":495000000000,"state":"active","ping":113},{"user_id":506,"name":"Fiebs","steam_id":76561198073881842,"connected_time":4201000000000,"state":"active","ping":62},{"user_id":556,"name":"Jon Allen","steam_id":76561199014634984,"connected_time":992000000000,"state":"active","ping":82},{"user_id":510,"name":"young \u0026 happy","steam_id":76561198017002344,"connected_time":4161000000000,"state":"active","ping":54},{"user_id":546,"name":"M-Looskinator","steam_id":76561198135649941,"connected_time":1628000000000,"state":"active","ping":104},{"user_id":558,"name":"ZebraOnYourNose","steam_id":76561198057743281,"connected_time":964000000000,"state":"active","ping":69},{"user_id":478,"name":"Gremsheker","steam_id":76561198068025153,"connected_time":6912000000000,"state":"active","ping":61}]},{"server_id":37,"name":"Uncletopia | Chicago | 6 | All Maps","name_short":"chi-6","host":"chi-2.us.uncletopia.com","port":27025,"enabled":true,"region":"us-central","cc":"us","latitude":41.881832,"longitude":-87.62318,"reserved":0,"last_update":"0001-01-01T00:00:00Z","name_a2s":"Uncletopia | Chicago | 6 | All Maps","protocol":17,"map":"cp_altitude","folder":"tf","game":"Team Fortress","app_id":440,"player_count":23,"max_players":24,"Bots":0,"server_type":"Dedicated","server_os":"Linux","password":true,"vac":true,"version":"7961495","steam_id":85568392924866363,"keywords":["cp","nocrits","nodmgspread","uncletopia"],"game_id":440,"stv_port":27026,"stv_name":"Uncletopia | Chicago | 6 | All Maps | STV","players":[{"user_id":531,"name":"Zeek","steam_id":76561197987204351,"connected_time":57000000000,"state":"active","ping":58},{"user_id":496,"name":"VeloCity","steam_id":76561198148688626,"connected_time":1810000000000,"state":"active","ping":63},{"user_id":504,"name":"xxxsinpadres","steam_id":76561198366873419,"connected_time":1223000000000,"state":"active","ping":55},{"user_id":505,"name":"tinu","steam_id":76561198087260853,"connected_time":1181000000000,"state":"active","ping":89},{"user_id":526,"name":"kid named chill bill","steam_id":76561198181487950,"connected_time":306000000000,"state":"active","ping":74},{"user_id":469,"name":"sithreis","steam_id":76561198000564263,"connected_time":2774000000000,"state":"active","ping":74},{"user_id":450,"name":"lanoc","steam_id":76561198055415367,"connected_time":4414000000000,"state":"active","ping":61},{"user_id":527,"name":"Fresnel","steam_id":76561198266960876,"connected_time":246000000000,"state":"active","ping":76},{"user_id":468,"name":"AlecTheNefarious","steam_id":76561198035291230,"connected_time":2809000000000,"state":"active","ping":60},{"user_id":524,"name":"Jesus is Lord","steam_id":76561198141858576,"connected_time":374000000000,"state":"active","ping":73},{"user_id":511,"name":"birbneedsumseed","steam_id":76561198853439850,"connected_time":1131000000000,"state":"active","ping":94},{"user_id":525,"name":"We Make It Look Easy™","steam_id":76561198024442760,"connected_time":333000000000,"state":"active","ping":58},{"user_id":528,"name":"Garfield","steam_id":76561199251237007,"connected_time":238000000000,"state":"active","ping":73},{"user_id":508,"name":"PootisPowHAHA","steam_id":76561199023536209,"connected_time":1174000000000,"state":"active","ping":86},{"user_id":529,"name":"Jeremiah Finch","steam_id":76561198046899113,"connected_time":163000000000,"state":"active","ping":61},{"user_id":500,"name":"illa D","steam_id":76561198041468375,"connected_time":1541000000000,"state":"active","ping":76},{"user_id":509,"name":"Tommie Chiang, CA","steam_id":76561198119150842,"connected_time":1142000000000,"state":"active","ping":107},{"user_id":510,"name":"bunnyly enough","steam_id":76561198094119347,"connected_time":1139000000000,"state":"active","ping":70},{"user_id":512,"name":"Andrew Chong, WA","steam_id":76561198130652955,"connected_time":1130000000000,"state":"active","ping":99},{"user_id":494,"name":"29palms","steam_id":76561198095104925,"connected_time":1880000000000,"state":"active","ping":104},{"user_id":530,"name":"kikikikoboy","steam_id":76561198073380271,"connected_time":90000000000,"state":"active","ping":68},{"user_id":495,"name":"Angrod","steam_id":76561198007447333,"connected_time":1853000000000,"state":"active","ping":121},{"user_id":515,"name":"Sodium Chloride","steam_id":76561199273518512,"connected_time":1098000000000,"state":"active","ping":59}]},{"server_id":38,"name":"Uncletopia | Chicago | 7 | Stopwatch","name_short":"chi-7","host":"chi-2.us.uncletopia.com","port":27035,"enabled":true,"region":"us-central","cc":"us","latitude":41.881832,"longitude":-87.62318,"reserved":0,"last_update":"0001-01-01T00:00:00Z","name_a2s":"Uncletopia | Chicago | 7 | Stopwatch","protocol":17,"map":"workshop/koth_clearcut_b15.ugc2107050255","folder":"tf","game":"Team Fortress","app_id":440,"player_count":0,"max_players":24,"Bots":0,"server_type":"Dedicated","server_os":"Linux","password":true,"vac":true,"version":"7961495","steam_id":85568392924866364,"keywords":["cp","nocrits","nodmgspread","uncletopia"],"game_id":440,"stv_port":27036,"stv_name":"Uncletopia | Chicago | 7 | Stopwatch | STV","players":null},{"server_id":39,"name":"Uncletopia | Chicago | 8 | Community","name_short":"chi-8","host":"chi-2.us.uncletopia.com","port":27045,"enabled":true,"region":"us-central","cc":"us","latitude":41.881832,"longitude":-87.62318,"reserved":0,"last_update":"0001-01-01T00:00:00Z","name_a2s":"Uncletopia | Chicago | 8 | Community","protocol":17,"map":"workshop/koth_slaughter_rc1.ugc1712845210","folder":"tf","game":"Team Fortress","app_id":440,"player_count":0,"max_players":24,"Bots":0,"server_type":"Dedicated","server_os":"Linux","password":true,"vac":true,"version":"7961495","steam_id":85568392924866365,"keywords":["cp","nocrits","nodmgspread","uncletopia"],"game_id":440,"stv_port":27046,"stv_name":"Uncletopia | Chicago | 8 | Community | STV","players":null},{"server_id":8,"name":"Uncletopia | Dallas | 1 | All Maps","name_short":"dal-1","host":"dal-1.us.uncletopia.com","port":27015,"enabled":true,"region":"us-central","cc":"us","latitude":32.779167,"longitude":-96.80889,"reserved":0,"last_update":"0001-01-01T00:00:00Z","name_a2s":"Uncletopia | Dallas | 1 | All Maps","protocol":17,"map":"pl_pier","folder":"tf","game":"Team Fortress","app_id":440,"player_count":18,"max_players":24,"Bots":0,"server_type":"Dedicated","server_os":"Linux","password":true,"vac":true,"version":"7961495","steam_id":85568392924469986,"keywords":["nocrits","nodmgspread","payload","uncletopia"],"game_id":440,"stv_port":27016,"stv_name":"Uncletopia | Dallas | 1 | All Maps | STV","players":[{"user_id":962,"name":"Colonel Salt","steam_id":76561198207009563,"connected_time":1088000000000,"state":"active","ping":52},{"user_id":968,"name":"WILDF1RE","steam_id":76561198050098483,"connected_time":583000000000,"state":"active","ping":61},{"user_id":932,"name":"HEE HOO DUSTBOWL!","steam_id":76561199389985063,"connected_time":3526000000000,"state":"active","ping":105},{"user_id":941,"name":"skegeton","steam_id":76561198095581099,"connected_time":2065000000000,"state":"active","ping":52},{"user_id":973,"name":"Byte The Protogen","steam_id":76561199229871383,"connected_time":37000000000,"state":"spawning","ping":91},{"user_id":974,"name":"Butterton","steam_id":76561198833286517,"connected_time":3000000000,"state":"spawning","ping":96},{"user_id":960,"name":"owl","steam_id":76561198088403016,"connected_time":1202000000000,"state":"active","ping":179},{"user_id":961,"name":"Brigadier Brownie","steam_id":76561198040852898,"connected_time":1095000000000,"state":"active","ping":70},{"user_id":954,"name":"hotdog","steam_id":76561198052576687,"connected_time":1361000000000,"state":"active","ping":75},{"user_id":971,"name":"shinon","steam_id":76561198373626848,"connected_time":127000000000,"state":"active","ping":75},{"user_id":956,"name":"Jiwoo","steam_id":76561198078292855,"connected_time":1307000000000,"state":"active","ping":63},{"user_id":928,"name":"Hatter","steam_id":76561198010341986,"connected_time":3795000000000,"state":"active","ping":63},{"user_id":957,"name":"CJdog","steam_id":76561198155027929,"connected_time":1282000000000,"state":"active","ping":57},{"user_id":908,"name":"bad spy player","steam_id":76561198873699671,"connected_time":5203000000000,"state":"active","ping":92},{"user_id":922,"name":"Michaelpc1","steam_id":76561198088365519,"connected_time":4084000000000,"state":"active","ping":90},{"user_id":965,"name":"Universe","steam_id":76561198137611973,"connected_time":1057000000000,"state":"active","ping":106},{"user_id":967,"name":"YoWhatsUp","steam_id":76561198034340966,"connected_time":928000000000,"state":"active","ping":59},{"user_id":925,"name":"honked off the bobo","steam_id":76561198123287268,"connected_time":3850000000000,"state":"active","ping":60}]},{"server_id":108,"name":"Uncletopia | Dallas | 2 | All Maps","name_short":"dal-2","host":"dal-1.us.uncletopia.com","port":27025,"enabled":true,"region":"us-central","cc":"us","latitude":32.779167,"longitude":-96.80889,"reserved":0,"last_update":"0001-01-01T00:00:00Z","name_a2s":"Uncletopia | Dallas | 2 | All Maps","protocol":17,"map":"pl_badwater","folder":"tf","game":"Team Fortress","app_id":440,"player_count":15,"max_players":24,"Bots":0,"server_type":"Dedicated","server_os":"Linux","password":true,"vac":true,"version":"7961495","steam_id":85568392924469988,"keywords":["nocrits","nodmgspread","payload","uncletopia"],"game_id":440,"stv_port":27026,"stv_name":"Uncletopia | Dallas | 2 | All Maps | STV","players":[{"user_id":675,"name":"BG1","steam_id":76561198126386686,"connected_time":1326000000000,"state":"active","ping":71},{"user_id":688,"name":"Papa Smoke","steam_id":76561198181348206,"connected_time":137000000000,"state":"active","ping":92},{"user_id":677,"name":"Bigfoot ate my ass","steam_id":76561198071605190,"connected_time":1202000000000,"state":"active","ping":62},{"user_id":679,"name":"\"Decent\"","steam_id":76561198968058652,"connected_time":663000000000,"state":"active","ping":99},{"user_id":673,"name":"Flerps","steam_id":76561197979279110,"connected_time":1534000000000,"state":"active","ping":63},{"user_id":662,"name":"Pie™","steam_id":76561198158312625,"connected_time":2572000000000,"state":"active","ping":107},{"user_id":680,"name":"⛧ AlphaSatanOmega ⛧","steam_id":76561198035125511,"connected_time":531000000000,"state":"active","ping":74},{"user_id":686,"name":"xFactr","steam_id":76561198129007422,"connected_time":195000000000,"state":"active","ping":78},{"user_id":676,"name":"JakePackage","steam_id":76561198033973438,"connected_time":1326000000000,"state":"active","ping":42},{"user_id":609,"name":"penzfan","steam_id":76561198230422640,"connected_time":5114000000000,"state":"active","ping":69},{"user_id":685,"name":"Q47","steam_id":76561198087128341,"connected_time":203000000000,"state":"active","ping":135},{"user_id":634,"name":"SgT_Spam","steam_id":76561198275753768,"connected_time":4066000000000,"state":"active","ping":57},{"user_id":667,"name":"LikeASir","steam_id":76561198042209721,"connected_time":2392000000000,"state":"active","ping":68},{"user_id":687,"name":"SecondCarpet","steam_id":76561199008323078,"connected_time":189000000000,"state":"active","ping":81},{"user_id":664,"name":"trainmarine -bt","steam_id":76561198341784551,"connected_time":2559000000000,"state":"active","ping":58}]},{"server_id":404,"name":"Uncletopia | Dallas | 3 | All Maps","name_short":"dal-3","host":"dal-1.us.uncletopia.com","port":27035,"enabled":true,"region":"us-central","cc":"us","latitude":32.779167,"longitude":-96.80889,"reserved":0,"last_update":"0001-01-01T00:00:00Z","name_a2s":"Uncletopia | Dallas | 3 | All Maps","protocol":17,"map":"cp_dustbowl","folder":"tf","game":"Team Fortress","app_id":440,"player_count":24,"max_players":24,"Bots":0,"server_type":"Dedicated","server_os":"Linux","password":true,"vac":true,"version":"7961495","steam_id":85568392924515219,"keywords":["cp","nocrits","nodmgspread","uncletopia"],"game_id":440,"stv_port":27036,"stv_name":"Uncletopia | Dallas | 3 | All Maps | STV","players":[{"user_id":414,"name":"the juicer","steam_id":76561198307845869,"connected_time":364000000000,"state":"active","ping":78},{"user_id":410,"name":"Precious from \"Precious\"","steam_id":76561199170057249,"connected_time":699000000000,"state":"active","ping":49},{"user_id":395,"name":"Lulee","steam_id":76561198044410549,"connected_time":1316000000000,"state":"active","ping":62},{"user_id":406,"name":"Certified Hood Classic","steam_id":76561199086159354,"connected_time":883000000000,"state":"active","ping":45},{"user_id":396,"name":"viedoamges","steam_id":76561198025295263,"connected_time":1252000000000,"state":"active","ping":52},{"user_id":350,"name":"ZaffreIndigo","steam_id":76561198046724290,"connected_time":4434000000000,"state":"active","ping":90},{"user_id":366,"name":"DesolateCabbage","steam_id":76561198064467423,"connected_time":1852000000000,"state":"active","ping":45},{"user_id":373,"name":"Snapdragon the Snapdragon","steam_id":76561198832442139,"connected_time":1666000000000,"state":"active","ping":63},{"user_id":353,"name":"Gay Loogi Gang","steam_id":76561198097031529,"connected_time":3771000000000,"state":"active","ping":67},{"user_id":376,"name":"Jibanyanlnewells69","steam_id":76561198337420431,"connected_time":1588000000000,"state":"active","ping":69},{"user_id":375,"name":"Yume","steam_id":76561198018060136,"connected_time":1631000000000,"state":"active","ping":78},{"user_id":365,"name":"Lezabel","steam_id":76561198970753261,"connected_time":1867000000000,"state":"active","ping":79},{"user_id":367,"name":"Yosh","steam_id":76561198027078899,"connected_time":1842000000000,"state":"active","ping":76},{"user_id":407,"name":"CheeZeyRat","steam_id":76561199473394284,"connected_time":873000000000,"state":"active","ping":89},{"user_id":411,"name":"Enderkill777","steam_id":76561198876915153,"connected_time":652000000000,"state":"active","ping":90},{"user_id":412,"name":"type \"bad med\" to kick","steam_id":76561198076402476,"connected_time":585000000000,"state":"active","ping":81},{"user_id":356,"name":"Unlicensed Fed","steam_id":76561198166040449,"connected_time":3316000000000,"state":"active","ping":76},{"user_id":221,"name":"runescape legend","steam_id":76561198077791373,"connected_time":16785000000000,"state":"active","ping":75},{"user_id":408,"name":"vulcan nightclub pon farr night","steam_id":76561197974283797,"connected_time":823000000000,"state":"active","ping":73},{"user_id":344,"name":"-Spîdêr-","steam_id":76561198064531248,"connected_time":5138000000000,"state":"active","ping":61},{"user_id":355,"name":"Pinetree w/ apples.","steam_id":76561198105411709,"connected_time":3390000000000,"state":"active","ping":103},{"user_id":413,"name":"PlatniumBoi","steam_id":76561198276140755,"connected_time":480000000000,"state":"active","ping":98},{"user_id":385,"name":"Spy Kart 2","steam_id":76561199486212244,"connected_time":1475000000000,"state":"active","ping":104},{"user_id":351,"name":"Bullwinkle J. Moose","steam_id":76561198075977196,"connected_time":3943000000000,"state":"active","ping":64}]},{"server_id":405,"name":"Uncletopia | Dallas | 4 | Community","name_short":"dal-4","host":"dal-1.us.uncletopia.com","port":27045,"enabled":true,"region":"us-central","cc":"us","latitude":32.779167,"longitude":-96.80889,"reserved":0,"last_update":"0001-01-01T00:00:00Z","name_a2s":"Uncletopia | Dallas | 4 | Community","protocol":17,"map":"workshop/cp_reckoner_rc6.ugc674719999","folder":"tf","game":"Team Fortress","app_id":440,"player_count":0,"max_players":24,"Bots":0,"server_type":"Dedicated","server_os":"Linux","password":true,"vac":true,"version":"7961495","steam_id":85568392924515220,"keywords":["cp","nocrits","nodmgspread","uncletopia"],"game_id":440,"stv_port":27046,"stv_name":"Uncletopia | Dallas | 4 | Community | STV","players":null},{"server_id":5,"name":"Uncletopia | Frankfurt | 1 | All Maps","name_short":"frk-1","host":"frk-1.de.uncletopia.com","port":27015,"enabled":true,"region":"eu","cc":"de","latitude":50.110924,"longitude":8.682127,"reserved":0,"last_update":"0001-01-01T00:00:00Z","name_a2s":"Uncletopia | Frankfurt | 1 | All Maps","protocol":17,"map":"cp_badlands","folder":"tf","game":"Team Fortress","app_id":440,"player_count":0,"max_players":24,"Bots":0,"server_type":"Dedicated","server_os":"Linux","password":true,"vac":true,"version":"7961495","steam_id":85568392924469989,"keywords":["cp","nocrits","nodmgspread","uncletopia"],"game_id":440,"stv_port":27016,"stv_name":"Uncletopia | Frankfurt | 1 | All Maps | STV","players":null},{"server_id":110,"name":"Uncletopia | Frankfurt | 2 | All Maps","name_short":"frk-2","host":"frk-1.de.uncletopia.com","port":27025,"enabled":true,"region":"eu","cc":"de","latitude":50.110924,"longitude":8.682127,"reserved":0,"last_update":"0001-01-01T00:00:00Z","name_a2s":"Uncletopia | Frankfurt | 2 | All Maps","protocol":17,"map":"plr_hightower","folder":"tf","game":"Team Fortress","app_id":440,"player_count":0,"max_players":24,"Bots":0,"server_type":"Dedicated","server_os":"Linux","password":true,"vac":true,"version":"7961495","steam_id":85568392924469990,"keywords":["nocrits","nodmgspread","payload","uncletopia"],"game_id":440,"stv_port":27026,"stv_name":"Uncletopia | Frankfurt | 2 | All Maps | STV","players":null},{"server_id":308,"name":"Uncletopia | Frankfurt | 3 | All Maps","name_short":"frk-3","host":"frk-1.de.uncletopia.com","port":27035,"enabled":true,"region":"eu","cc":"de","latitude":50.110924,"longitude":8.682127,"reserved":0,"last_update":"0001-01-01T00:00:00Z","name_a2s":"Uncletopia | Frankfurt | 3 | All Maps","protocol":17,"map":"cp_metalworks","folder":"tf","game":"Team Fortress","app_id":440,"player_count":0,"max_players":24,"Bots":0,"server_type":"Dedicated","server_os":"Linux","password":true,"vac":true,"version":"7961495","steam_id":85568392924504274,"keywords":["cp","nocrits","nodmgspread","uncletopia"],"game_id":440,"stv_port":27036,"stv_name":"Uncletopia | Frankfurt | 3 | All Maps | STV","players":null},{"server_id":309,"name":"Uncletopia | Frankfurt | 4 | All Maps","name_short":"frk-4","host":"frk-1.de.uncletopia.com","port":27045,"enabled":true,"region":"eu","cc":"de","latitude":50.110924,"longitude":8.682127,"reserved":0,"last_update":"0001-01-01T00:00:00Z","name_a2s":"Uncletopia | Frankfurt | 4 | All Maps","protocol":17,"map":"cp_gorge","folder":"tf","game":"Team Fortress","app_id":440,"player_count":0,"max_players":24,"Bots":0,"server_type":"Dedicated","server_os":"Linux","password":true,"vac":true,"version":"7961495","steam_id":85568392924504275,"keywords":["cp","nocrits","nodmgspread","uncletopia"],"game_id":440,"stv_port":27046,"stv_name":"Uncletopia | Frankfurt | 4 | All Maps | STV","players":null},{"server_id":310,"name":"Uncletopia | Frankfurt | 5 | All Maps","name_short":"frk-5","host":"frk-1.de.uncletopia.com","port":27055,"enabled":true,"region":"eu","cc":"de","latitude":50.110924,"longitude":8.682127,"reserved":0,"last_update":"0001-01-01T00:00:00Z","name_a2s":"Uncletopia | Frankfurt | 5 | All Maps","protocol":17,"map":"cp_mountainlab","folder":"tf","game":"Team Fortress","app_id":440,"player_count":0,"max_players":24,"Bots":0,"server_type":"Dedicated","server_os":"Linux","password":true,"vac":true,"version":"7961495","steam_id":85568392924504277,"keywords":["cp","nocrits","nodmgspread","uncletopia"],"game_id":440,"stv_port":27056,"stv_name":"Uncletopia | Frankfurt | 5 | All Maps | STV","players":null},{"server_id":311,"name":"Uncletopia | Frankfurt | 6 | All Maps","name_short":"frk-6","host":"frk-1.de.uncletopia.com","port":27065,"enabled":true,"region":"eu","cc":"de","latitude":50.110924,"longitude":8.682127,"reserved":0,"last_update":"0001-01-01T00:00:00Z","name_a2s":"Uncletopia | Frankfurt | 6 | All Maps","protocol":17,"map":"cp_coldfront","folder":"tf","game":"Team Fortress","app_id":440,"player_count":0,"max_players":24,"Bots":0,"server_type":"Dedicated","server_os":"Linux","password":true,"vac":true,"version":"7961495","steam_id":85568392924504278,"keywords":["cp","nocrits","nodmgspread","uncletopia"],"game_id":440,"stv_port":27066,"stv_name":"Uncletopia | Frankfurt | 6 | All Maps | STV","players":null},{"server_id":23,"name":"Uncletopia | Frankfurt | 7 | Stopwatch","name_short":"frk-7","host":"frk-1.de.uncletopia.com","port":27075,"enabled":true,"region":"eu","cc":"de","latitude":50.110924,"longitude":8.682127,"reserved":0,"last_update":"0001-01-01T00:00:00Z","name_a2s":"Uncletopia | Frankfurt | 7 | Stopwatch","protocol":17,"map":"pl_swiftwater_final1","folder":"tf","game":"Team Fortress","app_id":440,"player_count":0,"max_players":24,"Bots":0,"server_type":"Dedicated","server_os":"Linux","password":true,"vac":true,"version":"7961495","steam_id":85568392924742827,"keywords":["nocrits","nodmgspread","payload","uncletopia"],"game_id":440,"stv_port":27076,"stv_name":"Uncletopia | Frankfurt | 7 | Stopwatch | STV","players":null},{"server_id":24,"name":"Uncletopia | Frankfurt | 8 | Community","name_short":"frk-8","host":"frk-1.de.uncletopia.com","port":27085,"enabled":true,"region":"eu","cc":"de","latitude":50.110924,"longitude":8.682127,"reserved":0,"last_update":"0001-01-01T00:00:00Z","name_a2s":"Uncletopia | Frankfurt | 8 | Community","protocol":17,"map":"workshop/pl_boundary_final1.ugc456799153","folder":"tf","game":"Team Fortress","app_id":440,"player_count":0,"max_players":24,"Bots":0,"server_type":"Dedicated","server_os":"Linux","password":true,"vac":true,"version":"7961495","steam_id":85568392924742828,"keywords":["nocrits","nodmgspread","payload","uncletopia"],"game_id":440,"stv_port":27086,"stv_name":"Uncletopia | Frankfurt | 8 | Community | STV","players":null},{"server_id":202,"name":"Uncletopia | Hong Kong | 1 | All Maps","name_short":"hgk-1","host":"hgk-1.hk.uncletopia.com","port":27015,"enabled":true,"region":"asia","cc":"hk","latitude":22.302711,"longitude":114.177216,"reserved":0,"last_update":"0001-01-01T00:00:00Z","name_a2s":"Uncletopia | Hong Kong | 1 | All Maps","protocol":17,"map":"pl_upward","folder":"tf","game":"Team Fortress","app_id":440,"player_count":24,"max_players":24,"Bots":0,"server_type":"Dedicated","server_os":"Linux","password":true,"vac":true,"version":"7961495","steam_id":85568392924494504,"keywords":["nocrits","nodmgspread","payload","uncletopia"],"game_id":440,"stv_port":27016,"stv_name":"Uncletopia | Hong Kong | 1 | All Maps | STV","players":[{"user_id":83,"name":"3wfFbdrjEze5d2G","steam_id":76561198435900451,"connected_time":6007000000000,"state":"active","ping":113},{"user_id":129,"name":"Ivy","steam_id":76561198400698408,"connected_time":990000000000,"state":"active","ping":97},{"user_id":92,"name":"qingque","steam_id":76561198230213828,"connected_time":5394000000000,"state":"active","ping":59},{"user_id":134,"name":"Aim and Ignite","steam_id":76561198097721707,"connected_time":777000000000,"state":"active","ping":36},{"user_id":31,"name":"ryder","steam_id":76561198797699056,"connected_time":10253000000000,"state":"active","ping":100},{"user_id":114,"name":"Hay","steam_id":76561199438952901,"connected_time":2739000000000,"state":"active","ping":42},{"user_id":102,"name":"ArcticDolphin","steam_id":76561198203626319,"connected_time":3791000000000,"state":"active","ping":108},{"user_id":108,"name":"2 fists and the urge to kill","steam_id":76561198324008555,"connected_time":2853000000000,"state":"active","ping":46},{"user_id":131,"name":"my gun can shoot now!","steam_id":76561199249938987,"connected_time":847000000000,"state":"active","ping":37},{"user_id":104,"name":"Momoi","steam_id":76561198083999038,"connected_time":3537000000000,"state":"active","ping":93},{"user_id":137,"name":"Puddin","steam_id":76561198140052918,"connected_time":31000000000,"state":"active","ping":65},{"user_id":56,"name":"p1st0n","steam_id":76561198992723983,"connected_time":7919000000000,"state":"active","ping":96},{"user_id":121,"name":"Minos Prime Reaction","steam_id":76561199475974790,"connected_time":2334000000000,"state":"active","ping":69},{"user_id":133,"name":"BAzooKA","steam_id":76561198061628689,"connected_time":806000000000,"state":"active","ping":54},{"user_id":70,"name":"Corbezy","steam_id":76561197993398349,"connected_time":7292000000000,"state":"active","ping":94},{"user_id":73,"name":"BURN PYGMALION!!!","steam_id":76561198074339034,"connected_time":7093000000000,"state":"active","ping":74},{"user_id":135,"name":"pongi","steam_id":76561198412329672,"connected_time":747000000000,"state":"active","ping":102},{"user_id":125,"name":"cocksucker479","steam_id":76561198055553140,"connected_time":1525000000000,"state":"active","ping":83},{"user_id":119,"name":"yw","steam_id":76561199382726488,"connected_time":2695000000000,"state":"active","ping":43},{"user_id":124,"name":"Revenaline","steam_id":76561198964762311,"connected_time":1880000000000,"state":"active","ping":63},{"user_id":67,"name":"Sayo-Nara","steam_id":76561198005744733,"connected_time":7417000000000,"state":"active","ping":105},{"user_id":136,"name":"(TEAM)asphie","steam_id":76561198340436140,"connected_time":722000000000,"state":"active","ping":45},{"user_id":138,"name":"Pillboi","steam_id":76561198011172886,"connected_time":12000000000,"state":"spawning","ping":39},{"user_id":91,"name":"no vc no c","steam_id":76561197989503095,"connected_time":5411000000000,"state":"active","ping":94}]},{"server_id":1,"name":"Uncletopia | Los Angeles | 1 | All Maps","name_short":"lax-1","host":"lax-1.us.uncletopia.com","port":27015,"enabled":true,"region":"us-west","cc":"us","latitude":33.94279,"longitude":-118.41004,"reserved":0,"last_update":"0001-01-01T00:00:00Z","name_a2s":"Uncletopia | Los Angeles | 1 | All Maps","protocol":17,"map":"koth_lakeside_final","folder":"tf","game":"Team Fortress","app_id":440,"player_count":24,"max_players":24,"Bots":0,"server_type":"Dedicated","server_os":"Linux","password":true,"vac":true,"version":"7961495","steam_id":85568392924469991,"keywords":["cp","nocrits","nodmgspread","uncletopia"],"game_id":440,"stv_port":27016,"stv_name":"Uncletopia | Los Angeles | 1 | All Maps | STV","players":[{"user_id":205,"name":"Anon","steam_id":76561198109740776,"connected_time":171000000000,"state":"active","ping":59},{"user_id":201,"name":"what a fukkin","steam_id":76561198298442983,"connected_time":246000000000,"state":"active","ping":72},{"user_id":174,"name":"Eden","steam_id":76561198081284664,"connected_time":2659000000000,"state":"active","ping":55},{"user_id":123,"name":"chimplicity","steam_id":76561198012097062,"connected_time":6778000000000,"state":"active","ping":56},{"user_id":180,"name":"barks","steam_id":76561198283462369,"connected_time":2059000000000,"state":"active","ping":58},{"user_id":195,"name":"Bodhi","steam_id":76561198043199143,"connected_time":524000000000,"state":"active","ping":44},{"user_id":145,"name":"heck","steam_id":76561198315694520,"connected_time":3880000000000,"state":"active","ping":48},{"user_id":190,"name":"omega male","steam_id":76561198146241989,"connected_time":1140000000000,"state":"active","ping":90},{"user_id":179,"name":"ack.awesome676","steam_id":76561199109415958,"connected_time":2197000000000,"state":"active","ping":45},{"user_id":202,"name":"bigchungusgaming(real)","steam_id":76561198273392037,"connected_time":235000000000,"state":"active","ping":48},{"user_id":146,"name":"Sak","steam_id":76561198307655707,"connected_time":3834000000000,"state":"active","ping":44},{"user_id":159,"name":"MineOpal","steam_id":76561198044716407,"connected_time":3143000000000,"state":"active","ping":45},{"user_id":200,"name":"Kylar","steam_id":76561198196979431,"connected_time":304000000000,"state":"active","ping":47},{"user_id":188,"name":"paypur -rng","steam_id":76561198214370515,"connected_time":1393000000000,"state":"active","ping":68},{"user_id":189,"name":"virtualconnor4","steam_id":76561198218524512,"connected_time":1393000000000,"state":"active","ping":48},{"user_id":165,"name":"oobner","steam_id":76561198864545608,"connected_time":2915000000000,"state":"active","ping":60},{"user_id":187,"name":"DarkestSideOfTheMoon","steam_id":76561199198320337,"connected_time":1536000000000,"state":"active","ping":48},{"user_id":194,"name":"ZeudokNou","steam_id":76561199380408262,"connected_time":535000000000,"state":"active","ping":81},{"user_id":192,"name":"TylertheImperial","steam_id":76561199401195068,"connected_time":976000000000,"state":"active","ping":45},{"user_id":199,"name":"Aƶul","steam_id":76561198065119119,"connected_time":342000000000,"state":"active","ping":64},{"user_id":206,"name":"PROFILE NAME","steam_id":76561199438851854,"connected_time":90000000000,"state":"active","ping":78},{"user_id":117,"name":"HAT-WEARING™ Maggot Gamer Cat","steam_id":76561197973992705,"connected_time":7513000000000,"state":"active","ping":60},{"user_id":184,"name":"wugmup","steam_id":76561199096287734,"connected_time":2024000000000,"state":"active","ping":54},{"user_id":118,"name":"Why Me...","steam_id":76561199124019937,"connected_time":6797000000000,"state":"active","ping":60}]},{"server_id":112,"name":"Uncletopia | Los Angeles | 2 | All Maps","name_short":"lax-2","host":"lax-1.us.uncletopia.com","port":27025,"enabled":true,"region":"us-west","cc":"us","latitude":33.94279,"longitude":-118.41004,"reserved":0,"last_update":"0001-01-01T00:00:00Z","name_a2s":"Uncletopia | Los Angeles | 2 | All Maps","protocol":17,"map":"cp_powerhouse","folder":"tf","game":"Team Fortress","app_id":440,"player_count":3,"max_players":24,"Bots":0,"server_type":"Dedicated","server_os":"Linux","password":true,"vac":true,"version":"7961495","steam_id":85568392924469992,"keywords":["cp","nocrits","nodmgspread","uncletopia"],"game_id":440,"stv_port":27026,"stv_name":"Uncletopia | Los Angeles | 2 | All Maps | STV","players":[{"user_id":55,"name":"No Toast ( °□°） ︵","steam_id":76561198062452835,"connected_time":380000000000,"state":"active","ping":40},{"user_id":51,"name":"Pyrolimited","steam_id":76561198195455657,"connected_time":1806000000000,"state":"active","ping":64},{"user_id":54,"name":"Mom","steam_id":76561198207936000,"connected_time":617000000000,"state":"active","ping":41}]},{"server_id":324,"name":"Uncletopia | Los Angeles | 3 | All Maps","name_short":"lax-3","host":"lax-1.us.uncletopia.com","port":27035,"enabled":true,"region":"us-west","cc":"us","latitude":33.94279,"longitude":-118.41004,"reserved":0,"last_update":"0001-01-01T00:00:00Z","name_a2s":"Uncletopia | Los Angeles | 3 | All Maps","protocol":17,"map":"pl_snowycoast","folder":"tf","game":"Team Fortress","app_id":440,"player_count":0,"max_players":24,"Bots":0,"server_type":"Dedicated","server_os":"Linux","password":true,"vac":true,"version":"7961495","steam_id":85568392924510198,"keywords":["nocrits","nodmgspread","payload","uncletopia"],"game_id":440,"stv_port":27036,"stv_name":"Uncletopia | Los Angeles | 3 | All Maps | STV","players":null},{"server_id":25,"name":"Uncletopia | Los Angeles | 4 | Stopwatch","name_short":"lax-4","host":"lax-1.us.uncletopia.com","port":27045,"enabled":true,"region":"us-west","cc":"us","latitude":33.94279,"longitude":-118.41004,"reserved":0,"last_update":"0001-01-01T00:00:00Z","name_a2s":"Uncletopia | Los Angeles | 4 | Stopwatch","protocol":17,"map":"workshop/pl_barnblitz_pro7.ugc582280235","folder":"tf","game":"Team Fortress","app_id":440,"player_count":24,"max_players":24,"Bots":0,"server_type":"Dedicated","server_os":"Linux","password":true,"vac":true,"version":"7961495","steam_id":85568392924510199,"keywords":["nocrits","nodmgspread","payload","uncletopia"],"game_id":440,"stv_port":27046,"stv_name":"Uncletopia | Los Angeles | 4 | Stopwatch | STV","players":[{"user_id":85,"name":"Mr. Noodle","steam_id":76561198025280658,"connected_time":3880000000000,"state":"active","ping":46},{"user_id":83,"name":"foofydafoofer","steam_id":76561199395830278,"connected_time":3952000000000,"state":"active","ping":54},{"user_id":115,"name":"Godot 102","steam_id":76561198083079903,"connected_time":974000000000,"state":"active","ping":63},{"user_id":75,"name":"Arenaid","steam_id":76561198159312934,"connected_time":4228000000000,"state":"active","ping":84},{"user_id":102,"name":"a highly probable flip","steam_id":76561198045964573,"connected_time":2894000000000,"state":"active","ping":47},{"user_id":25,"name":"Reisen Udongein Inaba","steam_id":76561198051082314,"connected_time":7625000000000,"state":"active","ping":66},{"user_id":82,"name":"RedWireFTW","steam_id":76561198139267825,"connected_time":4094000000000,"state":"active","ping":61},{"user_id":26,"name":"Junko","steam_id":76561198146089003,"connected_time":7599000000000,"state":"active","ping":46},{"user_id":27,"name":"UltShuip","steam_id":76561198074339262,"connected_time":7583000000000,"state":"active","ping":61},{"user_id":28,"name":"Dreamy Sweat from 2hu","steam_id":76561198094602446,"connected_time":7561000000000,"state":"active","ping":60},{"user_id":81,"name":"triph","steam_id":76561198067196509,"connected_time":4114000000000,"state":"active","ping":47},{"user_id":30,"name":"TopSir","steam_id":76561198125493359,"connected_time":7497000000000,"state":"active","ping":46},{"user_id":108,"name":"RELAX","steam_id":76561198080940210,"connected_time":2232000000000,"state":"active","ping":121},{"user_id":119,"name":"gretchling","steam_id":76561198046111695,"connected_time":438000000000,"state":"active","ping":90},{"user_id":103,"name":"Seanvich","steam_id":76561198065805500,"connected_time":2763000000000,"state":"active","ping":104},{"user_id":118,"name":"The Legendary Bozo the Clown","steam_id":76561198352680209,"connected_time":473000000000,"state":"active","ping":57},{"user_id":111,"name":"Robogineer","steam_id":76561198026994739,"connected_time":1390000000000,"state":"active","ping":51},{"user_id":37,"name":"RyCeBread","steam_id":76561198152822390,"connected_time":7160000000000,"state":"active","ping":104},{"user_id":112,"name":"Thexx [she/they]","steam_id":76561198113823050,"connected_time":1350000000000,"state":"active","ping":78},{"user_id":120,"name":"Grimm_Reaper164","steam_id":76561198848333297,"connected_time":244000000000,"state":"active","ping":47},{"user_id":105,"name":"Melon","steam_id":76561199202306398,"connected_time":2682000000000,"state":"active","ping":45},{"user_id":117,"name":"spookyturtle","steam_id":76561198079622859,"connected_time":769000000000,"state":"active","ping":52},{"user_id":106,"name":"Rollo","steam_id":76561198064812108,"connected_time":2669000000000,"state":"active","ping":78},{"user_id":114,"name":"prankishparty67","steam_id":76561199121314159,"connected_time":1298000000000,"state":"active","ping":43}]},{"server_id":11,"name":"Uncletopia | London | 1 | All Maps","name_short":"lon-1","host":"lon-1.uk.uncletopia.com","port":27015,"enabled":true,"region":"eu","cc":"gb","latitude":51.509865,"longitude":-0.118092,"reserved":0,"last_update":"0001-01-01T00:00:00Z","name_a2s":"Uncletopia | London | 1 | All Maps","protocol":17,"map":"cp_process_final","folder":"tf","game":"Team Fortress","app_id":440,"player_count":24,"max_players":24,"Bots":0,"server_type":"Dedicated","server_os":"Linux","password":true,"vac":true,"version":"7961495","steam_id":85568392924367362,"keywords":["cp","nocrits","nodmgspread","uncletopia"],"game_id":440,"stv_port":27016,"stv_name":"Uncletopia | London | 1 | All Maps | STV","players":[{"user_id":3,"name":"Marcel","steam_id":76561198348686648,"connected_time":3287000000000,"state":"active","ping":40},{"user_id":6,"name":"Lewylow","steam_id":76561198005425686,"connected_time":3282000000000,"state":"active","ping":68},{"user_id":5,"name":"George W Bush","steam_id":76561198846784757,"connected_time":3282000000000,"state":"active","ping":44},{"user_id":7,"name":"antlionguard","steam_id":76561198072747143,"connected_time":3281000000000,"state":"active","ping":128},{"user_id":8,"name":"FoxyTheFish","steam_id":76561199074190919,"connected_time":3274000000000,"state":"active","ping":46},{"user_id":38,"name":"BRAZİL NÜMERUS UNO11","steam_id":76561199214163032,"connected_time":434000000000,"state":"active","ping":104},{"user_id":39,"name":"a pan furry","steam_id":76561199445662628,"connected_time":247000000000,"state":"active","ping":55},{"user_id":37,"name":"Dzhoshua","steam_id":76561198071915251,"connected_time":478000000000,"state":"active","ping":149},{"user_id":12,"name":"Coac","steam_id":76561198085265740,"connected_time":3235000000000,"state":"active","ping":69},{"user_id":32,"name":"BONK-TEC!","steam_id":76561198272667029,"connected_time":834000000000,"state":"active","ping":42},{"user_id":42,"name":"Bobo","steam_id":76561198052308399,"connected_time":170000000000,"state":"active","ping":59},{"user_id":15,"name":"Canis[Magnus]Pectus","steam_id":76561198363775072,"connected_time":2643000000000,"state":"active","ping":119},{"user_id":40,"name":"I LOVE THE BISON","steam_id":76561199265289808,"connected_time":227000000000,"state":"active","ping":118},{"user_id":18,"name":"BoneHead","steam_id":76561198032755387,"connected_time":2016000000000,"state":"active","ping":81},{"user_id":26,"name":"fiar0.2","steam_id":76561198974556515,"connected_time":1473000000000,"state":"active","ping":90},{"user_id":29,"name":"COTHuK","steam_id":76561198330633932,"connected_time":1181000000000,"state":"active","ping":88},{"user_id":21,"name":"JustinTheGamer","steam_id":76561199113815596,"connected_time":1883000000000,"state":"active","ping":117},{"user_id":22,"name":"kernstjean97","steam_id":76561199216661045,"connected_time":1822000000000,"state":"active","ping":150},{"user_id":27,"name":"021984","steam_id":76561198417999443,"connected_time":1387000000000,"state":"active","ping":112},{"user_id":30,"name":"The Milkman","steam_id":76561198388992988,"connected_time":1145000000000,"state":"active","ping":52},{"user_id":33,"name":"The Subway Scientist","steam_id":76561198193757646,"connected_time":697000000000,"state":"active","ping":47},{"user_id":41,"name":"Fox","steam_id":76561198817996028,"connected_time":195000000000,"state":"active","ping":40},{"user_id":43,"name":"Nice Shot","steam_id":76561198267313008,"connected_time":158000000000,"state":"active","ping":92},{"user_id":45,"name":"SoupTime","steam_id":76561199178018465,"connected_time":31000000000,"state":"active","ping":66}]},{"server_id":114,"name":"Uncletopia | London | 2 | All Maps","name_short":"lon-2","host":"lon-1.uk.uncletopia.com","port":27025,"enabled":true,"region":"eu","cc":"gb","latitude":51.509865,"longitude":-0.118092,"reserved":0,"last_update":"0001-01-01T00:00:00Z","name_a2s":"Uncletopia | London | 2 | All Maps","protocol":17,"map":"pl_snowycoast","folder":"tf","game":"Team Fortress","app_id":440,"player_count":0,"max_players":24,"Bots":0,"server_type":"Dedicated","server_os":"Linux","password":true,"vac":true,"version":"7961495","steam_id":85568392924470941,"keywords":["nocrits","nodmgspread","payload","uncletopia"],"game_id":440,"stv_port":27026,"stv_name":"Uncletopia | London | 2 | All Maps | STV","players":null},{"server_id":320,"name":"Uncletopia | London | 3 | All Maps","name_short":"lon-3","host":"lon-1.uk.uncletopia.com","port":27035,"enabled":true,"region":"eu","cc":"gb","latitude":51.509865,"longitude":-0.118092,"reserved":0,"last_update":"0001-01-01T00:00:00Z","name_a2s":"Uncletopia | London | 3 | All Maps","protocol":17,"map":"koth_lakeside_final","folder":"tf","game":"Team Fortress","app_id":440,"player_count":0,"max_players":24,"Bots":0,"server_type":"Dedicated","server_os":"Linux","password":true,"vac":true,"version":"7961495","steam_id":85568392924510192,"keywords":["cp","nocrits","nodmgspread","uncletopia"],"game_id":440,"stv_port":27036,"stv_name":"Uncletopia | London | 3 | All Maps | STV","players":null},{"server_id":321,"name":"Uncletopia | London | 4 | All Maps","name_short":"lon-4","host":"lon-1.uk.uncletopia.com","port":27045,"enabled":true,"region":"eu","cc":"gb","latitude":51.509865,"longitude":-0.118092,"reserved":0,"last_update":"0001-01-01T00:00:00Z","name_a2s":"Uncletopia | London | 4 | All Maps","protocol":17,"map":"pl_badwater","folder":"tf","game":"Team Fortress","app_id":440,"player_count":1,"max_players":24,"Bots":0,"server_type":"Dedicated","server_os":"Linux","password":true,"vac":true,"version":"7961495","steam_id":85568392924510193,"keywords":["nocrits","nodmgspread","payload","uncletopia"],"game_id":440,"stv_port":27046,"stv_name":"Uncletopia | London | 4 | All Maps | STV","players":[{"user_id":3,"name":"Hoovy :]","steam_id":76561198418767816,"connected_time":288000000000,"state":"active","ping":77}]},{"server_id":21,"name":"Uncletopia | London | 5 | All Maps","name_short":"lon-5","host":"lon-1.uk.uncletopia.com","port":27055,"enabled":true,"region":"eu","cc":"gb","latitude":51.509865,"longitude":-0.118092,"reserved":0,"last_update":"0001-01-01T00:00:00Z","name_a2s":"Uncletopia | London | 5 | All Maps","protocol":17,"map":"koth_lazarus","folder":"tf","game":"Team Fortress","app_id":440,"player_count":0,"max_players":24,"Bots":0,"server_type":"Dedicated","server_os":"Linux","password":true,"vac":true,"version":"7961495","steam_id":85568392924742829,"keywords":["cp","nocrits","nodmgspread","uncletopia"],"game_id":440,"stv_port":27056,"stv_name":"Uncletopia | London | 5 | All Maps | STV","players":null},{"server_id":22,"name":"Uncletopia | London | 6 | All Maps","name_short":"lon-6","host":"lon-1.uk.uncletopia.com","port":27065,"enabled":true,"region":"eu","cc":"gb","latitude":51.509865,"longitude":-0.118092,"reserved":0,"last_update":"0001-01-01T00:00:00Z","name_a2s":"Uncletopia | London | 6 | All Maps","protocol":17,"map":"cp_snakewater_final1","folder":"tf","game":"Team Fortress","app_id":440,"player_count":0,"max_players":24,"Bots":0,"server_type":"Dedicated","server_os":"Linux","password":true,"vac":true,"version":"7961495","steam_id":85568392924742830,"keywords":["cp","nocrits","nodmgspread","uncletopia"],"game_id":440,"stv_port":27066,"stv_name":"Uncletopia | London | 6 | All Maps | STV","players":null},{"server_id":40,"name":"Uncletopia | London | 7 | Stopwatch","name_short":"lon-7","host":"lon-1.uk.uncletopia.com","port":27075,"enabled":true,"region":"eu","cc":"gb","latitude":51.509865,"longitude":-0.118092,"reserved":0,"last_update":"0001-01-01T00:00:00Z","name_a2s":"Uncletopia | London | 7 | Stopwatch","protocol":17,"map":"workshop/pl_badwater_pro_v12.ugc2142942074","folder":"tf","game":"Team Fortress","app_id":440,"player_count":0,"max_players":24,"Bots":0,"server_type":"Dedicated","server_os":"Linux","password":true,"vac":true,"version":"7961495","steam_id":85568392924964314,"keywords":["nocrits","nodmgspread","payload","uncletopia"],"game_id":440,"stv_port":27076,"stv_name":"Uncletopia | London | 7 | Stopwatch | STV","players":null},{"server_id":41,"name":"Uncletopia | London | 8 | Community","name_short":"lon-8","host":"lon-1.uk.uncletopia.com","port":27085,"enabled":true,"region":"eu","cc":"gb","latitude":51.509865,"longitude":-0.118092,"reserved":0,"last_update":"0001-01-01T00:00:00Z","name_a2s":"Uncletopia | London | 8 | Community","protocol":17,"map":"workshop/cp_villa_b19.ugc2113052569","folder":"tf","game":"Team Fortress","app_id":440,"player_count":0,"max_players":24,"Bots":0,"server_type":"Dedicated","server_os":"Linux","password":true,"vac":true,"version":"7961495","steam_id":85568392924964315,"keywords":["cp","nocrits","nodmgspread","uncletopia"],"game_id":440,"stv_port":27086,"stv_name":"Uncletopia | London | 8 | Community | STV","players":null},{"server_id":300,"name":"Uncletopia | Montréal | 1 | One Thousand Uncles","name_short":"mtl-1","host":"mtl-1.ca.uncletopia.com","port":27015,"enabled":true,"region":"us-east","cc":"ca","latitude":45.50889,"longitude":-73.56167,"reserved":0,"last_update":"0001-01-01T00:00:00Z","name_a2s":"Uncletopia | Montréal | 1 | One Thousand Uncles","protocol":17,"map":"pl_hoodoo_final","folder":"tf","game":"Team Fortress","app_id":440,"player_count":0,"max_players":32,"Bots":0,"server_type":"Dedicated","server_os":"Linux","password":true,"vac":true,"version":"7961495","steam_id":85568392924500087,"keywords":["alltalk","danepve","increased_maxplayers","norespawntime","payload","uncletopia"],"game_id":440,"stv_port":0,"stv_name":"","players":null},{"server_id":301,"name":"Uncletopia | Montréal | 2 | One Thousand Uncles","name_short":"mtl-2","host":"mtl-1.ca.uncletopia.com","port":27025,"enabled":true,"region":"us-east","cc":"ca","latitude":45.50889,"longitude":-73.56167,"reserved":0,"last_update":"0001-01-01T00:00:00Z","name_a2s":"Uncletopia | Montréal | 2 | One Thousand Uncles","protocol":17,"map":"pl_snowycoast","folder":"tf","game":"Team Fortress","app_id":440,"player_count":0,"max_players":32,"Bots":0,"server_type":"Dedicated","server_os":"Linux","password":true,"vac":true,"version":"7961495","steam_id":85568392924500088,"keywords":["alltalk","danepve","increased_maxplayers","norespawntime","payload","uncletopia"],"game_id":440,"stv_port":0,"stv_name":"","players":null},{"server_id":302,"name":"Uncletopia | Montréal | 3 | One Thousand Uncles","name_short":"mtl-3","host":"mtl-1.ca.uncletopia.com","port":27035,"enabled":true,"region":"us-east","cc":"ca","latitude":45.50889,"longitude":-73.56167,"reserved":0,"last_update":"0001-01-01T00:00:00Z","name_a2s":"Uncletopia | Montréal | 3 | One Thousand Uncles","protocol":17,"map":"cp_dustbowl","folder":"tf","game":"Team Fortress","app_id":440,"player_count":24,"max_players":32,"Bots":16,"server_type":"Dedicated","server_os":"Linux","password":true,"vac":true,"version":"7961495","steam_id":85568392924500089,"keywords":["alltalk","bots","cp","danepve","increased_maxplayers","norespawntime","uncletopia"],"game_id":440,"stv_port":0,"stv_name":"","players":[{"user_id":334,"name":"Tuska","steam_id":76561198185598330,"connected_time":1045000000000,"state":"active","ping":89},{"user_id":327,"name":"the_Wong","steam_id":76561199435837292,"connected_time":3243000000000,"state":"active","ping":59},{"user_id":330,"name":"Jouva Moufette","steam_id":76561198013813685,"connected_time":2293000000000,"state":"active","ping":51},{"user_id":329,"name":"Terrywastaken","steam_id":76561199168605068,"connected_time":2716000000000,"state":"active","ping":160},{"user_id":331,"name":"owlbortch","steam_id":76561198042849350,"connected_time":1913000000000,"state":"active","ping":89},{"user_id":332,"name":"Aristotle Voulton","steam_id":76561198100174923,"connected_time":1579000000000,"state":"active","ping":82},{"user_id":335,"name":"Lucas096br","steam_id":76561198350760997,"connected_time":439000000000,"state":"active","ping":219},{"user_id":336,"name":"G_reggie","steam_id":76561198084372410,"connected_time":383000000000,"state":"active","ping":73}]},{"server_id":13,"name":"Uncletopia | New York City | 1 | All Maps","name_short":"nyc-1","host":"nyc-1.us.uncletopia.com","port":27015,"enabled":true,"region":"us-east","cc":"us","latitude":40.73061,"longitude":-73.93524,"reserved":0,"last_update":"0001-01-01T00:00:00Z","name_a2s":"Uncletopia | New York City | 1 | All Maps","protocol":17,"map":"pl_borneo","folder":"tf","game":"Team Fortress","app_id":440,"player_count":22,"max_players":24,"Bots":0,"server_type":"Dedicated","server_os":"Linux","password":true,"vac":true,"version":"7961495","steam_id":85568392924469993,"keywords":["nocrits","nodmgspread","payload","uncletopia"],"game_id":440,"stv_port":27016,"stv_name":"Uncletopia | New York City | 1 | All Maps | STV","players":[{"user_id":631,"name":"Goldensliv","steam_id":76561198161673891,"connected_time":678000000000,"state":"active","ping":114},{"user_id":615,"name":"Sprit ♥","steam_id":76561198268780781,"connected_time":1795000000000,"state":"active","ping":70},{"user_id":637,"name":"ToyBox","steam_id":76561199074735423,"connected_time":53000000000,"state":"connecting","ping":46},{"user_id":638,"name":"Kritzburgh","steam_id":76561198149466938,"connected_time":47000000000,"state":"active","ping":54},{"user_id":598,"name":"summer time has come for frosty","steam_id":76561198830243167,"connected_time":3593000000000,"state":"active","ping":63},{"user_id":599,"name":"white b4nny","steam_id":76561198307516731,"connected_time":3587000000000,"state":"active","ping":92},{"user_id":623,"name":"hamster dance gaming","steam_id":76561198040597288,"connected_time":1621000000000,"state":"active","ping":69},{"user_id":601,"name":"uhooter","steam_id":76561198007829078,"connected_time":3540000000000,"state":"active","ping":62},{"user_id":633,"name":"ChaoticAngel","steam_id":76561198293528217,"connected_time":641000000000,"state":"active","ping":48},{"user_id":626,"name":"FemboyNero","steam_id":76561198449565973,"connected_time":1431000000000,"state":"active","ping":58},{"user_id":617,"name":"Truly Cryo","steam_id":76561198347497484,"connected_time":1756000000000,"state":"spawning","ping":4400},{"user_id":629,"name":"Harry S. Truman","steam_id":76561197993339757,"connected_time":1130000000000,"state":"active","ping":57},{"user_id":594,"name":"Dr Gregory House, MD","steam_id":76561198986281248,"connected_time":4128000000000,"state":"active","ping":67},{"user_id":532,"name":"Rambly Dambly","steam_id":76561198844496567,"connected_time":9619000000000,"state":"active","ping":43},{"user_id":632,"name":"Ripping Heads","steam_id":76561198006146062,"connected_time":675000000000,"state":"active","ping":51},{"user_id":634,"name":"Clancy","steam_id":76561198314468585,"connected_time":636000000000,"state":"active","ping":59},{"user_id":588,"name":"PurPle","steam_id":76561198050393396,"connected_time":4476000000000,"state":"active","ping":52},{"user_id":630,"name":"John Fortnite","steam_id":76561198076608253,"connected_time":706000000000,"state":"active","ping":30},{"user_id":635,"name":"Meh","steam_id":76561198078187920,"connected_time":617000000000,"state":"active","ping":82},{"user_id":636,"name":"GoldtoothFour","steam_id":76561198055529332,"connected_time":548000000000,"state":"active","ping":57},{"user_id":625,"name":"Esquire","steam_id":76561198138978299,"connected_time":1461000000000,"state":"active","ping":77},{"user_id":639,"name":"alcovenant","steam_id":76561198066247487,"connected_time":44000000000,"state":"active","ping":32}]},{"server_id":14,"name":"Uncletopia | New York City | 2 | All Maps","name_short":"nyc-2","host":"nyc-1.us.uncletopia.com","port":27025,"enabled":true,"region":"us-east","cc":"us","latitude":40.73061,"longitude":-73.93524,"reserved":0,"last_update":"0001-01-01T00:00:00Z","name_a2s":"Uncletopia | New York City | 2 | All Maps","protocol":17,"map":"koth_cascade","folder":"tf","game":"Team Fortress","app_id":440,"player_count":1,"max_players":24,"Bots":0,"server_type":"Dedicated","server_os":"Linux","password":true,"vac":true,"version":"7961495","steam_id":85568392924469994,"keywords":["cp","nocrits","nodmgspread","uncletopia"],"game_id":440,"stv_port":27026,"stv_name":"Uncletopia | New York City | 2 | All Maps | STV","players":[{"user_id":791,"name":"devious critter","steam_id":76561199115235473,"connected_time":22000000000,"state":"active","ping":44}]},{"server_id":15,"name":"Uncletopia | New York City | 3 | Stopwatch","name_short":"nyc-3","host":"nyc-1.us.uncletopia.com","port":27035,"enabled":true,"region":"us-east","cc":"us","latitude":40.73061,"longitude":-73.93524,"reserved":0,"last_update":"0001-01-01T00:00:00Z","name_a2s":"Uncletopia | New York City | 3 | Stopwatch","protocol":17,"map":"workshop/koth_product_final.ugc454272353","folder":"tf","game":"Team Fortress","app_id":440,"player_count":2,"max_players":24,"Bots":0,"server_type":"Dedicated","server_os":"Linux","password":true,"vac":true,"version":"7961495","steam_id":85568392924742820,"keywords":["cp","nocrits","nodmgspread","uncletopia"],"game_id":440,"stv_port":27036,"stv_name":"Uncletopia | New York City | 3 | Stopwatch | STV","players":[{"user_id":32,"name":"Dukman","steam_id":76561198258522599,"connected_time":6935000000000,"state":"active","ping":62},{"user_id":28,"name":"Joe Biden","steam_id":76561198151426128,"connected_time":8129000000000,"state":"active","ping":92}]},{"server_id":16,"name":"Uncletopia | New York City | 4 | Community","name_short":"nyc-4","host":"nyc-1.us.uncletopia.com","port":27045,"enabled":true,"region":"us-east","cc":"us","latitude":40.73061,"longitude":-73.93524,"reserved":0,"last_update":"0001-01-01T00:00:00Z","name_a2s":"Uncletopia | New York City | 4 | Community","protocol":17,"map":"workshop/koth_ashville_final.ugc2130459942","folder":"tf","game":"Team Fortress","app_id":440,"player_count":0,"max_players":24,"Bots":0,"server_type":"Dedicated","server_os":"Linux","password":true,"vac":true,"version":"7961495","steam_id":85568392924742821,"keywords":["cp","nocrits","nodmgspread","uncletopia"],"game_id":440,"stv_port":27046,"stv_name":"Uncletopia | New York City | 4 | Community | STV","players":null},{"server_id":142,"name":"Uncletopia | São Paulo | 1 | All Maps","name_short":"sao-1","host":"sao-1.br.uncletopia.com","port":27015,"enabled":true,"region":"sa","cc":"br","latitude":-23.533773,"longitude":-46.62529,"reserved":0,"last_update":"0001-01-01T00:00:00Z","name_a2s":"Uncletopia | São Paulo | 1 | All Maps","protocol":17,"map":"koth_highpass","folder":"tf","game":"Team Fortress","app_id":440,"player_count":0,"max_players":24,"Bots":0,"server_type":"Dedicated","server_os":"Linux","password":true,"vac":true,"version":"7961495","steam_id":85568392924469996,"keywords":["cp","nocrits","nodmgspread","uncletopia"],"game_id":440,"stv_port":27016,"stv_name":"Uncletopia | São Paulo | 1 | All Maps | STV","players":null},{"server_id":143,"name":"Uncletopia | São Paulo | 2 | Community","name_short":"sao-2","host":"sao-2.br.uncletopia.com","port":27015,"enabled":true,"region":"sa","cc":"br","latitude":-23.533773,"longitude":-46.62529,"reserved":0,"last_update":"0001-01-01T00:00:00Z","name_a2s":"Uncletopia | São Paulo | 2 | Community","protocol":17,"map":"workshop/pl_divulgence_b4b.ugc2884808746","folder":"tf","game":"Team Fortress","app_id":440,"player_count":0,"max_players":24,"Bots":0,"server_type":"Dedicated","server_os":"Linux","password":true,"vac":true,"version":"7961495","steam_id":85568392924485349,"keywords":["nocrits","nodmgspread","payload","uncletopia"],"game_id":440,"stv_port":27016,"stv_name":"Uncletopia | São Paulo | 2 | Community | STV","players":null},{"server_id":7,"name":"Uncletopia | Seattle | 1 | All Maps","name_short":"sea-1","host":"sea-1.us.uncletopia.com","port":27015,"enabled":true,"region":"us-west","cc":"us","latitude":47.608013,"longitude":-122.33517,"reserved":0,"last_update":"0001-01-01T00:00:00Z","name_a2s":"Uncletopia | Seattle | 1 | All Maps","protocol":17,"map":"pl_pier","folder":"tf","game":"Team Fortress","app_id":440,"player_count":25,"max_players":24,"Bots":0,"server_type":"Dedicated","server_os":"Linux","password":true,"vac":true,"version":"7961495","steam_id":85568392924469997,"keywords":["nocrits","nodmgspread","payload","uncletopia"],"game_id":440,"stv_port":27016,"stv_name":"Uncletopia | Seattle | 1 | All Maps | STV","players":[{"user_id":463,"name":"Nom Skirrett","steam_id":76561198014600788,"connected_time":1595000000000,"state":"active","ping":62},{"user_id":361,"name":"Level 99 Mudcrab","steam_id":76561198077452771,"connected_time":12504000000000,"state":"active","ping":62},{"user_id":467,"name":"Arsonist Goose","steam_id":76561198147441830,"connected_time":891000000000,"state":"active","ping":74},{"user_id":449,"name":"Thanks Ants","steam_id":76561197966221018,"connected_time":3117000000000,"state":"active","ping":40},{"user_id":461,"name":"goofy goober","steam_id":76561199024079388,"connected_time":1938000000000,"state":"active","ping":47},{"user_id":442,"name":"Sweeeeee","steam_id":76561198998446307,"connected_time":4353000000000,"state":"active","ping":68},{"user_id":398,"name":"Doctor Dick","steam_id":76561198001913735,"connected_time":9060000000000,"state":"active","ping":72},{"user_id":454,"name":"Ayayayayayayayayayayayayahuasca","steam_id":76561199002906056,"connected_time":2973000000000,"state":"active","ping":51},{"user_id":422,"name":"lavender","steam_id":76561199069518286,"connected_time":6060000000000,"state":"active","ping":64},{"user_id":450,"name":"Brathic","steam_id":76561198966232163,"connected_time":3097000000000,"state":"active","ping":78},{"user_id":404,"name":"mega","steam_id":76561198089520959,"connected_time":8478000000000,"state":"active","ping":81},{"user_id":411,"name":"fwoov","steam_id":76561198129166260,"connected_time":7997000000000,"state":"active","ping":75},{"user_id":468,"name":"shane (Deluxe Edition)","steam_id":76561198060491451,"connected_time":881000000000,"state":"active","ping":81},{"user_id":439,"name":"S Q U I S H E  T H A T  C A T","steam_id":76561198293865429,"connected_time":4376000000000,"state":"active","ping":43},{"user_id":465,"name":"gorlab","steam_id":76561198025089694,"connected_time":1128000000000,"state":"active","ping":60},{"user_id":437,"name":"Amazing476","steam_id":76561198103937489,"connected_time":4965000000000,"state":"active","ping":89},{"user_id":451,"name":"FidelGuevara","steam_id":76561198368296171,"connected_time":3044000000000,"state":"active","ping":72},{"user_id":427,"name":"Dragoninventor (He/Him)","steam_id":76561198956224948,"connected_time":6045000000000,"state":"active","ping":89},{"user_id":470,"name":"TROY","steam_id":76561197983852176,"connected_time":832000000000,"state":"active","ping":80},{"user_id":466,"name":"Gm_Sweet","steam_id":76561199445091548,"connected_time":1087000000000,"state":"active","ping":60},{"user_id":459,"name":"Cheezbeargur","steam_id":76561198164702899,"connected_time":2696000000000,"state":"active","ping":68},{"user_id":457,"name":"THAT CAT","steam_id":76561198010828625,"connected_time":2744000000000,"state":"active","ping":44},{"user_id":469,"name":"PopcornBucketGames","steam_id":76561199089562026,"connected_time":879000000000,"state":"active","ping":43},{"user_id":471,"name":"Dog","steam_id":76561198041841128,"connected_time":144000000000,"state":"active","ping":76},{"user_id":425,"name":"rat gets the cheese","steam_id":76561198031234032,"connected_time":6052000000000,"state":"active","ping":117}]},{"server_id":119,"name":"Uncletopia | Seattle | 2 | All Maps","name_short":"sea-2","host":"sea-1.us.uncletopia.com","port":27025,"enabled":true,"region":"us-west","cc":"us","latitude":47.608013,"longitude":-122.33517,"reserved":0,"last_update":"0001-01-01T00:00:00Z","name_a2s":"Uncletopia | Seattle | 2 | All Maps","protocol":17,"map":"cp_altitude","folder":"tf","game":"Team Fortress","app_id":440,"player_count":24,"max_players":24,"Bots":0,"server_type":"Dedicated","server_os":"Linux","password":true,"vac":true,"version":"7961495","steam_id":85568392924469998,"keywords":["cp","nocrits","nodmgspread","uncletopia"],"game_id":440,"stv_port":27026,"stv_name":"Uncletopia | Seattle | 2 | All Maps | STV","players":[{"user_id":406,"name":"MantisToboggan","steam_id":76561197969447887,"connected_time":1325000000000,"state":"active","ping":71},{"user_id":377,"name":"Chi-Chia","steam_id":76561198067955987,"connected_time":3151000000000,"state":"active","ping":53},{"user_id":315,"name":"Clagger","steam_id":76561198066701092,"connected_time":6934000000000,"state":"active","ping":42},{"user_id":395,"name":"AveragePhil","steam_id":76561199139836802,"connected_time":1956000000000,"state":"active","ping":49},{"user_id":399,"name":"Imabee","steam_id":76561198032523749,"connected_time":1647000000000,"state":"active","ping":75},{"user_id":407,"name":"Keamy","steam_id":76561199471434875,"connected_time":1282000000000,"state":"active","ping":45},{"user_id":387,"name":"supe®man","steam_id":76561198115924427,"connected_time":2341000000000,"state":"active","ping":41},{"user_id":380,"name":"Stev the Hypergamous Pebble","steam_id":76561197999442625,"connected_time":2733000000000,"state":"active","ping":53},{"user_id":388,"name":"squash","steam_id":76561198150281353,"connected_time":2314000000000,"state":"active","ping":59},{"user_id":353,"name":"TüCold","steam_id":76561198111278197,"connected_time":4235000000000,"state":"active","ping":43},{"user_id":398,"name":"krebex","steam_id":76561198004660630,"connected_time":1848000000000,"state":"active","ping":91},{"user_id":299,"name":"Flagellant","steam_id":76561198152149679,"connected_time":7584000000000,"state":"active","ping":38},{"user_id":414,"name":"smeasly","steam_id":76561198028718812,"connected_time":49000000000,"state":"active","ping":40},{"user_id":381,"name":"tmm (theManMan)","steam_id":76561199488457138,"connected_time":2718000000000,"state":"active","ping":60},{"user_id":412,"name":"chimps and cough syrup","steam_id":76561198032625036,"connected_time":789000000000,"state":"active","ping":60},{"user_id":391,"name":"NightmareOhm","steam_id":76561198338853664,"connected_time":2130000000000,"state":"active","ping":45},{"user_id":397,"name":"Nova Academy of Salmon Action","steam_id":76561198021842526,"connected_time":1901000000000,"state":"active","ping":70},{"user_id":400,"name":"Callahan","steam_id":76561197976928457,"connected_time":1630000000000,"state":"active","ping":45},{"user_id":413,"name":"[Bandit]","steam_id":76561197986919852,"connected_time":393000000000,"state":"active","ping":48},{"user_id":404,"name":"Rusty","steam_id":76561198055585129,"connected_time":1449000000000,"state":"active","ping":45},{"user_id":408,"name":"delight","steam_id":76561197980280272,"connected_time":1256000000000,"state":"active","ping":45},{"user_id":401,"name":"Zeebob","steam_id":76561198219320103,"connected_time":1626000000000,"state":"active","ping":47},{"user_id":410,"name":"NEBULA","steam_id":76561198086878595,"connected_time":991000000000,"state":"active","ping":75},{"user_id":409,"name":"roryinpyroland :3","steam_id":76561198065825165,"connected_time":1247000000000,"state":"active","ping":110}]},{"server_id":406,"name":"Uncletopia | Seattle | 3 | Stopwatch","name_short":"sea-3","host":"sea-1.us.uncletopia.com","port":27035,"enabled":true,"region":"us-west","cc":"us","latitude":47.608013,"longitude":-122.33517,"reserved":0,"last_update":"0001-01-01T00:00:00Z","name_a2s":"Uncletopia | Seattle | 3 | Stopwatch","protocol":17,"map":"workshop/koth_bagel_rc6.ugc2514036946","folder":"tf","game":"Team Fortress","app_id":440,"player_count":0,"max_players":24,"Bots":0,"server_type":"Dedicated","server_os":"Linux","password":true,"vac":true,"version":"7961495","steam_id":85568392924515217,"keywords":["cp","nocrits","nodmgspread","uncletopia"],"game_id":440,"stv_port":27036,"stv_name":"Uncletopia | Seattle | 3 | Stopwatch | STV","players":null},{"server_id":17,"name":"Uncletopia | San Francisco | 1 | All Maps","name_short":"sfo-1","host":"sfo-1.us.uncletopia.com","port":27015,"enabled":true,"region":"us-west","cc":"us","latitude":37.77397,"longitude":-122.4313,"reserved":0,"last_update":"0001-01-01T00:00:00Z","name_a2s":"Uncletopia | San Francisco | 1 | All Maps","protocol":17,"map":"pl_thundermountain","folder":"tf","game":"Team Fortress","app_id":440,"player_count":24,"max_players":24,"Bots":0,"server_type":"Dedicated","server_os":"Linux","password":true,"vac":true,"version":"7961495","steam_id":85568392924469999,"keywords":["nocrits","nodmgspread","payload","uncletopia"],"game_id":440,"stv_port":27016,"stv_name":"Uncletopia | San Francisco | 1 | All Maps | STV","players":[{"user_id":737,"name":"Ryld","steam_id":76561198010174380,"connected_time":1508000000000,"state":"active","ping":114},{"user_id":750,"name":"Samillie","steam_id":76561198182077115,"connected_time":755000000000,"state":"active","ping":55},{"user_id":692,"name":"i like my hammer :)","steam_id":76561198317982960,"connected_time":4271000000000,"state":"active","ping":87},{"user_id":760,"name":"the milk man","steam_id":76561198192546641,"connected_time":360000000000,"state":"active","ping":77},{"user_id":753,"name":"slosh","steam_id":76561198060546760,"connected_time":649000000000,"state":"active","ping":161},{"user_id":684,"name":"lordstinkdemon666","steam_id":76561198073914311,"connected_time":4374000000000,"state":"active","ping":53},{"user_id":744,"name":"Whomst","steam_id":76561198110448589,"connected_time":973000000000,"state":"active","ping":55},{"user_id":745,"name":"sinix","steam_id":76561198057369078,"connected_time":969000000000,"state":"active","ping":63},{"user_id":746,"name":"panda","steam_id":76561198025214612,"connected_time":904000000000,"state":"active","ping":60},{"user_id":747,"name":"Satori Komeiji","steam_id":76561198158211423,"connected_time":881000000000,"state":"active","ping":47},{"user_id":748,"name":"♔тeнριиeαρρℓe♚","steam_id":76561198079939127,"connected_time":852000000000,"state":"active","ping":59},{"user_id":756,"name":"ChoccyMiltank","steam_id":76561198981474284,"connected_time":573000000000,"state":"active","ping":50},{"user_id":716,"name":"astrobob911","steam_id":76561199099110654,"connected_time":2965000000000,"state":"active","ping":116},{"user_id":757,"name":"Chumster","steam_id":76561199120624891,"connected_time":450000000000,"state":"active","ping":64},{"user_id":738,"name":"Flesh Automaton","steam_id":76561198078474394,"connected_time":1469000000000,"state":"active","ping":69},{"user_id":758,"name":"MaterialNovaa","steam_id":76561198161407466,"connected_time":414000000000,"state":"active","ping":110},{"user_id":761,"name":"Cuno Doesn't Care!","steam_id":76561198007372782,"connected_time":242000000000,"state":"active","ping":57},{"user_id":751,"name":"Edith","steam_id":76561198329131447,"connected_time":725000000000,"state":"active","ping":77},{"user_id":762,"name":"pIRO_AGUA","steam_id":76561199041880779,"connected_time":239000000000,"state":"active","ping":72},{"user_id":763,"name":"Pixelated Pussy","steam_id":76561198002511088,"connected_time":201000000000,"state":"active","ping":61},{"user_id":764,"name":"Milk","steam_id":76561198009551448,"connected_time":136000000000,"state":"active","ping":193},{"user_id":765,"name":"Skip Hop Doo Bop","steam_id":76561199161571849,"connected_time":129000000000,"state":"active","ping":55},{"user_id":728,"name":"porcelain bunny","steam_id":76561198043684960,"connected_time":2282000000000,"state":"active","ping":102},{"user_id":766,"name":"Chef__7","steam_id":76561199056921540,"connected_time":90000000000,"state":"active","ping":118}]},{"server_id":18,"name":"Uncletopia | San Francisco | 2 | All Maps","name_short":"sfo-2","host":"sfo-1.us.uncletopia.com","port":27025,"enabled":true,"region":"us-west","cc":"us","latitude":37.77397,"longitude":-122.4313,"reserved":0,"last_update":"0001-01-01T00:00:00Z","name_a2s":"Uncletopia | San Francisco | 2 | All Maps","protocol":17,"map":"pl_barnblitz","folder":"tf","game":"Team Fortress","app_id":440,"player_count":24,"max_players":24,"Bots":0,"server_type":"Dedicated","server_os":"Linux","password":true,"vac":true,"version":"7961495","steam_id":85568392924470000,"keywords":["nocrits","nodmgspread","payload","uncletopia"],"game_id":440,"stv_port":27026,"stv_name":"Uncletopia | San Francisco | 2 | All Maps | STV","players":[{"user_id":79,"name":"uzr_n3m","steam_id":76561198799343084,"connected_time":489000000000,"state":"active","ping":58},{"user_id":92,"name":"glock41982","steam_id":76561198025107915,"connected_time":380000000000,"state":"active","ping":45},{"user_id":46,"name":"Soggy Zogg","steam_id":76561198836316052,"connected_time":2554000000000,"state":"active","ping":62},{"user_id":45,"name":"Soda","steam_id":76561198108363656,"connected_time":2558000000000,"state":"active","ping":67},{"user_id":40,"name":"nrvvs","steam_id":76561199134714492,"connected_time":2937000000000,"state":"active","ping":129},{"user_id":77,"name":"Krispy","steam_id":76561198127005410,"connected_time":1136000000000,"state":"active","ping":50},{"user_id":95,"name":"Petpac","steam_id":76561198326941396,"connected_time":302000000000,"state":"active","ping":49},{"user_id":80,"name":":)","steam_id":76561198138478512,"connected_time":484000000000,"state":"active","ping":74},{"user_id":24,"name":"Rotarius","steam_id":76561198109893506,"connected_time":4917000000000,"state":"active","ping":91},{"user_id":25,"name":"mcna","steam_id":76561198025459351,"connected_time":4889000000000,"state":"active","ping":94},{"user_id":26,"name":"Jake","steam_id":76561198010365836,"connected_time":4810000000000,"state":"active","ping":104},{"user_id":81,"name":"vso","steam_id":76561198070377392,"connected_time":479000000000,"state":"active","ping":67},{"user_id":30,"name":"melb","steam_id":76561198091885221,"connected_time":4165000000000,"state":"active","ping":75},{"user_id":78,"name":"VixianUwU","steam_id":76561198948815060,"connected_time":1112000000000,"state":"active","ping":78},{"user_id":34,"name":"dzcreeper","steam_id":76561198072250723,"connected_time":3575000000000,"state":"active","ping":72},{"user_id":44,"name":"goth witch","steam_id":76561198069605283,"connected_time":2564000000000,"state":"active","ping":62},{"user_id":49,"name":"Cloey","steam_id":76561199161591235,"connected_time":2474000000000,"state":"active","ping":86},{"user_id":51,"name":"galyxi","steam_id":76561198154388696,"connected_time":2459000000000,"state":"active","ping":62},{"user_id":93,"name":"Wick","steam_id":76561198062996360,"connected_time":370000000000,"state":"active","ping":63},{"user_id":52,"name":"CantaloupeKing","steam_id":76561198041949472,"connected_time":2410000000000,"state":"active","ping":59},{"user_id":74,"name":"Ralph Kramden (Slim Charles)","steam_id":76561197981687895,"connected_time":1651000000000,"state":"active","ping":56},{"user_id":54,"name":"mrthugpug1732","steam_id":76561198881200768,"connected_time":2390000000000,"state":"active","ping":57},{"user_id":76,"name":"Irony is pretty cringy","steam_id":76561198120391460,"connected_time":1167000000000,"state":"active","ping":52},{"user_id":71,"name":"baunter","steam_id":76561198024311871,"connected_time":1874000000000,"state":"active","ping":47}]},{"server_id":19,"name":"Uncletopia | San Francisco | 3 | Stopwatch","name_short":"sfo-3","host":"sfo-1.us.uncletopia.com","port":27035,"enabled":true,"region":"us-west","cc":"us","latitude":37.77397,"longitude":-122.4313,"reserved":0,"last_update":"0001-01-01T00:00:00Z","name_a2s":"Uncletopia | San Francisco | 3 | Stopwatch","protocol":17,"map":"workshop/koth_bagel_rc6.ugc2514036946","folder":"tf","game":"Team Fortress","app_id":440,"player_count":2,"max_players":24,"Bots":0,"server_type":"Dedicated","server_os":"Linux","password":true,"vac":true,"version":"7961495","steam_id":85568392924742824,"keywords":["cp","nocrits","nodmgspread","uncletopia"],"game_id":440,"stv_port":27036,"stv_name":"Uncletopia | San Francisco | 3 | Stopwatch | STV","players":[{"user_id":5,"name":"The Gremlin","steam_id":76561198419066993,"connected_time":1244000000000,"state":"active","ping":72},{"user_id":6,"name":"asm_ghost","steam_id":76561199205363547,"connected_time":1224000000000,"state":"active","ping":52}]},{"server_id":20,"name":"Uncletopia | San Francisco | 4 | Community","name_short":"sfo-4","host":"sfo-1.us.uncletopia.com","port":27045,"enabled":true,"region":"us-west","cc":"us","latitude":37.77397,"longitude":-122.4313,"reserved":0,"last_update":"0001-01-01T00:00:00Z","name_a2s":"Uncletopia | San Francisco | 4 | Community","protocol":17,"map":"workshop/cp_sulfur_rc2.ugc619869471","folder":"tf","game":"Team Fortress","app_id":440,"player_count":0,"max_players":24,"Bots":0,"server_type":"Dedicated","server_os":"Linux","password":true,"vac":true,"version":"7961495","steam_id":85568392924742826,"keywords":["cp","nocrits","nodmgspread","uncletopia"],"game_id":440,"stv_port":27046,"stv_name":"Uncletopia | San Francisco | 4 | Community | STV","players":null},{"server_id":141,"name":"Uncletopia | Sydney | 1 | All Maps","name_short":"syd-1","host":"syd-1.au.uncletopia.com","port":27015,"enabled":true,"region":"au","cc":"au","latitude":-33.865143,"longitude":151.2099,"reserved":0,"last_update":"0001-01-01T00:00:00Z","name_a2s":"Uncletopia | Sydney | 1 | All Maps","protocol":17,"map":"cp_dustbowl","folder":"tf","game":"Team Fortress","app_id":440,"player_count":24,"max_players":24,"Bots":0,"server_type":"Dedicated","server_os":"Linux","password":true,"vac":true,"version":"7961495","steam_id":85568392924470001,"keywords":["cp","nocrits","nodmgspread","uncletopia"],"game_id":440,"stv_port":27016,"stv_name":"Uncletopia | Sydney | 1 | All Maps | STV","players":[{"user_id":201,"name":"kaiiyo","steam_id":76561199184299658,"connected_time":1184000000000,"state":"active","ping":54},{"user_id":125,"name":"P. Ness (Length/Girth)","steam_id":76561198037664265,"connected_time":7393000000000,"state":"active","ping":60},{"user_id":177,"name":"cowabunga","steam_id":76561198043917443,"connected_time":3767000000000,"state":"active","ping":52},{"user_id":191,"name":"diamond","steam_id":76561198206754736,"connected_time":2731000000000,"state":"active","ping":57},{"user_id":153,"name":"Diming","steam_id":76561198325584599,"connected_time":4794000000000,"state":"active","ping":56},{"user_id":194,"name":"LegEaterHK","steam_id":76561199357838817,"connected_time":2293000000000,"state":"active","ping":45},{"user_id":203,"name":"SubHam","steam_id":76561198071578622,"connected_time":915000000000,"state":"active","ping":57},{"user_id":197,"name":"Pickled Cow","steam_id":76561198292517991,"connected_time":1553000000000,"state":"active","ping":42},{"user_id":183,"name":"Xeiat","steam_id":76561198134963277,"connected_time":3541000000000,"state":"active","ping":37},{"user_id":126,"name":"fun haver","steam_id":76561197996866578,"connected_time":7375000000000,"state":"active","ping":62},{"user_id":188,"name":"no teles 4 u","steam_id":76561198018478297,"connected_time":3006000000000,"state":"active","ping":60},{"user_id":151,"name":"GOOD GUY NICK","steam_id":76561198145598622,"connected_time":5298000000000,"state":"active","ping":66},{"user_id":158,"name":"monkey (with spoon)","steam_id":76561198301254663,"connected_time":4655000000000,"state":"active","ping":56},{"user_id":190,"name":"Glockenspe (She/Her)","steam_id":76561199184115241,"connected_time":2930000000000,"state":"active","ping":44},{"user_id":182,"name":"The Coffee","steam_id":76561199400467501,"connected_time":3620000000000,"state":"active","ping":86},{"user_id":198,"name":"Red Hot Silly Pepper :)","steam_id":76561198089482428,"connected_time":1501000000000,"state":"active","ping":91},{"user_id":202,"name":"Pseudoman","steam_id":76561198131158447,"connected_time":1162000000000,"state":"active","ping":45},{"user_id":196,"name":"Bojack Horseman","steam_id":76561198136605700,"connected_time":1771000000000,"state":"active","ping":93},{"user_id":204,"name":"Distilledrain41","steam_id":76561198272717119,"connected_time":908000000000,"state":"active","ping":48},{"user_id":209,"name":"Pompadouraus","steam_id":76561198327530525,"connected_time":179000000000,"state":"active","ping":75},{"user_id":166,"name":"Batering Gamer","steam_id":76561198039849442,"connected_time":4330000000000,"state":"active","ping":39},{"user_id":192,"name":"Fire_Dragon1","steam_id":76561198978045930,"connected_time":2675000000000,"state":"active","ping":41},{"user_id":150,"name":"Yoda is probably asian","steam_id":76561198865436554,"connected_time":5515000000000,"state":"active","ping":52},{"user_id":207,"name":"adam","steam_id":76561198087803935,"connected_time":241000000000,"state":"active","ping":46}]},{"server_id":123,"name":"Uncletopia | Sydney | 2 | All Maps","name_short":"syd-2","host":"syd-1.au.uncletopia.com","port":27025,"enabled":true,"region":"au","cc":"au","latitude":-33.865143,"longitude":151.2099,"reserved":0,"last_update":"0001-01-01T00:00:00Z","name_a2s":"Uncletopia | Sydney | 2 | All Maps","protocol":17,"map":"pl_badwater","folder":"tf","game":"Team Fortress","app_id":440,"player_count":0,"max_players":24,"Bots":0,"server_type":"Dedicated","server_os":"Linux","password":true,"vac":true,"version":"7961495","steam_id":85568392924470002,"keywords":["nocrits","nodmgspread","payload","uncletopia"],"game_id":440,"stv_port":27026,"stv_name":"Uncletopia | Sydney | 2 | All Maps | STV","players":null},{"server_id":395,"name":"Uncletopia | Sydney | 3 | All Maps","name_short":"syd-3","host":"syd-1.au.uncletopia.com","port":27035,"enabled":true,"region":"au","cc":"au","latitude":-33.865143,"longitude":151.2099,"reserved":0,"last_update":"0001-01-01T00:00:00Z","name_a2s":"Uncletopia | Sydney | 3 | All Maps","protocol":17,"map":"pl_frontier_final","folder":"tf","game":"Team Fortress","app_id":440,"player_count":0,"max_players":24,"Bots":0,"server_type":"Dedicated","server_os":"Linux","password":true,"vac":true,"version":"7961495","steam_id":85568392925194467,"keywords":["nocrits","nodmgspread","payload","uncletopia"],"game_id":440,"stv_port":27036,"stv_name":"Uncletopia | Sydney | 3 | All Maps | STV","players":null},{"server_id":396,"name":"Uncletopia | Sydney | 4 | All Maps","name_short":"syd-4","host":"syd-1.au.uncletopia.com","port":27045,"enabled":true,"region":"au","cc":"au","latitude":-33.865143,"longitude":151.2099,"reserved":0,"last_update":"0001-01-01T00:00:00Z","name_a2s":"Uncletopia | Sydney | 4 | All Maps","protocol":17,"map":"pl_badwater","folder":"tf","game":"Team Fortress","app_id":440,"player_count":0,"max_players":24,"Bots":0,"server_type":"Dedicated","server_os":"Linux","password":true,"vac":true,"version":"7961495","steam_id":85568392925397958,"keywords":["nocrits","nodmgspread","payload","uncletopia"],"game_id":440,"stv_port":27046,"stv_name":"Uncletopia | Sydney | 4 | All Maps | STV","players":null},{"server_id":58,"name":"Uncletopia | Sydney | 5 | Stopwatch","name_short":"syd-5","host":"syd-1.au.uncletopia.com","port":27055,"enabled":true,"region":"au","cc":"au","latitude":-33.865143,"longitude":151.2099,"reserved":0,"last_update":"0001-01-01T00:00:00Z","name_a2s":"Uncletopia | Sydney | 5 | Stopwatch","protocol":17,"map":"cp_metalworks","folder":"tf","game":"Team Fortress","app_id":440,"player_count":0,"max_players":24,"Bots":0,"server_type":"Dedicated","server_os":"Linux","password":true,"vac":true,"version":"7961495","steam_id":85568392925397959,"keywords":["cp","nocrits","nodmgspread","uncletopia"],"game_id":440,"stv_port":27056,"stv_name":"Uncletopia | Sydney | 5 | Stopwatch | STV","players":null},{"server_id":59,"name":"Uncletopia | Sydney | 6 | Community","name_short":"syd-6","host":"syd-1.au.uncletopia.com","port":27065,"enabled":true,"region":"au","cc":"au","latitude":-33.865143,"longitude":151.2099,"reserved":0,"last_update":"0001-01-01T00:00:00Z","name_a2s":"Uncletopia | Sydney | 6 | Community","protocol":17,"map":"workshop/koth_trenchfoot_ab1.ugc731436616","folder":"tf","game":"Team Fortress","app_id":440,"player_count":0,"max_players":24,"Bots":0,"server_type":"Dedicated","server_os":"Linux","password":true,"vac":true,"version":"7961495","steam_id":85568392925397960,"keywords":["cp","nocrits","nodmgspread","uncletopia"],"game_id":440,"stv_port":27066,"stv_name":"Uncletopia | Sydney | 6 | Community | STV","players":null},{"server_id":49,"name":"Uncletopia | Warsaw | 1 | One Thousand Uncles","name_short":"waw-1","host":"waw-1.pl.uncletopia.com","port":27015,"enabled":true,"region":"eu","cc":"pl","latitude":52.2297,"longitude":21.017532,"reserved":0,"last_update":"0001-01-01T00:00:00Z","name_a2s":"Uncletopia | Warsaw | 1 | One Thousand Uncles","protocol":17,"map":"cp_mercenarypark","folder":"tf","game":"Team Fortress","app_id":440,"player_count":0,"max_players":32,"Bots":0,"server_type":"Dedicated","server_os":"Linux","password":true,"vac":true,"version":"7961495","steam_id":85568392925397850,"keywords":["alltalk","cp","danepve","increased_maxplayers","norespawntime","uncletopia"],"game_id":440,"stv_port":0,"stv_name":"","players":null},{"server_id":50,"name":"Uncletopia | Warsaw | 2 | One Thousand Uncles","name_short":"waw-2","host":"waw-1.pl.uncletopia.com","port":27025,"enabled":true,"region":"eu","cc":"pl","latitude":52.2297,"longitude":21.017532,"reserved":0,"last_update":"0001-01-01T00:00:00Z","name_a2s":"Uncletopia | Warsaw | 2 | One Thousand Uncles","protocol":17,"map":"cp_egypt_final","folder":"tf","game":"Team Fortress","app_id":440,"player_count":0,"max_players":32,"Bots":0,"server_type":"Dedicated","server_os":"Linux","password":true,"vac":true,"version":"7961495","steam_id":85568392925397851,"keywords":["alltalk","cp","danepve","increased_maxplayers","norespawntime","uncletopia"],"game_id":440,"stv_port":0,"stv_name":"","players":null},{"server_id":51,"name":"Uncletopia | Warsaw | 3 | All Maps","name_short":"waw-3","host":"waw-1.pl.uncletopia.com","port":27035,"enabled":true,"region":"eu","cc":"pl","latitude":52.2297,"longitude":21.017532,"reserved":0,"last_update":"0001-01-01T00:00:00Z","name_a2s":"Uncletopia | Warsaw | 3 | All Maps","protocol":17,"map":"pl_snowycoast","folder":"tf","game":"Team Fortress","app_id":440,"player_count":0,"max_players":24,"Bots":0,"server_type":"Dedicated","server_os":"Linux","password":true,"vac":true,"version":"7961495","steam_id":85568392925397852,"keywords":["nocrits","nodmgspread","payload","uncletopia"],"game_id":440,"stv_port":27036,"stv_name":"Uncletopia | Warsaw | 3 | All Maps | STV","players":null},{"server_id":52,"name":"Uncletopia | Warsaw | 4 | All Maps","name_short":"waw-4","host":"waw-1.pl.uncletopia.com","port":27045,"enabled":true,"region":"eu","cc":"pl","latitude":52.2297,"longitude":21.017532,"reserved":0,"last_update":"0001-01-01T00:00:00Z","name_a2s":"Uncletopia | Warsaw | 4 | All Maps","protocol":17,"map":"cp_fastlane","folder":"tf","game":"Team Fortress","app_id":440,"player_count":0,"max_players":24,"Bots":0,"server_type":"Dedicated","server_os":"Linux","password":true,"vac":true,"version":"7961495","steam_id":85568392925397853,"keywords":["cp","nocrits","nodmgspread","uncletopia"],"game_id":440,"stv_port":27046,"stv_name":"Uncletopia | Warsaw | 4 | All Maps | STV","players":null},{"server_id":53,"name":"Uncletopia | Warsaw | 5 | Stopwatch","name_short":"waw-5","host":"waw-1.pl.uncletopia.com","port":27055,"enabled":true,"region":"eu","cc":"pl","latitude":52.2297,"longitude":21.017532,"reserved":0,"last_update":"0001-01-01T00:00:00Z","name_a2s":"Uncletopia | Warsaw | 5 | Stopwatch","protocol":17,"map":"cp_gullywash_final1","folder":"tf","game":"Team Fortress","app_id":440,"player_count":0,"max_players":24,"Bots":0,"server_type":"Dedicated","server_os":"Linux","password":true,"vac":true,"version":"7961495","steam_id":85568392925397854,"keywords":["cp","nocrits","nodmgspread","uncletopia"],"game_id":440,"stv_port":27056,"stv_name":"Uncletopia | Warsaw | 5 | Stopwatch | STV","players":null},{"server_id":54,"name":"Uncletopia | Warsaw | 6 | Community","name_short":"waw-6","host":"waw-1.pl.uncletopia.com","port":27065,"enabled":true,"region":"eu","cc":"pl","latitude":52.2297,"longitude":21.017532,"reserved":0,"last_update":"0001-01-01T00:00:00Z","name_a2s":"Uncletopia | Warsaw | 6 | Community","protocol":17,"map":"workshop/cp_fulgur_rc2a.ugc2068252300","folder":"tf","game":"Team Fortress","app_id":440,"player_count":0,"max_players":24,"Bots":0,"server_type":"Dedicated","server_os":"Linux","password":true,"vac":true,"version":"7961495","steam_id":85568392925397856,"keywords":["cp","nocrits","nodmgspread","uncletopia"],"game_id":440,"stv_port":27066,"stv_name":"Uncletopia | Warsaw | 6 | Community | STV","players":null}]}