{"status":true,"message":"","result":[{"server_id":9,"name":"Uncletopia | Atlanta | 1 | All Maps","name_short":"atl-1","host":"atl-1.us.uncletopia.com","port":27015,"enabled":true,"region":"us-east","cc":"us","latitude":33.753746,"longitude":-84.38633,"reserved":0,"last_update":"0001-01-01T00:00:00Z","name_a2s":"Uncletopia | Atlanta | 1 | All Maps","protocol":17,"map":"pl_upward","folder":"tf","game":"Team Fortress","app_id":440,"player_count":24,"max_players":24,"Bots":0,"server_type":"Dedicated","server_os":"Linux","password":true,"vac":true,"version":"7757534","steam_id":85568392924469982,"keywords":["nocrits","nodmgspread","payload","uncletopia"],"game_id":440,"stv_port":27016,"stv_name":"Uncletopia | Atlanta | 1 | All Maps | STV","players":[{"user_id":587,"name":"Snuwly","steam_id":76561198144015097,"connected_time":3570000000000,"state":"active","ping":84},{"user_id":589,"name":"uhooter","steam_id":76561198007829078,"connected_time":3543000000000,"state":"active","ping":74},{"user_id":643,"name":"WitheringLeo","steam_id":76561198046722918,"connected_time":117000000000,"state":"active","ping":76},{"user_id":618,"name":"LiquidDip","steam_id":76561198090529456,"connected_time":2233000000000,"state":"active","ping":87},{"user_id":622,"name":"offensive rick and morty memes","steam_id":76561198367019006,"connected_time":2166000000000,"state":"active","ping":89},{"user_id":616,"name":"Marshall","steam_id":76561198042570322,"connected_time":2316000000000,"state":"active","ping":73},{"user_id":632,"name":"Makina","steam_id":76561198057475567,"connected_time":1972000000000,"state":"active","ping":98},{"user_id":617,"name":"OrangeCrab","steam_id":76561198982248872,"connected_time":2301000000000,"state":"active","ping":61},{"user_id":639,"name":"Stuart Little 2","steam_id":76561198097272509,"connected_time":1283000000000,"state":"active","ping":35},{"user_id":640,"name":"hunterbunney (TRUE BUT REAL)","steam_id":76561198070672899,"connected_time":248000000000,"state":"active","ping":56},{"user_id":644,"name":"heimdall","steam_id":76561198069380992,"connected_time":95000000000,"state":"active","ping":84},{"user_id":629,"name":"luk12ash","steam_id":76561198079514068,"connected_time":2028000000000,"state":"active","ping":89},{"user_id":630,"name":"Modified Lesbian Space Bear","steam_id":76561198101233304,"connected_time":2021000000000,"state":"active","ping":108},{"user_id":641,"name":"Little Minty","steam_id":76561198070061535,"connected_time":239000000000,"state":"active","ping":69},{"user_id":633,"name":"aversa","steam_id":76561198840460101,"connected_time":1967000000000,"state":"active","ping":63},{"user_id":638,"name":"Kris","steam_id":76561198240638652,"connected_time":1707000000000,"state":"active","ping":139},{"user_id":614,"name":"TheDarkTitan","steam_id":76561198304794068,"connected_time":2392000000000,"state":"active","ping":77},{"user_id":645,"name":"NV.3e00","steam_id":76561198089671934,"connected_time":86000000000,"state":"active","ping":83},{"user_id":642,"name":"Daniel Craig Fan","steam_id":76561198053467923,"connected_time":237000000000,"state":"active","ping":88},{"user_id":611,"name":"jimbo","steam_id":76561198143442725,"connected_time":2499000000000,"state":"active","ping":78},{"user_id":568,"name":"Iron","steam_id":76561198247918478,"connected_time":6104000000000,"state":"active","ping":86},{"user_id":637,"name":"bikerkid207","steam_id":76561198390782783,"connected_time":1786000000000,"state":"active","ping":70},{"user_id":621,"name":"Katty Prab","steam_id":76561198026503779,"connected_time":2199000000000,"state":"active","ping":62},{"user_id":646,"name":"Jesus is LORD of LORDS","steam_id":76561199471382391,"connected_time":26000000000,"state":"active","ping":157}]},{"server_id":400,"name":"Uncletopia | Atlanta | 3 | Community","name_short":"atl-3","host":"atl-1.us.uncletopia.com","port":27035,"enabled":true,"region":"us-east","cc":"us","latitude":33.753746,"longitude":-84.38633,"reserved":0,"last_update":"0001-01-01T00:00:00Z","name_a2s":"Uncletopia | Atlanta | 3 | Community","protocol":17,"map":"workshop/pl_fifthcurve_rc1.ugc648227046","folder":"tf","game":"Team Fortress","app_id":440,"player_count":22,"max_players":24,"Bots":0,"server_type":"Dedicated","server_os":"Linux","password":true,"vac":true,"version":"7757534","steam_id":85568392924515187,"keywords":["nocrits","nodmgspread","payload","uncletopia"],"game_id":440,"stv_port":27036,"stv_name":"Uncletopia | Atlanta | 3 | Community | STV","players":[{"user_id":205,"name":"spoon","steam_id":76561199144640325,"connected_time":788000000000,"state":"active","ping":70},{"user_id":215,"name":"Fatherless Child","steam_id":76561198335035945,"connected_time":385000000000,"state":"active","ping":61},{"user_id":221,"name":"Crylec","steam_id":76561198092755279,"connected_time":325000000000,"state":"active","ping":61},{"user_id":216,"name":"Junker","steam_id":76561199219587218,"connected_time":380000000000,"state":"active","ping":97},{"user_id":222,"name":"Dzhoshua","steam_id":76561198071915251,"connected_time":321000000000,"state":"active","ping":86},{"user_id":89,"name":"Calypso","steam_id":76561198082939544,"connected_time":7991000000000,"state":"active","ping":141},{"user_id":212,"name":"Ballin \u0026 Can't Get Up","steam_id":76561198047394013,"connected_time":514000000000,"state":"active","ping":68},{"user_id":154,"name":"Aldinach","steam_id":76561198079912615,"connected_time":3603000000000,"state":"active","ping":66},{"user_id":163,"name":"DiscoTraveler","steam_id":76561199240168088,"connected_time":3371000000000,"state":"active","ping":58},{"user_id":188,"name":"ZekeN0Tech","steam_id":76561198042151365,"connected_time":1540000000000,"state":"active","ping":69},{"user_id":219,"name":"Mr.mage","steam_id":76561198879378530,"connected_time":357000000000,"state":"active","ping":93},{"user_id":224,"name":"ITSmeTOXIC","steam_id":76561199067764423,"connected_time":195000000000,"state":"active","ping":86},{"user_id":108,"name":"nin nin","steam_id":76561198055445565,"connected_time":5911000000000,"state":"active","ping":179},{"user_id":208,"name":"ape (real)","steam_id":76561198379444671,"connected_time":699000000000,"state":"active","ping":67},{"user_id":198,"name":"Red_Hatkins","steam_id":76561198214004105,"connected_time":1290000000000,"state":"active","ping":96},{"user_id":193,"name":"Autumn Clover","steam_id":76561198012295314,"connected_time":1406000000000,"state":"active","ping":74},{"user_id":225,"name":"WannaSeeA","steam_id":76561198097701042,"connected_time":188000000000,"state":"active","ping":78},{"user_id":166,"name":"owlbortch","steam_id":76561198042849350,"connected_time":3265000000000,"state":"active","ping":60},{"user_id":228,"name":"Wai ‚ôÇ","steam_id":76561199047182980,"connected_time":22000000000,"state":"spawning","ping":193},{"user_id":70,"name":"Warzard","steam_id":76561199154051413,"connected_time":10310000000000,"state":"active","ping":133},{"user_id":227,"name":"Spanksy","steam_id":76561198078565006,"connected_time":138000000000,"state":"active","ping":59},{"user_id":211,"name":"Joe Blazey","steam_id":76561198931658649,"connected_time":675000000000,"state":"active","ping":190}]},{"server_id":401,"name":"Uncletopia | Atlanta | 4 | No Payload","name_short":"atl-4","host":"atl-1.us.uncletopia.com","port":27045,"enabled":true,"region":"us-east","cc":"us","latitude":33.753746,"longitude":-84.38633,"reserved":0,"last_update":"0001-01-01T00:00:00Z","name_a2s":"","protocol":0,"map":"","folder":"","game":"","app_id":0,"player_count":0,"max_players":0,"Bots":0,"server_type":"","server_os":"","password":false,"vac":false,"version":"","steam_id":0,"keywords":null,"game_id":0,"stv_port":0,"stv_name":"","players":null},{"server_id":2,"name":"Uncletopia | Chicago | 1 | All Maps","name_short":"chi-1","host":"chi-1.us.uncletopia.com","port":27015,"enabled":true,"region":"us-central","cc":"us","latitude":41.881832,"longitude":-87.62318,"reserved":0,"last_update":"0001-01-01T00:00:00Z","name_a2s":"Uncletopia | Chicago | 1 | All Maps","protocol":17,"map":"pl_frontier_final","folder":"tf","game":"Team Fortress","app_id":440,"player_count":24,"max_players":24,"Bots":0,"server_type":"Dedicated","server_os":"Linux","password":true,"vac":true,"version":"7757534","steam_id":85568392924469984,"keywords":["nocrits","nodmgspread","payload","uncletopia"],"game_id":440,"stv_port":27016,"stv_name":"Uncletopia | Chicago | 1 | All Maps | STV","players":[{"user_id":895,"name":"Slippery","steam_id":76561199469441947,"connected_time":1222000000000,"state":"active","ping":50},{"user_id":893,"name":"Ducter","steam_id":76561198085369908,"connected_time":1314000000000,"state":"active","ping":60},{"user_id":910,"name":"cloaked on eng nest","steam_id":76561198191461363,"connected_time":300000000000,"state":"active","ping":120},{"user_id":849,"name":"Vibe‚Ñ¢","steam_id":76561198156083411,"connected_time":4351000000000,"state":"active","ping":69},{"user_id":862,"name":"Kol","steam_id":76561199151398882,"connected_time":3041000000000,"state":"active","ping":96},{"user_id":896,"name":"Scorpie Doodle","steam_id":76561198021845763,"connected_time":1219000000000,"state":"active","ping":58},{"user_id":871,"name":"[Saint] Zreb","steam_id":76561198041259154,"connected_time":2747000000000,"state":"active","ping":75},{"user_id":873,"name":"Sentry Gun (American)","steam_id":76561198313770809,"connected_time":2659000000000,"state":"active","ping":58},{"user_id":864,"name":"Grink \"V.F\" da Boy","steam_id":76561197985230768,"connected_time":2988000000000,"state":"active","ping":106},{"user_id":866,"name":"cyal","steam_id":76561198080957000,"connected_time":2954000000000,"state":"active","ping":114},{"user_id":874,"name":"YungChefMingus","steam_id":76561198087122048,"connected_time":2495000000000,"state":"active","ping":38},{"user_id":908,"name":"ùîâ4","steam_id":76561198167852709,"connected_time":607000000000,"state":"active","ping":176},{"user_id":898,"name":"sappa","steam_id":76561198286348196,"connected_time":1190000000000,"state":"active","ping":75},{"user_id":906,"name":"Raniel Dicciardo","steam_id":76561198053859538,"connected_time":724000000000,"state":"active","ping":66},{"user_id":868,"name":"richard clock","steam_id":76561198048455671,"connected_time":2906000000000,"state":"active","ping":61},{"user_id":892,"name":"Bluegill75","steam_id":76561198033289527,"connected_time":1341000000000,"state":"active","ping":83},{"user_id":899,"name":"squid game","steam_id":76561199248960166,"connected_time":1164000000000,"state":"active","ping":96},{"user_id":903,"name":"Wug","steam_id":76561198084112264,"connected_time":1103000000000,"state":"active","ping":82},{"user_id":901,"name":"Eliza (They/She)","steam_id":76561198108938752,"connected_time":1146000000000,"state":"active","ping":68},{"user_id":904,"name":"Scarlett (She/Her)","steam_id":76561197999367029,"connected_time":849000000000,"state":"active","ping":54},{"user_id":855,"name":"Anna","steam_id":76561197999657118,"connected_time":3897000000000,"state":"active","ping":79},{"user_id":902,"name":"Pablo La Pointe","steam_id":76561198086092623,"connected_time":1142000000000,"state":"active","ping":70},{"user_id":872,"name":"Barney Enjoyer","steam_id":76561198049419309,"connected_time":2734000000000,"state":"active","ping":75},{"user_id":909,"name":"sheep","steam_id":76561198172943006,"connected_time":603000000000,"state":"active","ping":47}]},{"server_id":106,"name":"Uncletopia | Chicago | 2 | All Maps","name_short":"chi-2","host":"chi-1.us.uncletopia.com","port":27025,"enabled":true,"region":"us-central","cc":"us","latitude":41.881832,"longitude":-87.62318,"reserved":0,"last_update":"0001-01-01T00:00:00Z","name_a2s":"Uncletopia | Chicago | 2 | All Maps","protocol":17,"map":"pl_upward","folder":"tf","game":"Team Fortress","app_id":440,"player_count":5,"max_players":24,"Bots":0,"server_type":"Dedicated","server_os":"Linux","password":true,"vac":true,"version":"7757534","steam_id":85568392924469985,"keywords":["nocrits","nodmgspread","payload","uncletopia"],"game_id":440,"stv_port":27026,"stv_name":"Uncletopia | Chicago | 2 | All Maps | STV","players":[{"user_id":488,"name":"Sage","steam_id":76561198143101697,"connected_time":1394000000000,"state":"active","ping":91},{"user_id":489,"name":"trappy (showered)","steam_id":76561198402801140,"connected_time":795000000000,"state":"active","ping":59},{"user_id":491,"name":"C papi","steam_id":76561198027779564,"connected_time":669000000000,"state":"active","ping":47},{"user_id":492,"name":"Festive Turnip","steam_id":76561198215801344,"connected_time":32000000000,"state":"active","ping":52},{"user_id":493,"name":"John Fortress 2","steam_id":76561199241277109,"connected_time":26000000000,"state":"spawning","ping":46}]},{"server_id":402,"name":"Uncletopia | Chicago | 3 | All Maps","name_short":"chi-3","host":"chi-1.us.uncletopia.com","port":27035,"enabled":true,"region":"us-central","cc":"us","latitude":41.881832,"longitude":-87.62318,"reserved":0,"last_update":"0001-01-01T00:00:00Z","name_a2s":"Uncletopia | Chicago | 3 | All Maps","protocol":17,"map":"cp_sunshine","folder":"tf","game":"Team Fortress","app_id":440,"player_count":21,"max_players":24,"Bots":0,"server_type":"Dedicated","server_os":"Linux","password":true,"vac":true,"version":"7757534","steam_id":85568392924515191,"keywords":["cp","nocrits","nodmgspread","uncletopia"],"game_id":440,"stv_port":27036,"stv_name":"Uncletopia | Chicago | 3 | All Maps | STV","players":[{"user_id":297,"name":"The Trash Man","steam_id":76561198071375772,"connected_time":1818000000000,"state":"active","ping":44},{"user_id":273,"name":"Mickey","steam_id":76561197976868960,"connected_time":3243000000000,"state":"active","ping":148},{"user_id":268,"name":"cheetaz","steam_id":76561198224614084,"connected_time":3385000000000,"state":"active","ping":60},{"user_id":298,"name":"ghostyAlchemist","steam_id":76561198448078291,"connected_time":1799000000000,"state":"active","ping":70},{"user_id":314,"name":"wye420","steam_id":76561198796742939,"connected_time":33000000000,"state":"active","ping":64},{"user_id":302,"name":"SubZeroDestruction","steam_id":76561198145082209,"connected_time":1694000000000,"state":"active","ping":62},{"user_id":301,"name":"Solo.","steam_id":76561198090308641,"connected_time":1716000000000,"state":"active","ping":59},{"user_id":303,"name":"LandoDaMando","steam_id":76561198377863683,"connected_time":1691000000000,"state":"active","ping":69},{"user_id":313,"name":"The Walnut","steam_id":76561198080583044,"connected_time":362000000000,"state":"active","ping":79},{"user_id":296,"name":"MoonWolf","steam_id":76561198095735033,"connected_time":1963000000000,"state":"active","ping":88},{"user_id":276,"name":"Oomitch","steam_id":76561198071702759,"connected_time":3221000000000,"state":"active","ping":90},{"user_id":288,"name":"Chillin Turt","steam_id":76561198025796849,"connected_time":2671000000000,"state":"active","ping":73},{"user_id":305,"name":"SleepingBrim","steam_id":76561198067650229,"connected_time":1682000000000,"state":"active","ping":92},{"user_id":291,"name":"king of bogers","steam_id":76561198045731295,"connected_time":2593000000000,"state":"active","ping":77},{"user_id":306,"name":"mos","steam_id":76561197995777973,"connected_time":1679000000000,"state":"active","ping":63},{"user_id":312,"name":"üêáBunnyüêá","steam_id":76561198822773578,"connected_time":951000000000,"state":"active","ping":92},{"user_id":279,"name":"id dragoon","steam_id":76561198323079151,"connected_time":3186000000000,"state":"active","ping":112},{"user_id":280,"name":"Purple potato","steam_id":76561198932276149,"connected_time":3178000000000,"state":"active","ping":116},{"user_id":307,"name":"itsmajestic","steam_id":76561198304790008,"connected_time":1671000000000,"state":"active","ping":69},{"user_id":311,"name":"NeverAcedIt (Pinnacle -\u003e Pit)","steam_id":76561198406671743,"connected_time":973000000000,"state":"active","ping":100},{"user_id":308,"name":"Mild","steam_id":76561198069644223,"connected_time":1670000000000,"state":"active","ping":65}]},{"server_id":403,"name":"Uncletopia | Chicago | 4 | All Maps","name_short":"chi-4","host":"chi-1.us.uncletopia.com","port":27045,"enabled":true,"region":"us-central","cc":"us","latitude":41.881832,"longitude":-87.62318,"reserved":0,"last_update":"0001-01-01T00:00:00Z","name_a2s":"Uncletopia | Chicago | 4 | All Maps","protocol":17,"map":"cp_snakewater_final1","folder":"tf","game":"Team Fortress","app_id":440,"player_count":14,"max_players":24,"Bots":0,"server_type":"Dedicated","server_os":"Linux","password":true,"vac":true,"version":"7757534","steam_id":85568392924515193,"keywords":["cp","nocrits","nodmgspread","uncletopia"],"game_id":440,"stv_port":27046,"stv_name":"Uncletopia | Chicago | 4 | All Maps | STV","players":[{"user_id":643,"name":"lanoc","steam_id":76561198055415367,"connected_time":925000000000,"state":"active","ping":60},{"user_id":649,"name":"Nicolas Cage Kisses Mace Windu","steam_id":76561198046127710,"connected_time":201000000000,"state":"active","ping":97},{"user_id":648,"name":"*****setget","steam_id":76561198118824188,"connected_time":224000000000,"state":"active","ping":113},{"user_id":650,"name":"hasenpfeffer","steam_id":76561198000564263,"connected_time":196000000000,"state":"active","ping":75},{"user_id":628,"name":"Average bison enjoyer","steam_id":76561199214713674,"connected_time":1990000000000,"state":"active","ping":98},{"user_id":646,"name":"java","steam_id":76561198030276792,"connected_time":654000000000,"state":"active","ping":49},{"user_id":609,"name":"CobyNoHoes","steam_id":76561198122236594,"connected_time":3678000000000,"state":"active","ping":82},{"user_id":606,"name":"Skillz","steam_id":76561198054746727,"connected_time":3697000000000,"state":"active","ping":57},{"user_id":640,"name":"Yukon Cornelius","steam_id":76561198261512781,"connected_time":946000000000,"state":"active","ping":66},{"user_id":602,"name":"Emperor Dankatine","steam_id":76561198044741086,"connected_time":4433000000000,"state":"active","ping":72},{"user_id":633,"name":"MikeWaChubski","steam_id":76561198368151490,"connected_time":1859000000000,"state":"active","ping":71},{"user_id":645,"name":"k104m","steam_id":76561198153020266,"connected_time":804000000000,"state":"active","ping":75},{"user_id":642,"name":"g√∂khan","steam_id":76561199008085020,"connected_time":940000000000,"state":"active","ping":60}]},{"server_id":36,"name":"Uncletopia | Chicago | 5 | All Maps","name_short":"chi-5","host":"chi-2.us.uncletopia.com","port":27015,"enabled":true,"region":"us-central","cc":"us","latitude":41.881832,"longitude":-87.62318,"reserved":0,"last_update":"0001-01-01T00:00:00Z","name_a2s":"Uncletopia | Chicago | 5 | All Maps","protocol":17,"map":"pl_pier","folder":"tf","game":"Team Fortress","app_id":440,"player_count":20,"max_players":24,"Bots":0,"server_type":"Dedicated","server_os":"Linux","password":true,"vac":true,"version":"7757534","steam_id":85568392924866362,"keywords":["nocrits","nodmgspread","payload","uncletopia"],"game_id":440,"stv_port":27016,"stv_name":"Uncletopia | Chicago | 5 | All Maps | STV","players":[{"user_id":247,"name":"Boznyan","steam_id":76561198129164016,"connected_time":1447000000000,"state":"active","ping":57},{"user_id":248,"name":"chug jug","steam_id":76561198155631250,"connected_time":1442000000000,"state":"active","ping":56},{"user_id":249,"name":"StaqOverFlow-","steam_id":76561197996990527,"connected_time":1364000000000,"state":"active","ping":103},{"user_id":257,"name":"MEdeev","steam_id":76561198165381710,"connected_time":1068000000000,"state":"active","ping":60},{"user_id":251,"name":"inventor1214","steam_id":76561198062317696,"connected_time":1332000000000,"state":"active","ping":108},{"user_id":272,"name":"FROYO FRAG GOD -AA- (fear me)","steam_id":76561198097588802,"connected_time":520000000000,"state":"active","ping":46},{"user_id":280,"name":"uwutang clan","steam_id":76561198361326855,"connected_time":76000000000,"state":"active","ping":56},{"user_id":274,"name":"Skuntle Bingoid","steam_id":76561198046942778,"connected_time":467000000000,"state":"active","ping":79},{"user_id":281,"name":"Lore","steam_id":76561198098407538,"connected_time":26000000000,"state":"active","ping":49},{"user_id":255,"name":"James_Delvy","steam_id":76561198209634565,"connected_time":1183000000000,"state":"active","ping":58},{"user_id":264,"name":"anthony,","steam_id":76561198095912644,"connected_time":753000000000,"state":"active","ping":50},{"user_id":282,"name":"ant","steam_id":76561198133738975,"connected_time":21000000000,"state":"spawning","ping":75},{"user_id":262,"name":"Riot Alice","steam_id":76561198097708703,"connected_time":796000000000,"state":"active","ping":63},{"user_id":90,"name":"toastman","steam_id":76561198207073088,"connected_time":13959000000000,"state":"active","ping":61},{"user_id":265,"name":"vani","steam_id":76561197991778291,"connected_time":751000000000,"state":"active","ping":154},{"user_id":266,"name":"Pawkey","steam_id":76561198012182113,"connected_time":746000000000,"state":"active","ping":170},{"user_id":277,"name":"TheCheeseWizard","steam_id":76561198058931315,"connected_time":346000000000,"state":"active","ping":58},{"user_id":268,"name":"IronHawk‚ú®","steam_id":76561198008959448,"connected_time":740000000000,"state":"active","ping":145},{"user_id":278,"name":"lawn","steam_id":76561198001243486,"connected_time":344000000000,"state":"active","ping":135},{"user_id":270,"name":"A Gas Salesman!","steam_id":76561198081877626,"connected_time":651000000000,"state":"active","ping":64}]},{"server_id":37,"name":"Uncletopia | Chicago | 6 | All Maps","name_short":"chi-6","host":"chi-2.us.uncletopia.com","port":27025,"enabled":true,"region":"us-central","cc":"us","latitude":41.881832,"longitude":-87.62318,"reserved":0,"last_update":"0001-01-01T00:00:00Z","name_a2s":"Uncletopia | Chicago | 6 | All Maps","protocol":17,"map":"koth_harvest_final","folder":"tf","game":"Team Fortress","app_id":440,"player_count":16,"max_players":24,"Bots":0,"server_type":"Dedicated","server_os":"Linux","password":true,"vac":true,"version":"7757534","steam_id":85568392924866363,"keywords":["cp","nocrits","nodmgspread","uncletopia"],"game_id":440,"stv_port":27026,"stv_name":"Uncletopia | Chicago | 6 | All Maps | STV","players":[{"user_id":929,"name":"iCarly Lore Expert","steam_id":76561198111902910,"connected_time":83000000000,"state":"active","ping":60},{"user_id":911,"name":"Jay F","steam_id":76561198046082188,"connected_time":2098000000000,"state":"active","ping":64},{"user_id":923,"name":"Uhonlapjontetzika","steam_id":76561199431280503,"connected_time":676000000000,"state":"active","ping":79},{"user_id":855,"name":"too funky ·óúÀ¨·óú","steam_id":76561199120399776,"connected_time":5977000000000,"state":"active","ping":79},{"user_id":930,"name":"TheFox.tf","steam_id":76561197996851702,"connected_time":79000000000,"state":"active","ping":150},{"user_id":925,"name":"bliss","steam_id":76561198440145948,"connected_time":428000000000,"state":"active","ping":66},{"user_id":926,"name":"Spike Bones","steam_id":76561198234926120,"connected_time":419000000000,"state":"active","ping":84},{"user_id":878,"name":"Specialist Snow","steam_id":76561198090215419,"connected_time":4359000000000,"state":"active","ping":56},{"user_id":831,"name":"gettysburg","steam_id":76561198016157051,"connected_time":7752000000000,"state":"active","ping":71},{"user_id":927,"name":"Top 1.000.000 Competitor","steam_id":76561198246990590,"connected_time":415000000000,"state":"active","ping":149},{"user_id":910,"name":"Midnight Flame","steam_id":76561198279692754,"connected_time":2302000000000,"state":"active","ping":71},{"user_id":905,"name":"linus","steam_id":76561198106196691,"connected_time":2806000000000,"state":"active","ping":71},{"user_id":920,"name":"totally not a pile of beans","steam_id":76561198119851931,"connected_time":1357000000000,"state":"active","ping":83},{"user_id":863,"name":"Braindawg","steam_id":76561197988531991,"connected_time":5779000000000,"state":"active","ping":78},{"user_id":907,"name":"The Professor","steam_id":76561198113760863,"connected_time":2720000000000,"state":"active","ping":60},{"user_id":893,"name":"\"The Captain\" by Leonard Cohen","steam_id":76561198121955432,"connected_time":3948000000000,"state":"active","ping":58}]},{"server_id":38,"name":"Uncletopia | Chicago | 7 | Stopwatch Beta","name_short":"chi-7","host":"chi-2.us.uncletopia.com","port":27035,"enabled":true,"region":"us-central","cc":"us","latitude":41.881832,"longitude":-87.62318,"reserved":0,"last_update":"0001-01-01T00:00:00Z","name_a2s":"Uncletopia | Chicago | 7 | Stopwatch Beta","protocol":17,"map":"workshop/pl_vigil_rc9.ugc1266210012","folder":"tf","game":"Team Fortress","app_id":440,"player_count":0,"max_players":24,"Bots":0,"server_type":"Dedicated","server_os":"Linux","password":true,"vac":true,"version":"7757534","steam_id":85568392924866364,"keywords":["nocrits","nodmgspread","payload","uncletopia"],"game_id":440,"stv_port":27036,"stv_name":"Uncletopia | Chicago | 7 | Stopwatch Beta | STV","players":null},{"server_id":39,"name":"Uncletopia | Chicago | 8 | Community","name_short":"chi-8","host":"chi-2.us.uncletopia.com","port":27045,"enabled":true,"region":"us-central","cc":"us","latitude":41.881832,"longitude":-87.62318,"reserved":0,"last_update":"0001-01-01T00:00:00Z","name_a2s":"Uncletopia | Chicago | 8 | Community","protocol":17,"map":"workshop/cp_mannbase_rc2a.ugc1900737467","folder":"tf","game":"Team Fortress","app_id":440,"player_count":0,"max_players":24,"Bots":0,"server_type":"Dedicated","server_os":"Linux","password":true,"vac":true,"version":"7757534","steam_id":85568392924866365,"keywords":["cp","nocrits","nodmgspread","uncletopia"],"game_id":440,"stv_port":27046,"stv_name":"Uncletopia | Chicago | 8 | Community | STV","players":null},{"server_id":8,"name":"Uncletopia | Dallas | 1 | All Maps","name_short":"dal-1","host":"dal-1.us.uncletopia.com","port":27015,"enabled":true,"region":"us-central","cc":"us","latitude":32.779167,"longitude":-96.80889,"reserved":0,"last_update":"0001-01-01T00:00:00Z","name_a2s":"Uncletopia | Dallas | 1 | All Maps","protocol":17,"map":"pl_badwater","folder":"tf","game":"Team Fortress","app_id":440,"player_count":23,"max_players":24,"Bots":0,"server_type":"Dedicated","server_os":"Linux","password":true,"vac":true,"version":"7757534","steam_id":85568392924469986,"keywords":["nocrits","nodmgspread","payload","uncletopia"],"game_id":440,"stv_port":27016,"stv_name":"Uncletopia | Dallas | 1 | All Maps | STV","players":[{"user_id":427,"name":"citrus","steam_id":76561198294606679,"connected_time":396000000000,"state":"active","ping":89},{"user_id":379,"name":"The Robot Menace","steam_id":76561198043390413,"connected_time":4047000000000,"state":"active","ping":54},{"user_id":430,"name":"sadbot","steam_id":76561198031249261,"connected_time":202000000000,"state":"active","ping":86},{"user_id":361,"name":"Techzal","steam_id":76561198015284807,"connected_time":4544000000000,"state":"active","ping":77},{"user_id":428,"name":"MrBeast chris","steam_id":76561199179240694,"connected_time":384000000000,"state":"active","ping":60},{"user_id":412,"name":"Satori Komeiji","steam_id":76561198158211423,"connected_time":1470000000000,"state":"active","ping":92},{"user_id":395,"name":"Big Chimpin","steam_id":76561198051504718,"connected_time":2609000000000,"state":"active","ping":62},{"user_id":420,"name":"{ST} Oxythemoron","steam_id":76561198060089965,"connected_time":1046000000000,"state":"active","ping":50},{"user_id":397,"name":"gaming","steam_id":76561198338610196,"connected_time":2567000000000,"state":"active","ping":102},{"user_id":410,"name":"Kaestal","steam_id":76561198033174157,"connected_time":1609000000000,"state":"active","ping":54},{"user_id":424,"name":"AlvWhispery","steam_id":76561198850017423,"connected_time":751000000000,"state":"active","ping":80},{"user_id":426,"name":"rkp!","steam_id":76561199053070819,"connected_time":633000000000,"state":"active","ping":67},{"user_id":383,"name":"Mitty","steam_id":76561198014177684,"connected_time":3832000000000,"state":"active","ping":85},{"user_id":411,"name":"HowBoutThemCowboys","steam_id":76561198040743777,"connected_time":1499000000000,"state":"active","ping":88},{"user_id":403,"name":"gasparmx","steam_id":76561197998611994,"connected_time":2284000000000,"state":"active","ping":101},{"user_id":429,"name":"Dust","steam_id":76561198063959574,"connected_time":333000000000,"state":"active","ping":99},{"user_id":347,"name":"Kzjytsugn","steam_id":76561198130241974,"connected_time":5871000000000,"state":"active","ping":102},{"user_id":392,"name":"Eduardo","steam_id":76561198236519984,"connected_time":2852000000000,"state":"active","ping":102},{"user_id":414,"name":"The Real Bacon","steam_id":76561199108791087,"connected_time":1408000000000,"state":"active","ping":51},{"user_id":348,"name":"ryghehn","steam_id":76561198195359229,"connected_time":5848000000000,"state":"active","ping":90},{"user_id":401,"name":"Nova Academy of Salmon Action","steam_id":76561198021842526,"connected_time":2368000000000,"state":"active","ping":97},{"user_id":402,"name":"teatimesukka","steam_id":76561198978749594,"connected_time":2358000000000,"state":"active","ping":35},{"user_id":423,"name":"hussaria","steam_id":76561198822206821,"connected_time":967000000000,"state":"active","ping":63}]},{"server_id":108,"name":"Uncletopia | Dallas | 2 | All Maps","name_short":"dal-2","host":"dal-1.us.uncletopia.com","port":27025,"enabled":true,"region":"us-central","cc":"us","latitude":32.779167,"longitude":-96.80889,"reserved":0,"last_update":"0001-01-01T00:00:00Z","name_a2s":"Uncletopia | Dallas | 2 | All Maps","protocol":17,"map":"koth_cascade","folder":"tf","game":"Team Fortress","app_id":440,"player_count":0,"max_players":24,"Bots":0,"server_type":"Dedicated","server_os":"Linux","password":true,"vac":true,"version":"7757534","steam_id":85568392924469988,"keywords":["cp","nocrits","nodmgspread","uncletopia"],"game_id":440,"stv_port":27026,"stv_name":"Uncletopia | Dallas | 2 | All Maps | STV","players":null},{"server_id":5,"name":"Uncletopia | Frankfurt | 1 | All Maps","name_short":"frk-1","host":"frk-1.de.uncletopia.com","port":27015,"enabled":true,"region":"eu","cc":"de","latitude":50.110924,"longitude":8.682127,"reserved":0,"last_update":"0001-01-01T00:00:00Z","name_a2s":"Uncletopia | Frankfurt | 1 | All Maps","protocol":17,"map":"pl_snowycoast","folder":"tf","game":"Team Fortress","app_id":440,"player_count":0,"max_players":24,"Bots":0,"server_type":"Dedicated","server_os":"Linux","password":true,"vac":true,"version":"7757534","steam_id":85568392924469989,"keywords":["nocrits","nodmgspread","payload","uncletopia"],"game_id":440,"stv_port":27016,"stv_name":"Uncletopia | Frankfurt | 1 | All Maps | STV","players":null},{"server_id":110,"name":"Uncletopia | Frankfurt | 2 | All Maps","name_short":"frk-2","host":"frk-1.de.uncletopia.com","port":27025,"enabled":true,"region":"eu","cc":"de","latitude":50.110924,"longitude":8.682127,"reserved":0,"last_update":"0001-01-01T00:00:00Z","name_a2s":"Uncletopia | Frankfurt | 2 | All Maps","protocol":17,"map":"pl_pier","folder":"tf","game":"Team Fortress","app_id":440,"player_count":0,"max_players":24,"Bots":0,"server_type":"Dedicated","server_os":"Linux","password":true,"vac":true,"version":"7757534","steam_id":85568392924469990,"keywords":["nocrits","nodmgspread","payload","uncletopia"],"game_id":440,"stv_port":27026,"stv_name":"Uncletopia | Frankfurt | 2 | All Maps | STV","players":null},{"server_id":308,"name":"Uncletopia | Frankfurt | 3 | All Maps","name_short":"frk-3","host":"frk-1.de.uncletopia.com","port":27035,"enabled":true,"region":"eu","cc":"de","latitude":50.110924,"longitude":8.682127,"reserved":0,"last_update":"0001-01-01T00:00:00Z","name_a2s":"Uncletopia | Frankfurt | 3 | All Maps","protocol":17,"map":"cp_altitude","folder":"tf","game":"Team Fortress","app_id":440,"player_count":0,"max_players":24,"Bots":0,"server_type":"Dedicated","server_os":"Linux","password":true,"vac":true,"version":"7757534","steam_id":85568392924504274,"keywords":["cp","nocrits","nodmgspread","uncletopia"],"game_id":440,"stv_port":27036,"stv_name":"Uncletopia | Frankfurt | 3 | All Maps | STV","players":null},{"server_id":309,"name":"Uncletopia | Frankfurt | 4 | All Maps","name_short":"frk-4","host":"frk-1.de.uncletopia.com","port":27045,"enabled":true,"region":"eu","cc":"de","latitude":50.110924,"longitude":8.682127,"reserved":0,"last_update":"0001-01-01T00:00:00Z","name_a2s":"Uncletopia | Frankfurt | 4 | All Maps","protocol":17,"map":"cp_altitude","folder":"tf","game":"Team Fortress","app_id":440,"player_count":0,"max_players":24,"Bots":0,"server_type":"Dedicated","server_os":"Linux","password":true,"vac":true,"version":"7757534","steam_id":85568392924504275,"keywords":["cp","nocrits","nodmgspread","uncletopia"],"game_id":440,"stv_port":27046,"stv_name":"Uncletopia | Frankfurt | 4 | All Maps | STV","players":null},{"server_id":310,"name":"Uncletopia | Frankfurt | 5 | All Maps","name_short":"frk-5","host":"frk-1.de.uncletopia.com","port":27055,"enabled":true,"region":"eu","cc":"de","latitude":50.110924,"longitude":8.682127,"reserved":0,"last_update":"0001-01-01T00:00:00Z","name_a2s":"Uncletopia | Frankfurt | 5 | All Maps","protocol":17,"map":"cp_altitude","folder":"tf","game":"Team Fortress","app_id":440,"player_count":0,"max_players":24,"Bots":0,"server_type":"Dedicated","server_os":"Linux","password":true,"vac":true,"version":"7757534","steam_id":85568392924504277,"keywords":["cp","nocrits","nodmgspread","uncletopia"],"game_id":440,"stv_port":27056,"stv_name":"Uncletopia | Frankfurt | 5 | All Maps | STV","players":null},{"server_id":311,"name":"Uncletopia | Frankfurt | 6 | All Maps","name_short":"frk-6","host":"frk-1.de.uncletopia.com","port":27065,"enabled":true,"region":"eu","cc":"de","latitude":50.110924,"longitude":8.682127,"reserved":0,"last_update":"0001-01-01T00:00:00Z","name_a2s":"Uncletopia | Frankfurt | 6 | All Maps","protocol":17,"map":"koth_highpass","folder":"tf","game":"Team Fortress","app_id":440,"player_count":0,"max_players":24,"Bots":0,"server_type":"Dedicated","server_os":"Linux","password":true,"vac":true,"version":"7757534","steam_id":85568392924504278,"keywords":["cp","nocrits","nodmgspread","uncletopia"],"game_id":440,"stv_port":27066,"stv_name":"Uncletopia | Frankfurt | 6 | All Maps | STV","players":null},{"server_id":23,"name":"Uncletopia | Frankfurt | 7 | Stopwatch Beta","name_short":"frk-7","host":"frk-1.de.uncletopia.com","port":27075,"enabled":true,"region":"eu","cc":"de","latitude":50.110924,"longitude":8.682127,"reserved":0,"last_update":"0001-01-01T00:00:00Z","name_a2s":"Uncletopia | Frankfurt | 7 | Stopwatch Beta","protocol":17,"map":"pl_frontier_final","folder":"tf","game":"Team Fortress","app_id":440,"player_count":0,"max_players":24,"Bots":0,"server_type":"Dedicated","server_os":"Linux","password":true,"vac":true,"version":"7757534","steam_id":85568392924742827,"keywords":["nocrits","nodmgspread","payload","uncletopia"],"game_id":440,"stv_port":27076,"stv_name":"Uncletopia | Frankfurt | 7 | Stopwatch Beta | STV","players":null},{"server_id":24,"name":"Uncletopia | Frankfurt | 8 | Community","name_short":"frk-8","host":"frk-1.de.uncletopia.com","port":27085,"enabled":true,"region":"eu","cc":"de","latitude":50.110924,"longitude":8.682127,"reserved":0,"last_update":"0001-01-01T00:00:00Z","name_a2s":"Uncletopia | Frankfurt | 8 | Community","protocol":17,"map":"workshop/pl_cashworks_final1.ugc2904065412","folder":"tf","game":"Team Fortress","app_id":440,"player_count":0,"max_players":24,"Bots":0,"server_type":"Dedicated","server_os":"Linux","password":true,"vac":true,"version":"7757534","steam_id":85568392924742828,"keywords":["nocrits","nodmgspread","payload","uncletopia"],"game_id":440,"stv_port":27086,"stv_name":"Uncletopia | Frankfurt | 8 | Community | STV","players":null},{"server_id":202,"name":"Uncletopia | Hong Kong | 1 | All Maps","name_short":"hgk-1","host":"hgk-1.hk.uncletopia.com","port":27015,"enabled":true,"region":"asia","cc":"hk","latitude":22.302711,"longitude":114.177216,"reserved":0,"last_update":"0001-01-01T00:00:00Z","name_a2s":"Uncletopia | Hong Kong | 1 | All Maps","protocol":17,"map":"cp_steel","folder":"tf","game":"Team Fortress","app_id":440,"player_count":25,"max_players":24,"Bots":0,"server_type":"Dedicated","server_os":"Linux","password":true,"vac":true,"version":"7757534","steam_id":85568392924494504,"keywords":["cp","nocrits","nodmgspread","uncletopia"],"game_id":440,"stv_port":27016,"stv_name":"Uncletopia | Hong Kong | 1 | All Maps | STV","players":[{"user_id":56,"name":"yoda BOOL","steam_id":76561199099477033,"connected_time":974000000000,"state":"active","ping":88},{"user_id":10,"name":"3wfFbdrjEze5d2G","steam_id":76561198435900451,"connected_time":6364000000000,"state":"active","ping":115},{"user_id":65,"name":"Ramnuoel","steam_id":76561198983883794,"connected_time":177000000000,"state":"active","ping":60},{"user_id":57,"name":"detro","steam_id":76561198412329672,"connected_time":884000000000,"state":"active","ping":90},{"user_id":22,"name":"About","steam_id":76561198198273477,"connected_time":3012000000000,"state":"active","ping":106},{"user_id":66,"name":"TomProPlayer","steam_id":76561199223292521,"connected_time":162000000000,"state":"active","ping":74},{"user_id":42,"name":"why must you treat me this way","steam_id":76561199146847474,"connected_time":1478000000000,"state":"active","ping":69},{"user_id":48,"name":"cool eyes man","steam_id":76561198828840546,"connected_time":1263000000000,"state":"active","ping":73},{"user_id":52,"name":"DarkGamer TF2","steam_id":76561199234460334,"connected_time":1077000000000,"state":"active","ping":76},{"user_id":46,"name":"The Air Force(2006)","steam_id":76561199158853202,"connected_time":1341000000000,"state":"active","ping":64},{"user_id":53,"name":"17","steam_id":76561198241530712,"connected_time":1071000000000,"state":"active","ping":59},{"user_id":31,"name":"ChoboUnjeon","steam_id":76561198806095977,"connected_time":2066000000000,"state":"active","ping":87},{"user_id":39,"name":"‚úßBaKa BAzooKA‚úß(‚óï‚ñø‚óï )","steam_id":76561198061628689,"connected_time":1668000000000,"state":"active","ping":48},{"user_id":44,"name":"peppermint","steam_id":76561198820630422,"connected_time":1397000000000,"state":"active","ping":87},{"user_id":35,"name":"SilverAgCat","steam_id":76561198798683018,"connected_time":1894000000000,"state":"active","ping":75},{"user_id":51,"name":"Lonely boi","steam_id":76561198271212710,"connected_time":1172000000000,"state":"active","ping":83},{"user_id":62,"name":"ÁÖôÊµ∑ | Enkai","steam_id":76561198050460825,"connected_time":570000000000,"state":"active","ping":75},{"user_id":67,"name":"AmaiToxic","steam_id":76561199122491157,"connected_time":115000000000,"state":"connecting","ping":0},{"user_id":58,"name":"im_0ff","steam_id":76561198339346695,"connected_time":786000000000,"state":"active","ping":125},{"user_id":59,"name":"Rephex","steam_id":76561198308185574,"connected_time":727000000000,"state":"active","ping":130},{"user_id":60,"name":"salad","steam_id":76561198302102818,"connected_time":680000000000,"state":"active","ping":75},{"user_id":61,"name":"Urotsuki","steam_id":76561198074339034,"connected_time":609000000000,"state":"active","ping":76},{"user_id":63,"name":"uptriste","steam_id":76561198158666692,"connected_time":541000000000,"state":"active","ping":41},{"user_id":64,"name":"tiden2000","steam_id":76561198092969425,"connected_time":472000000000,"state":"active","ping":101},{"user_id":68,"name":"C√° Th√°ng 4","steam_id":76561198047162026,"connected_time":2000000000,"state":"spawning","ping":45}]},{"server_id":1,"name":"Uncletopia | Los Angeles | 1 | All Maps","name_short":"lax-1","host":"lax-1.us.uncletopia.com","port":27015,"enabled":true,"region":"us-west","cc":"us","latitude":33.94279,"longitude":-118.41004,"reserved":0,"last_update":"0001-01-01T00:00:00Z","name_a2s":"Uncletopia | Los Angeles | 1 | All Maps","protocol":17,"map":"pl_badwater","folder":"tf","game":"Team Fortress","app_id":440,"player_count":24,"max_players":24,"Bots":0,"server_type":"Dedicated","server_os":"Linux","password":true,"vac":true,"version":"7757534","steam_id":85568392924469991,"keywords":["nocrits","nodmgspread","payload","uncletopia"],"game_id":440,"stv_port":27016,"stv_name":"Uncletopia | Los Angeles | 1 | All Maps | STV","players":[{"user_id":402,"name":"Scout:DefenderOfCP(ControlPoint","steam_id":76561199435609906,"connected_time":3665000000000,"state":"active","ping":101},{"user_id":389,"name":"teh mummy","steam_id":76561198044123636,"connected_time":4621000000000,"state":"active","ping":42},{"user_id":442,"name":"Excalibrine","steam_id":76561198129312118,"connected_time":1449000000000,"state":"active","ping":61},{"user_id":426,"name":"bruxing and boggling","steam_id":76561198204169516,"connected_time":2012000000000,"state":"active","ping":78},{"user_id":427,"name":"borzier","steam_id":76561198069190432,"connected_time":2008000000000,"state":"active","ping":113},{"user_id":446,"name":"dash23‚Ñ¢","steam_id":76561198314951185,"connected_time":1211000000000,"state":"active","ping":87},{"user_id":449,"name":"john.","steam_id":76561198157718401,"connected_time":702000000000,"state":"active","ping":125},{"user_id":441,"name":"toki","steam_id":76561199196943730,"connected_time":1489000000000,"state":"active","ping":59},{"user_id":399,"name":"crouton.net","steam_id":76561198068374646,"connected_time":4038000000000,"state":"active","ping":57},{"user_id":456,"name":"Sw00dP00dle","steam_id":76561198095124750,"connected_time":544000000000,"state":"active","ping":108},{"user_id":422,"name":"snowycoast enjoyer","steam_id":76561199153114723,"connected_time":2272000000000,"state":"active","ping":56},{"user_id":396,"name":"brobtlcehc","steam_id":76561198043558709,"connected_time":4365000000000,"state":"active","ping":76},{"user_id":407,"name":"CaveMann","steam_id":76561198063049297,"connected_time":3387000000000,"state":"active","ping":48},{"user_id":455,"name":"Jayne","steam_id":76561198043934448,"connected_time":550000000000,"state":"active","ping":68},{"user_id":451,"name":"KingSteve42","steam_id":76561198409455888,"connected_time":652000000000,"state":"active","ping":115},{"user_id":444,"name":"sweaterfan","steam_id":76561199389567214,"connected_time":1324000000000,"state":"active","ping":94},{"user_id":463,"name":"Painkiller","steam_id":76561198049787400,"connected_time":180000000000,"state":"active","ping":69},{"user_id":447,"name":"rorywashere /·ê† - Àï -„Éû ‚≥ä","steam_id":76561198065825165,"connected_time":727000000000,"state":"active","ping":105},{"user_id":453,"name":"MR. MODE","steam_id":76561198046775352,"connected_time":592000000000,"state":"active","ping":97},{"user_id":457,"name":"bad spy player","steam_id":76561198873699671,"connected_time":538000000000,"state":"active","ping":79},{"user_id":459,"name":"raya","steam_id":76561198051504581,"connected_time":517000000000,"state":"active","ping":78},{"user_id":431,"name":"kebo","steam_id":76561198237159430,"connected_time":1749000000000,"state":"active","ping":58},{"user_id":458,"name":"Kuudere","steam_id":76561198075028016,"connected_time":527000000000,"state":"active","ping":74},{"user_id":462,"name":"ivyXXcision","steam_id":76561198031474906,"connected_time":233000000000,"state":"active","ping":106}]},{"server_id":112,"name":"Uncletopia | Los Angeles | 2 | All Maps","name_short":"lax-2","host":"lax-1.us.uncletopia.com","port":27025,"enabled":true,"region":"us-west","cc":"us","latitude":33.94279,"longitude":-118.41004,"reserved":0,"last_update":"0001-01-01T00:00:00Z","name_a2s":"Uncletopia | Los Angeles | 2 | All Maps","protocol":17,"map":"pl_barnblitz","folder":"tf","game":"Team Fortress","app_id":440,"player_count":24,"max_players":24,"Bots":0,"server_type":"Dedicated","server_os":"Linux","password":true,"vac":true,"version":"7757534","steam_id":85568392924469992,"keywords":["nocrits","nodmgspread","payload","uncletopia"],"game_id":440,"stv_port":27026,"stv_name":"Uncletopia | Los Angeles | 2 | All Maps | STV","players":[{"user_id":116,"name":"REGICIDE","steam_id":76561198025377842,"connected_time":4186000000000,"state":"active","ping":57},{"user_id":185,"name":"Bleh","steam_id":76561199097998224,"connected_time":386000000000,"state":"active","ping":58},{"user_id":166,"name":"Psychosis","steam_id":76561198078659070,"connected_time":1132000000000,"state":"active","ping":109},{"user_id":138,"name":"JON","steam_id":76561198057971005,"connected_time":3011000000000,"state":"active","ping":64},{"user_id":162,"name":"Nyarla","steam_id":76561198399402077,"connected_time":1186000000000,"state":"active","ping":67},{"user_id":149,"name":"Crowvette","steam_id":76561198000457496,"connected_time":2235000000000,"state":"active","ping":45},{"user_id":139,"name":"Evanb","steam_id":76561198042057792,"connected_time":2985000000000,"state":"active","ping":71},{"user_id":167,"name":"PoltergussyLordoftheAsstralVoid","steam_id":76561199195004708,"connected_time":1122000000000,"state":"active","ping":58},{"user_id":177,"name":"Dop_Pop_Bop","steam_id":76561198803110941,"connected_time":890000000000,"state":"active","ping":65},{"user_id":180,"name":"yodieland","steam_id":76561198143727547,"connected_time":702000000000,"state":"active","ping":135},{"user_id":178,"name":";-;","steam_id":76561198166889187,"connected_time":794000000000,"state":"active","ping":56},{"user_id":158,"name":"BionicApe","steam_id":76561198154637711,"connected_time":1546000000000,"state":"active","ping":69},{"user_id":181,"name":"Antzen","steam_id":76561198041343470,"connected_time":688000000000,"state":"active","ping":60},{"user_id":179,"name":"The Announcer's Feet","steam_id":76561199443456893,"connected_time":750000000000,"state":"active","ping":78},{"user_id":165,"name":"Slumped Sloth","steam_id":76561198123371710,"connected_time":1154000000000,"state":"active","ping":99},{"user_id":182,"name":"fulices","steam_id":76561198420163702,"connected_time":683000000000,"state":"active","ping":37},{"user_id":146,"name":"Frogzilla","steam_id":76561198077657538,"connected_time":2881000000000,"state":"active","ping":108},{"user_id":184,"name":"THIRDPIERCE","steam_id":76561198405366314,"connected_time":607000000000,"state":"active","ping":91},{"user_id":112,"name":"Wicket","steam_id":76561198044023036,"connected_time":4659000000000,"state":"active","ping":104},{"user_id":183,"name":"Greed","steam_id":76561198041628318,"connected_time":669000000000,"state":"active","ping":61},{"user_id":171,"name":"i hate woodrow wilson","steam_id":76561198190657893,"connected_time":999000000000,"state":"active","ping":55},{"user_id":186,"name":"FriskyDemon","steam_id":76561198043684646,"connected_time":46000000000,"state":"active","ping":69},{"user_id":147,"name":"Barn.Jones1992","steam_id":76561198197981309,"connected_time":2863000000000,"state":"active","ping":54},{"user_id":148,"name":"Metalogic","steam_id":76561198049469629,"connected_time":2596000000000,"state":"active","ping":81}]},{"server_id":324,"name":"Uncletopia | Los Angeles | 3 | All Maps","name_short":"lax-3","host":"lax-1.us.uncletopia.com","port":27035,"enabled":true,"region":"us-west","cc":"us","latitude":33.94279,"longitude":-118.41004,"reserved":0,"last_update":"0001-01-01T00:00:00Z","name_a2s":"Uncletopia | Los Angeles | 3 | All Maps","protocol":17,"map":"cp_sunshine","folder":"tf","game":"Team Fortress","app_id":440,"player_count":0,"max_players":24,"Bots":0,"server_type":"Dedicated","server_os":"Linux","password":true,"vac":true,"version":"7757534","steam_id":85568392924510198,"keywords":["cp","nocrits","nodmgspread","uncletopia"],"game_id":440,"stv_port":27036,"stv_name":"Uncletopia | Los Angeles | 3 | All Maps | STV","players":null},{"server_id":25,"name":"Uncletopia | Los Angeles | 4 | Stopwatch Beta","name_short":"lax-4","host":"lax-1.us.uncletopia.com","port":27045,"enabled":true,"region":"us-west","cc":"us","latitude":33.94279,"longitude":-118.41004,"reserved":0,"last_update":"0001-01-01T00:00:00Z","name_a2s":"Uncletopia | Los Angeles | 4 | Stopwatch Beta","protocol":17,"map":"pl_frontier_final","folder":"tf","game":"Team Fortress","app_id":440,"player_count":0,"max_players":24,"Bots":0,"server_type":"Dedicated","server_os":"Linux","password":true,"vac":true,"version":"7757534","steam_id":85568392924510199,"keywords":["nocrits","nodmgspread","payload","uncletopia"],"game_id":440,"stv_port":27046,"stv_name":"Uncletopia | Los Angeles | 4 | Stopwatch Beta | STV","players":null},{"server_id":11,"name":"Uncletopia | London | 1 | All Maps","name_short":"lon-1","host":"lon-1.uk.uncletopia.com","port":27015,"enabled":true,"region":"eu","cc":"gb","latitude":51.509865,"longitude":-0.118092,"reserved":0,"last_update":"0001-01-01T00:00:00Z","name_a2s":"Uncletopia | London | 1 | All Maps","protocol":17,"map":"koth_viaduct","folder":"tf","game":"Team Fortress","app_id":440,"player_count":0,"max_players":24,"Bots":0,"server_type":"Dedicated","server_os":"Linux","password":true,"vac":true,"version":"7757534","steam_id":85568392924367362,"keywords":["cp","nocrits","nodmgspread","uncletopia"],"game_id":440,"stv_port":27016,"stv_name":"Uncletopia | London | 1 | All Maps | STV","players":null},{"server_id":114,"name":"Uncletopia | London | 2 | All Maps","name_short":"lon-2","host":"lon-1.uk.uncletopia.com","port":27025,"enabled":true,"region":"eu","cc":"gb","latitude":51.509865,"longitude":-0.118092,"reserved":0,"last_update":"0001-01-01T00:00:00Z","name_a2s":"Uncletopia | London | 2 | All Maps","protocol":17,"map":"cp_dustbowl","folder":"tf","game":"Team Fortress","app_id":440,"player_count":0,"max_players":24,"Bots":0,"server_type":"Dedicated","server_os":"Linux","password":true,"vac":true,"version":"7757534","steam_id":85568392924470941,"keywords":["cp","nocrits","nodmgspread","uncletopia"],"game_id":440,"stv_port":27026,"stv_name":"Uncletopia | London | 2 | All Maps | STV","players":null},{"server_id":320,"name":"Uncletopia | London | 3 | All Maps","name_short":"lon-3","host":"lon-1.uk.uncletopia.com","port":27035,"enabled":true,"region":"eu","cc":"gb","latitude":51.509865,"longitude":-0.118092,"reserved":0,"last_update":"0001-01-01T00:00:00Z","name_a2s":"Uncletopia | London | 3 | All Maps","protocol":17,"map":"pl_badwater","folder":"tf","game":"Team Fortress","app_id":440,"player_count":0,"max_players":24,"Bots":0,"server_type":"Dedicated","server_os":"Linux","password":true,"vac":true,"version":"7757534","steam_id":85568392924510192,"keywords":["nocrits","nodmgspread","payload","uncletopia"],"game_id":440,"stv_port":27036,"stv_name":"Uncletopia | London | 3 | All Maps | STV","players":null},{"server_id":321,"name":"Uncletopia | London | 4 | All Maps","name_short":"lon-4","host":"lon-1.uk.uncletopia.com","port":27045,"enabled":true,"region":"eu","cc":"gb","latitude":51.509865,"longitude":-0.118092,"reserved":0,"last_update":"0001-01-01T00:00:00Z","name_a2s":"Uncletopia | London | 4 | All Maps","protocol":17,"map":"koth_viaduct","folder":"tf","game":"Team Fortress","app_id":440,"player_count":0,"max_players":24,"Bots":0,"server_type":"Dedicated","server_os":"Linux","password":true,"vac":true,"version":"7757534","steam_id":85568392924510193,"keywords":["cp","nocrits","nodmgspread","uncletopia"],"game_id":440,"stv_port":27046,"stv_name":"Uncletopia | London | 4 | All Maps | STV","players":null},{"server_id":21,"name":"Uncletopia | London | 5 | All Maps","name_short":"lon-5","host":"lon-1.uk.uncletopia.com","port":27055,"enabled":true,"region":"eu","cc":"gb","latitude":51.509865,"longitude":-0.118092,"reserved":0,"last_update":"0001-01-01T00:00:00Z","name_a2s":"Uncletopia | London | 5 | All Maps","protocol":17,"map":"cp_snakewater_final1","folder":"tf","game":"Team Fortress","app_id":440,"player_count":0,"max_players":24,"Bots":0,"server_type":"Dedicated","server_os":"Linux","password":true,"vac":true,"version":"7757534","steam_id":85568392924742829,"keywords":["cp","nocrits","nodmgspread","uncletopia"],"game_id":440,"stv_port":27056,"stv_name":"Uncletopia | London | 5 | All Maps | STV","players":null},{"server_id":22,"name":"Uncletopia | London | 6 | All Maps","name_short":"lon-6","host":"lon-1.uk.uncletopia.com","port":27065,"enabled":true,"region":"eu","cc":"gb","latitude":51.509865,"longitude":-0.118092,"reserved":0,"last_update":"0001-01-01T00:00:00Z","name_a2s":"Uncletopia | London | 6 | All Maps","protocol":17,"map":"koth_cascade","folder":"tf","game":"Team Fortress","app_id":440,"player_count":0,"max_players":24,"Bots":0,"server_type":"Dedicated","server_os":"Linux","password":true,"vac":true,"version":"7757534","steam_id":85568392924742830,"keywords":["cp","nocrits","nodmgspread","uncletopia"],"game_id":440,"stv_port":27066,"stv_name":"Uncletopia | London | 6 | All Maps | STV","players":null},{"server_id":40,"name":"Uncletopia | London | 7 | No Payload","name_short":"lon-7","host":"lon-1.uk.uncletopia.com","port":27075,"enabled":true,"region":"eu","cc":"gb","latitude":51.509865,"longitude":-0.118092,"reserved":0,"last_update":"0001-01-01T00:00:00Z","name_a2s":"Uncletopia | London | 7 | No Payload","protocol":17,"map":"cp_process_final","folder":"tf","game":"Team Fortress","app_id":440,"player_count":0,"max_players":24,"Bots":0,"server_type":"Dedicated","server_os":"Linux","password":true,"vac":true,"version":"7757534","steam_id":85568392924964314,"keywords":["cp","nocrits","nodmgspread","uncletopia"],"game_id":440,"stv_port":27076,"stv_name":"Uncletopia | London | 7 | No Payload | STV","players":null},{"server_id":41,"name":"Uncletopia | London | 8 | Community","name_short":"lon-8","host":"lon-1.uk.uncletopia.com","port":27085,"enabled":true,"region":"eu","cc":"gb","latitude":51.509865,"longitude":-0.118092,"reserved":0,"last_update":"0001-01-01T00:00:00Z","name_a2s":"Uncletopia | London | 8 | Community","protocol":17,"map":"pl_upward","folder":"tf","game":"Team Fortress","app_id":440,"player_count":0,"max_players":24,"Bots":0,"server_type":"Dedicated","server_os":"Linux","password":true,"vac":true,"version":"7757534","steam_id":85568392924964315,"keywords":["nocrits","nodmgspread","payload","uncletopia"],"game_id":440,"stv_port":27086,"stv_name":"Uncletopia | London | 8 | Community | STV","players":null},{"server_id":300,"name":"Uncletopia | Montr√©al | 1 | All Maps","name_short":"mtl-1","host":"mtl-1.ca.uncletopia.com","port":27015,"enabled":true,"region":"us-east","cc":"ca","latitude":45.50889,"longitude":-73.56167,"reserved":0,"last_update":"0001-01-01T00:00:00Z","name_a2s":"Uncletopia | Montr√©al | 1 | All Maps","protocol":17,"map":"pl_borneo","folder":"tf","game":"Team Fortress","app_id":440,"player_count":0,"max_players":24,"Bots":0,"server_type":"Dedicated","server_os":"Linux","password":true,"vac":true,"version":"7757534","steam_id":85568392924500087,"keywords":["nocrits","nodmgspread","payload","uncletopia"],"game_id":440,"stv_port":27016,"stv_name":"Uncletopia | Montr√©al | 1 | All Maps | STV","players":null},{"server_id":301,"name":"Uncletopia | Montr√©al | 2 | All Maps","name_short":"mtl-2","host":"mtl-1.ca.uncletopia.com","port":27025,"enabled":true,"region":"us-east","cc":"ca","latitude":45.50889,"longitude":-73.56167,"reserved":0,"last_update":"0001-01-01T00:00:00Z","name_a2s":"Uncletopia | Montr√©al | 2 | All Maps","protocol":17,"map":"pl_frontier_final","folder":"tf","game":"Team Fortress","app_id":440,"player_count":0,"max_players":24,"Bots":0,"server_type":"Dedicated","server_os":"Linux","password":true,"vac":true,"version":"7757534","steam_id":85568392924500088,"keywords":["nocrits","nodmgspread","payload","uncletopia"],"game_id":440,"stv_port":27026,"stv_name":"Uncletopia | Montr√©al | 2 | All Maps | STV","players":null},{"server_id":302,"name":"Uncletopia | Montr√©al | 3 | All Maps","name_short":"mtl-3","host":"mtl-1.ca.uncletopia.com","port":27035,"enabled":true,"region":"us-east","cc":"ca","latitude":45.50889,"longitude":-73.56167,"reserved":0,"last_update":"0001-01-01T00:00:00Z","name_a2s":"Uncletopia | Montr√©al | 3 | All Maps","protocol":17,"map":"koth_highpass","folder":"tf","game":"Team Fortress","app_id":440,"player_count":0,"max_players":24,"Bots":0,"server_type":"Dedicated","server_os":"Linux","password":true,"vac":true,"version":"7757534","steam_id":85568392924500089,"keywords":["cp","nocrits","nodmgspread","uncletopia"],"game_id":440,"stv_port":27036,"stv_name":"Uncletopia | Montr√©al | 3 | All Maps | STV","players":null},{"server_id":303,"name":"Uncletopia | Montr√©al | 4 | No Payload","name_short":"mtl-4","host":"mtl-1.ca.uncletopia.com","port":27045,"enabled":true,"region":"us-east","cc":"ca","latitude":45.50889,"longitude":-73.56167,"reserved":0,"last_update":"0001-01-01T00:00:00Z","name_a2s":"Uncletopia | Montr√©al | 4 | No Payload","protocol":17,"map":"pl_borneo","folder":"tf","game":"Team Fortress","app_id":440,"player_count":0,"max_players":24,"Bots":0,"server_type":"Dedicated","server_os":"Linux","password":true,"vac":true,"version":"7757534","steam_id":85568392924500090,"keywords":["nocrits","nodmgspread","payload","uncletopia"],"game_id":440,"stv_port":27046,"stv_name":"Uncletopia | Montr√©al | 4 | No Payload | STV","players":null},{"server_id":13,"name":"Uncletopia | New York City | 1 | All Maps","name_short":"nyc-1","host":"nyc-1.us.uncletopia.com","port":27015,"enabled":true,"region":"us-east","cc":"us","latitude":40.73061,"longitude":-73.93524,"reserved":0,"last_update":"0001-01-01T00:00:00Z","name_a2s":"Uncletopia | New York City | 1 | All Maps","protocol":17,"map":"koth_highpass","folder":"tf","game":"Team Fortress","app_id":440,"player_count":0,"max_players":24,"Bots":0,"server_type":"Dedicated","server_os":"Linux","password":true,"vac":true,"version":"7757534","steam_id":85568392924469993,"keywords":["cp","nocrits","nodmgspread","uncletopia"],"game_id":440,"stv_port":27016,"stv_name":"Uncletopia | New York City | 1 | All Maps | STV","players":null},{"server_id":14,"name":"Uncletopia | New York City | 2 | All Maps","name_short":"nyc-2","host":"nyc-1.us.uncletopia.com","port":27025,"enabled":true,"region":"us-east","cc":"us","latitude":40.73061,"longitude":-73.93524,"reserved":0,"last_update":"0001-01-01T00:00:00Z","name_a2s":"Uncletopia | New York City | 2 | All Maps","protocol":17,"map":"pl_swiftwater_final1","folder":"tf","game":"Team Fortress","app_id":440,"player_count":0,"max_players":24,"Bots":0,"server_type":"Dedicated","server_os":"Linux","password":true,"vac":true,"version":"7757534","steam_id":85568392924469994,"keywords":["nocrits","nodmgspread","payload","uncletopia"],"game_id":440,"stv_port":27026,"stv_name":"Uncletopia | New York City | 2 | All Maps | STV","players":null},{"server_id":15,"name":"Uncletopia | New York City | 3 | Stopwatch Beta","name_short":"nyc-3","host":"nyc-1.us.uncletopia.com","port":27035,"enabled":true,"region":"us-east","cc":"us","latitude":40.73061,"longitude":-73.93524,"reserved":0,"last_update":"0001-01-01T00:00:00Z","name_a2s":"Uncletopia | New York City | 3 | Stopwatch Beta","protocol":17,"map":"koth_highpass","folder":"tf","game":"Team Fortress","app_id":440,"player_count":0,"max_players":24,"Bots":0,"server_type":"Dedicated","server_os":"Linux","password":true,"vac":true,"version":"7757534","steam_id":85568392924742820,"keywords":["cp","nocrits","nodmgspread","uncletopia"],"game_id":440,"stv_port":27036,"stv_name":"Uncletopia | New York City | 3 | Stopwatch Beta | STV","players":null},{"server_id":16,"name":"Uncletopia | New York City | 4 | Community","name_short":"nyc-4","host":"nyc-1.us.uncletopia.com","port":27045,"enabled":true,"region":"us-east","cc":"us","latitude":40.73061,"longitude":-73.93524,"reserved":0,"last_update":"0001-01-01T00:00:00Z","name_a2s":"Uncletopia | New York City | 4 | Community","protocol":17,"map":"workshop/pl_corrode_rc2.ugc546577989","folder":"tf","game":"Team Fortress","app_id":440,"player_count":0,"max_players":24,"Bots":0,"server_type":"Dedicated","server_os":"Linux","password":true,"vac":true,"version":"7757534","steam_id":85568392924742821,"keywords":["nocrits","nodmgspread","payload","uncletopia"],"game_id":440,"stv_port":27046,"stv_name":"Uncletopia | New York City | 4 | Community | STV","players":null},{"server_id":142,"name":"Uncletopia | S√£o Paulo | 1 | All Maps","name_short":"sao-1","host":"sao-1.br.uncletopia.com","port":27015,"enabled":true,"region":"sa","cc":"br","latitude":-23.533773,"longitude":-46.62529,"reserved":0,"last_update":"0001-01-01T00:00:00Z","name_a2s":"Uncletopia | S√£o Paulo | 1 | All Maps","protocol":17,"map":"koth_lakeside_final","folder":"tf","game":"Team Fortress","app_id":440,"player_count":0,"max_players":24,"Bots":0,"server_type":"Dedicated","server_os":"Linux","password":true,"vac":true,"version":"7757534","steam_id":85568392924469996,"keywords":["cp","nocrits","nodmgspread","uncletopia"],"game_id":440,"stv_port":27016,"stv_name":"Uncletopia | S√£o Paulo | 1 | All Maps | STV","players":null},{"server_id":143,"name":"Uncletopia | S√£o Paulo | 2 | All Maps","name_short":"sao-2","host":"sao-2.br.uncletopia.com","port":27015,"enabled":true,"region":"sa","cc":"br","latitude":-23.533773,"longitude":-46.62529,"reserved":0,"last_update":"0001-01-01T00:00:00Z","name_a2s":"Uncletopia | S√£o Paulo | 2 | All Maps","protocol":17,"map":"koth_cascade","folder":"tf","game":"Team Fortress","app_id":440,"player_count":0,"max_players":24,"Bots":0,"server_type":"Dedicated","server_os":"Linux","password":true,"vac":true,"version":"7757534","steam_id":85568392924485349,"keywords":["cp","nocrits","nodmgspread","uncletopia"],"game_id":440,"stv_port":27016,"stv_name":"Uncletopia | S√£o Paulo | 2 | All Maps | STV","players":null},{"server_id":7,"name":"Uncletopia | Seattle | 1 | All Maps","name_short":"sea-1","host":"sea-1.us.uncletopia.com","port":27015,"enabled":true,"region":"us-west","cc":"us","latitude":47.608013,"longitude":-122.33517,"reserved":0,"last_update":"0001-01-01T00:00:00Z","name_a2s":"Uncletopia | Seattle | 1 | All Maps","protocol":17,"map":"pl_borneo","folder":"tf","game":"Team Fortress","app_id":440,"player_count":24,"max_players":24,"Bots":0,"server_type":"Dedicated","server_os":"Linux","password":true,"vac":true,"version":"7757534","steam_id":85568392924469997,"keywords":["nocrits","nodmgspread","payload","uncletopia"],"game_id":440,"stv_port":27016,"stv_name":"Uncletopia | Seattle | 1 | All Maps | STV","players":[{"user_id":777,"name":"mmmBoyo","steam_id":76561198821360261,"connected_time":678000000000,"state":"active","ping":53},{"user_id":775,"name":"Arsonist Goose","steam_id":76561198147441830,"connected_time":869000000000,"state":"active","ping":70},{"user_id":778,"name":"mr. nine","steam_id":76561198097599414,"connected_time":671000000000,"state":"active","ping":85},{"user_id":727,"name":"shane","steam_id":76561198060491451,"connected_time":4454000000000,"state":"active","ping":94},{"user_id":781,"name":" Ä.Íï§ÔΩ°.","steam_id":76561198029580420,"connected_time":147000000000,"state":"active","ping":167},{"user_id":762,"name":"Elias","steam_id":76561198031295139,"connected_time":1545000000000,"state":"active","ping":41},{"user_id":765,"name":"5392vin","steam_id":76561198880493511,"connected_time":1302000000000,"state":"active","ping":60},{"user_id":770,"name":"we did it mate","steam_id":76561199471434875,"connected_time":1159000000000,"state":"active","ping":38},{"user_id":766,"name":"Yack Skag","steam_id":76561198068251493,"connected_time":1294000000000,"state":"active","ping":66},{"user_id":746,"name":"bbbbb","steam_id":76561198095480838,"connected_time":2874000000000,"state":"active","ping":45},{"user_id":782,"name":"Suu Hung","steam_id":76561198036218766,"connected_time":92000000000,"state":"active","ping":68},{"user_id":780,"name":"tower defense","steam_id":76561198169755734,"connected_time":274000000000,"state":"active","ping":60},{"user_id":783,"name":"John Dungus (the real one)","steam_id":76561198049191027,"connected_time":48000000000,"state":"active","ping":80},{"user_id":779,"name":"ed","steam_id":76561198080475712,"connected_time":636000000000,"state":"active","ping":67},{"user_id":771,"name":"dwefr1243","steam_id":76561198299025609,"connected_time":1138000000000,"state":"active","ping":48},{"user_id":785,"name":"breakist","steam_id":76561198285819311,"connected_time":35000000000,"state":"active","ping":64},{"user_id":776,"name":"Lilac Lulamoon","steam_id":76561198111402757,"connected_time":846000000000,"state":"active","ping":117},{"user_id":754,"name":"Mignyanne :3","steam_id":76561198048754056,"connected_time":2499000000000,"state":"active","ping":62},{"user_id":759,"name":"Ayayahuasca","steam_id":76561199002906056,"connected_time":2221000000000,"state":"active","ping":53},{"user_id":769,"name":"strong and healthy gamer","steam_id":76561198049489349,"connected_time":1197000000000,"state":"active","ping":66},{"user_id":772,"name":"Sniff","steam_id":76561198010270922,"connected_time":1093000000000,"state":"active","ping":45},{"user_id":758,"name":"SomeGuyWhoLikesPotatoes","steam_id":76561198110276797,"connected_time":2318000000000,"state":"active","ping":56},{"user_id":786,"name":"ROGUE-PLANET","steam_id":76561198116023052,"connected_time":18000000000,"state":"spawning","ping":79},{"user_id":787,"name":"Styx","steam_id":76561198158334494,"connected_time":17000000000,"state":"spawning","ping":304}]},{"server_id":119,"name":"Uncletopia | Seattle | 2 | All Maps","name_short":"sea-2","host":"sea-1.us.uncletopia.com","port":27025,"enabled":true,"region":"us-west","cc":"us","latitude":47.608013,"longitude":-122.33517,"reserved":0,"last_update":"0001-01-01T00:00:00Z","name_a2s":"Uncletopia | Seattle | 2 | All Maps","protocol":17,"map":"pl_pier","folder":"tf","game":"Team Fortress","app_id":440,"player_count":24,"max_players":24,"Bots":0,"server_type":"Dedicated","server_os":"Linux","password":true,"vac":true,"version":"7757534","steam_id":85568392924469998,"keywords":["nocrits","nodmgspread","payload","uncletopia"],"game_id":440,"stv_port":27026,"stv_name":"Uncletopia | Seattle | 2 | All Maps | STV","players":[{"user_id":445,"name":"Havertz","steam_id":76561198382668580,"connected_time":384000000000,"state":"active","ping":60},{"user_id":428,"name":"Optimore","steam_id":76561198047662990,"connected_time":1017000000000,"state":"active","ping":76},{"user_id":435,"name":"Quickxdeathx02","steam_id":76561198396771470,"connected_time":613000000000,"state":"active","ping":71},{"user_id":425,"name":"mooney","steam_id":76561199110622484,"connected_time":1284000000000,"state":"active","ping":70},{"user_id":436,"name":"Chu-lal","steam_id":76561198194490595,"connected_time":536000000000,"state":"active","ping":77},{"user_id":407,"name":"Iron","steam_id":76561198115269587,"connected_time":2526000000000,"state":"active","ping":120},{"user_id":437,"name":"dinnerblaster82","steam_id":76561198059041027,"connected_time":504000000000,"state":"active","ping":63},{"user_id":439,"name":"Zeke McGeeks","steam_id":76561198067050258,"connected_time":475000000000,"state":"active","ping":42},{"user_id":449,"name":"the sploogiest splooger","steam_id":76561199095126154,"connected_time":189000000000,"state":"active","ping":56},{"user_id":450,"name":"B/S/SuperBoof","steam_id":76561197992030936,"connected_time":113000000000,"state":"active","ping":118},{"user_id":360,"name":"the splotchiest splotcher splot","steam_id":76561198419896433,"connected_time":5123000000000,"state":"active","ping":42},{"user_id":442,"name":"Gutts420","steam_id":76561198123071207,"connected_time":442000000000,"state":"active","ping":81},{"user_id":443,"name":"bullet man","steam_id":76561198080058079,"connected_time":441000000000,"state":"active","ping":51},{"user_id":427,"name":"Sonata","steam_id":76561198088165440,"connected_time":1023000000000,"state":"active","ping":82},{"user_id":423,"name":"BIGWELDFROMROBOTS","steam_id":76561199275349806,"connected_time":1637000000000,"state":"active","ping":65},{"user_id":444,"name":"Mires","steam_id":76561198379712964,"connected_time":398000000000,"state":"active","ping":59},{"user_id":424,"name":"Non weeb","steam_id":76561199066748501,"connected_time":1578000000000,"state":"active","ping":77},{"user_id":451,"name":"Nekogaming1500","steam_id":76561198979123816,"connected_time":104000000000,"state":"active","ping":55},{"user_id":431,"name":"self sufficient kitten","steam_id":76561197960592612,"connected_time":883000000000,"state":"active","ping":46},{"user_id":433,"name":"Re-Crix","steam_id":76561198351895601,"connected_time":783000000000,"state":"active","ping":93},{"user_id":404,"name":"SvicidalBug","steam_id":76561198221390504,"connected_time":3150000000000,"state":"active","ping":69},{"user_id":421,"name":"taraw5","steam_id":76561198007241244,"connected_time":1797000000000,"state":"active","ping":70},{"user_id":448,"name":"Obama Gaming 2023","steam_id":76561199006905645,"connected_time":265000000000,"state":"active","ping":156},{"user_id":452,"name":"pizzaguy4","steam_id":76561198058821622,"connected_time":55000000000,"state":"active","ping":94}]},{"server_id":406,"name":"Uncletopia | Seattle | 3 | Stopwatch Beta","name_short":"sea-3","host":"sea-1.us.uncletopia.com","port":27035,"enabled":true,"region":"us-west","cc":"us","latitude":47.608013,"longitude":-122.33517,"reserved":0,"last_update":"0001-01-01T00:00:00Z","name_a2s":"Uncletopia | Seattle | 3 | Stopwatch Beta","protocol":17,"map":"koth_highpass","folder":"tf","game":"Team Fortress","app_id":440,"player_count":0,"max_players":24,"Bots":0,"server_type":"Dedicated","server_os":"Linux","password":true,"vac":true,"version":"7757534","steam_id":85568392924515217,"keywords":["cp","nocrits","nodmgspread","uncletopia"],"game_id":440,"stv_port":27036,"stv_name":"Uncletopia | Seattle | 3 | Stopwatch Beta | STV","players":null},{"server_id":17,"name":"Uncletopia | San Francisco | 1 | All Maps","name_short":"sfo-1","host":"sfo-1.us.uncletopia.com","port":27015,"enabled":true,"region":"us-west","cc":"us","latitude":37.77397,"longitude":-122.4313,"reserved":0,"last_update":"0001-01-01T00:00:00Z","name_a2s":"Uncletopia | San Francisco | 1 | All Maps","protocol":17,"map":"cp_process_final","folder":"tf","game":"Team Fortress","app_id":440,"player_count":19,"max_players":24,"Bots":0,"server_type":"Dedicated","server_os":"Linux","password":true,"vac":true,"version":"7757534","steam_id":85568392924469999,"keywords":["cp","nocrits","nodmgspread","uncletopia"],"game_id":440,"stv_port":27016,"stv_name":"Uncletopia | San Francisco | 1 | All Maps | STV","players":[{"user_id":534,"name":"Agent Q","steam_id":76561198830829003,"connected_time":9765000000000,"state":"active","ping":76},{"user_id":671,"name":"gawr gura sexer","steam_id":76561198977480669,"connected_time":493000000000,"state":"active","ping":96},{"user_id":676,"name":"brk","steam_id":76561198079634017,"connected_time":156000000000,"state":"active","ping":61},{"user_id":673,"name":"your mother!","steam_id":76561198143132686,"connected_time":326000000000,"state":"active","ping":75},{"user_id":674,"name":"Spangbab","steam_id":76561199006526991,"connected_time":247000000000,"state":"active","ping":53},{"user_id":675,"name":"Armine","steam_id":76561198098445643,"connected_time":246000000000,"state":"active","ping":79},{"user_id":677,"name":"Flyingcat9000","steam_id":76561198179561797,"connected_time":143000000000,"state":"active","ping":30},{"user_id":617,"name":"Bikeway Naros","steam_id":76561198086676786,"connected_time":4295000000000,"state":"active","ping":34},{"user_id":661,"name":"Kitz","steam_id":76561199187932282,"connected_time":1041000000000,"state":"active","ping":122},{"user_id":678,"name":"Berserk","steam_id":76561198000357361,"connected_time":64000000000,"state":"active","ping":66},{"user_id":662,"name":"chuck","steam_id":76561198065428413,"connected_time":956000000000,"state":"active","ping":70},{"user_id":679,"name":"A Man Named Pancho","steam_id":76561197984895522,"connected_time":31000000000,"state":"active","ping":52},{"user_id":664,"name":"chicken wit dah eggrow","steam_id":76561198115458307,"connected_time":865000000000,"state":"active","ping":51},{"user_id":655,"name":"monsterkill4567","steam_id":76561198272986367,"connected_time":1613000000000,"state":"active","ping":64},{"user_id":638,"name":"anal fiend","steam_id":76561198026844952,"connected_time":2406000000000,"state":"active","ping":60},{"user_id":640,"name":"pumba","steam_id":76561198207881077,"connected_time":2369000000000,"state":"active","ping":82},{"user_id":597,"name":"Samantha","steam_id":76561198127578307,"connected_time":5948000000000,"state":"active","ping":94},{"user_id":639,"name":"Tripp","steam_id":76561198033705006,"connected_time":2400000000000,"state":"active","ping":60},{"user_id":660,"name":"huiei","steam_id":76561198073763735,"connected_time":1063000000000,"state":"active","ping":57}]},{"server_id":18,"name":"Uncletopia | San Francisco | 2 | All Maps","name_short":"sfo-2","host":"sfo-1.us.uncletopia.com","port":27025,"enabled":true,"region":"us-west","cc":"us","latitude":37.77397,"longitude":-122.4313,"reserved":0,"last_update":"0001-01-01T00:00:00Z","name_a2s":"Uncletopia | San Francisco | 2 | All Maps","protocol":17,"map":"cp_mountainlab","folder":"tf","game":"Team Fortress","app_id":440,"player_count":21,"max_players":24,"Bots":0,"server_type":"Dedicated","server_os":"Linux","password":true,"vac":true,"version":"7757534","steam_id":85568392924470000,"keywords":["cp","nocrits","nodmgspread","uncletopia"],"game_id":440,"stv_port":27026,"stv_name":"Uncletopia | San Francisco | 2 | All Maps | STV","players":[{"user_id":195,"name":"Jax O'Gaytor","steam_id":76561198288922168,"connected_time":3179000000000,"state":"active","ping":77},{"user_id":225,"name":"God Robert's Cousin","steam_id":76561198022189909,"connected_time":1342000000000,"state":"active","ping":99},{"user_id":228,"name":"TheBrocklobster","steam_id":76561198039682984,"connected_time":568000000000,"state":"active","ping":66},{"user_id":185,"name":"everythingrhymeswithorange","steam_id":76561198010306193,"connected_time":3731000000000,"state":"active","ping":55},{"user_id":227,"name":"Duke Nukem","steam_id":76561199050965080,"connected_time":1186000000000,"state":"active","ping":67},{"user_id":187,"name":"PonYOOOOOOO","steam_id":76561199067424111,"connected_time":3727000000000,"state":"active","ping":61},{"user_id":234,"name":"Taste Of Pancakes","steam_id":76561198158784641,"connected_time":321000000000,"state":"active","ping":69},{"user_id":230,"name":"Master Cannoli","steam_id":76561198272327518,"connected_time":553000000000,"state":"active","ping":72},{"user_id":220,"name":"Fairy Girl","steam_id":76561198152596102,"connected_time":1737000000000,"state":"active","ping":41},{"user_id":231,"name":"Aunty Frazzle","steam_id":76561198145596626,"connected_time":548000000000,"state":"active","ping":58},{"user_id":169,"name":"bigman1","steam_id":76561198050225055,"connected_time":5212000000000,"state":"active","ping":50},{"user_id":165,"name":"a chicken","steam_id":76561198313121580,"connected_time":6067000000000,"state":"active","ping":51},{"user_id":232,"name":"Protoshake","steam_id":76561198840276176,"connected_time":538000000000,"state":"active","ping":75},{"user_id":215,"name":"Kalir","steam_id":76561197996125658,"connected_time":2015000000000,"state":"active","ping":85},{"user_id":235,"name":"Red Pikmin","steam_id":76561198881800639,"connected_time":247000000000,"state":"active","ping":79},{"user_id":233,"name":"‚ô¶‚ô£Quadric‚ô•‚ô†","steam_id":76561198061003853,"connected_time":384000000000,"state":"active","ping":114},{"user_id":236,"name":"ElTata","steam_id":76561199390777613,"connected_time":172000000000,"state":"active","ping":130},{"user_id":226,"name":"Shennynerd","steam_id":76561198026143747,"connected_time":1232000000000,"state":"active","ping":110},{"user_id":207,"name":"SneekTheef","steam_id":76561198011203191,"connected_time":2343000000000,"state":"active","ping":76},{"user_id":208,"name":"quick coffee + a snack","steam_id":76561198159933043,"connected_time":2320000000000,"state":"active","ping":96},{"user_id":191,"name":"tavorraX0","steam_id":76561198042465206,"connected_time":3695000000000,"state":"active","ping":171}]},{"server_id":19,"name":"Uncletopia | San Francisco | 3 | Stopwatch Beta","name_short":"sfo-3","host":"sfo-1.us.uncletopia.com","port":27035,"enabled":true,"region":"us-west","cc":"us","latitude":37.77397,"longitude":-122.4313,"reserved":0,"last_update":"0001-01-01T00:00:00Z","name_a2s":"Uncletopia | San Francisco | 3 | Stopwatch Beta","protocol":17,"map":"pl_borneo","folder":"tf","game":"Team Fortress","app_id":440,"player_count":0,"max_players":24,"Bots":0,"server_type":"Dedicated","server_os":"Linux","password":true,"vac":true,"version":"7757534","steam_id":85568392924742824,"keywords":["nocrits","nodmgspread","payload","uncletopia"],"game_id":440,"stv_port":27036,"stv_name":"Uncletopia | San Francisco | 3 | Stopwatch Beta | STV","players":null},{"server_id":20,"name":"Uncletopia | San Francisco | 4 | Community","name_short":"sfo-4","host":"sfo-1.us.uncletopia.com","port":27045,"enabled":true,"region":"us-west","cc":"us","latitude":37.77397,"longitude":-122.4313,"reserved":0,"last_update":"0001-01-01T00:00:00Z","name_a2s":"Uncletopia | San Francisco | 4 | Community","protocol":17,"map":"workshop/koth_ashville_final.ugc2130459942","folder":"tf","game":"Team Fortress","app_id":440,"player_count":0,"max_players":24,"Bots":0,"server_type":"Dedicated","server_os":"Linux","password":true,"vac":true,"version":"7757534","steam_id":85568392924742826,"keywords":["cp","nocrits","nodmgspread","uncletopia"],"game_id":440,"stv_port":27046,"stv_name":"Uncletopia | San Francisco | 4 | Community | STV","players":null},{"server_id":141,"name":"Uncletopia | Sydney | 1 | All Maps","name_short":"syd-1","host":"syd-1.au.uncletopia.com","port":27015,"enabled":true,"region":"au","cc":"au","latitude":-33.865143,"longitude":151.2099,"reserved":0,"last_update":"0001-01-01T00:00:00Z","name_a2s":"Uncletopia | Sydney | 1 | All Maps","protocol":17,"map":"pl_barnblitz","folder":"tf","game":"Team Fortress","app_id":440,"player_count":23,"max_players":24,"Bots":0,"server_type":"Dedicated","server_os":"Linux","password":true,"vac":true,"version":"7757534","steam_id":85568392924470001,"keywords":["nocrits","nodmgspread","payload","uncletopia"],"game_id":440,"stv_port":27016,"stv_name":"Uncletopia | Sydney | 1 | All Maps | STV","players":[{"user_id":20,"name":"JayTheLlamaKing","steam_id":76561198836354249,"connected_time":1528000000000,"state":"active","ping":65},{"user_id":47,"name":"billabong jim","steam_id":76561198887985240,"connected_time":177000000000,"state":"active","ping":107},{"user_id":22,"name":"Rodman","steam_id":76561198073532116,"connected_time":1176000000000,"state":"active","ping":100},{"user_id":23,"name":"Edgy","steam_id":76561199132979322,"connected_time":1156000000000,"state":"active","ping":73},{"user_id":40,"name":"tazmanic depression","steam_id":76561198037965602,"connected_time":368000000000,"state":"active","ping":45},{"user_id":37,"name":"scout tf2","steam_id":76561198251386932,"connected_time":535000000000,"state":"active","ping":72},{"user_id":28,"name":"Blue Meanie","steam_id":76561198452084500,"connected_time":963000000000,"state":"active","ping":106},{"user_id":29,"name":"Waltuh","steam_id":76561199059450243,"connected_time":881000000000,"state":"active","ping":60},{"user_id":43,"name":"lem","steam_id":76561199119233603,"connected_time":323000000000,"state":"active","ping":54},{"user_id":38,"name":"-Ech0-","steam_id":76561199121536801,"connected_time":454000000000,"state":"active","ping":56},{"user_id":32,"name":"Iggy","steam_id":76561198801469956,"connected_time":737000000000,"state":"active","ping":71},{"user_id":35,"name":"UpsideDown","steam_id":76561199099672129,"connected_time":618000000000,"state":"active","ping":50},{"user_id":36,"name":"Dr Teeth","steam_id":76561198039160345,"connected_time":604000000000,"state":"active","ping":61},{"user_id":39,"name":"Olly","steam_id":76561198078303228,"connected_time":441000000000,"state":"active","ping":54},{"user_id":41,"name":"Phoviea","steam_id":76561198986652159,"connected_time":330000000000,"state":"active","ping":73},{"user_id":42,"name":"it has been ages","steam_id":76561198016686295,"connected_time":326000000000,"state":"active","ping":67},{"user_id":44,"name":"HOEmamon","steam_id":76561198126781271,"connected_time":322000000000,"state":"active","ping":56},{"user_id":45,"name":"Huski","steam_id":76561198108956967,"connected_time":322000000000,"state":"active","ping":66},{"user_id":46,"name":"Taskmaster","steam_id":76561198402045918,"connected_time":224000000000,"state":"active","ping":47},{"user_id":48,"name":"Zeron","steam_id":76561198125778202,"connected_time":170000000000,"state":"active","ping":57},{"user_id":49,"name":"Branko","steam_id":76561199262196710,"connected_time":161000000000,"state":"active","ping":34},{"user_id":50,"name":"anger324","steam_id":76561198074317875,"connected_time":41000000000,"state":"active","ping":44},{"user_id":51,"name":"Crash","steam_id":76561198049431074,"connected_time":24000000000,"state":"spawning","ping":89}]},{"server_id":123,"name":"Uncletopia | Sydney | 2 | All Maps","name_short":"syd-2","host":"syd-1.au.uncletopia.com","port":27025,"enabled":true,"region":"au","cc":"au","latitude":-33.865143,"longitude":151.2099,"reserved":0,"last_update":"0001-01-01T00:00:00Z","name_a2s":"Uncletopia | Sydney | 2 | All Maps","protocol":17,"map":"pl_pier","folder":"tf","game":"Team Fortress","app_id":440,"player_count":23,"max_players":24,"Bots":0,"server_type":"Dedicated","server_os":"Linux","password":true,"vac":true,"version":"7757534","steam_id":85568392924470002,"keywords":["nocrits","nodmgspread","payload","uncletopia"],"game_id":440,"stv_port":27026,"stv_name":"Uncletopia | Sydney | 2 | All Maps | STV","players":[{"user_id":138,"name":"Sinister80s","steam_id":76561198343540472,"connected_time":525000000000,"state":"active","ping":70},{"user_id":127,"name":"saudi ambassador messi","steam_id":76561198031293430,"connected_time":648000000000,"state":"active","ping":76},{"user_id":142,"name":"Pirate Arr","steam_id":76561198011944697,"connected_time":156000000000,"state":"active","ping":49},{"user_id":135,"name":"Optometrist Prime","steam_id":76561198340730741,"connected_time":608000000000,"state":"active","ping":59},{"user_id":119,"name":"-cone puncha-","steam_id":76561199445490119,"connected_time":2140000000000,"state":"active","ping":43},{"user_id":136,"name":"zzzzzzz","steam_id":76561198066726621,"connected_time":599000000000,"state":"active","ping":45},{"user_id":98,"name":"zebulon","steam_id":76561198063481761,"connected_time":3822000000000,"state":"active","ping":39},{"user_id":124,"name":"Barry Bougar M.D.","steam_id":76561198301282416,"connected_time":719000000000,"state":"active","ping":56},{"user_id":139,"name":"EmmArrGus","steam_id":76561198106343847,"connected_time":525000000000,"state":"active","ping":51},{"user_id":140,"name":"Mr PearBear","steam_id":76561199107069046,"connected_time":218000000000,"state":"active","ping":55},{"user_id":105,"name":"Fatass Yoshi","steam_id":76561198033784848,"connected_time":3482000000000,"state":"active","ping":49},{"user_id":113,"name":"Rarity the Fabulous","steam_id":76561198077653287,"connected_time":2922000000000,"state":"active","ping":31},{"user_id":54,"name":"voxii","steam_id":76561198099698281,"connected_time":6962000000000,"state":"active","ping":67},{"user_id":103,"name":"Averg","steam_id":76561199116359172,"connected_time":3606000000000,"state":"active","ping":57},{"user_id":141,"name":"broccoli","steam_id":76561198362942706,"connected_time":218000000000,"state":"active","ping":72},{"user_id":112,"name":"RoverTw0","steam_id":76561198025416071,"connected_time":3022000000000,"state":"active","ping":38},{"user_id":120,"name":"david boeing","steam_id":76561198079351541,"connected_time":2058000000000,"state":"active","ping":45},{"user_id":133,"name":"sabeuo","steam_id":76561198288259746,"connected_time":622000000000,"state":"active","ping":54},{"user_id":106,"name":"SaltierThanYou","steam_id":76561198444395188,"connected_time":3438000000000,"state":"active","ping":81},{"user_id":137,"name":"Iuca","steam_id":76561198207782305,"connected_time":598000000000,"state":"active","ping":70},{"user_id":129,"name":"Stubborn Sheepcow","steam_id":76561198065334258,"connected_time":641000000000,"state":"active","ping":88},{"user_id":123,"name":"garnish master","steam_id":76561197996551827,"connected_time":835000000000,"state":"active","ping":53},{"user_id":131,"name":"NiceName","steam_id":76561198398046309,"connected_time":641000000000,"state":"active","ping":51}]},{"server_id":395,"name":"Uncletopia | Sydney | 3 | All Maps","name_short":"syd-3","host":"syd-1.au.uncletopia.com","port":27035,"enabled":true,"region":"au","cc":"au","latitude":-33.865143,"longitude":151.2099,"reserved":0,"last_update":"0001-01-01T00:00:00Z","name_a2s":"Uncletopia | Sydney | 3 | All Maps","protocol":17,"map":"cp_process_final","folder":"tf","game":"Team Fortress","app_id":440,"player_count":0,"max_players":24,"Bots":0,"server_type":"Dedicated","server_os":"Linux","password":true,"vac":true,"version":"7757534","steam_id":85568392925194467,"keywords":["cp","nocrits","nodmgspread","uncletopia"],"game_id":440,"stv_port":27036,"stv_name":"Uncletopia | Sydney | 3 | All Maps | STV","players":null},{"server_id":396,"name":"Uncletopia | Sydney | 4 | All Maps","name_short":"syd-4","host":"syd-1.au.uncletopia.com","port":27045,"enabled":true,"region":"au","cc":"au","latitude":-33.865143,"longitude":151.2099,"reserved":0,"last_update":"0001-01-01T00:00:00Z","name_a2s":"Uncletopia | Sydney | 4 | All Maps","protocol":17,"map":"koth_lakeside_final","folder":"tf","game":"Team Fortress","app_id":440,"player_count":0,"max_players":24,"Bots":0,"server_type":"Dedicated","server_os":"Linux","password":true,"vac":true,"version":"7757534","steam_id":85568392925397958,"keywords":["cp","nocrits","nodmgspread","uncletopia"],"game_id":440,"stv_port":27046,"stv_name":"Uncletopia | Sydney | 4 | All Maps | STV","players":null},{"server_id":58,"name":"Uncletopia | Sydney | 5 | Stopwatch Beta","name_short":"syd-5","host":"syd-1.au.uncletopia.com","port":27055,"enabled":true,"region":"au","cc":"au","latitude":-33.865143,"longitude":151.2099,"reserved":0,"last_update":"0001-01-01T00:00:00Z","name_a2s":"Uncletopia | Sydney | 5 | Stopwatch Beta","protocol":17,"map":"koth_highpass","folder":"tf","game":"Team Fortress","app_id":440,"player_count":0,"max_players":24,"Bots":0,"server_type":"Dedicated","server_os":"Linux","password":true,"vac":true,"version":"7757534","steam_id":85568392925397959,"keywords":["cp","nocrits","nodmgspread","uncletopia"],"game_id":440,"stv_port":27056,"stv_name":"Uncletopia | Sydney | 5 | Stopwatch Beta | STV","players":null},{"server_id":59,"name":"Uncletopia | Sydney | 6 | Community","name_short":"syd-6","host":"syd-1.au.uncletopia.com","port":27065,"enabled":true,"region":"au","cc":"au","latitude":-33.865143,"longitude":151.2099,"reserved":0,"last_update":"0001-01-01T00:00:00Z","name_a2s":"Uncletopia | Sydney | 6 | Community","protocol":17,"map":"workshop/cp_villa_b19.ugc2113052569","folder":"tf","game":"Team Fortress","app_id":440,"player_count":0,"max_players":24,"Bots":0,"server_type":"Dedicated","server_os":"Linux","password":true,"vac":true,"version":"7757534","steam_id":85568392925397960,"keywords":["cp","nocrits","nodmgspread","uncletopia"],"game_id":440,"stv_port":27066,"stv_name":"Uncletopia | Sydney | 6 | Community | STV","players":null},{"server_id":49,"name":"Uncletopia | Warsaw | 1 | All Maps","name_short":"waw-1","host":"waw-1.pl.uncletopia.com","port":27015,"enabled":true,"region":"eu","cc":"pl","latitude":52.2297,"longitude":21.017532,"reserved":0,"last_update":"0001-01-01T00:00:00Z","name_a2s":"","protocol":0,"map":"","folder":"","game":"","app_id":0,"player_count":0,"max_players":0,"Bots":0,"server_type":"","server_os":"","password":false,"vac":false,"version":"","steam_id":0,"keywords":null,"game_id":0,"stv_port":0,"stv_name":"","players":null},{"server_id":50,"name":"Uncletopia | Warsaw | 2 | All Maps","name_short":"waw-2","host":"waw-1.pl.uncletopia.com","port":27025,"enabled":true,"region":"eu","cc":"pl","latitude":52.2297,"longitude":21.017532,"reserved":0,"last_update":"0001-01-01T00:00:00Z","name_a2s":"Uncletopia | Warsaw | 2 | All Maps","protocol":17,"map":"cp_process_final","folder":"tf","game":"Team Fortress","app_id":440,"player_count":0,"max_players":24,"Bots":0,"server_type":"Dedicated","server_os":"Linux","password":true,"vac":true,"version":"7757534","steam_id":85568392925397851,"keywords":["cp","nocrits","nodmgspread","uncletopia"],"game_id":440,"stv_port":27026,"stv_name":"Uncletopia | Warsaw | 2 | All Maps | STV","players":null},{"server_id":51,"name":"Uncletopia | Warsaw | 3 | All Maps","name_short":"waw-3","host":"waw-1.pl.uncletopia.com","port":27035,"enabled":true,"region":"eu","cc":"pl","latitude":52.2297,"longitude":21.017532,"reserved":0,"last_update":"0001-01-01T00:00:00Z","name_a2s":"Uncletopia | Warsaw | 3 | All Maps","protocol":17,"map":"pl_barnblitz","folder":"tf","game":"Team Fortress","app_id":440,"player_count":0,"max_players":24,"Bots":0,"server_type":"Dedicated","server_os":"Linux","password":true,"vac":true,"version":"7757534","steam_id":85568392925397852,"keywords":["nocrits","nodmgspread","payload","uncletopia"],"game_id":440,"stv_port":27036,"stv_name":"Uncletopia | Warsaw | 3 | All Maps | STV","players":null},{"server_id":52,"name":"Uncletopia | Warsaw | 4 | All Maps","name_short":"waw-4","host":"waw-1.pl.uncletopia.com","port":27045,"enabled":true,"region":"eu","cc":"pl","latitude":52.2297,"longitude":21.017532,"reserved":0,"last_update":"0001-01-01T00:00:00Z","name_a2s":"Uncletopia | Warsaw | 4 | All Maps","protocol":17,"map":"pl_snowycoast","folder":"tf","game":"Team Fortress","app_id":440,"player_count":0,"max_players":24,"Bots":0,"server_type":"Dedicated","server_os":"Linux","password":true,"vac":true,"version":"7757534","steam_id":85568392925397853,"keywords":["nocrits","nodmgspread","payload","uncletopia"],"game_id":440,"stv_port":27046,"stv_name":"Uncletopia | Warsaw | 4 | All Maps | STV","players":null},{"server_id":53,"name":"Uncletopia | Warsaw | 5 | Stopwatch Beta","name_short":"waw-5","host":"waw-1.pl.uncletopia.com","port":27055,"enabled":true,"region":"eu","cc":"pl","latitude":52.2297,"longitude":21.017532,"reserved":0,"last_update":"0001-01-01T00:00:00Z","name_a2s":"Uncletopia | Warsaw | 5 | Stopwatch Beta","protocol":17,"map":"pl_barnblitz","folder":"tf","game":"Team Fortress","app_id":440,"player_count":0,"max_players":24,"Bots":0,"server_type":"Dedicated","server_os":"Linux","password":true,"vac":true,"version":"7757534","steam_id":85568392925397854,"keywords":["nocrits","nodmgspread","payload","uncletopia"],"game_id":440,"stv_port":27056,"stv_name":"Uncletopia | Warsaw | 5 | Stopwatch Beta | STV","players":null},{"server_id":54,"name":"Uncletopia | Warsaw | 6 | Community","name_short":"waw-6","host":"waw-1.pl.uncletopia.com","port":27065,"enabled":true,"region":"eu","cc":"pl","latitude":52.2297,"longitude":21.017532,"reserved":0,"last_update":"0001-01-01T00:00:00Z","name_a2s":"Uncletopia | Warsaw | 6 | Community","protocol":17,"map":"pl_swiftwater_final1","folder":"tf","game":"Team Fortress","app_id":440,"player_count":0,"max_players":24,"Bots":0,"server_type":"Dedicated","server_os":"Linux","password":true,"vac":true,"version":"7757534","steam_id":85568392925397856,"keywords":["nocrits","nodmgspread","payload","uncletopia"],"game_id":440,"stv_port":27066,"stv_name":"Uncletopia | Warsaw | 6 | Community | STV","players":null}]}