{"status":true,"message":"","result":[{"server_id":9,"name":"Uncletopia | Atlanta | 1 | All Maps","name_short":"atl-1","host":"atl-1.us.uncletopia.com","port":27015,"enabled":true,"region":"us-east","cc":"us","latitude":33.753746,"longitude":-84.38633,"reserved":0,"last_update":"0001-01-01T00:00:00Z","name_a2s":"Uncletopia | Atlanta | 1 | All Maps","protocol":17,"map":"pl_upward","folder":"tf","game":"Team Fortress","app_id":440,"player_count":24,"max_players":24,"Bots":0,"server_type":"Dedicated","server_os":"Linux","password":true,"vac":true,"version":"7723704","steam_id":85568392924469982,"keywords":["nocrits","nodmgspread","payload","uncletopia"],"game_id":440,"stv_port":27016,"stv_name":"Uncletopia | Atlanta | 1 | All Maps | STV","players":[{"user_id":593,"name":"BORN IN GOOP RAISED IN POOP","steam_id":76561198095909397,"connected_time":479000000000,"state":"active","ping":48},{"user_id":571,"name":"♡Alyx♡","steam_id":76561198024303978,"connected_time":3226000000000,"state":"active","ping":59},{"user_id":568,"name":"Shoe™","steam_id":76561199114397881,"connected_time":3852000000000,"state":"active","ping":46},{"user_id":585,"name":"Spy_Is_Pye","steam_id":76561199439622967,"connected_time":1789000000000,"state":"active","ping":66},{"user_id":588,"name":"MOTORTREND TRUCK OF THE YEAR","steam_id":76561198077654131,"connected_time":1554000000000,"state":"active","ping":66},{"user_id":583,"name":"ATL1 | Lancer Fan Club","steam_id":76561198355495948,"connected_time":2186000000000,"state":"active","ping":82},{"user_id":589,"name":"godzilla","steam_id":76561198087275004,"connected_time":797000000000,"state":"active","ping":58},{"user_id":573,"name":"shadow","steam_id":76561198161824724,"connected_time":3161000000000,"state":"active","ping":100},{"user_id":562,"name":"Granny Krissy","steam_id":76561197960848174,"connected_time":4101000000000,"state":"active","ping":69},{"user_id":554,"name":"ATL1 | Lav4ie They/Them","steam_id":76561198825997674,"connected_time":5264000000000,"state":"active","ping":61},{"user_id":529,"name":"luxin","steam_id":76561198399383047,"connected_time":6032000000000,"state":"active","ping":47},{"user_id":565,"name":"vid_","steam_id":76561198065159053,"connected_time":4048000000000,"state":"active","ping":46},{"user_id":590,"name":"shooty","steam_id":76561198128485603,"connected_time":778000000000,"state":"active","ping":57},{"user_id":584,"name":"Chance","steam_id":76561198122256825,"connected_time":1947000000000,"state":"active","ping":61},{"user_id":521,"name":"Avo","steam_id":76561197993340494,"connected_time":6860000000000,"state":"active","ping":61},{"user_id":517,"name":"Tyler\u0026Fingers","steam_id":76561198085154485,"connected_time":6999000000000,"state":"active","ping":75},{"user_id":591,"name":"nhbiker","steam_id":76561198081277675,"connected_time":778000000000,"state":"active","ping":60},{"user_id":555,"name":"plain","steam_id":76561197995384143,"connected_time":4930000000000,"state":"active","ping":69},{"user_id":569,"name":"R.","steam_id":76561198024545911,"connected_time":3579000000000,"state":"active","ping":92},{"user_id":574,"name":"Twa","steam_id":76561198295529541,"connected_time":2990000000000,"state":"active","ping":57},{"user_id":561,"name":"ATL1 | Rat","steam_id":76561198137925582,"connected_time":4212000000000,"state":"active","ping":86},{"user_id":587,"name":"catbucket","steam_id":76561198120440587,"connected_time":1655000000000,"state":"active","ping":58},{"user_id":559,"name":"obamiun","steam_id":76561199121276474,"connected_time":4636000000000,"state":"active","ping":73}]},{"server_id":400,"name":"Uncletopia | Atlanta | 3 | Stopwatch Beta","name_short":"atl-3","host":"atl-1.us.uncletopia.com","port":27035,"enabled":true,"region":"us-east","cc":"us","latitude":33.753746,"longitude":-84.38633,"reserved":0,"last_update":"0001-01-01T00:00:00Z","name_a2s":"Uncletopia | Atlanta | 3 | Stopwatch Beta","protocol":17,"map":"koth_cascade","folder":"tf","game":"Team Fortress","app_id":440,"player_count":0,"max_players":24,"Bots":0,"server_type":"Dedicated","server_os":"Linux","password":true,"vac":true,"version":"7723704","steam_id":85568392924515187,"keywords":["cp","nocrits","nodmgspread","uncletopia"],"game_id":440,"stv_port":27036,"stv_name":"Uncletopia | Atlanta | 3 | Stopwatch Beta | STV","players":null},{"server_id":401,"name":"Uncletopia | Atlanta | 4 | No Payload","name_short":"atl-4","host":"atl-1.us.uncletopia.com","port":27045,"enabled":true,"region":"us-east","cc":"us","latitude":33.753746,"longitude":-84.38633,"reserved":0,"last_update":"0001-01-01T00:00:00Z","name_a2s":"Uncletopia | Atlanta | 4 | No Payload","protocol":17,"map":"pl_pier","folder":"tf","game":"Team Fortress","app_id":440,"player_count":0,"max_players":24,"Bots":0,"server_type":"Dedicated","server_os":"Linux","password":true,"vac":true,"version":"7723704","steam_id":85568392924515188,"keywords":["nocrits","nodmgspread","payload","uncletopia"],"game_id":440,"stv_port":27046,"stv_name":"Uncletopia | Atlanta | 4 | No Payload | STV","players":null},{"server_id":2,"name":"Uncletopia | Chicago | 1 | All Maps","name_short":"chi-1","host":"chi-1.us.uncletopia.com","port":27015,"enabled":true,"region":"us-central","cc":"us","latitude":41.881832,"longitude":-87.62318,"reserved":0,"last_update":"0001-01-01T00:00:00Z","name_a2s":"Uncletopia | Chicago | 1 | All Maps","protocol":17,"map":"pl_borneo","folder":"tf","game":"Team Fortress","app_id":440,"player_count":16,"max_players":24,"Bots":0,"server_type":"Dedicated","server_os":"Linux","password":true,"vac":true,"version":"7723704","steam_id":85568392924469984,"keywords":["nocrits","nodmgspread","payload","uncletopia"],"game_id":440,"stv_port":27016,"stv_name":"Uncletopia | Chicago | 1 | All Maps | STV","players":[{"user_id":362,"name":"Coach McFish","steam_id":76561198210456405,"connected_time":187000000000,"state":"active","ping":64},{"user_id":363,"name":"Griffin","steam_id":76561198159339442,"connected_time":167000000000,"state":"active","ping":68},{"user_id":347,"name":"Tzvi","steam_id":76561198072956085,"connected_time":1260000000000,"state":"active","ping":67},{"user_id":320,"name":"Banananana","steam_id":76561198172131059,"connected_time":2536000000000,"state":"active","ping":74},{"user_id":361,"name":"4d4","steam_id":76561198402360789,"connected_time":300000000000,"state":"active","ping":53},{"user_id":366,"name":"Qball","steam_id":76561198179016466,"connected_time":23000000000,"state":"active","ping":78},{"user_id":352,"name":"Fetus in a paper bag","steam_id":76561199047286823,"connected_time":1039000000000,"state":"active","ping":47},{"user_id":367,"name":"trobin120","steam_id":76561199122420273,"connected_time":12000000000,"state":"active","ping":68},{"user_id":150,"name":"TheToastingToaster","steam_id":76561198439391966,"connected_time":15695000000000,"state":"active","ping":59},{"user_id":322,"name":"[slug]","steam_id":76561197989592178,"connected_time":2203000000000,"state":"active","ping":61},{"user_id":360,"name":"Ras","steam_id":76561198123546775,"connected_time":346000000000,"state":"active","ping":58},{"user_id":343,"name":"Binky Den","steam_id":76561198164035863,"connected_time":1514000000000,"state":"active","ping":61},{"user_id":260,"name":"CAdaverOusPRophet","steam_id":76561198045304110,"connected_time":8199000000000,"state":"active","ping":45},{"user_id":359,"name":"Vaporeon","steam_id":76561198107058140,"connected_time":506000000000,"state":"active","ping":65},{"user_id":329,"name":"failing pre algebra type beat","steam_id":76561198005806915,"connected_time":1997000000000,"state":"active","ping":58},{"user_id":355,"name":"MayoMateo","steam_id":76561198360809933,"connected_time":922000000000,"state":"active","ping":106}]},{"server_id":106,"name":"Uncletopia | Chicago | 2 | All Maps","name_short":"chi-2","host":"chi-1.us.uncletopia.com","port":27025,"enabled":true,"region":"us-central","cc":"us","latitude":41.881832,"longitude":-87.62318,"reserved":0,"last_update":"0001-01-01T00:00:00Z","name_a2s":"Uncletopia | Chicago | 2 | All Maps","protocol":17,"map":"cp_sunshine","folder":"tf","game":"Team Fortress","app_id":440,"player_count":21,"max_players":24,"Bots":0,"server_type":"Dedicated","server_os":"Linux","password":true,"vac":true,"version":"7723704","steam_id":85568392924469985,"keywords":["cp","nocrits","nodmgspread","uncletopia"],"game_id":440,"stv_port":27026,"stv_name":"Uncletopia | Chicago | 2 | All Maps | STV","players":[{"user_id":157,"name":"slender","steam_id":76561198848821708,"connected_time":323000000000,"state":"active","ping":43},{"user_id":139,"name":"who ate the cheese","steam_id":76561198275408467,"connected_time":1353000000000,"state":"active","ping":48},{"user_id":164,"name":"Jarhead","steam_id":76561198071444461,"connected_time":184000000000,"state":"active","ping":168},{"user_id":163,"name":"Sicko Mode (Chris Pratt Cover)","steam_id":76561198315786174,"connected_time":189000000000,"state":"active","ping":76},{"user_id":160,"name":"WarpdriveEngineer","steam_id":76561198073530973,"connected_time":294000000000,"state":"active","ping":56},{"user_id":125,"name":"Deez Nutz","steam_id":76561198057374871,"connected_time":2345000000000,"state":"active","ping":62},{"user_id":161,"name":"Lord Scrubling","steam_id":76561198263744445,"connected_time":243000000000,"state":"active","ping":69},{"user_id":162,"name":"♥Gothie♥","steam_id":76561198166814648,"connected_time":230000000000,"state":"active","ping":119},{"user_id":152,"name":"Average 5’11 man","steam_id":76561199236177480,"connected_time":647000000000,"state":"active","ping":48},{"user_id":146,"name":"Bee","steam_id":76561198074681324,"connected_time":852000000000,"state":"active","ping":64},{"user_id":168,"name":"wack","steam_id":76561198095697330,"connected_time":49000000000,"state":"spawning","ping":91},{"user_id":166,"name":"rz-/Atomic Punch","steam_id":76561199195508541,"connected_time":115000000000,"state":"active","ping":164},{"user_id":169,"name":"Dancin_Cincinnati","steam_id":76561199273290583,"connected_time":33000000000,"state":"spawning","ping":98},{"user_id":142,"name":"womthedom","steam_id":76561198088768287,"connected_time":1027000000000,"state":"active","ping":61},{"user_id":130,"name":"SRV","steam_id":76561198026589960,"connected_time":1911000000000,"state":"active","ping":47},{"user_id":156,"name":"Rix FPV","steam_id":76561198299320893,"connected_time":327000000000,"state":"active","ping":53},{"user_id":167,"name":"★UNKNOWN★","steam_id":76561198963074953,"connected_time":97000000000,"state":"active","ping":81},{"user_id":154,"name":"NesLightGun","steam_id":76561199013395904,"connected_time":401000000000,"state":"active","ping":64},{"user_id":170,"name":"²⁹³Ts","steam_id":76561198217955315,"connected_time":27000000000,"state":"connecting","ping":0},{"user_id":102,"name":"A Puppy","steam_id":76561198828184456,"connected_time":4548000000000,"state":"active","ping":58},{"user_id":149,"name":"Oh, it's Zach","steam_id":76561198103309672,"connected_time":744000000000,"state":"active","ping":55}]},{"server_id":402,"name":"Uncletopia | Chicago | 3 | All Maps","name_short":"chi-3","host":"chi-1.us.uncletopia.com","port":27035,"enabled":true,"region":"us-central","cc":"us","latitude":41.881832,"longitude":-87.62318,"reserved":0,"last_update":"0001-01-01T00:00:00Z","name_a2s":"Uncletopia | Chicago | 3 | All Maps","protocol":17,"map":"pl_barnblitz","folder":"tf","game":"Team Fortress","app_id":440,"player_count":24,"max_players":24,"Bots":0,"server_type":"Dedicated","server_os":"Linux","password":true,"vac":true,"version":"7723704","steam_id":85568392924515191,"keywords":["nocrits","nodmgspread","payload","uncletopia"],"game_id":440,"stv_port":27036,"stv_name":"Uncletopia | Chicago | 3 | All Maps | STV","players":[{"user_id":49,"name":"Bread Baker","steam_id":76561198185335103,"connected_time":2772000000000,"state":"active","ping":55},{"user_id":52,"name":"EVIL MEDIC","steam_id":76561199151780779,"connected_time":2425000000000,"state":"active","ping":73},{"user_id":77,"name":"Noshy-Yoshi","steam_id":76561198189521209,"connected_time":964000000000,"state":"active","ping":85},{"user_id":47,"name":"FunnyUsernameWow","steam_id":76561198324177635,"connected_time":2974000000000,"state":"active","ping":70},{"user_id":78,"name":"JEDIDIAH MAUS","steam_id":76561198405673920,"connected_time":923000000000,"state":"active","ping":75},{"user_id":67,"name":"notmanhattan","steam_id":76561198143117561,"connected_time":1429000000000,"state":"active","ping":42},{"user_id":37,"name":"RyanDCB [Real]","steam_id":76561198040138739,"connected_time":3345000000000,"state":"active","ping":72},{"user_id":44,"name":"Ozone-flavored Starburst","steam_id":76561199163688421,"connected_time":3194000000000,"state":"active","ping":87},{"user_id":75,"name":"KTB","steam_id":76561197990744614,"connected_time":1065000000000,"state":"active","ping":46},{"user_id":65,"name":"Buttons :)","steam_id":76561198139478534,"connected_time":1597000000000,"state":"active","ping":102},{"user_id":69,"name":"{ST} chunkyMerchant","steam_id":76561198318701494,"connected_time":1331000000000,"state":"active","ping":62},{"user_id":76,"name":"Alltrex","steam_id":76561198202254225,"connected_time":1061000000000,"state":"active","ping":90},{"user_id":80,"name":"Morbi","steam_id":76561198126853838,"connected_time":775000000000,"state":"active","ping":64},{"user_id":83,"name":"resident_","steam_id":76561199229318347,"connected_time":146000000000,"state":"active","ping":48},{"user_id":82,"name":"a_person_159","steam_id":76561199024416326,"connected_time":468000000000,"state":"active","ping":64},{"user_id":73,"name":"CaptainAwesome","steam_id":76561198030377233,"connected_time":1209000000000,"state":"active","ping":60},{"user_id":34,"name":"ADHDking","steam_id":76561198116099017,"connected_time":3391000000000,"state":"active","ping":55},{"user_id":35,"name":"Grunga","steam_id":76561198129145299,"connected_time":3388000000000,"state":"active","ping":101},{"user_id":36,"name":"Lemonade","steam_id":76561198178138255,"connected_time":3376000000000,"state":"active","ping":98},{"user_id":71,"name":"blob","steam_id":76561198122375328,"connected_time":1221000000000,"state":"active","ping":60},{"user_id":39,"name":"Mixolydia","steam_id":76561198058998371,"connected_time":3335000000000,"state":"active","ping":53},{"user_id":72,"name":"GRizzLY","steam_id":76561198235949142,"connected_time":1217000000000,"state":"active","ping":66},{"user_id":81,"name":"Vietnamese Guy","steam_id":76561199054714277,"connected_time":697000000000,"state":"active","ping":148},{"user_id":60,"name":"BlueBruh","steam_id":76561199078613052,"connected_time":2067000000000,"state":"active","ping":84}]},{"server_id":403,"name":"Uncletopia | Chicago | 4 | All Maps","name_short":"chi-4","host":"chi-1.us.uncletopia.com","port":27045,"enabled":true,"region":"us-central","cc":"us","latitude":41.881832,"longitude":-87.62318,"reserved":0,"last_update":"0001-01-01T00:00:00Z","name_a2s":"Uncletopia | Chicago | 4 | All Maps","protocol":17,"map":"ctf_doublecross_snowy","folder":"tf","game":"Team Fortress","app_id":440,"player_count":22,"max_players":24,"Bots":0,"server_type":"Dedicated","server_os":"Linux","password":true,"vac":true,"version":"7723704","steam_id":85568392924515193,"keywords":["ctf","nocrits","nodmgspread","uncletopia"],"game_id":440,"stv_port":27046,"stv_name":"Uncletopia | Chicago | 4 | All Maps | STV","players":[{"user_id":169,"name":"I am a Toaster","steam_id":76561199190216106,"connected_time":216000000000,"state":"active","ping":68},{"user_id":170,"name":"bimbo blow up doll! \u003c3","steam_id":76561198959541006,"connected_time":132000000000,"state":"active","ping":69},{"user_id":122,"name":"Gate","steam_id":76561198306970060,"connected_time":2674000000000,"state":"active","ping":92},{"user_id":128,"name":"Re-Loaded_Game","steam_id":76561199097136515,"connected_time":2498000000000,"state":"active","ping":77},{"user_id":162,"name":"Awe","steam_id":76561198268225109,"connected_time":654000000000,"state":"active","ping":76},{"user_id":140,"name":"Got Hat?","steam_id":76561197998486431,"connected_time":1930000000000,"state":"active","ping":62},{"user_id":63,"name":"Curly-Haired Rogue","steam_id":76561198101915594,"connected_time":7856000000000,"state":"active","ping":78},{"user_id":84,"name":"Garven Pickersgill","steam_id":76561198035906860,"connected_time":5710000000000,"state":"active","ping":92},{"user_id":61,"name":"Kibeca the Weird","steam_id":76561198116534133,"connected_time":8186000000000,"state":"active","ping":72},{"user_id":165,"name":"Wizzle","steam_id":76561198325541228,"connected_time":397000000000,"state":"active","ping":297},{"user_id":167,"name":"maccthew","steam_id":76561199035058771,"connected_time":336000000000,"state":"active","ping":82},{"user_id":166,"name":"Goku™ From Disney©","steam_id":76561198015327152,"connected_time":381000000000,"state":"active","ping":60},{"user_id":131,"name":"braindead","steam_id":76561198012462879,"connected_time":2468000000000,"state":"active","ping":60},{"user_id":132,"name":"Honeybunch","steam_id":76561198014850580,"connected_time":2451000000000,"state":"active","ping":83},{"user_id":60,"name":"Super Noob","steam_id":76561199179611350,"connected_time":8195000000000,"state":"active","ping":53},{"user_id":168,"name":"Happ","steam_id":76561198043741679,"connected_time":291000000000,"state":"active","ping":49},{"user_id":147,"name":"Dunmaglass","steam_id":76561198128928443,"connected_time":1577000000000,"state":"active","ping":72},{"user_id":173,"name":"Starbun Galaxy","steam_id":76561199079982755,"connected_time":35000000000,"state":"active","ping":124},{"user_id":174,"name":"Uncle Majic the Hip Hop Magicia","steam_id":76561198107924303,"connected_time":16000000000,"state":"active","ping":71},{"user_id":155,"name":"PhantomScraf","steam_id":76561199214615852,"connected_time":1272000000000,"state":"active","ping":148},{"user_id":160,"name":"The Power","steam_id":76561198060566884,"connected_time":750000000000,"state":"active","ping":148},{"user_id":142,"name":"CreeperCatBengal","steam_id":76561198213193221,"connected_time":1895000000000,"state":"active","ping":72}]},{"server_id":36,"name":"Uncletopia | Chicago | 5 | All Maps","name_short":"chi-5","host":"chi-2.us.uncletopia.com","port":27015,"enabled":true,"region":"us-central","cc":"us","latitude":41.881832,"longitude":-87.62318,"reserved":0,"last_update":"0001-01-01T00:00:00Z","name_a2s":"Uncletopia | Chicago | 5 | All Maps","protocol":17,"map":"koth_cascade","folder":"tf","game":"Team Fortress","app_id":440,"player_count":0,"max_players":24,"Bots":0,"server_type":"Dedicated","server_os":"Linux","password":true,"vac":true,"version":"7723704","steam_id":85568392924866362,"keywords":["cp","nocrits","nodmgspread","uncletopia"],"game_id":440,"stv_port":27016,"stv_name":"Uncletopia | Chicago | 5 | All Maps | STV","players":null},{"server_id":37,"name":"Uncletopia | Chicago | 6 | All Maps","name_short":"chi-6","host":"chi-2.us.uncletopia.com","port":27025,"enabled":true,"region":"us-central","cc":"us","latitude":41.881832,"longitude":-87.62318,"reserved":0,"last_update":"0001-01-01T00:00:00Z","name_a2s":"Uncletopia | Chicago | 6 | All Maps","protocol":17,"map":"pl_swiftwater_final1","folder":"tf","game":"Team Fortress","app_id":440,"player_count":0,"max_players":24,"Bots":0,"server_type":"Dedicated","server_os":"Linux","password":true,"vac":true,"version":"7723704","steam_id":85568392924866363,"keywords":["nocrits","nodmgspread","payload","uncletopia"],"game_id":440,"stv_port":27026,"stv_name":"Uncletopia | Chicago | 6 | All Maps | STV","players":null},{"server_id":38,"name":"Uncletopia | Chicago | 7 | Stopwatch Beta","name_short":"chi-7","host":"chi-2.us.uncletopia.com","port":27035,"enabled":true,"region":"us-central","cc":"us","latitude":41.881832,"longitude":-87.62318,"reserved":0,"last_update":"0001-01-01T00:00:00Z","name_a2s":"Uncletopia | Chicago | 7 | Stopwatch Beta","protocol":17,"map":"workshop/koth_clearcut_b15.ugc2107050255","folder":"tf","game":"Team Fortress","app_id":440,"player_count":1,"max_players":24,"Bots":0,"server_type":"Dedicated","server_os":"Linux","password":true,"vac":true,"version":"7723704","steam_id":85568392924866364,"keywords":["cp","nocrits","nodmgspread","uncletopia"],"game_id":440,"stv_port":27036,"stv_name":"Uncletopia | Chicago | 7 | Stopwatch Beta | STV","players":[{"user_id":212,"name":"CFDv20","steam_id":76561198450073779,"connected_time":2000000000,"state":"spawning","ping":97}]},{"server_id":39,"name":"Uncletopia | Chicago | 8 | Community","name_short":"chi-8","host":"chi-2.us.uncletopia.com","port":27045,"enabled":true,"region":"us-central","cc":"us","latitude":41.881832,"longitude":-87.62318,"reserved":0,"last_update":"0001-01-01T00:00:00Z","name_a2s":"Uncletopia | Chicago | 8 | Community","protocol":17,"map":"pl_frontier_final","folder":"tf","game":"Team Fortress","app_id":440,"player_count":0,"max_players":24,"Bots":0,"server_type":"Dedicated","server_os":"Linux","password":true,"vac":true,"version":"7723704","steam_id":85568392924866365,"keywords":["nocrits","nodmgspread","payload","uncletopia"],"game_id":440,"stv_port":27046,"stv_name":"Uncletopia | Chicago | 8 | Community | STV","players":null},{"server_id":8,"name":"Uncletopia | Dallas | 1 | All Maps","name_short":"dal-1","host":"dal-1.us.uncletopia.com","port":27015,"enabled":true,"region":"us-central","cc":"us","latitude":32.779167,"longitude":-96.80889,"reserved":0,"last_update":"0001-01-01T00:00:00Z","name_a2s":"Uncletopia | Dallas | 1 | All Maps","protocol":17,"map":"ctf_doublecross","folder":"tf","game":"Team Fortress","app_id":440,"player_count":19,"max_players":24,"Bots":0,"server_type":"Dedicated","server_os":"Linux","password":true,"vac":true,"version":"7723704","steam_id":85568392924469986,"keywords":["ctf","nocrits","nodmgspread","uncletopia"],"game_id":440,"stv_port":27016,"stv_name":"Uncletopia | Dallas | 1 | All Maps | STV","players":[{"user_id":213,"name":"I AM A TWERKER","steam_id":76561198800324957,"connected_time":4470000000000,"state":"active","ping":55},{"user_id":270,"name":"Yoshimelon","steam_id":76561198253054325,"connected_time":764000000000,"state":"active","ping":43},{"user_id":260,"name":"Diegorkus","steam_id":76561198076956980,"connected_time":1237000000000,"state":"active","ping":84},{"user_id":283,"name":"TheBiggerIron","steam_id":76561198257043605,"connected_time":61000000000,"state":"active","ping":104},{"user_id":285,"name":"Poop Deck Joe","steam_id":76561198271397568,"connected_time":4000000000,"state":"spawning","ping":65},{"user_id":259,"name":"Your Local NPR Station","steam_id":76561198143830279,"connected_time":1283000000000,"state":"active","ping":55},{"user_id":279,"name":"floppy muppet","steam_id":76561198003076261,"connected_time":312000000000,"state":"active","ping":95},{"user_id":269,"name":"Timbs!!","steam_id":76561198156215344,"connected_time":796000000000,"state":"active","ping":47},{"user_id":223,"name":"DoomwyteShroom","steam_id":76561198250419416,"connected_time":3945000000000,"state":"active","ping":66},{"user_id":267,"name":"Chaotic Rushu","steam_id":76561198170054407,"connected_time":881000000000,"state":"active","ping":83},{"user_id":280,"name":"rlty","steam_id":76561198009395055,"connected_time":301000000000,"state":"active","ping":75},{"user_id":228,"name":"ircycl","steam_id":76561198170693990,"connected_time":3631000000000,"state":"active","ping":76},{"user_id":263,"name":"LORDMARF","steam_id":76561198143122675,"connected_time":1120000000000,"state":"active","ping":46},{"user_id":245,"name":"Jadus","steam_id":76561199091462938,"connected_time":2101000000000,"state":"active","ping":68},{"user_id":274,"name":"Ⓢ Ranger Ⓢ","steam_id":76561198957524134,"connected_time":413000000000,"state":"active","ping":50},{"user_id":257,"name":"peedrinker","steam_id":76561198876275070,"connected_time":1578000000000,"state":"active","ping":81},{"user_id":250,"name":"Reyloko","steam_id":76561198172480913,"connected_time":2039000000000,"state":"active","ping":67},{"user_id":275,"name":"uzr","steam_id":76561198799343084,"connected_time":412000000000,"state":"active","ping":78},{"user_id":276,"name":"LeFunnyMan","steam_id":76561199081645289,"connected_time":397000000000,"state":"active","ping":55}]},{"server_id":108,"name":"Uncletopia | Dallas | 2 | All Maps","name_short":"dal-2","host":"dal-1.us.uncletopia.com","port":27025,"enabled":true,"region":"us-central","cc":"us","latitude":32.779167,"longitude":-96.80889,"reserved":0,"last_update":"0001-01-01T00:00:00Z","name_a2s":"Uncletopia | Dallas | 2 | All Maps","protocol":17,"map":"pl_badwater","folder":"tf","game":"Team Fortress","app_id":440,"player_count":24,"max_players":24,"Bots":0,"server_type":"Dedicated","server_os":"Linux","password":true,"vac":true,"version":"7723704","steam_id":85568392924469988,"keywords":["nocrits","nodmgspread","payload","uncletopia"],"game_id":440,"stv_port":27026,"stv_name":"Uncletopia | Dallas | 2 | All Maps | STV","players":[{"user_id":221,"name":"Ψ","steam_id":76561198293893486,"connected_time":643000000000,"state":"active","ping":78},{"user_id":225,"name":"leumas","steam_id":76561198240408540,"connected_time":310000000000,"state":"active","ping":82},{"user_id":222,"name":"Lospolloshermano","steam_id":76561199157627437,"connected_time":574000000000,"state":"active","ping":76},{"user_id":223,"name":"tinguspingus","steam_id":76561198147746558,"connected_time":391000000000,"state":"active","ping":75},{"user_id":145,"name":"Course Brains","steam_id":76561198349105723,"connected_time":4782000000000,"state":"active","ping":93},{"user_id":199,"name":"Shmoseph","steam_id":76561198354689252,"connected_time":1413000000000,"state":"active","ping":63},{"user_id":224,"name":"sweaterfan","steam_id":76561199389567214,"connected_time":311000000000,"state":"active","ping":63},{"user_id":153,"name":"|-HyperCube-|","steam_id":76561198167133597,"connected_time":4287000000000,"state":"active","ping":58},{"user_id":234,"name":"Eightyy  Fourr","steam_id":76561197960374225,"connected_time":63000000000,"state":"active","ping":44},{"user_id":214,"name":"The Squid Gamer™","steam_id":76561198340621517,"connected_time":787000000000,"state":"active","ping":91},{"user_id":227,"name":"lightskinspy69","steam_id":76561198365761835,"connected_time":304000000000,"state":"active","ping":96},{"user_id":195,"name":"Mr. Ruckus","steam_id":76561198339566190,"connected_time":1587000000000,"state":"active","ping":85},{"user_id":196,"name":"lanoc","steam_id":76561198055415367,"connected_time":1553000000000,"state":"active","ping":59},{"user_id":197,"name":"♥ Sashisusesasako","steam_id":76561198040522288,"connected_time":1530000000000,"state":"active","ping":65},{"user_id":207,"name":"BOR XOR","steam_id":76561198063294776,"connected_time":1124000000000,"state":"active","ping":76},{"user_id":174,"name":"iluvtoust","steam_id":76561198869269207,"connected_time":3357000000000,"state":"active","ping":56},{"user_id":217,"name":"jordanddean2016","steam_id":76561198323772677,"connected_time":727000000000,"state":"active","ping":98},{"user_id":228,"name":"vcx","steam_id":76561198139371143,"connected_time":290000000000,"state":"active","ping":61},{"user_id":229,"name":"Bin","steam_id":76561198042557767,"connected_time":255000000000,"state":"active","ping":93},{"user_id":170,"name":"AR1782","steam_id":76561199380738475,"connected_time":3551000000000,"state":"active","ping":65},{"user_id":230,"name":"Silver Cable","steam_id":76561198041366833,"connected_time":228000000000,"state":"active","ping":81},{"user_id":231,"name":"Glock 20 Gen5","steam_id":76561198081681647,"connected_time":208000000000,"state":"active","ping":71},{"user_id":232,"name":"Rudy","steam_id":76561198013456828,"connected_time":151000000000,"state":"active","ping":74},{"user_id":233,"name":"NinSega125","steam_id":76561198272073972,"connected_time":133000000000,"state":"active","ping":92}]},{"server_id":5,"name":"Uncletopia | Frankfurt | 1 | All Maps","name_short":"frk-1","host":"frk-1.de.uncletopia.com","port":27015,"enabled":true,"region":"eu","cc":"de","latitude":50.110924,"longitude":8.682127,"reserved":0,"last_update":"0001-01-01T00:00:00Z","name_a2s":"Uncletopia | Frankfurt | 1 | All Maps","protocol":17,"map":"koth_suijin","folder":"tf","game":"Team Fortress","app_id":440,"player_count":14,"max_players":24,"Bots":0,"server_type":"Dedicated","server_os":"Linux","password":true,"vac":true,"version":"7723704","steam_id":85568392924469989,"keywords":["cp","nocrits","nodmgspread","uncletopia"],"game_id":440,"stv_port":27016,"stv_name":"Uncletopia | Frankfurt | 1 | All Maps | STV","players":[{"user_id":460,"name":"Clover","steam_id":76561198315908102,"connected_time":202000000000,"state":"active","ping":62},{"user_id":463,"name":"Alfred2.2","steam_id":76561198339314744,"connected_time":33000000000,"state":"active","ping":63},{"user_id":461,"name":"Hellago","steam_id":76561198003736380,"connected_time":190000000000,"state":"active","ping":50},{"user_id":448,"name":"Aydin Channel","steam_id":76561198138031624,"connected_time":476000000000,"state":"active","ping":121},{"user_id":457,"name":"Karsapaali","steam_id":76561198322322739,"connected_time":272000000000,"state":"active","ping":86},{"user_id":452,"name":"big heavy is heavy heavy","steam_id":76561198300059652,"connected_time":359000000000,"state":"active","ping":75},{"user_id":454,"name":"Djarlem","steam_id":76561198080968386,"connected_time":311000000000,"state":"active","ping":51},{"user_id":459,"name":"bread","steam_id":76561198175680841,"connected_time":243000000000,"state":"active","ping":96},{"user_id":462,"name":"Ancient Mariner","steam_id":76561198209101861,"connected_time":165000000000,"state":"active","ping":65},{"user_id":464,"name":"Getrkod","steam_id":76561198986560793,"connected_time":8000000000,"state":"active","ping":87},{"user_id":449,"name":"Makeways","steam_id":76561198274466477,"connected_time":453000000000,"state":"active","ping":70},{"user_id":446,"name":"DONGUS","steam_id":76561198042774930,"connected_time":885000000000,"state":"active","ping":67},{"user_id":450,"name":"Alich","steam_id":76561198054110232,"connected_time":439000000000,"state":"active","ping":79},{"user_id":405,"name":"Aspartus","steam_id":76561198101385763,"connected_time":3717000000000,"state":"active","ping":45}]},{"server_id":110,"name":"Uncletopia | Frankfurt | 2 | All Maps","name_short":"frk-2","host":"frk-1.de.uncletopia.com","port":27025,"enabled":true,"region":"eu","cc":"de","latitude":50.110924,"longitude":8.682127,"reserved":0,"last_update":"0001-01-01T00:00:00Z","name_a2s":"Uncletopia | Frankfurt | 2 | All Maps","protocol":17,"map":"cp_mercenarypark","folder":"tf","game":"Team Fortress","app_id":440,"player_count":23,"max_players":24,"Bots":0,"server_type":"Dedicated","server_os":"Linux","password":true,"vac":true,"version":"7723704","steam_id":85568392924469990,"keywords":["cp","nocrits","nodmgspread","uncletopia"],"game_id":440,"stv_port":27026,"stv_name":"Uncletopia | Frankfurt | 2 | All Maps | STV","players":[{"user_id":436,"name":"Pudd of The Pompous Tophats","steam_id":76561198014468443,"connected_time":1335000000000,"state":"active","ping":62},{"user_id":451,"name":"Raulca25","steam_id":76561199068256964,"connected_time":654000000000,"state":"active","ping":85},{"user_id":446,"name":"hushhx","steam_id":76561198216200092,"connected_time":808000000000,"state":"active","ping":60},{"user_id":397,"name":"Tea","steam_id":76561198799243030,"connected_time":3571000000000,"state":"active","ping":62},{"user_id":447,"name":"JugoTopia","steam_id":76561197996067209,"connected_time":807000000000,"state":"active","ping":117},{"user_id":360,"name":"Fortezza","steam_id":76561198972539903,"connected_time":4671000000000,"state":"active","ping":54},{"user_id":422,"name":"ŽgræÐek113","steam_id":76561198306883632,"connected_time":1778000000000,"state":"active","ping":65},{"user_id":448,"name":"Ducc","steam_id":76561198030677425,"connected_time":769000000000,"state":"active","ping":55},{"user_id":383,"name":"Benameme","steam_id":76561198074097655,"connected_time":3940000000000,"state":"active","ping":62},{"user_id":384,"name":"M A D M A X","steam_id":76561198205304508,"connected_time":3933000000000,"state":"active","ping":66},{"user_id":425,"name":"Legura","steam_id":76561198096099822,"connected_time":1761000000000,"state":"active","ping":55},{"user_id":438,"name":"TheLogicult","steam_id":76561198072324306,"connected_time":1245000000000,"state":"active","ping":44},{"user_id":439,"name":"Jonas Destark","steam_id":76561198030327441,"connected_time":1217000000000,"state":"active","ping":59},{"user_id":449,"name":"boobmaster64","steam_id":76561199208283508,"connected_time":735000000000,"state":"active","ping":55},{"user_id":421,"name":"Dunboi","steam_id":76561198120949216,"connected_time":2320000000000,"state":"active","ping":60},{"user_id":455,"name":"X45Y","steam_id":76561198112534025,"connected_time":456000000000,"state":"active","ping":45},{"user_id":450,"name":"jeqer","steam_id":76561198256573643,"connected_time":683000000000,"state":"active","ping":67},{"user_id":428,"name":"Cocsam","steam_id":76561198050827179,"connected_time":1696000000000,"state":"active","ping":58},{"user_id":452,"name":"pumpkin spice go.ggez.ro","steam_id":76561198449957490,"connected_time":620000000000,"state":"active","ping":71},{"user_id":415,"name":"Moral","steam_id":76561198130601123,"connected_time":2840000000000,"state":"active","ping":76},{"user_id":454,"name":"Taha","steam_id":76561199259524970,"connected_time":603000000000,"state":"active","ping":92},{"user_id":440,"name":"snake9544","steam_id":76561198083076205,"connected_time":1204000000000,"state":"active","ping":78},{"user_id":414,"name":"TheEmeraldElias","steam_id":76561199117460238,"connected_time":3055000000000,"state":"active","ping":169}]},{"server_id":308,"name":"Uncletopia | Frankfurt | 3 | All Maps","name_short":"frk-3","host":"frk-1.de.uncletopia.com","port":27035,"enabled":true,"region":"eu","cc":"de","latitude":50.110924,"longitude":8.682127,"reserved":0,"last_update":"0001-01-01T00:00:00Z","name_a2s":"Uncletopia | Frankfurt | 3 | All Maps","protocol":17,"map":"pl_snowycoast","folder":"tf","game":"Team Fortress","app_id":440,"player_count":20,"max_players":24,"Bots":0,"server_type":"Dedicated","server_os":"Linux","password":true,"vac":true,"version":"7723704","steam_id":85568392924504274,"keywords":["nocrits","nodmgspread","payload","uncletopia"],"game_id":440,"stv_port":27036,"stv_name":"Uncletopia | Frankfurt | 3 | All Maps | STV","players":[{"user_id":606,"name":"-rikeOo-","steam_id":76561198303995379,"connected_time":571000000000,"state":"active","ping":66},{"user_id":607,"name":"Zingy","steam_id":76561198150081708,"connected_time":420000000000,"state":"active","ping":55},{"user_id":610,"name":"spudgun","steam_id":76561199119419738,"connected_time":345000000000,"state":"active","ping":57},{"user_id":609,"name":"femboy","steam_id":76561198107852638,"connected_time":367000000000,"state":"active","ping":76},{"user_id":574,"name":"MrPOW","steam_id":76561197978597654,"connected_time":3489000000000,"state":"active","ping":56},{"user_id":625,"name":"Larry Penus","steam_id":76561198207546233,"connected_time":77000000000,"state":"active","ping":49},{"user_id":595,"name":"lisivi","steam_id":76561198365503306,"connected_time":1459000000000,"state":"active","ping":57},{"user_id":628,"name":"Heliga Birgitta","steam_id":76561198155308640,"connected_time":20000000000,"state":"spawning","ping":45},{"user_id":613,"name":"Pachakamakk","steam_id":76561197989010401,"connected_time":262000000000,"state":"active","ping":53},{"user_id":547,"name":"Goliath","steam_id":76561198088583638,"connected_time":5500000000000,"state":"active","ping":48},{"user_id":614,"name":"Naho","steam_id":76561198077169715,"connected_time":246000000000,"state":"active","ping":77},{"user_id":615,"name":"VolcanicArts","steam_id":76561198063453246,"connected_time":213000000000,"state":"active","ping":67},{"user_id":616,"name":"MrDerp121","steam_id":76561198060827332,"connected_time":206000000000,"state":"active","ping":55},{"user_id":617,"name":"Gryoss","steam_id":76561197999837111,"connected_time":191000000000,"state":"active","ping":97},{"user_id":626,"name":"Foonguz","steam_id":76561198834610534,"connected_time":50000000000,"state":"active","ping":59},{"user_id":619,"name":"Relix18144","steam_id":76561199202454318,"connected_time":187000000000,"state":"active","ping":86},{"user_id":620,"name":"Forgetful","steam_id":76561198147445965,"connected_time":182000000000,"state":"active","ping":60},{"user_id":621,"name":"Cosmetic brain","steam_id":76561198055936410,"connected_time":164000000000,"state":"active","ping":83},{"user_id":622,"name":"LeP0tato","steam_id":76561198077615937,"connected_time":146000000000,"state":"active","ping":59},{"user_id":627,"name":"auto","steam_id":76561198062247888,"connected_time":46000000000,"state":"active","ping":161}]},{"server_id":309,"name":"Uncletopia | Frankfurt | 4 | All Maps","name_short":"frk-4","host":"frk-1.de.uncletopia.com","port":27045,"enabled":true,"region":"eu","cc":"de","latitude":50.110924,"longitude":8.682127,"reserved":0,"last_update":"0001-01-01T00:00:00Z","name_a2s":"Uncletopia | Frankfurt | 4 | All Maps","protocol":17,"map":"cp_altitude","folder":"tf","game":"Team Fortress","app_id":440,"player_count":21,"max_players":24,"Bots":0,"server_type":"Dedicated","server_os":"Linux","password":true,"vac":true,"version":"7723704","steam_id":85568392924504275,"keywords":["cp","nocrits","nodmgspread","uncletopia"],"game_id":440,"stv_port":27046,"stv_name":"Uncletopia | Frankfurt | 4 | All Maps | STV","players":[{"user_id":409,"name":"fingernail diet","steam_id":76561198088201976,"connected_time":14000000000,"state":"spawning","ping":48},{"user_id":406,"name":"benfica gaming","steam_id":76561198281969674,"connected_time":329000000000,"state":"active","ping":80},{"user_id":401,"name":"Charles Darwin","steam_id":76561197973496139,"connected_time":403000000000,"state":"active","ping":64},{"user_id":407,"name":"Michał","steam_id":76561198320346362,"connected_time":96000000000,"state":"active","ping":88},{"user_id":376,"name":"AsuX","steam_id":76561197990333289,"connected_time":1920000000000,"state":"active","ping":77},{"user_id":408,"name":"Gatzky","steam_id":76561198200353967,"connected_time":78000000000,"state":"active","ping":71},{"user_id":332,"name":"Bancsli (Help me pls)","steam_id":76561198144783422,"connected_time":3466000000000,"state":"active","ping":92},{"user_id":349,"name":"Pablo","steam_id":76561198358173553,"connected_time":2787000000000,"state":"active","ping":79},{"user_id":254,"name":"zero","steam_id":76561198055365234,"connected_time":9708000000000,"state":"active","ping":79},{"user_id":360,"name":"youmme95","steam_id":76561198049802823,"connected_time":2658000000000,"state":"active","ping":87},{"user_id":390,"name":"your opinion \u003c my shit after a ","steam_id":76561198152620745,"connected_time":1157000000000,"state":"active","ping":65},{"user_id":380,"name":"cyanic","steam_id":76561198047828651,"connected_time":1406000000000,"state":"active","ping":64},{"user_id":400,"name":"Oak","steam_id":76561198412507725,"connected_time":437000000000,"state":"active","ping":101},{"user_id":392,"name":"jonas","steam_id":76561198883559477,"connected_time":1093000000000,"state":"active","ping":59},{"user_id":404,"name":"pardner","steam_id":76561198451471161,"connected_time":374000000000,"state":"active","ping":97},{"user_id":377,"name":"Economic crisis","steam_id":76561198063562843,"connected_time":1905000000000,"state":"active","ping":57},{"user_id":393,"name":"Uncle Owen","steam_id":76561198157999291,"connected_time":1082000000000,"state":"active","ping":88},{"user_id":378,"name":"BigZZZ","steam_id":76561197998461614,"connected_time":1645000000000,"state":"active","ping":69},{"user_id":359,"name":"Morbeus","steam_id":76561198057717808,"connected_time":2669000000000,"state":"active","ping":98},{"user_id":403,"name":"[T]aKer","steam_id":76561198001778013,"connected_time":388000000000,"state":"active","ping":54},{"user_id":394,"name":"leaf eater","steam_id":76561198083359604,"connected_time":952000000000,"state":"active","ping":60}]},{"server_id":310,"name":"Uncletopia | Frankfurt | 5 | All Maps","name_short":"frk-5","host":"frk-1.de.uncletopia.com","port":27055,"enabled":true,"region":"eu","cc":"de","latitude":50.110924,"longitude":8.682127,"reserved":0,"last_update":"0001-01-01T00:00:00Z","name_a2s":"Uncletopia | Frankfurt | 5 | All Maps","protocol":17,"map":"pl_pier","folder":"tf","game":"Team Fortress","app_id":440,"player_count":24,"max_players":24,"Bots":0,"server_type":"Dedicated","server_os":"Linux","password":true,"vac":true,"version":"7723704","steam_id":85568392924504277,"keywords":["nocrits","nodmgspread","payload","uncletopia"],"game_id":440,"stv_port":27056,"stv_name":"Uncletopia | Frankfurt | 5 | All Maps | STV","players":[{"user_id":470,"name":"social outcast","steam_id":76561198168119744,"connected_time":586000000000,"state":"active","ping":52},{"user_id":432,"name":"Tarixxiv","steam_id":76561198084365415,"connected_time":1745000000000,"state":"active","ping":85},{"user_id":453,"name":"soap lore","steam_id":76561198058879767,"connected_time":1010000000000,"state":"active","ping":65},{"user_id":433,"name":"Khasar419","steam_id":76561198261780353,"connected_time":1680000000000,"state":"active","ping":78},{"user_id":464,"name":"тукку ирма","steam_id":76561197998715016,"connected_time":725000000000,"state":"active","ping":59},{"user_id":397,"name":"Vitamin Weee","steam_id":76561199183937747,"connected_time":4495000000000,"state":"active","ping":77},{"user_id":437,"name":"Senfbaron","steam_id":76561198070370608,"connected_time":1537000000000,"state":"active","ping":60},{"user_id":471,"name":"Bakiiiiiiii","steam_id":76561198205121276,"connected_time":409000000000,"state":"active","ping":78},{"user_id":446,"name":"Embrace Masculinity","steam_id":76561198194625025,"connected_time":1291000000000,"state":"active","ping":60},{"user_id":440,"name":"D!E","steam_id":76561198012118005,"connected_time":1464000000000,"state":"active","ping":60},{"user_id":450,"name":"i n n o","steam_id":76561199230689289,"connected_time":1166000000000,"state":"active","ping":79},{"user_id":465,"name":"Fox","steam_id":76561198052541711,"connected_time":693000000000,"state":"active","ping":62},{"user_id":443,"name":"Typha The Cat","steam_id":76561198434145689,"connected_time":1361000000000,"state":"active","ping":58},{"user_id":457,"name":"Generic.","steam_id":76561199083862790,"connected_time":924000000000,"state":"active","ping":63},{"user_id":454,"name":"Sunshine Moon","steam_id":76561198022604491,"connected_time":1008000000000,"state":"active","ping":68},{"user_id":393,"name":"Torrii","steam_id":76561198307916635,"connected_time":4706000000000,"state":"active","ping":90},{"user_id":472,"name":"typicalcrimson","steam_id":76561198295439747,"connected_time":322000000000,"state":"active","ping":82},{"user_id":466,"name":"Sarip","steam_id":76561198113330438,"connected_time":657000000000,"state":"active","ping":62},{"user_id":458,"name":"mEOw","steam_id":76561198204430887,"connected_time":839000000000,"state":"active","ping":74},{"user_id":459,"name":"ivanmixo","steam_id":76561198160213989,"connected_time":835000000000,"state":"active","ping":69},{"user_id":461,"name":"Wifi X Killer","steam_id":76561198216828507,"connected_time":801000000000,"state":"active","ping":77},{"user_id":473,"name":"yush","steam_id":76561198121688934,"connected_time":310000000000,"state":"active","ping":75},{"user_id":467,"name":"Raxor","steam_id":76561198239927434,"connected_time":648000000000,"state":"active","ping":93},{"user_id":421,"name":"DeepBlue","steam_id":76561198140075795,"connected_time":2754000000000,"state":"active","ping":57}]},{"server_id":311,"name":"Uncletopia | Frankfurt | 6 | All Maps","name_short":"frk-6","host":"frk-1.de.uncletopia.com","port":27065,"enabled":true,"region":"eu","cc":"de","latitude":50.110924,"longitude":8.682127,"reserved":0,"last_update":"0001-01-01T00:00:00Z","name_a2s":"Uncletopia | Frankfurt | 6 | All Maps","protocol":17,"map":"cp_snakewater_final1","folder":"tf","game":"Team Fortress","app_id":440,"player_count":24,"max_players":24,"Bots":0,"server_type":"Dedicated","server_os":"Linux","password":true,"vac":true,"version":"7723704","steam_id":85568392924504278,"keywords":["cp","nocrits","nodmgspread","uncletopia"],"game_id":440,"stv_port":27066,"stv_name":"Uncletopia | Frankfurt | 6 | All Maps | STV","players":[{"user_id":679,"name":"Mr.MemeMaker","steam_id":76561198909088766,"connected_time":1715000000000,"state":"active","ping":54},{"user_id":665,"name":"opaacic","steam_id":76561199158514501,"connected_time":2239000000000,"state":"active","ping":72},{"user_id":686,"name":"R!not","steam_id":76561197986328786,"connected_time":1053000000000,"state":"active","ping":45},{"user_id":687,"name":"zak","steam_id":76561197998895428,"connected_time":956000000000,"state":"active","ping":53},{"user_id":628,"name":"omnibombulator","steam_id":76561198025858897,"connected_time":4488000000000,"state":"active","ping":63},{"user_id":629,"name":"Old Man Winter","steam_id":76561198007653168,"connected_time":4466000000000,"state":"active","ping":72},{"user_id":653,"name":"tempLimit","steam_id":76561199158363470,"connected_time":2573000000000,"state":"active","ping":76},{"user_id":615,"name":"KillerQueen (he/they/she)","steam_id":76561199019399725,"connected_time":5379000000000,"state":"active","ping":62},{"user_id":690,"name":"GodOfGobboz","steam_id":76561198154677956,"connected_time":747000000000,"state":"active","ping":72},{"user_id":685,"name":"Fayden","steam_id":76561199088873813,"connected_time":1407000000000,"state":"active","ping":66},{"user_id":691,"name":"Mr.O #deletesniper","steam_id":76561198039567498,"connected_time":744000000000,"state":"active","ping":64},{"user_id":684,"name":"[Sheep] Tomco","steam_id":76561198388549261,"connected_time":1522000000000,"state":"active","ping":74},{"user_id":663,"name":"freemantel30","steam_id":76561198065669800,"connected_time":2263000000000,"state":"active","ping":48},{"user_id":675,"name":":/","steam_id":76561199382587543,"connected_time":2000000000000,"state":"active","ping":53},{"user_id":659,"name":"Smuggs","steam_id":76561197999456003,"connected_time":2373000000000,"state":"active","ping":50},{"user_id":698,"name":"Empyrean","steam_id":76561198138552502,"connected_time":363000000000,"state":"active","ping":83},{"user_id":676,"name":"Max Andrew","steam_id":76561198158955194,"connected_time":1966000000000,"state":"active","ping":81},{"user_id":681,"name":"GabGame","steam_id":76561198105631808,"connected_time":1564000000000,"state":"active","ping":59},{"user_id":694,"name":"Hati","steam_id":76561198135520039,"connected_time":528000000000,"state":"active","ping":68},{"user_id":682,"name":"Parigonicalus","steam_id":76561198044637492,"connected_time":1560000000000,"state":"active","ping":81},{"user_id":696,"name":"Kurage","steam_id":76561198021221288,"connected_time":448000000000,"state":"active","ping":65},{"user_id":688,"name":"uncle turd","steam_id":76561198022169689,"connected_time":915000000000,"state":"active","ping":79},{"user_id":695,"name":"Jp","steam_id":76561198141642167,"connected_time":525000000000,"state":"active","ping":54},{"user_id":672,"name":"Bassam","steam_id":76561198231239500,"connected_time":2201000000000,"state":"active","ping":79}]},{"server_id":23,"name":"Uncletopia | Frankfurt | 7 | Stopwatch Beta","name_short":"frk-7","host":"frk-1.de.uncletopia.com","port":27075,"enabled":true,"region":"eu","cc":"de","latitude":50.110924,"longitude":8.682127,"reserved":0,"last_update":"0001-01-01T00:00:00Z","name_a2s":"Uncletopia | Frankfurt | 7 | Stopwatch Beta","protocol":17,"map":"workshop/pl_barnblitz_pro7.ugc582280235","folder":"tf","game":"Team Fortress","app_id":440,"player_count":0,"max_players":24,"Bots":0,"server_type":"Dedicated","server_os":"Linux","password":true,"vac":true,"version":"7723704","steam_id":85568392924742827,"keywords":["nocrits","nodmgspread","payload","uncletopia"],"game_id":440,"stv_port":27076,"stv_name":"Uncletopia | Frankfurt | 7 | Stopwatch Beta | STV","players":null},{"server_id":24,"name":"Uncletopia | Frankfurt | 8 | Community","name_short":"frk-8","host":"frk-1.de.uncletopia.com","port":27085,"enabled":true,"region":"eu","cc":"de","latitude":50.110924,"longitude":8.682127,"reserved":0,"last_update":"0001-01-01T00:00:00Z","name_a2s":"Uncletopia | Frankfurt | 8 | Community","protocol":17,"map":"workshop/koth_synthetic_rc6a.ugc1549817316","folder":"tf","game":"Team Fortress","app_id":440,"player_count":0,"max_players":24,"Bots":0,"server_type":"Dedicated","server_os":"Linux","password":true,"vac":true,"version":"7723704","steam_id":85568392924742828,"keywords":["cp","nocrits","nodmgspread","uncletopia"],"game_id":440,"stv_port":27086,"stv_name":"Uncletopia | Frankfurt | 8 | Community | STV","players":null},{"server_id":202,"name":"Uncletopia | Hong Kong | 1 | All Maps","name_short":"hgk-1","host":"hgk-1.hk.uncletopia.com","port":27015,"enabled":true,"region":"asia","cc":"hk","latitude":22.302711,"longitude":114.177216,"reserved":0,"last_update":"0001-01-01T00:00:00Z","name_a2s":"Uncletopia | Hong Kong | 1 | All Maps","protocol":17,"map":"cp_snakewater_final1","folder":"tf","game":"Team Fortress","app_id":440,"player_count":0,"max_players":24,"Bots":0,"server_type":"Dedicated","server_os":"Linux","password":true,"vac":true,"version":"7723704","steam_id":85568392924494504,"keywords":["cp","nocrits","nodmgspread","uncletopia"],"game_id":440,"stv_port":27016,"stv_name":"Uncletopia | Hong Kong | 1 | All Maps | STV","players":null},{"server_id":1,"name":"Uncletopia | Los Angeles | 1 | All Maps","name_short":"lax-1","host":"lax-1.us.uncletopia.com","port":27015,"enabled":true,"region":"us-west","cc":"us","latitude":33.94279,"longitude":-118.41004,"reserved":0,"last_update":"0001-01-01T00:00:00Z","name_a2s":"Uncletopia | Los Angeles | 1 | All Maps","protocol":17,"map":"cp_sunshine","folder":"tf","game":"Team Fortress","app_id":440,"player_count":20,"max_players":24,"Bots":0,"server_type":"Dedicated","server_os":"Linux","password":true,"vac":true,"version":"7723704","steam_id":85568392924469991,"keywords":["nocrits","nodmgspread","payload","uncletopia"],"game_id":440,"stv_port":27016,"stv_name":"Uncletopia | Los Angeles | 1 | All Maps | STV","players":[{"user_id":4,"name":"Nibotshooter","steam_id":76561199284825579,"connected_time":3772000000000,"state":"connecting","ping":77},{"user_id":14,"name":"Jade Greenleaf","steam_id":76561198304845413,"connected_time":2367000000000,"state":"connecting","ping":144},{"user_id":30,"name":"bomb","steam_id":76561198359135819,"connected_time":1303000000000,"state":"connecting","ping":181},{"user_id":26,"name":"root rot","steam_id":76561198178628466,"connected_time":1527000000000,"state":"connecting","ping":111},{"user_id":31,"name":"Milk","steam_id":76561198004362373,"connected_time":1293000000000,"state":"connecting","ping":88},{"user_id":53,"name":"Chalupa Jones","steam_id":76561198335855588,"connected_time":164000000000,"state":"connecting","ping":60},{"user_id":27,"name":"HappyCocoa","steam_id":76561198189001527,"connected_time":1501000000000,"state":"spawning","ping":91},{"user_id":54,"name":"video games","steam_id":76561198334059206,"connected_time":143000000000,"state":"spawning","ping":66},{"user_id":55,"name":"KingTinkerer","steam_id":76561198226856548,"connected_time":131000000000,"state":"connecting","ping":106},{"user_id":42,"name":"Meepster","steam_id":76561198146305159,"connected_time":934000000000,"state":"spawning","ping":64},{"user_id":28,"name":"tuck n' roll","steam_id":76561198009170416,"connected_time":1469000000000,"state":"connecting","ping":132},{"user_id":17,"name":"JunkInTheTrunk_Owen","steam_id":76561198893589426,"connected_time":2188000000000,"state":"connecting","ping":144},{"user_id":58,"name":"spunch burb","steam_id":76561199125260430,"connected_time":30000000000,"state":"connecting","ping":109},{"user_id":56,"name":"oph","steam_id":76561198342480009,"connected_time":124000000000,"state":"connecting","ping":68},{"user_id":20,"name":"Furious George","steam_id":76561198405111646,"connected_time":2095000000000,"state":"connecting","ping":64},{"user_id":43,"name":"Locke","steam_id":76561197972370548,"connected_time":880000000000,"state":"connecting","ping":68},{"user_id":57,"name":"xerro","steam_id":76561198323340524,"connected_time":68000000000,"state":"connecting","ping":122},{"user_id":44,"name":"lolosaur","steam_id":76561199186671167,"connected_time":850000000000,"state":"connecting","ping":97}]},{"server_id":112,"name":"Uncletopia | Los Angeles | 2 | All Maps","name_short":"lax-2","host":"lax-1.us.uncletopia.com","port":27025,"enabled":true,"region":"us-west","cc":"us","latitude":33.94279,"longitude":-118.41004,"reserved":0,"last_update":"0001-01-01T00:00:00Z","name_a2s":"Uncletopia | Los Angeles | 2 | All Maps","protocol":17,"map":"koth_viaduct","folder":"tf","game":"Team Fortress","app_id":440,"player_count":4,"max_players":24,"Bots":0,"server_type":"Dedicated","server_os":"Linux","password":true,"vac":true,"version":"7723704","steam_id":85568392924469992,"keywords":["cp","nocrits","nodmgspread","uncletopia"],"game_id":440,"stv_port":27026,"stv_name":"Uncletopia | Los Angeles | 2 | All Maps | STV","players":[{"user_id":4,"name":"CGW1ldCardCh","steam_id":76561199097618184,"connected_time":1320000000000,"state":"active","ping":52},{"user_id":5,"name":"patrick","steam_id":76561199186549619,"connected_time":1309000000000,"state":"active","ping":47},{"user_id":10,"name":"void","steam_id":76561198241303512,"connected_time":21000000000,"state":"active","ping":232},{"user_id":11,"name":"R","steam_id":76561198309760791,"connected_time":0,"state":"spawning","ping":50}]},{"server_id":324,"name":"Uncletopia | Los Angeles | 3 | All Maps","name_short":"lax-3","host":"lax-1.us.uncletopia.com","port":27035,"enabled":true,"region":"us-west","cc":"us","latitude":33.94279,"longitude":-118.41004,"reserved":0,"last_update":"0001-01-01T00:00:00Z","name_a2s":"Uncletopia | Los Angeles | 3 | All Maps","protocol":17,"map":"koth_viaduct","folder":"tf","game":"Team Fortress","app_id":440,"player_count":3,"max_players":24,"Bots":0,"server_type":"Dedicated","server_os":"Linux","password":true,"vac":true,"version":"7723704","steam_id":85568392924510198,"keywords":["cp","nocrits","nodmgspread","uncletopia"],"game_id":440,"stv_port":27036,"stv_name":"Uncletopia | Los Angeles | 3 | All Maps | STV","players":[{"user_id":8,"name":"Stimpry","steam_id":76561199055662248,"connected_time":332000000000,"state":"active","ping":44},{"user_id":9,"name":"ZAWZARK","steam_id":76561199137607070,"connected_time":321000000000,"state":"active","ping":109},{"user_id":10,"name":"freg","steam_id":76561199229629045,"connected_time":92000000000,"state":"active","ping":57}]},{"server_id":25,"name":"Uncletopia | Los Angeles | 4 | Stopwatch Beta","name_short":"lax-4","host":"lax-1.us.uncletopia.com","port":27045,"enabled":true,"region":"us-west","cc":"us","latitude":33.94279,"longitude":-118.41004,"reserved":0,"last_update":"0001-01-01T00:00:00Z","name_a2s":"Uncletopia | Los Angeles | 4 | Stopwatch Beta","protocol":17,"map":"cp_sunshine","folder":"tf","game":"Team Fortress","app_id":440,"player_count":0,"max_players":24,"Bots":0,"server_type":"Dedicated","server_os":"Linux","password":true,"vac":true,"version":"7723704","steam_id":85568392924510199,"keywords":["cp","nocrits","nodmgspread","uncletopia"],"game_id":440,"stv_port":27046,"stv_name":"Uncletopia | Los Angeles | 4 | Stopwatch Beta | STV","players":null},{"server_id":11,"name":"Uncletopia | London | 1 | All Maps","name_short":"lon-1","host":"lon-1.uk.uncletopia.com","port":27015,"enabled":true,"region":"eu","cc":"gb","latitude":51.509865,"longitude":-0.118092,"reserved":0,"last_update":"0001-01-01T00:00:00Z","name_a2s":"Uncletopia | London | 1 | All Maps","protocol":17,"map":"pl_hoodoo_final","folder":"tf","game":"Team Fortress","app_id":440,"player_count":24,"max_players":24,"Bots":0,"server_type":"Dedicated","server_os":"Linux","password":true,"vac":true,"version":"7723704","steam_id":85568392924367362,"keywords":["nocrits","nodmgspread","payload","uncletopia"],"game_id":440,"stv_port":27016,"stv_name":"Uncletopia | London | 1 | All Maps | STV","players":[{"user_id":668,"name":"gnarly business","steam_id":76561198832688767,"connected_time":1003000000000,"state":"active","ping":52},{"user_id":670,"name":"merry beebo","steam_id":76561199120277007,"connected_time":158000000000,"state":"active","ping":43},{"user_id":647,"name":"chrissymas","steam_id":76561198096547662,"connected_time":4002000000000,"state":"active","ping":51},{"user_id":662,"name":"♥ඞlilyඞ♥merry mongus!\ufffd\ufffd","steam_id":76561198049840460,"connected_time":2093000000000,"state":"active","ping":53},{"user_id":655,"name":"Festdoktor","steam_id":76561198058159271,"connected_time":3656000000000,"state":"active","ping":66},{"user_id":638,"name":"KPhii","steam_id":76561198970587061,"connected_time":5287000000000,"state":"active","ping":59},{"user_id":656,"name":"Morno","steam_id":76561198028519110,"connected_time":3293000000000,"state":"active","ping":50},{"user_id":674,"name":"wG shin nouzen","steam_id":76561197999595616,"connected_time":84000000000,"state":"active","ping":51},{"user_id":669,"name":"Festive Yuletart","steam_id":76561198023918830,"connected_time":183000000000,"state":"active","ping":44},{"user_id":645,"name":"Posho","steam_id":76561198062396436,"connected_time":4047000000000,"state":"active","ping":40},{"user_id":658,"name":"LavenderJayJay","steam_id":76561198966667657,"connected_time":2766000000000,"state":"active","ping":46},{"user_id":646,"name":"SOPHIIEE","steam_id":76561198443798981,"connected_time":4023000000000,"state":"active","ping":56},{"user_id":671,"name":"monikka","steam_id":76561198297003397,"connected_time":110000000000,"state":"active","ping":75},{"user_id":605,"name":"MAJAX","steam_id":76561198254828632,"connected_time":8186000000000,"state":"active","ping":50},{"user_id":629,"name":"ECS","steam_id":76561198058910121,"connected_time":6504000000000,"state":"active","ping":46},{"user_id":650,"name":"Bones","steam_id":76561198065081225,"connected_time":3753000000000,"state":"active","ping":45},{"user_id":562,"name":"Mango","steam_id":76561198139555709,"connected_time":12818000000000,"state":"active","ping":60},{"user_id":672,"name":"Vince","steam_id":76561199103000131,"connected_time":110000000000,"state":"active","ping":47},{"user_id":665,"name":"Grim the lemon","steam_id":76561199083433988,"connected_time":1188000000000,"state":"active","ping":51},{"user_id":673,"name":"AWildTamim","steam_id":76561198048060652,"connected_time":105000000000,"state":"active","ping":48},{"user_id":675,"name":"3xample","steam_id":76561198805049375,"connected_time":68000000000,"state":"active","ping":62},{"user_id":653,"name":"LarsInABox","steam_id":76561198028329262,"connected_time":3679000000000,"state":"active","ping":71},{"user_id":664,"name":"Merry Ketamine","steam_id":76561198073769916,"connected_time":1274000000000,"state":"active","ping":56},{"user_id":667,"name":"Chloemew | TFConnect 2022!","steam_id":76561198042071762,"connected_time":1028000000000,"state":"active","ping":45}]},{"server_id":114,"name":"Uncletopia | London | 2 | All Maps","name_short":"lon-2","host":"lon-1.uk.uncletopia.com","port":27025,"enabled":true,"region":"eu","cc":"gb","latitude":51.509865,"longitude":-0.118092,"reserved":0,"last_update":"0001-01-01T00:00:00Z","name_a2s":"Uncletopia | London | 2 | All Maps","protocol":17,"map":"pl_pier","folder":"tf","game":"Team Fortress","app_id":440,"player_count":24,"max_players":24,"Bots":0,"server_type":"Dedicated","server_os":"Linux","password":true,"vac":true,"version":"7723704","steam_id":85568392924470941,"keywords":["nocrits","nodmgspread","payload","uncletopia"],"game_id":440,"stv_port":27026,"stv_name":"Uncletopia | London | 2 | All Maps | STV","players":[{"user_id":646,"name":"magnus","steam_id":76561198045570936,"connected_time":405000000000,"state":"active","ping":75},{"user_id":590,"name":"nes","steam_id":76561198037938833,"connected_time":5262000000000,"state":"active","ping":51},{"user_id":642,"name":"MAKENTAKEN","steam_id":76561199127359587,"connected_time":1081000000000,"state":"active","ping":95},{"user_id":647,"name":"When Life gives you Lemons","steam_id":76561198318290663,"connected_time":186000000000,"state":"active","ping":57},{"user_id":636,"name":"SimplePig","steam_id":76561198071862153,"connected_time":1910000000000,"state":"active","ping":111},{"user_id":599,"name":"tristan","steam_id":76561198096097448,"connected_time":4040000000000,"state":"active","ping":55},{"user_id":617,"name":"LOBZIK","steam_id":76561198114830120,"connected_time":3547000000000,"state":"active","ping":81},{"user_id":637,"name":"Umbro","steam_id":76561198087930438,"connected_time":1832000000000,"state":"active","ping":75},{"user_id":611,"name":"fiyahstorm","steam_id":76561197992574261,"connected_time":3726000000000,"state":"active","ping":42},{"user_id":651,"name":"AWJ ˆ-ˆ","steam_id":76561198053628243,"connected_time":133000000000,"state":"active","ping":45},{"user_id":638,"name":"sleppykoche milk boy","steam_id":76561199046520128,"connected_time":1822000000000,"state":"active","ping":52},{"user_id":633,"name":"high priest","steam_id":76561198344887031,"connected_time":2791000000000,"state":"active","ping":55},{"user_id":645,"name":"gamer man","steam_id":76561198436817109,"connected_time":503000000000,"state":"active","ping":46},{"user_id":621,"name":"Proto-arc","steam_id":76561198012776747,"connected_time":3490000000000,"state":"active","ping":58},{"user_id":622,"name":"Ser Vincenzo","steam_id":76561198040647743,"connected_time":3478000000000,"state":"active","ping":141},{"user_id":602,"name":"Mor'du","steam_id":76561198274105878,"connected_time":3995000000000,"state":"active","ping":94},{"user_id":649,"name":"slnc","steam_id":76561198041151496,"connected_time":177000000000,"state":"active","ping":74},{"user_id":635,"name":"beeb","steam_id":76561198033460021,"connected_time":2720000000000,"state":"active","ping":112},{"user_id":615,"name":"Lyell","steam_id":76561198350329389,"connected_time":3583000000000,"state":"active","ping":76},{"user_id":634,"name":"Piteras","steam_id":76561198858532207,"connected_time":2789000000000,"state":"active","ping":78},{"user_id":654,"name":"zaleek69","steam_id":76561198058877595,"connected_time":20000000000,"state":"active","ping":74},{"user_id":653,"name":"Grand Wizard","steam_id":76561199414716848,"connected_time":130000000000,"state":"active","ping":75},{"user_id":644,"name":"drwhut","steam_id":76561198070218857,"connected_time":768000000000,"state":"active","ping":44},{"user_id":631,"name":"the scunge","steam_id":76561198089201193,"connected_time":2939000000000,"state":"active","ping":68}]},{"server_id":320,"name":"Uncletopia | London | 3 | All Maps","name_short":"lon-3","host":"lon-1.uk.uncletopia.com","port":27035,"enabled":true,"region":"eu","cc":"gb","latitude":51.509865,"longitude":-0.118092,"reserved":0,"last_update":"0001-01-01T00:00:00Z","name_a2s":"Uncletopia | London | 3 | All Maps","protocol":17,"map":"pl_badwater","folder":"tf","game":"Team Fortress","app_id":440,"player_count":21,"max_players":24,"Bots":0,"server_type":"Dedicated","server_os":"Linux","password":true,"vac":true,"version":"7723704","steam_id":85568392924510192,"keywords":["nocrits","nodmgspread","payload","uncletopia"],"game_id":440,"stv_port":27036,"stv_name":"Uncletopia | London | 3 | All Maps | STV","players":[{"user_id":559,"name":"Cuthbert","steam_id":76561198204649481,"connected_time":610000000000,"state":"active","ping":97},{"user_id":552,"name":"restloud","steam_id":76561198265722644,"connected_time":1441000000000,"state":"active","ping":89},{"user_id":525,"name":"Nnyllazxz","steam_id":76561198247797436,"connected_time":2750000000000,"state":"active","ping":116},{"user_id":528,"name":"SuntanPikachu","steam_id":76561198121242476,"connected_time":2430000000000,"state":"active","ping":69},{"user_id":568,"name":"downtown boy","steam_id":76561197983094802,"connected_time":14000000000,"state":"spawning","ping":95},{"user_id":566,"name":"Haircut Police","steam_id":76561198084197772,"connected_time":98000000000,"state":"active","ping":59},{"user_id":563,"name":"The Fellow Feller","steam_id":76561198188864306,"connected_time":335000000000,"state":"active","ping":67},{"user_id":554,"name":"ryzorandol","steam_id":76561199037726166,"connected_time":1377000000000,"state":"active","ping":46},{"user_id":558,"name":"magnarull","steam_id":76561198972383118,"connected_time":993000000000,"state":"active","ping":333},{"user_id":534,"name":"OutOfDucks","steam_id":76561198166376227,"connected_time":2362000000000,"state":"active","ping":48},{"user_id":443,"name":"Kotlet schabowy","steam_id":76561198048983509,"connected_time":7739000000000,"state":"active","ping":71},{"user_id":479,"name":"NormalMan","steam_id":76561198411005486,"connected_time":4711000000000,"state":"active","ping":88},{"user_id":545,"name":"Zateske","steam_id":76561198047446276,"connected_time":1780000000000,"state":"active","ping":65},{"user_id":510,"name":"bucket hat larry","steam_id":76561198136511793,"connected_time":3582000000000,"state":"active","ping":60},{"user_id":520,"name":"ned01","steam_id":76561198351845599,"connected_time":3087000000000,"state":"active","ping":55},{"user_id":560,"name":"Well-seasoned Imoki","steam_id":76561198964028825,"connected_time":588000000000,"state":"active","ping":45},{"user_id":537,"name":"NonProphet","steam_id":76561198280149820,"connected_time":2326000000000,"state":"active","ping":54},{"user_id":539,"name":"Svilar","steam_id":76561198828348612,"connected_time":2288000000000,"state":"active","ping":54},{"user_id":561,"name":"rolmos","steam_id":76561198024121853,"connected_time":380000000000,"state":"active","ping":68},{"user_id":562,"name":"「K I L L E R  Q U E E N」","steam_id":76561198010269803,"connected_time":356000000000,"state":"active","ping":40},{"user_id":565,"name":"lark","steam_id":76561198091724522,"connected_time":151000000000,"state":"active","ping":56}]},{"server_id":321,"name":"Uncletopia | London | 4 | All Maps","name_short":"lon-4","host":"lon-1.uk.uncletopia.com","port":27045,"enabled":true,"region":"eu","cc":"gb","latitude":51.509865,"longitude":-0.118092,"reserved":0,"last_update":"0001-01-01T00:00:00Z","name_a2s":"Uncletopia | London | 4 | All Maps","protocol":17,"map":"pl_borneo","folder":"tf","game":"Team Fortress","app_id":440,"player_count":24,"max_players":24,"Bots":0,"server_type":"Dedicated","server_os":"Linux","password":true,"vac":true,"version":"7723704","steam_id":85568392924510193,"keywords":["nocrits","nodmgspread","payload","uncletopia"],"game_id":440,"stv_port":27046,"stv_name":"Uncletopia | London | 4 | All Maps | STV","players":[{"user_id":176,"name":"Pygarque00fr","steam_id":76561198048432227,"connected_time":2049000000000,"state":"active","ping":64},{"user_id":195,"name":"Pizza/Cheese/Pepperoni","steam_id":76561198174510235,"connected_time":628000000000,"state":"active","ping":46},{"user_id":189,"name":"Gety0","steam_id":76561198044387185,"connected_time":1450000000000,"state":"active","ping":96},{"user_id":174,"name":"InsectKing","steam_id":76561199013519071,"connected_time":2702000000000,"state":"active","ping":40},{"user_id":117,"name":"|20BB)\u003eMach","steam_id":76561198952487564,"connected_time":7057000000000,"state":"active","ping":90},{"user_id":178,"name":"Veri-merry-tasket","steam_id":76561198090074093,"connected_time":2033000000000,"state":"active","ping":115},{"user_id":130,"name":"Ross from F.R.I.E.N.D.S.","steam_id":76561198008511665,"connected_time":5915000000000,"state":"active","ping":56},{"user_id":100,"name":"Grimm","steam_id":76561198044684227,"connected_time":8052000000000,"state":"active","ping":61},{"user_id":139,"name":"Koli","steam_id":76561197992428783,"connected_time":5274000000000,"state":"active","ping":60},{"user_id":172,"name":"eba","steam_id":76561198309765812,"connected_time":2804000000000,"state":"active","ping":94},{"user_id":186,"name":"Vilhelm","steam_id":76561198157521187,"connected_time":1603000000000,"state":"active","ping":89},{"user_id":175,"name":"Scotty","steam_id":76561197991276547,"connected_time":2505000000000,"state":"active","ping":37},{"user_id":132,"name":"|Bobby|","steam_id":76561198154208319,"connected_time":5901000000000,"state":"active","ping":60},{"user_id":193,"name":"obi","steam_id":76561198040154461,"connected_time":844000000000,"state":"active","ping":63},{"user_id":190,"name":"Salesman","steam_id":76561198045527771,"connected_time":1376000000000,"state":"active","ping":51},{"user_id":196,"name":"pezza","steam_id":76561197995173247,"connected_time":570000000000,"state":"active","ping":56},{"user_id":103,"name":"Kanye West","steam_id":76561198382533813,"connected_time":7805000000000,"state":"active","ping":48},{"user_id":164,"name":"William Rand","steam_id":76561198958437859,"connected_time":3029000000000,"state":"active","ping":51},{"user_id":194,"name":"Trytard","steam_id":76561198094507220,"connected_time":766000000000,"state":"active","ping":45},{"user_id":134,"name":"NoShield","steam_id":76561198831300551,"connected_time":5884000000000,"state":"active","ping":123},{"user_id":144,"name":"Frazzles","steam_id":76561199228009586,"connected_time":4222000000000,"state":"active","ping":41},{"user_id":192,"name":"giclure :;","steam_id":76561197986362828,"connected_time":1007000000000,"state":"active","ping":76},{"user_id":185,"name":"Gearslut","steam_id":76561198114601678,"connected_time":1740000000000,"state":"active","ping":58},{"user_id":167,"name":"Tobi","steam_id":76561198049890080,"connected_time":2996000000000,"state":"active","ping":45}]},{"server_id":21,"name":"Uncletopia | London | 5 | All Maps","name_short":"lon-5","host":"lon-1.uk.uncletopia.com","port":27055,"enabled":true,"region":"eu","cc":"gb","latitude":51.509865,"longitude":-0.118092,"reserved":0,"last_update":"0001-01-01T00:00:00Z","name_a2s":"Uncletopia | London | 5 | All Maps","protocol":17,"map":"cp_mountainlab","folder":"tf","game":"Team Fortress","app_id":440,"player_count":0,"max_players":24,"Bots":0,"server_type":"Dedicated","server_os":"Linux","password":true,"vac":true,"version":"7723704","steam_id":85568392924742829,"keywords":["cp","nocrits","nodmgspread","uncletopia"],"game_id":440,"stv_port":27056,"stv_name":"Uncletopia | London | 5 | All Maps | STV","players":null},{"server_id":22,"name":"Uncletopia | London | 6 | All Maps","name_short":"lon-6","host":"lon-1.uk.uncletopia.com","port":27065,"enabled":true,"region":"eu","cc":"gb","latitude":51.509865,"longitude":-0.118092,"reserved":0,"last_update":"0001-01-01T00:00:00Z","name_a2s":"Uncletopia | London | 6 | All Maps","protocol":17,"map":"koth_lakeside_final","folder":"tf","game":"Team Fortress","app_id":440,"player_count":0,"max_players":24,"Bots":0,"server_type":"Dedicated","server_os":"Linux","password":true,"vac":true,"version":"7723704","steam_id":85568392924742830,"keywords":["cp","nocrits","nodmgspread","uncletopia"],"game_id":440,"stv_port":27066,"stv_name":"Uncletopia | London | 6 | All Maps | STV","players":null},{"server_id":40,"name":"Uncletopia | London | 7 | No Payload","name_short":"lon-7","host":"lon-1.uk.uncletopia.com","port":27075,"enabled":true,"region":"eu","cc":"gb","latitude":51.509865,"longitude":-0.118092,"reserved":0,"last_update":"0001-01-01T00:00:00Z","name_a2s":"Uncletopia | London | 7 | No Payload","protocol":17,"map":"koth_lazarus","folder":"tf","game":"Team Fortress","app_id":440,"player_count":0,"max_players":24,"Bots":0,"server_type":"Dedicated","server_os":"Linux","password":true,"vac":true,"version":"7723704","steam_id":85568392924964314,"keywords":["cp","nocrits","nodmgspread","uncletopia"],"game_id":440,"stv_port":27076,"stv_name":"Uncletopia | London | 7 | No Payload | STV","players":null},{"server_id":41,"name":"Uncletopia | London | 8 | Community","name_short":"lon-8","host":"lon-1.uk.uncletopia.com","port":27085,"enabled":true,"region":"eu","cc":"gb","latitude":51.509865,"longitude":-0.118092,"reserved":0,"last_update":"0001-01-01T00:00:00Z","name_a2s":"Uncletopia | London | 8 | Community","protocol":17,"map":"workshop/koth_bagel_rc5.ugc2514036946","folder":"tf","game":"Team Fortress","app_id":440,"player_count":0,"max_players":24,"Bots":0,"server_type":"Dedicated","server_os":"Linux","password":true,"vac":true,"version":"7723704","steam_id":85568392924964315,"keywords":["cp","nocrits","nodmgspread","uncletopia"],"game_id":440,"stv_port":27086,"stv_name":"Uncletopia | London | 8 | Community | STV","players":null},{"server_id":300,"name":"Uncletopia | Montréal | 1 | All Maps","name_short":"mtl-1","host":"mtl-1.ca.uncletopia.com","port":27015,"enabled":true,"region":"us-east","cc":"ca","latitude":45.50889,"longitude":-73.56167,"reserved":0,"last_update":"0001-01-01T00:00:00Z","name_a2s":"Uncletopia | Montréal | 1 | All Maps","protocol":17,"map":"pl_snowycoast","folder":"tf","game":"Team Fortress","app_id":440,"player_count":0,"max_players":24,"Bots":0,"server_type":"Dedicated","server_os":"Linux","password":true,"vac":true,"version":"7723704","steam_id":85568392924500087,"keywords":["nocrits","nodmgspread","payload","uncletopia"],"game_id":440,"stv_port":27016,"stv_name":"Uncletopia | Montréal | 1 | All Maps | STV","players":null},{"server_id":301,"name":"Uncletopia | Montréal | 2 | All Maps","name_short":"mtl-2","host":"mtl-1.ca.uncletopia.com","port":27025,"enabled":true,"region":"us-east","cc":"ca","latitude":45.50889,"longitude":-73.56167,"reserved":0,"last_update":"0001-01-01T00:00:00Z","name_a2s":"Uncletopia | Montréal | 2 | All Maps","protocol":17,"map":"cp_process_final","folder":"tf","game":"Team Fortress","app_id":440,"player_count":0,"max_players":24,"Bots":0,"server_type":"Dedicated","server_os":"Linux","password":true,"vac":true,"version":"7723704","steam_id":85568392924500088,"keywords":["cp","nocrits","nodmgspread","uncletopia"],"game_id":440,"stv_port":27026,"stv_name":"Uncletopia | Montréal | 2 | All Maps | STV","players":null},{"server_id":302,"name":"Uncletopia | Montréal | 3 | All Maps","name_short":"mtl-3","host":"mtl-1.ca.uncletopia.com","port":27035,"enabled":true,"region":"us-east","cc":"ca","latitude":45.50889,"longitude":-73.56167,"reserved":0,"last_update":"0001-01-01T00:00:00Z","name_a2s":"Uncletopia | Montréal | 3 | All Maps","protocol":17,"map":"pl_barnblitz","folder":"tf","game":"Team Fortress","app_id":440,"player_count":0,"max_players":24,"Bots":0,"server_type":"Dedicated","server_os":"Linux","password":true,"vac":true,"version":"7723704","steam_id":85568392924500089,"keywords":["nocrits","nodmgspread","payload","uncletopia"],"game_id":440,"stv_port":27036,"stv_name":"Uncletopia | Montréal | 3 | All Maps | STV","players":null},{"server_id":303,"name":"Uncletopia | Montréal | 4 | No Payload","name_short":"mtl-4","host":"mtl-1.ca.uncletopia.com","port":27045,"enabled":true,"region":"us-east","cc":"ca","latitude":45.50889,"longitude":-73.56167,"reserved":0,"last_update":"0001-01-01T00:00:00Z","name_a2s":"Uncletopia | Montréal | 4 | No Payload","protocol":17,"map":"koth_cascade","folder":"tf","game":"Team Fortress","app_id":440,"player_count":0,"max_players":24,"Bots":0,"server_type":"Dedicated","server_os":"Linux","password":true,"vac":true,"version":"7723704","steam_id":85568392924500090,"keywords":["cp","nocrits","nodmgspread","uncletopia"],"game_id":440,"stv_port":27046,"stv_name":"Uncletopia | Montréal | 4 | No Payload | STV","players":null},{"server_id":13,"name":"Uncletopia | New York City | 1 | All Maps","name_short":"nyc-1","host":"nyc-1.us.uncletopia.com","port":27015,"enabled":true,"region":"us-east","cc":"us","latitude":40.73061,"longitude":-73.93524,"reserved":0,"last_update":"0001-01-01T00:00:00Z","name_a2s":"Uncletopia | New York City | 1 | All Maps","protocol":17,"map":"koth_viaduct","folder":"tf","game":"Team Fortress","app_id":440,"player_count":6,"max_players":24,"Bots":0,"server_type":"Dedicated","server_os":"Linux","password":true,"vac":true,"version":"7723704","steam_id":85568392924469993,"keywords":["cp","nocrits","nodmgspread","uncletopia"],"game_id":440,"stv_port":27016,"stv_name":"Uncletopia | New York City | 1 | All Maps | STV","players":[{"user_id":24,"name":"piflle","steam_id":76561199283873577,"connected_time":1056000000000,"state":"active","ping":65},{"user_id":29,"name":"ndvr","steam_id":76561199379200102,"connected_time":253000000000,"state":"active","ping":31},{"user_id":26,"name":"the12xu","steam_id":76561198197086561,"connected_time":892000000000,"state":"active","ping":57},{"user_id":27,"name":"ultimatedwarff","steam_id":76561199093061230,"connected_time":820000000000,"state":"active","ping":59},{"user_id":28,"name":"John Creighton-Cruz Harrison","steam_id":76561198031611806,"connected_time":622000000000,"state":"active","ping":44},{"user_id":31,"name":"giogioboi235","steam_id":76561199102124882,"connected_time":30000000000,"state":"active","ping":38}]},{"server_id":14,"name":"Uncletopia | New York City | 2 | All Maps","name_short":"nyc-2","host":"nyc-1.us.uncletopia.com","port":27025,"enabled":true,"region":"us-east","cc":"us","latitude":40.73061,"longitude":-73.93524,"reserved":0,"last_update":"0001-01-01T00:00:00Z","name_a2s":"Uncletopia | New York City | 2 | All Maps","protocol":17,"map":"pl_pier","folder":"tf","game":"Team Fortress","app_id":440,"player_count":0,"max_players":24,"Bots":0,"server_type":"Dedicated","server_os":"Linux","password":true,"vac":true,"version":"7723704","steam_id":85568392924469994,"keywords":["nocrits","nodmgspread","payload","uncletopia"],"game_id":440,"stv_port":27026,"stv_name":"Uncletopia | New York City | 2 | All Maps | STV","players":null},{"server_id":15,"name":"Uncletopia | New York City | 3 | Stopwatch Beta","name_short":"nyc-3","host":"nyc-1.us.uncletopia.com","port":27035,"enabled":true,"region":"us-east","cc":"us","latitude":40.73061,"longitude":-73.93524,"reserved":0,"last_update":"0001-01-01T00:00:00Z","name_a2s":"Uncletopia | New York City | 3 | Stopwatch Beta","protocol":17,"map":"cp_sunshine","folder":"tf","game":"Team Fortress","app_id":440,"player_count":0,"max_players":24,"Bots":0,"server_type":"Dedicated","server_os":"Linux","password":true,"vac":true,"version":"7723704","steam_id":85568392924742820,"keywords":["cp","nocrits","nodmgspread","uncletopia"],"game_id":440,"stv_port":27036,"stv_name":"Uncletopia | New York City | 3 | Stopwatch Beta | STV","players":null},{"server_id":16,"name":"Uncletopia | New York City | 4 | Community","name_short":"nyc-4","host":"nyc-1.us.uncletopia.com","port":27045,"enabled":true,"region":"us-east","cc":"us","latitude":40.73061,"longitude":-73.93524,"reserved":0,"last_update":"0001-01-01T00:00:00Z","name_a2s":"Uncletopia | New York City | 4 | Community","protocol":17,"map":"workshop/cp_sulfur_rc2.ugc619869471","folder":"tf","game":"Team Fortress","app_id":440,"player_count":0,"max_players":24,"Bots":0,"server_type":"Dedicated","server_os":"Linux","password":true,"vac":true,"version":"7723704","steam_id":85568392924742821,"keywords":["cp","nocrits","nodmgspread","uncletopia"],"game_id":440,"stv_port":27046,"stv_name":"Uncletopia | New York City | 4 | Community | STV","players":null},{"server_id":142,"name":"Uncletopia | São Paulo | 1 | All Maps","name_short":"sao-1","host":"sao-1.br.uncletopia.com","port":27015,"enabled":true,"region":"sa","cc":"br","latitude":-23.533773,"longitude":-46.62529,"reserved":0,"last_update":"0001-01-01T00:00:00Z","name_a2s":"Uncletopia | São Paulo | 1 | All Maps","protocol":17,"map":"cp_sunshine","folder":"tf","game":"Team Fortress","app_id":440,"player_count":0,"max_players":24,"Bots":0,"server_type":"Dedicated","server_os":"Linux","password":true,"vac":true,"version":"7723704","steam_id":85568392924469996,"keywords":["cp","nocrits","nodmgspread","uncletopia"],"game_id":440,"stv_port":27016,"stv_name":"Uncletopia | São Paulo | 1 | All Maps | STV","players":null},{"server_id":143,"name":"Uncletopia | São Paulo | 2 | All Maps","name_short":"sao-2","host":"sao-2.br.uncletopia.com","port":27015,"enabled":true,"region":"sa","cc":"br","latitude":-23.533773,"longitude":-46.62529,"reserved":0,"last_update":"0001-01-01T00:00:00Z","name_a2s":"Uncletopia | São Paulo | 2 | All Maps","protocol":17,"map":"koth_viaduct","folder":"tf","game":"Team Fortress","app_id":440,"player_count":0,"max_players":24,"Bots":0,"server_type":"Dedicated","server_os":"Linux","password":true,"vac":true,"version":"7723704","steam_id":85568392924485349,"keywords":["cp","nocrits","nodmgspread","uncletopia"],"game_id":440,"stv_port":27016,"stv_name":"Uncletopia | São Paulo | 2 | All Maps | STV","players":null},{"server_id":7,"name":"Uncletopia | Seattle | 1 | All Maps","name_short":"sea-1","host":"sea-1.us.uncletopia.com","port":27015,"enabled":true,"region":"us-west","cc":"us","latitude":47.608013,"longitude":-122.33517,"reserved":0,"last_update":"0001-01-01T00:00:00Z","name_a2s":"Uncletopia | Seattle | 1 | All Maps","protocol":17,"map":"cp_snakewater_final1","folder":"tf","game":"Team Fortress","app_id":440,"player_count":24,"max_players":24,"Bots":0,"server_type":"Dedicated","server_os":"Linux","password":true,"vac":true,"version":"7723704","steam_id":85568392924469997,"keywords":["cp","nocrits","nodmgspread","uncletopia"],"game_id":440,"stv_port":27016,"stv_name":"Uncletopia | Seattle | 1 | All Maps | STV","players":[{"user_id":365,"name":"huiei","steam_id":76561198073763735,"connected_time":3626000000000,"state":"active","ping":67},{"user_id":408,"name":".Kitsune","steam_id":76561199014286847,"connected_time":482000000000,"state":"active","ping":95},{"user_id":413,"name":"tophawkyy","steam_id":76561199075934685,"connected_time":336000000000,"state":"active","ping":77},{"user_id":400,"name":"RecklessRoadRage","steam_id":76561199089562026,"connected_time":1173000000000,"state":"active","ping":45},{"user_id":358,"name":"Tcmano","steam_id":76561198057233847,"connected_time":4281000000000,"state":"active","ping":84},{"user_id":414,"name":"shane","steam_id":76561198060491451,"connected_time":256000000000,"state":"active","ping":87},{"user_id":418,"name":"Waltuh","steam_id":76561199245086729,"connected_time":166000000000,"state":"active","ping":102},{"user_id":394,"name":"eraser cat","steam_id":76561199045570463,"connected_time":1808000000000,"state":"active","ping":55},{"user_id":397,"name":"Memefish","steam_id":76561199260529819,"connected_time":1416000000000,"state":"active","ping":66},{"user_id":346,"name":"AKKAWI","steam_id":76561198203159952,"connected_time":4805000000000,"state":"active","ping":77},{"user_id":356,"name":"a crazy hobo","steam_id":76561198289650060,"connected_time":4424000000000,"state":"active","ping":563},{"user_id":364,"name":"Ngsterson","steam_id":76561198162108154,"connected_time":3640000000000,"state":"active","ping":53},{"user_id":402,"name":"Kawflynn","steam_id":76561198029885678,"connected_time":817000000000,"state":"active","ping":93},{"user_id":410,"name":"Sol","steam_id":76561198803824764,"connected_time":379000000000,"state":"active","ping":77},{"user_id":415,"name":"wideface","steam_id":76561198414122318,"connected_time":255000000000,"state":"active","ping":118},{"user_id":419,"name":"resting neutral face","steam_id":76561197999259502,"connected_time":163000000000,"state":"active","ping":60},{"user_id":344,"name":"MisterManne","steam_id":76561198106598600,"connected_time":4876000000000,"state":"active","ping":51},{"user_id":368,"name":"Genius Meme","steam_id":76561198162911254,"connected_time":3300000000000,"state":"active","ping":63},{"user_id":412,"name":"ZEKKER","steam_id":76561197967968980,"connected_time":361000000000,"state":"active","ping":42},{"user_id":420,"name":"Doge","steam_id":76561199211345801,"connected_time":156000000000,"state":"active","ping":117},{"user_id":353,"name":"Frongus","steam_id":76561197979056451,"connected_time":4492000000000,"state":"active","ping":48},{"user_id":363,"name":"Dabois","steam_id":76561199147193419,"connected_time":3677000000000,"state":"active","ping":83},{"user_id":399,"name":"Yuki","steam_id":76561198095257163,"connected_time":1309000000000,"state":"active","ping":98},{"user_id":417,"name":"TimTam Tom","steam_id":76561198045988062,"connected_time":243000000000,"state":"active","ping":97}]},{"server_id":119,"name":"Uncletopia | Seattle | 2 | All Maps","name_short":"sea-2","host":"sea-1.us.uncletopia.com","port":27025,"enabled":true,"region":"us-west","cc":"us","latitude":47.608013,"longitude":-122.33517,"reserved":0,"last_update":"0001-01-01T00:00:00Z","name_a2s":"Uncletopia | Seattle | 2 | All Maps","protocol":17,"map":"pl_borneo","folder":"tf","game":"Team Fortress","app_id":440,"player_count":24,"max_players":24,"Bots":0,"server_type":"Dedicated","server_os":"Linux","password":true,"vac":true,"version":"7723704","steam_id":85568392924469998,"keywords":["nocrits","nodmgspread","payload","uncletopia"],"game_id":440,"stv_port":27026,"stv_name":"Uncletopia | Seattle | 2 | All Maps | STV","players":[{"user_id":100,"name":"Disco Chewbacca","steam_id":76561198004324301,"connected_time":1041000000000,"state":"active","ping":45},{"user_id":87,"name":"Saint Laurent Don","steam_id":76561198116820706,"connected_time":1710000000000,"state":"active","ping":50},{"user_id":85,"name":"selvhat","steam_id":76561198114225509,"connected_time":1853000000000,"state":"active","ping":92},{"user_id":105,"name":"femcel larper","steam_id":76561198166827208,"connected_time":807000000000,"state":"active","ping":46},{"user_id":66,"name":"moe","steam_id":76561198929586245,"connected_time":3219000000000,"state":"active","ping":75},{"user_id":120,"name":"SketchyEtchaSketch","steam_id":76561198143747486,"connected_time":120000000000,"state":"active","ping":143},{"user_id":68,"name":"yaoi waoi","steam_id":76561198046073848,"connected_time":3130000000000,"state":"active","ping":45},{"user_id":99,"name":"Chmiken","steam_id":76561199041966499,"connected_time":1099000000000,"state":"active","ping":51},{"user_id":121,"name":"Socialism Doesn't Work","steam_id":76561198044115698,"connected_time":95000000000,"state":"active","ping":121},{"user_id":89,"name":"MCman","steam_id":76561198412110305,"connected_time":1679000000000,"state":"active","ping":88},{"user_id":36,"name":"Spectre","steam_id":76561198025652246,"connected_time":5245000000000,"state":"active","ping":85},{"user_id":90,"name":"Shopkeeper","steam_id":76561198105888756,"connected_time":1676000000000,"state":"active","ping":65},{"user_id":82,"name":"Steve Jobs' cousin Hand Jobs","steam_id":76561198282766831,"connected_time":2460000000000,"state":"active","ping":104},{"user_id":107,"name":"west_coast_hume","steam_id":76561199117076288,"connected_time":719000000000,"state":"active","ping":53},{"user_id":83,"name":"iamoctopii","steam_id":76561198876901076,"connected_time":2142000000000,"state":"active","ping":169},{"user_id":123,"name":"pumpkin patch","steam_id":76561198381020239,"connected_time":14000000000,"state":"active","ping":89},{"user_id":108,"name":"Cosmosis Jones","steam_id":76561198970097093,"connected_time":700000000000,"state":"active","ping":99},{"user_id":92,"name":"KellyKapoor","steam_id":76561198040828123,"connected_time":1646000000000,"state":"active","ping":44},{"user_id":119,"name":"Noelle Deltarune","steam_id":76561199033561817,"connected_time":171000000000,"state":"active","ping":90},{"user_id":95,"name":"vartion","steam_id":76561198272996824,"connected_time":1500000000000,"state":"active","ping":45},{"user_id":114,"name":"Emu","steam_id":76561198004595048,"connected_time":455000000000,"state":"active","ping":57},{"user_id":111,"name":"whimmu","steam_id":76561198370839794,"connected_time":644000000000,"state":"active","ping":101},{"user_id":122,"name":"General Fisticuffs","steam_id":76561198255721392,"connected_time":78000000000,"state":"active","ping":108},{"user_id":112,"name":"tobrehto","steam_id":76561198097544038,"connected_time":618000000000,"state":"active","ping":95}]},{"server_id":406,"name":"Uncletopia | Seattle | 3 | Stopwatch Beta","name_short":"sea-3","host":"sea-1.us.uncletopia.com","port":27035,"enabled":true,"region":"us-west","cc":"us","latitude":47.608013,"longitude":-122.33517,"reserved":0,"last_update":"0001-01-01T00:00:00Z","name_a2s":"Uncletopia | Seattle | 3 | Stopwatch Beta","protocol":17,"map":"cp_altitude","folder":"tf","game":"Team Fortress","app_id":440,"player_count":0,"max_players":24,"Bots":0,"server_type":"Dedicated","server_os":"Linux","password":true,"vac":false,"version":"7723704","steam_id":0,"keywords":["cp","nocrits","nodmgspread","uncletopia"],"game_id":440,"stv_port":27036,"stv_name":"Uncletopia | Seattle | 3 | Stopwatch Beta | STV","players":null},{"server_id":17,"name":"Uncletopia | San Francisco | 1 | All Maps","name_short":"sfo-1","host":"sfo-1.us.uncletopia.com","port":27015,"enabled":true,"region":"us-west","cc":"us","latitude":37.77397,"longitude":-122.4313,"reserved":0,"last_update":"0001-01-01T00:00:00Z","name_a2s":"Uncletopia | San Francisco | 1 | All Maps","protocol":17,"map":"pl_swiftwater_final1","folder":"tf","game":"Team Fortress","app_id":440,"player_count":0,"max_players":24,"Bots":0,"server_type":"Dedicated","server_os":"Linux","password":true,"vac":true,"version":"7723704","steam_id":85568392924469999,"keywords":["nocrits","nodmgspread","payload","uncletopia"],"game_id":440,"stv_port":27016,"stv_name":"Uncletopia | San Francisco | 1 | All Maps | STV","players":null},{"server_id":18,"name":"Uncletopia | San Francisco | 2 | All Maps","name_short":"sfo-2","host":"sfo-1.us.uncletopia.com","port":27025,"enabled":true,"region":"us-west","cc":"us","latitude":37.77397,"longitude":-122.4313,"reserved":0,"last_update":"0001-01-01T00:00:00Z","name_a2s":"Uncletopia | San Francisco | 2 | All Maps","protocol":17,"map":"cp_process_final","folder":"tf","game":"Team Fortress","app_id":440,"player_count":0,"max_players":24,"Bots":0,"server_type":"Dedicated","server_os":"Linux","password":true,"vac":true,"version":"7723704","steam_id":85568392924470000,"keywords":["cp","nocrits","nodmgspread","uncletopia"],"game_id":440,"stv_port":27026,"stv_name":"Uncletopia | San Francisco | 2 | All Maps | STV","players":null},{"server_id":19,"name":"Uncletopia | San Francisco | 3 | Stopwatch Beta","name_short":"sfo-3","host":"sfo-1.us.uncletopia.com","port":27035,"enabled":true,"region":"us-west","cc":"us","latitude":37.77397,"longitude":-122.4313,"reserved":0,"last_update":"0001-01-01T00:00:00Z","name_a2s":"Uncletopia | San Francisco | 3 | Stopwatch Beta","protocol":17,"map":"pl_pier","folder":"tf","game":"Team Fortress","app_id":440,"player_count":0,"max_players":24,"Bots":0,"server_type":"Dedicated","server_os":"Linux","password":true,"vac":true,"version":"7723704","steam_id":85568392924742824,"keywords":["nocrits","nodmgspread","payload","uncletopia"],"game_id":440,"stv_port":27036,"stv_name":"Uncletopia | San Francisco | 3 | Stopwatch Beta | STV","players":null},{"server_id":20,"name":"Uncletopia | San Francisco | 4 | Community","name_short":"sfo-4","host":"sfo-1.us.uncletopia.com","port":27045,"enabled":true,"region":"us-west","cc":"us","latitude":37.77397,"longitude":-122.4313,"reserved":0,"last_update":"0001-01-01T00:00:00Z","name_a2s":"Uncletopia | San Francisco | 4 | Community","protocol":17,"map":"koth_cascade","folder":"tf","game":"Team Fortress","app_id":440,"player_count":5,"max_players":24,"Bots":0,"server_type":"Dedicated","server_os":"Linux","password":true,"vac":true,"version":"7723704","steam_id":85568392924742826,"keywords":["cp","nocrits","nodmgspread","uncletopia"],"game_id":440,"stv_port":27046,"stv_name":"Uncletopia | San Francisco | 4 | Community | STV","players":[{"user_id":9,"name":"Christmas?!!!!1!11","steam_id":76561199100225735,"connected_time":2757000000000,"state":"active","ping":57},{"user_id":10,"name":"Dark Souls fighter","steam_id":76561199242156853,"connected_time":2522000000000,"state":"active","ping":68},{"user_id":12,"name":"shy","steam_id":76561198182346011,"connected_time":479000000000,"state":"active","ping":61},{"user_id":13,"name":"1965tobydowd","steam_id":76561198858551969,"connected_time":407000000000,"state":"active","ping":45},{"user_id":15,"name":"🌸The Syrupy Waffle🌸","steam_id":76561198194095855,"connected_time":77000000000,"state":"active","ping":44}]},{"server_id":141,"name":"Uncletopia | Sydney | 1 | All Maps","name_short":"syd-1","host":"syd-1.au.uncletopia.com","port":27015,"enabled":true,"region":"au","cc":"au","latitude":-33.865143,"longitude":151.2099,"reserved":0,"last_update":"0001-01-01T00:00:00Z","name_a2s":"Uncletopia | Sydney | 1 | All Maps","protocol":17,"map":"cp_dustbowl","folder":"tf","game":"Team Fortress","app_id":440,"player_count":0,"max_players":24,"Bots":0,"server_type":"Dedicated","server_os":"Linux","password":true,"vac":true,"version":"7723704","steam_id":85568392924470001,"keywords":["cp","nocrits","nodmgspread","uncletopia"],"game_id":440,"stv_port":27016,"stv_name":"Uncletopia | Sydney | 1 | All Maps | STV","players":null},{"server_id":123,"name":"Uncletopia | Sydney | 2 | All Maps","name_short":"syd-2","host":"syd-1.au.uncletopia.com","port":27025,"enabled":true,"region":"au","cc":"au","latitude":-33.865143,"longitude":151.2099,"reserved":0,"last_update":"0001-01-01T00:00:00Z","name_a2s":"Uncletopia | Sydney | 2 | All Maps","protocol":17,"map":"cp_snakewater_final1","folder":"tf","game":"Team Fortress","app_id":440,"player_count":0,"max_players":24,"Bots":0,"server_type":"Dedicated","server_os":"Linux","password":true,"vac":true,"version":"7723704","steam_id":85568392924470002,"keywords":["cp","nocrits","nodmgspread","uncletopia"],"game_id":440,"stv_port":27026,"stv_name":"Uncletopia | Sydney | 2 | All Maps | STV","players":null},{"server_id":395,"name":"Uncletopia | Sydney | 3 | All Maps","name_short":"syd-3","host":"syd-1.au.uncletopia.com","port":27035,"enabled":true,"region":"au","cc":"au","latitude":-33.865143,"longitude":151.2099,"reserved":0,"last_update":"0001-01-01T00:00:00Z","name_a2s":"Uncletopia | Sydney | 3 | All Maps","protocol":17,"map":"pl_borneo","folder":"tf","game":"Team Fortress","app_id":440,"player_count":0,"max_players":24,"Bots":0,"server_type":"Dedicated","server_os":"Linux","password":true,"vac":true,"version":"7723704","steam_id":85568392925194467,"keywords":["nocrits","nodmgspread","payload","uncletopia"],"game_id":440,"stv_port":27036,"stv_name":"Uncletopia | Sydney | 3 | All Maps | STV","players":null},{"server_id":396,"name":"Uncletopia | Sydney | 4 | All Maps","name_short":"syd-4","host":"syd-1.au.uncletopia.com","port":27045,"enabled":true,"region":"au","cc":"au","latitude":-33.865143,"longitude":151.2099,"reserved":0,"last_update":"0001-01-01T00:00:00Z","name_a2s":"Uncletopia | Sydney | 4 | All Maps","protocol":17,"map":"pl_pier","folder":"tf","game":"Team Fortress","app_id":440,"player_count":0,"max_players":24,"Bots":0,"server_type":"Dedicated","server_os":"Linux","password":true,"vac":true,"version":"7723704","steam_id":85568392925397958,"keywords":["nocrits","nodmgspread","payload","uncletopia"],"game_id":440,"stv_port":27046,"stv_name":"Uncletopia | Sydney | 4 | All Maps | STV","players":null},{"server_id":58,"name":"Uncletopia | Sydney | 5 | Stopwatch Beta","name_short":"syd-5","host":"syd-1.au.uncletopia.com","port":27055,"enabled":true,"region":"au","cc":"au","latitude":-33.865143,"longitude":151.2099,"reserved":0,"last_update":"0001-01-01T00:00:00Z","name_a2s":"Uncletopia | Sydney | 5 | Stopwatch Beta","protocol":17,"map":"cp_altitude","folder":"tf","game":"Team Fortress","app_id":440,"player_count":0,"max_players":24,"Bots":0,"server_type":"Dedicated","server_os":"Linux","password":true,"vac":true,"version":"7723704","steam_id":85568392925397959,"keywords":["cp","nocrits","nodmgspread","uncletopia"],"game_id":440,"stv_port":27056,"stv_name":"Uncletopia | Sydney | 5 | Stopwatch Beta | STV","players":null},{"server_id":59,"name":"Uncletopia | Sydney | 6 | Community","name_short":"syd-6","host":"syd-1.au.uncletopia.com","port":27065,"enabled":true,"region":"au","cc":"au","latitude":-33.865143,"longitude":151.2099,"reserved":0,"last_update":"0001-01-01T00:00:00Z","name_a2s":"Uncletopia | Sydney | 6 | Community","protocol":17,"map":"pl_frontier_final","folder":"tf","game":"Team Fortress","app_id":440,"player_count":0,"max_players":24,"Bots":0,"server_type":"Dedicated","server_os":"Linux","password":true,"vac":true,"version":"7723704","steam_id":85568392925397960,"keywords":["nocrits","nodmgspread","payload","uncletopia"],"game_id":440,"stv_port":27066,"stv_name":"Uncletopia | Sydney | 6 | Community | STV","players":null},{"server_id":49,"name":"Uncletopia | Warsaw | 1 | All Maps","name_short":"waw-1","host":"waw-1.pl.uncletopia.com","port":27015,"enabled":true,"region":"eu","cc":"pl","latitude":52.2297,"longitude":21.017532,"reserved":0,"last_update":"0001-01-01T00:00:00Z","name_a2s":"Uncletopia | Warsaw | 1 | All Maps","protocol":17,"map":"koth_cascade","folder":"tf","game":"Team Fortress","app_id":440,"player_count":0,"max_players":24,"Bots":0,"server_type":"Dedicated","server_os":"Linux","password":true,"vac":true,"version":"7723704","steam_id":85568392925397850,"keywords":["cp","nocrits","nodmgspread","uncletopia"],"game_id":440,"stv_port":27016,"stv_name":"Uncletopia | Warsaw | 1 | All Maps | STV","players":null},{"server_id":50,"name":"Uncletopia | Warsaw | 2 | All Maps","name_short":"waw-2","host":"waw-1.pl.uncletopia.com","port":27025,"enabled":true,"region":"eu","cc":"pl","latitude":52.2297,"longitude":21.017532,"reserved":0,"last_update":"0001-01-01T00:00:00Z","name_a2s":"Uncletopia | Warsaw | 2 | All Maps","protocol":17,"map":"koth_viaduct","folder":"tf","game":"Team Fortress","app_id":440,"player_count":0,"max_players":24,"Bots":0,"server_type":"Dedicated","server_os":"Linux","password":true,"vac":true,"version":"7723704","steam_id":85568392925397851,"keywords":["cp","nocrits","nodmgspread","uncletopia"],"game_id":440,"stv_port":27026,"stv_name":"Uncletopia | Warsaw | 2 | All Maps | STV","players":null},{"server_id":51,"name":"Uncletopia | Warsaw | 3 | All Maps","name_short":"waw-3","host":"waw-1.pl.uncletopia.com","port":27035,"enabled":true,"region":"eu","cc":"pl","latitude":52.2297,"longitude":21.017532,"reserved":0,"last_update":"0001-01-01T00:00:00Z","name_a2s":"Uncletopia | Warsaw | 3 | All Maps","protocol":17,"map":"koth_viaduct","folder":"tf","game":"Team Fortress","app_id":440,"player_count":0,"max_players":24,"Bots":0,"server_type":"Dedicated","server_os":"Linux","password":true,"vac":true,"version":"7723704","steam_id":85568392925397852,"keywords":["cp","nocrits","nodmgspread","uncletopia"],"game_id":440,"stv_port":27036,"stv_name":"Uncletopia | Warsaw | 3 | All Maps | STV","players":null},{"server_id":52,"name":"Uncletopia | Warsaw | 4 | All Maps","name_short":"waw-4","host":"waw-1.pl.uncletopia.com","port":27045,"enabled":true,"region":"eu","cc":"pl","latitude":52.2297,"longitude":21.017532,"reserved":0,"last_update":"0001-01-01T00:00:00Z","name_a2s":"Uncletopia | Warsaw | 4 | All Maps","protocol":17,"map":"koth_viaduct","folder":"tf","game":"Team Fortress","app_id":440,"player_count":0,"max_players":24,"Bots":0,"server_type":"Dedicated","server_os":"Linux","password":true,"vac":true,"version":"7723704","steam_id":85568392925397853,"keywords":["cp","nocrits","nodmgspread","uncletopia"],"game_id":440,"stv_port":27046,"stv_name":"Uncletopia | Warsaw | 4 | All Maps | STV","players":null},{"server_id":53,"name":"Uncletopia | Warsaw | 5 | Stopwatch Beta","name_short":"waw-5","host":"waw-1.pl.uncletopia.com","port":27055,"enabled":true,"region":"eu","cc":"pl","latitude":52.2297,"longitude":21.017532,"reserved":0,"last_update":"0001-01-01T00:00:00Z","name_a2s":"Uncletopia | Warsaw | 5 | Stopwatch Beta","protocol":17,"map":"cp_sunshine","folder":"tf","game":"Team Fortress","app_id":440,"player_count":0,"max_players":24,"Bots":0,"server_type":"Dedicated","server_os":"Linux","password":true,"vac":true,"version":"7723704","steam_id":85568392925397854,"keywords":["cp","nocrits","nodmgspread","uncletopia"],"game_id":440,"stv_port":27056,"stv_name":"Uncletopia | Warsaw | 5 | Stopwatch Beta | STV","players":null},{"server_id":54,"name":"Uncletopia | Warsaw | 6 | Community","name_short":"waw-6","host":"waw-1.pl.uncletopia.com","port":27065,"enabled":true,"region":"eu","cc":"pl","latitude":52.2297,"longitude":21.017532,"reserved":0,"last_update":"0001-01-01T00:00:00Z","name_a2s":"Uncletopia | Warsaw | 6 | Community","protocol":17,"map":"workshop/koth_slaughter_rc1.ugc1712845210","folder":"tf","game":"Team Fortress","app_id":440,"player_count":0,"max_players":24,"Bots":0,"server_type":"Dedicated","server_os":"Linux","password":true,"vac":true,"version":"7723704","steam_id":85568392925397856,"keywords":["cp","nocrits","nodmgspread","uncletopia"],"game_id":440,"stv_port":27066,"stv_name":"Uncletopia | Warsaw | 6 | Community | STV","players":null}]}