{"status":true,"message":"","result":[{"server_id":9,"name":"Uncletopia | Atlanta | 1 | All Maps","name_short":"atl-1","host":"atl-1.us.uncletopia.com","port":27015,"enabled":true,"region":"us-east","cc":"us","latitude":33.753746,"longitude":-84.38633,"reserved":0,"last_update":"0001-01-01T00:00:00Z","name_a2s":"Uncletopia | Atlanta | 1 | All Maps","protocol":17,"map":"pl_upward","folder":"tf","game":"Team Fortress","app_id":440,"player_count":24,"max_players":24,"Bots":0,"server_type":"Dedicated","server_os":"Linux","password":true,"vac":true,"version":"7695204","steam_id":85568392924469982,"keywords":["nocrits","nodmgspread","payload","uncletopia"],"game_id":440,"stv_port":27016,"stv_name":"Uncletopia | Atlanta | 1 | All Maps | STV","players":[{"user_id":206,"name":"ATL1 | Phestive Pango","steam_id":76561198069811545,"connected_time":7344000000000,"state":"active","ping":47},{"user_id":187,"name":"Smoky","steam_id":76561198418262145,"connected_time":8598000000000,"state":"active","ping":99},{"user_id":270,"name":"Veridian","steam_id":76561198096334078,"connected_time":1879000000000,"state":"active","ping":67},{"user_id":254,"name":"ATL1 | eish","steam_id":76561198089463603,"connected_time":3116000000000,"state":"active","ping":106},{"user_id":269,"name":"Im High","steam_id":76561198049954886,"connected_time":1935000000000,"state":"active","ping":66},{"user_id":282,"name":"ATL1 | LuckyZero-_-","steam_id":76561198139891051,"connected_time":68000000000,"state":"active","ping":64},{"user_id":274,"name":"chexo4","steam_id":76561198150532531,"connected_time":1612000000000,"state":"active","ping":59},{"user_id":213,"name":"Mage","steam_id":76561198285026879,"connected_time":7007000000000,"state":"active","ping":74},{"user_id":178,"name":"merry mommy","steam_id":76561199230929836,"connected_time":9722000000000,"state":"active","ping":90},{"user_id":243,"name":"ATL1 | Decolour","steam_id":76561199045608372,"connected_time":3849000000000,"state":"active","ping":66},{"user_id":263,"name":"stink","steam_id":76561198099318923,"connected_time":2558000000000,"state":"active","ping":90},{"user_id":271,"name":"Chubmundo","steam_id":76561198132710768,"connected_time":1874000000000,"state":"active","ping":41},{"user_id":239,"name":"ATL1 | a very merry ma0re","steam_id":76561199231971506,"connected_time":4322000000000,"state":"active","ping":63},{"user_id":272,"name":"joe lft","steam_id":76561198045781320,"connected_time":1873000000000,"state":"active","ping":63},{"user_id":283,"name":"SnowStorm","steam_id":76561198095817025,"connected_time":44000000000,"state":"active","ping":38},{"user_id":273,"name":"tracecrusher","steam_id":76561198316649623,"connected_time":1861000000000,"state":"active","ping":83},{"user_id":226,"name":"ATL1 | p4ka","steam_id":76561198315291317,"connected_time":5390000000000,"state":"active","ping":65},{"user_id":168,"name":"FancyBones","steam_id":76561198180198885,"connected_time":10811000000000,"state":"active","ping":68},{"user_id":257,"name":"Liker of Metal Gear Solid","steam_id":76561198125609923,"connected_time":2905000000000,"state":"active","ping":60},{"user_id":198,"name":"ATL1 | Sunny004","steam_id":76561198105397410,"connected_time":7886000000000,"state":"active","ping":70},{"user_id":258,"name":"Wumbologist","steam_id":76561198188729514,"connected_time":2905000000000,"state":"active","ping":54},{"user_id":279,"name":"Goober","steam_id":76561198825837058,"connected_time":603000000000,"state":"active","ping":71},{"user_id":203,"name":"sim65","steam_id":76561197985428155,"connected_time":7418000000000,"state":"active","ping":86},{"user_id":253,"name":"ATL6 Le4n Nog!!!","steam_id":76561198045522596,"connected_time":3157000000000,"state":"active","ping":73}]},{"server_id":400,"name":"Uncletopia | Atlanta | 3 | All Maps","name_short":"atl-3","host":"atl-1.us.uncletopia.com","port":27035,"enabled":true,"region":"us-east","cc":"us","latitude":33.753746,"longitude":-84.38633,"reserved":0,"last_update":"0001-01-01T00:00:00Z","name_a2s":"Uncletopia | Atlanta | 3 | All Maps","protocol":17,"map":"pl_pier","folder":"tf","game":"Team Fortress","app_id":440,"player_count":0,"max_players":24,"Bots":0,"server_type":"Dedicated","server_os":"Linux","password":true,"vac":true,"version":"7695204","steam_id":85568392924515187,"keywords":["nocrits","nodmgspread","payload","uncletopia"],"game_id":440,"stv_port":27036,"stv_name":"Uncletopia | Atlanta | 3 | All Maps | STV","players":null},{"server_id":401,"name":"Uncletopia | Atlanta | 4 | No Payload","name_short":"atl-4","host":"atl-1.us.uncletopia.com","port":27045,"enabled":true,"region":"us-east","cc":"us","latitude":33.753746,"longitude":-84.38633,"reserved":0,"last_update":"0001-01-01T00:00:00Z","name_a2s":"Uncletopia | Atlanta | 4 | No Payload","protocol":17,"map":"koth_sawmill","folder":"tf","game":"Team Fortress","app_id":440,"player_count":0,"max_players":24,"Bots":0,"server_type":"Dedicated","server_os":"Linux","password":true,"vac":true,"version":"7695204","steam_id":85568392924515188,"keywords":["cp","nocrits","nodmgspread","uncletopia"],"game_id":440,"stv_port":27046,"stv_name":"Uncletopia | Atlanta | 4 | No Payload | STV","players":null},{"server_id":2,"name":"Uncletopia | Chicago | 1 | All Maps","name_short":"chi-1","host":"chi-1.us.uncletopia.com","port":27015,"enabled":true,"region":"us-central","cc":"us","latitude":41.881832,"longitude":-87.62318,"reserved":0,"last_update":"0001-01-01T00:00:00Z","name_a2s":"Uncletopia | Chicago | 1 | All Maps","protocol":17,"map":"pl_swiftwater_final1","folder":"tf","game":"Team Fortress","app_id":440,"player_count":24,"max_players":24,"Bots":0,"server_type":"Dedicated","server_os":"Linux","password":true,"vac":true,"version":"7695204","steam_id":85568392924469984,"keywords":["nocrits","nodmgspread","payload","uncletopia"],"game_id":440,"stv_port":27016,"stv_name":"Uncletopia | Chicago | 1 | All Maps | STV","players":[{"user_id":325,"name":"Xuey","steam_id":76561199120960187,"connected_time":2439000000000,"state":"active","ping":52},{"user_id":310,"name":"RIT Obelix","steam_id":76561198274715109,"connected_time":3183000000000,"state":"active","ping":52},{"user_id":335,"name":"scriiible","steam_id":76561198117803411,"connected_time":1753000000000,"state":"active","ping":73},{"user_id":358,"name":"Dude Named Bob","steam_id":76561198310448093,"connected_time":919000000000,"state":"active","ping":60},{"user_id":293,"name":"Jordan B. Peterson Gaming","steam_id":76561198113651011,"connected_time":3710000000000,"state":"active","ping":64},{"user_id":321,"name":"drum","steam_id":76561198031400151,"connected_time":2587000000000,"state":"active","ping":54},{"user_id":342,"name":"Donoschnoz","steam_id":76561198050033377,"connected_time":1463000000000,"state":"active","ping":57},{"user_id":329,"name":"Gribbith","steam_id":76561198067836309,"connected_time":2148000000000,"state":"active","ping":77},{"user_id":368,"name":"Rukks","steam_id":76561197993918954,"connected_time":127000000000,"state":"active","ping":62},{"user_id":350,"name":"HollyBlocky","steam_id":76561198030156100,"connected_time":1279000000000,"state":"active","ping":74},{"user_id":365,"name":"KabOOm","steam_id":76561198844235450,"connected_time":594000000000,"state":"active","ping":94},{"user_id":296,"name":"Crow","steam_id":76561198055648496,"connected_time":3689000000000,"state":"active","ping":57},{"user_id":343,"name":"spim","steam_id":76561198991982630,"connected_time":1451000000000,"state":"active","ping":57},{"user_id":353,"name":"PurplePond","steam_id":76561199062421006,"connected_time":1071000000000,"state":"active","ping":45},{"user_id":367,"name":"Mixomin","steam_id":76561198295061570,"connected_time":442000000000,"state":"active","ping":55},{"user_id":330,"name":"potpurrycatcurry","steam_id":76561198349409715,"connected_time":2124000000000,"state":"active","ping":73},{"user_id":356,"name":"Gamer","steam_id":76561198076717649,"connected_time":934000000000,"state":"active","ping":64},{"user_id":337,"name":"alvathewayfarer","steam_id":76561199064464556,"connected_time":1591000000000,"state":"active","ping":85},{"user_id":362,"name":"dosidosi","steam_id":76561198043206424,"connected_time":781000000000,"state":"active","ping":59},{"user_id":363,"name":"Underscore","steam_id":76561198374209415,"connected_time":778000000000,"state":"active","ping":59},{"user_id":360,"name":"Kamin","steam_id":76561198255299559,"connected_time":808000000000,"state":"active","ping":94},{"user_id":303,"name":"pmvshchlk","steam_id":76561198335687579,"connected_time":3551000000000,"state":"active","ping":76},{"user_id":348,"name":"Gordan Timlothle","steam_id":76561198272013678,"connected_time":1422000000000,"state":"active","ping":66},{"user_id":338,"name":"Hot Milk + Sweet Delight","steam_id":76561197988989149,"connected_time":1587000000000,"state":"active","ping":82}]},{"server_id":106,"name":"Uncletopia | Chicago | 2 | All Maps","name_short":"chi-2","host":"chi-1.us.uncletopia.com","port":27025,"enabled":true,"region":"us-central","cc":"us","latitude":41.881832,"longitude":-87.62318,"reserved":0,"last_update":"0001-01-01T00:00:00Z","name_a2s":"Uncletopia | Chicago | 2 | All Maps","protocol":17,"map":"cp_snakewater_final1","folder":"tf","game":"Team Fortress","app_id":440,"player_count":24,"max_players":24,"Bots":0,"server_type":"Dedicated","server_os":"Linux","password":true,"vac":true,"version":"7695204","steam_id":85568392924469985,"keywords":["cp","nocrits","nodmgspread","uncletopia"],"game_id":440,"stv_port":27026,"stv_name":"Uncletopia | Chicago | 2 | All Maps | STV","players":[{"user_id":265,"name":"Herr Müller","steam_id":76561198064876829,"connected_time":1747000000000,"state":"active","ping":89},{"user_id":278,"name":"Alice in Rubberland","steam_id":76561198087328346,"connected_time":100000000000,"state":"active","ping":45},{"user_id":242,"name":"¡ayudame!","steam_id":76561198071421094,"connected_time":3096000000000,"state":"active","ping":90},{"user_id":280,"name":"Mayhem","steam_id":76561197993811868,"connected_time":83000000000,"state":"active","ping":84},{"user_id":269,"name":"Fausto Murillo","steam_id":76561198936120487,"connected_time":1035000000000,"state":"active","ping":136},{"user_id":277,"name":"festive zefir *","steam_id":76561198041348890,"connected_time":445000000000,"state":"active","ping":67},{"user_id":258,"name":"Kitt(eh)∑:3","steam_id":76561198110858518,"connected_time":2541000000000,"state":"active","ping":58},{"user_id":267,"name":"*something in russian*","steam_id":76561198964471859,"connected_time":1475000000000,"state":"active","ping":73},{"user_id":248,"name":"Braixen","steam_id":76561198354314389,"connected_time":2691000000000,"state":"active","ping":79},{"user_id":279,"name":"i do not think","steam_id":76561199020593614,"connected_time":97000000000,"state":"active","ping":97},{"user_id":260,"name":"abomination","steam_id":76561198167974713,"connected_time":2503000000000,"state":"active","ping":74},{"user_id":274,"name":"High Cotton","steam_id":76561197998894854,"connected_time":873000000000,"state":"active","ping":153},{"user_id":281,"name":"tasty","steam_id":76561198083839061,"connected_time":29000000000,"state":"active","ping":60},{"user_id":275,"name":"Which One's Pink?","steam_id":76561198017734545,"connected_time":831000000000,"state":"active","ping":63},{"user_id":266,"name":"shrimpbob","steam_id":76561199112638264,"connected_time":1682000000000,"state":"active","ping":58},{"user_id":261,"name":"Hope","steam_id":76561199201900779,"connected_time":2426000000000,"state":"active","ping":68},{"user_id":245,"name":"Dr. Funkenstein","steam_id":76561198042186832,"connected_time":2791000000000,"state":"active","ping":76},{"user_id":256,"name":"dumbass","steam_id":76561198410957728,"connected_time":2624000000000,"state":"active","ping":43},{"user_id":268,"name":"king Baldwin IV","steam_id":76561198369862983,"connected_time":1097000000000,"state":"active","ping":53},{"user_id":276,"name":"Sigiferd","steam_id":76561198148788110,"connected_time":823000000000,"state":"active","ping":134},{"user_id":264,"name":"memelad","steam_id":76561198031374975,"connected_time":1774000000000,"state":"active","ping":62},{"user_id":257,"name":"i love eating cigarettes :3","steam_id":76561198128164970,"connected_time":2619000000000,"state":"active","ping":118},{"user_id":208,"name":"Yayifications","steam_id":76561198066227208,"connected_time":6635000000000,"state":"active","ping":60},{"user_id":232,"name":"corygaming","steam_id":76561198035669409,"connected_time":4276000000000,"state":"active","ping":120}]},{"server_id":402,"name":"Uncletopia | Chicago | 3 | All Maps","name_short":"chi-3","host":"chi-1.us.uncletopia.com","port":27035,"enabled":true,"region":"us-central","cc":"us","latitude":41.881832,"longitude":-87.62318,"reserved":0,"last_update":"0001-01-01T00:00:00Z","name_a2s":"Uncletopia | Chicago | 3 | All Maps","protocol":17,"map":"pl_enclosure_final","folder":"tf","game":"Team Fortress","app_id":440,"player_count":10,"max_players":24,"Bots":0,"server_type":"Dedicated","server_os":"Linux","password":true,"vac":true,"version":"7695204","steam_id":85568392924515191,"keywords":["nocrits","nodmgspread","payload","uncletopia"],"game_id":440,"stv_port":27036,"stv_name":"Uncletopia | Chicago | 3 | All Maps | STV","players":[{"user_id":127,"name":"highWayy","steam_id":76561198042844908,"connected_time":2140000000000,"state":"active","ping":64},{"user_id":128,"name":"soldiertf2","steam_id":76561198031861286,"connected_time":2139000000000,"state":"active","ping":74},{"user_id":52,"name":"greenpeace","steam_id":76561197983221708,"connected_time":6303000000000,"state":"active","ping":89},{"user_id":131,"name":"TastyCrayons63","steam_id":76561199002087591,"connected_time":1928000000000,"state":"active","ping":65},{"user_id":146,"name":"Johnny Ballsack","steam_id":76561198072876620,"connected_time":662000000000,"state":"active","ping":64},{"user_id":144,"name":"Essentially_Someone","steam_id":76561199435588199,"connected_time":781000000000,"state":"active","ping":71},{"user_id":139,"name":"kermitcreeper(ZAZA)","steam_id":76561199222829972,"connected_time":1708000000000,"state":"active","ping":46},{"user_id":69,"name":"▲▼▲ Paul Atreideeznuts","steam_id":76561198015714075,"connected_time":5176000000000,"state":"active","ping":76},{"user_id":141,"name":"My Jaw Hurts","steam_id":76561198257362540,"connected_time":1701000000000,"state":"active","ping":79},{"user_id":115,"name":"blob","steam_id":76561198122375328,"connected_time":2768000000000,"state":"active","ping":50}]},{"server_id":403,"name":"Uncletopia | Chicago | 4 | All Maps","name_short":"chi-4","host":"chi-1.us.uncletopia.com","port":27045,"enabled":true,"region":"us-central","cc":"us","latitude":41.881832,"longitude":-87.62318,"reserved":0,"last_update":"0001-01-01T00:00:00Z","name_a2s":"Uncletopia | Chicago | 4 | All Maps","protocol":17,"map":"pl_hoodoo_final","folder":"tf","game":"Team Fortress","app_id":440,"player_count":24,"max_players":24,"Bots":0,"server_type":"Dedicated","server_os":"Linux","password":true,"vac":true,"version":"7695204","steam_id":85568392924515193,"keywords":["nocrits","nodmgspread","payload","uncletopia"],"game_id":440,"stv_port":27046,"stv_name":"Uncletopia | Chicago | 4 | All Maps | STV","players":[{"user_id":272,"name":"❤Breadshot (She)❤","steam_id":76561199005756738,"connected_time":716000000000,"state":"active","ping":55},{"user_id":268,"name":"Dr Spaceman","steam_id":76561197969755657,"connected_time":969000000000,"state":"active","ping":45},{"user_id":270,"name":"Gunkzilla","steam_id":76561198068228415,"connected_time":733000000000,"state":"active","ping":62},{"user_id":258,"name":"Hylic","steam_id":76561199051314589,"connected_time":1148000000000,"state":"active","ping":67},{"user_id":283,"name":"Clean Lines","steam_id":76561197960691518,"connected_time":489000000000,"state":"active","ping":53},{"user_id":260,"name":"Chilidestroy","steam_id":76561199101551797,"connected_time":1145000000000,"state":"active","ping":66},{"user_id":288,"name":"Kurama_Wolf","steam_id":76561198211474724,"connected_time":96000000000,"state":"active","ping":92},{"user_id":257,"name":"Mr_Pulse_","steam_id":76561198095001602,"connected_time":1182000000000,"state":"active","ping":187},{"user_id":205,"name":"Paul from Norton Antivirus","steam_id":76561198176937674,"connected_time":4500000000000,"state":"active","ping":74},{"user_id":279,"name":"com lag","steam_id":76561198019019392,"connected_time":558000000000,"state":"active","ping":74},{"user_id":271,"name":"Crog","steam_id":76561198081129776,"connected_time":719000000000,"state":"active","ping":57},{"user_id":273,"name":"raZ","steam_id":76561198136017741,"connected_time":698000000000,"state":"active","ping":57},{"user_id":274,"name":"Speedsterboom","steam_id":76561198159807287,"connected_time":691000000000,"state":"active","ping":80},{"user_id":212,"name":"RelativeToZero","steam_id":76561198175875733,"connected_time":4222000000000,"state":"active","ping":113},{"user_id":275,"name":"overgrown teakettle","steam_id":76561198059041027,"connected_time":661000000000,"state":"active","ping":109},{"user_id":282,"name":"ATL1 | JOVA (very merry)","steam_id":76561198090333536,"connected_time":508000000000,"state":"active","ping":74},{"user_id":277,"name":"Snowy","steam_id":76561198994053653,"connected_time":628000000000,"state":"active","ping":78},{"user_id":278,"name":"Grease monkey","steam_id":76561199229169396,"connected_time":619000000000,"state":"active","ping":65},{"user_id":280,"name":"Soy","steam_id":76561198015120487,"connected_time":541000000000,"state":"active","ping":51},{"user_id":281,"name":"chiarraz","steam_id":76561198277439571,"connected_time":536000000000,"state":"active","ping":75},{"user_id":284,"name":"McGangBang","steam_id":76561198862379865,"connected_time":484000000000,"state":"active","ping":57},{"user_id":285,"name":"Terezi Pyrope","steam_id":76561198065112186,"connected_time":484000000000,"state":"active","ping":73},{"user_id":286,"name":"Rat","steam_id":76561198064814474,"connected_time":477000000000,"state":"active","ping":59},{"user_id":287,"name":"L0git3ch","steam_id":76561198012721951,"connected_time":475000000000,"state":"active","ping":147}]},{"server_id":36,"name":"Uncletopia | Chicago | 5 | All Maps","name_short":"chi-5","host":"chi-2.us.uncletopia.com","port":27015,"enabled":true,"region":"us-central","cc":"us","latitude":41.881832,"longitude":-87.62318,"reserved":0,"last_update":"0001-01-01T00:00:00Z","name_a2s":"Uncletopia | Chicago | 5 | All Maps","protocol":17,"map":"pl_goldrush","folder":"tf","game":"Team Fortress","app_id":440,"player_count":24,"max_players":24,"Bots":0,"server_type":"Dedicated","server_os":"Linux","password":true,"vac":true,"version":"7695204","steam_id":85568392924866362,"keywords":["nocrits","nodmgspread","payload","uncletopia"],"game_id":440,"stv_port":27016,"stv_name":"Uncletopia | Chicago | 5 | All Maps | STV","players":[{"user_id":172,"name":"National Police Agency","steam_id":76561198062832658,"connected_time":447000000000,"state":"active","ping":65},{"user_id":178,"name":"i will defenestrate your skull","steam_id":76561198067994868,"connected_time":286000000000,"state":"active","ping":77},{"user_id":169,"name":"Slumpest Duckest","steam_id":76561198170170606,"connected_time":663000000000,"state":"active","ping":50},{"user_id":173,"name":"ThreatLvl9 (she/her)","steam_id":76561198079410533,"connected_time":415000000000,"state":"active","ping":75},{"user_id":137,"name":"InstantSnowcone","steam_id":76561198067556825,"connected_time":3203000000000,"state":"active","ping":69},{"user_id":119,"name":"DAS SCHNITZELSTIEN","steam_id":76561198051137159,"connected_time":5314000000000,"state":"active","ping":94},{"user_id":157,"name":"timesool","steam_id":76561198367583372,"connected_time":2450000000000,"state":"active","ping":86},{"user_id":174,"name":"slep.py","steam_id":76561197988287144,"connected_time":394000000000,"state":"active","ping":56},{"user_id":175,"name":"happyman","steam_id":76561199430019599,"connected_time":349000000000,"state":"active","ping":56},{"user_id":127,"name":"Murfey","steam_id":76561198109176416,"connected_time":4220000000000,"state":"active","ping":66},{"user_id":168,"name":"quatelhelix","steam_id":76561198066708113,"connected_time":1048000000000,"state":"active","ping":61},{"user_id":136,"name":"JimmySquid","steam_id":76561198254242530,"connected_time":3208000000000,"state":"active","ping":58},{"user_id":158,"name":"Harold","steam_id":76561198057317770,"connected_time":2447000000000,"state":"active","ping":90},{"user_id":181,"name":"Toripollo bday","steam_id":76561198251665862,"connected_time":208000000000,"state":"active","ping":101},{"user_id":161,"name":"JustSomeInternetGuy","steam_id":76561199066037843,"connected_time":2384000000000,"state":"active","ping":74},{"user_id":180,"name":"Mandrie","steam_id":76561198058918549,"connected_time":226000000000,"state":"active","ping":68},{"user_id":177,"name":"Snapsy","steam_id":76561198170457318,"connected_time":291000000000,"state":"active","ping":77},{"user_id":182,"name":"suns","steam_id":76561198079583278,"connected_time":190000000000,"state":"active","ping":66},{"user_id":183,"name":"MoistPigeon","steam_id":76561198120392425,"connected_time":151000000000,"state":"active","ping":62},{"user_id":184,"name":"the real babytron","steam_id":76561197989627918,"connected_time":146000000000,"state":"active","ping":87},{"user_id":165,"name":"Gyroic","steam_id":76561198063556027,"connected_time":1901000000000,"state":"active","ping":52},{"user_id":186,"name":"12 INCH TGIRL SCHLONG","steam_id":76561198122059018,"connected_time":74000000000,"state":"active","ping":59},{"user_id":170,"name":"Larry Enjoyer (LGBTQIA+ Rights)","steam_id":76561198169500112,"connected_time":616000000000,"state":"active","ping":72},{"user_id":185,"name":"Strangelove","steam_id":76561198353773611,"connected_time":122000000000,"state":"active","ping":223}]},{"server_id":37,"name":"Uncletopia | Chicago | 6 | All Maps","name_short":"chi-6","host":"chi-2.us.uncletopia.com","port":27025,"enabled":true,"region":"us-central","cc":"us","latitude":41.881832,"longitude":-87.62318,"reserved":0,"last_update":"0001-01-01T00:00:00Z","name_a2s":"Uncletopia | Chicago | 6 | All Maps","protocol":17,"map":"pl_pier","folder":"tf","game":"Team Fortress","app_id":440,"player_count":23,"max_players":24,"Bots":0,"server_type":"Dedicated","server_os":"Linux","password":true,"vac":true,"version":"7695204","steam_id":85568392924866363,"keywords":["cp","nocrits","nodmgspread","uncletopia"],"game_id":440,"stv_port":27026,"stv_name":"Uncletopia | Chicago | 6 | All Maps | STV","players":[{"user_id":12,"name":"MeKaso TropStar","steam_id":76561199109895840,"connected_time":6385000000000,"state":"connecting","ping":77},{"user_id":30,"name":"Skim","steam_id":76561198133730308,"connected_time":2739000000000,"state":"connecting","ping":92},{"user_id":47,"name":"Soap","steam_id":76561198074619142,"connected_time":2406000000000,"state":"connecting","ping":62},{"user_id":31,"name":"rarity's hoofrest","steam_id":76561198041984321,"connected_time":2724000000000,"state":"connecting","ping":89},{"user_id":32,"name":"Bones Jones","steam_id":76561198142038242,"connected_time":2721000000000,"state":"connecting","ping":77},{"user_id":25,"name":"Jean Deere","steam_id":76561198105101309,"connected_time":3379000000000,"state":"connecting","ping":88},{"user_id":26,"name":"Moose Overlord","steam_id":76561198141898814,"connected_time":3373000000000,"state":"connecting","ping":75},{"user_id":34,"name":"Shurochimaru","steam_id":76561198055606496,"connected_time":2709000000000,"state":"connecting","ping":74},{"user_id":36,"name":"Undómë Tinwë","steam_id":76561198005681219,"connected_time":2690000000000,"state":"connecting","ping":111},{"user_id":37,"name":"A Dog, Probably?","steam_id":76561198332890597,"connected_time":2682000000000,"state":"connecting","ping":140},{"user_id":64,"name":"Pandanator13","steam_id":76561199203491997,"connected_time":1156000000000,"state":"connecting","ping":79},{"user_id":66,"name":"Mari","steam_id":76561198217388008,"connected_time":457000000000,"state":"connecting","ping":63},{"user_id":60,"name":"Dewgong (real)","steam_id":76561198045999391,"connected_time":1658000000000,"state":"connecting","ping":96},{"user_id":45,"name":"surrender to the void","steam_id":76561198055494039,"connected_time":2457000000000,"state":"connecting","ping":91},{"user_id":61,"name":"Pawn Cushman","steam_id":76561198221635676,"connected_time":1625000000000,"state":"connecting","ping":75},{"user_id":56,"name":"piss off","steam_id":76561199061191371,"connected_time":2117000000000,"state":"connecting","ping":96}]},{"server_id":38,"name":"Uncletopia | Chicago | 7 | No Payload","name_short":"chi-7","host":"chi-2.us.uncletopia.com","port":27035,"enabled":true,"region":"us-central","cc":"us","latitude":41.881832,"longitude":-87.62318,"reserved":0,"last_update":"0001-01-01T00:00:00Z","name_a2s":"Uncletopia | Chicago | 7 | No Payload","protocol":17,"map":"cp_altitude","folder":"tf","game":"Team Fortress","app_id":440,"player_count":1,"max_players":24,"Bots":0,"server_type":"Dedicated","server_os":"Linux","password":true,"vac":true,"version":"7695204","steam_id":85568392924866364,"keywords":["cp","nocrits","nodmgspread","uncletopia"],"game_id":440,"stv_port":0,"stv_name":"","players":[{"user_id":7,"name":"my system crushed...","steam_id":76561199225658151,"connected_time":758000000000,"state":"active","ping":135}]},{"server_id":39,"name":"Uncletopia | Chicago | 8 | Community","name_short":"chi-8","host":"chi-2.us.uncletopia.com","port":27045,"enabled":true,"region":"us-central","cc":"us","latitude":41.881832,"longitude":-87.62318,"reserved":0,"last_update":"0001-01-01T00:00:00Z","name_a2s":"Uncletopia | Chicago | 8 | Community","protocol":17,"map":"cp_altitude","folder":"tf","game":"Team Fortress","app_id":440,"player_count":0,"max_players":24,"Bots":0,"server_type":"Dedicated","server_os":"Linux","password":true,"vac":true,"version":"7695204","steam_id":85568392924866365,"keywords":["cp","nocrits","nodmgspread","uncletopia"],"game_id":440,"stv_port":0,"stv_name":"","players":null},{"server_id":8,"name":"Uncletopia | Dallas | 1 | All Maps","name_short":"dal-1","host":"dal-1.us.uncletopia.com","port":27015,"enabled":true,"region":"us-central","cc":"us","latitude":32.779167,"longitude":-96.80889,"reserved":0,"last_update":"0001-01-01T00:00:00Z","name_a2s":"Uncletopia | Dallas | 1 | All Maps","protocol":17,"map":"pl_swiftwater_final1","folder":"tf","game":"Team Fortress","app_id":440,"player_count":24,"max_players":24,"Bots":0,"server_type":"Dedicated","server_os":"Linux","password":true,"vac":true,"version":"7695204","steam_id":85568392924469986,"keywords":["nocrits","nodmgspread","payload","uncletopia"],"game_id":440,"stv_port":27016,"stv_name":"Uncletopia | Dallas | 1 | All Maps | STV","players":[{"user_id":231,"name":"JeffroTull","steam_id":76561198124157939,"connected_time":1331000000000,"state":"active","ping":40},{"user_id":258,"name":"Len","steam_id":76561199141913673,"connected_time":236000000000,"state":"active","ping":62},{"user_id":256,"name":"dan","steam_id":76561197984998426,"connected_time":377000000000,"state":"active","ping":107},{"user_id":232,"name":"Arrythmia","steam_id":76561198093748123,"connected_time":1317000000000,"state":"active","ping":105},{"user_id":233,"name":"Rooster Miami Man","steam_id":76561199001393067,"connected_time":1312000000000,"state":"active","ping":119},{"user_id":262,"name":"M4 Sherman","steam_id":76561198011096132,"connected_time":59000000000,"state":"active","ping":86},{"user_id":260,"name":"Brynkiwi","steam_id":76561198052177917,"connected_time":113000000000,"state":"active","ping":92},{"user_id":235,"name":"spectre","steam_id":76561197964657841,"connected_time":1290000000000,"state":"active","ping":69},{"user_id":257,"name":"Fatcat.win(false) ;","steam_id":76561198069007806,"connected_time":306000000000,"state":"active","ping":47},{"user_id":261,"name":"moe","steam_id":76561198929586245,"connected_time":86000000000,"state":"active","ping":74},{"user_id":215,"name":"Ata","steam_id":76561198349085545,"connected_time":1918000000000,"state":"active","ping":92},{"user_id":247,"name":"Booshie Billy Bob","steam_id":76561198010170901,"connected_time":715000000000,"state":"active","ping":78},{"user_id":248,"name":"Zykio","steam_id":76561198122490182,"connected_time":700000000000,"state":"active","ping":58},{"user_id":237,"name":"Kynnyck","steam_id":76561198416782115,"connected_time":1283000000000,"state":"active","ping":55},{"user_id":263,"name":"conscripted monk","steam_id":76561199029246232,"connected_time":33000000000,"state":"active","ping":51},{"user_id":223,"name":"pp man austin","steam_id":76561199012771039,"connected_time":1645000000000,"state":"active","ping":69},{"user_id":249,"name":"BrightOrangeMango","steam_id":76561198023144607,"connected_time":689000000000,"state":"active","ping":75},{"user_id":259,"name":"clown","steam_id":76561199150424471,"connected_time":215000000000,"state":"active","ping":83},{"user_id":239,"name":"MantisTobboggan","steam_id":76561197969447887,"connected_time":1242000000000,"state":"active","ping":136},{"user_id":196,"name":"komi","steam_id":76561198321442747,"connected_time":3181000000000,"state":"active","ping":79},{"user_id":264,"name":"Fizzyx","steam_id":76561198051865411,"connected_time":30000000000,"state":"spawning","ping":92},{"user_id":253,"name":"SomeRandomCat","steam_id":76561199107044061,"connected_time":643000000000,"state":"active","ping":52},{"user_id":229,"name":"Game Breaker","steam_id":76561198362023794,"connected_time":1443000000000,"state":"active","ping":138}]},{"server_id":108,"name":"Uncletopia | Dallas | 2 | All Maps","name_short":"dal-2","host":"dal-1.us.uncletopia.com","port":27025,"enabled":true,"region":"us-central","cc":"us","latitude":32.779167,"longitude":-96.80889,"reserved":0,"last_update":"0001-01-01T00:00:00Z","name_a2s":"Uncletopia | Dallas | 2 | All Maps","protocol":17,"map":"cp_sunshine","folder":"tf","game":"Team Fortress","app_id":440,"player_count":18,"max_players":24,"Bots":0,"server_type":"Dedicated","server_os":"Linux","password":true,"vac":true,"version":"7695204","steam_id":85568392924469988,"keywords":["cp","nocrits","nodmgspread","uncletopia"],"game_id":440,"stv_port":27026,"stv_name":"Uncletopia | Dallas | 2 | All Maps | STV","players":[{"user_id":131,"name":"breloom","steam_id":76561198062922146,"connected_time":1924000000000,"state":"active","ping":51},{"user_id":159,"name":"PapaSmurf","steam_id":76561199201107408,"connected_time":554000000000,"state":"active","ping":70},{"user_id":145,"name":"Kalimar","steam_id":76561198316254429,"connected_time":1282000000000,"state":"active","ping":54},{"user_id":134,"name":"autumnal.messenger","steam_id":76561199345816635,"connected_time":1830000000000,"state":"active","ping":102},{"user_id":120,"name":"Arbiter Soul","steam_id":76561198067798973,"connected_time":3043000000000,"state":"active","ping":79},{"user_id":136,"name":"Tmiracle","steam_id":76561198052375275,"connected_time":1685000000000,"state":"active","ping":60},{"user_id":146,"name":"p0rps","steam_id":76561198000014631,"connected_time":1281000000000,"state":"active","ping":74},{"user_id":161,"name":"remedu","steam_id":76561198005152587,"connected_time":429000000000,"state":"active","ping":37},{"user_id":140,"name":"Zo","steam_id":76561198018758753,"connected_time":1436000000000,"state":"active","ping":71},{"user_id":142,"name":"Caoticaos","steam_id":76561198114800227,"connected_time":1387000000000,"state":"active","ping":128},{"user_id":163,"name":"Pluto","steam_id":76561198012630802,"connected_time":73000000000,"state":"active","ping":83},{"user_id":144,"name":"Phat_nibba29","steam_id":76561198165661855,"connected_time":1342000000000,"state":"active","ping":58},{"user_id":150,"name":"oh","steam_id":76561198167826296,"connected_time":1144000000000,"state":"active","ping":83},{"user_id":162,"name":"Jamie Hyneman","steam_id":76561199196036481,"connected_time":269000000000,"state":"active","ping":63},{"user_id":158,"name":"Jyggalag","steam_id":76561198014672516,"connected_time":705000000000,"state":"active","ping":86},{"user_id":164,"name":"circuitus in medius res","steam_id":76561198090891781,"connected_time":23000000000,"state":"active","ping":78},{"user_id":87,"name":"chumimimimimi","steam_id":76561199018531137,"connected_time":4480000000000,"state":"active","ping":43},{"user_id":155,"name":"201rudolf","steam_id":76561197999260528,"connected_time":967000000000,"state":"active","ping":83}]},{"server_id":5,"name":"Uncletopia | Frankfurt | 1 | All Maps","name_short":"frk-1","host":"frk-1.de.uncletopia.com","port":27015,"enabled":true,"region":"eu","cc":"de","latitude":50.110924,"longitude":8.682127,"reserved":0,"last_update":"0001-01-01T00:00:00Z","name_a2s":"Uncletopia | Frankfurt | 1 | All Maps","protocol":17,"map":"cp_snakewater_final1","folder":"tf","game":"Team Fortress","app_id":440,"player_count":23,"max_players":24,"Bots":0,"server_type":"Dedicated","server_os":"Linux","password":true,"vac":true,"version":"7695204","steam_id":85568392924469989,"keywords":["cp","nocrits","nodmgspread","uncletopia"],"game_id":440,"stv_port":27016,"stv_name":"Uncletopia | Frankfurt | 1 | All Maps | STV","players":[{"user_id":414,"name":"Alpharen_22","steam_id":76561198803349451,"connected_time":469000000000,"state":"active","ping":82},{"user_id":390,"name":"Kumihari","steam_id":76561198380374523,"connected_time":1963000000000,"state":"active","ping":64},{"user_id":345,"name":"worb","steam_id":76561198159517104,"connected_time":4716000000000,"state":"active","ping":62},{"user_id":346,"name":"Mimic","steam_id":76561199204932956,"connected_time":4698000000000,"state":"active","ping":47},{"user_id":417,"name":"Guz","steam_id":76561198384689388,"connected_time":289000000000,"state":"active","ping":52},{"user_id":406,"name":"Il y a","steam_id":76561198100943482,"connected_time":1045000000000,"state":"active","ping":82},{"user_id":391,"name":"pijuka","steam_id":76561198083063005,"connected_time":1877000000000,"state":"active","ping":50},{"user_id":407,"name":"Nag","steam_id":76561197970488206,"connected_time":982000000000,"state":"active","ping":85},{"user_id":421,"name":"TeamFortressTV OutAimed","steam_id":76561198154406495,"connected_time":269000000000,"state":"active","ping":70},{"user_id":358,"name":"Grey","steam_id":76561198187190267,"connected_time":4094000000000,"state":"active","ping":48},{"user_id":392,"name":"FaZe Genghis Khan","steam_id":76561197970114051,"connected_time":1844000000000,"state":"active","ping":57},{"user_id":401,"name":"P1n         .","steam_id":76561198382749493,"connected_time":1450000000000,"state":"active","ping":87},{"user_id":415,"name":"drippin jimmy","steam_id":76561198219243969,"connected_time":391000000000,"state":"active","ping":54},{"user_id":412,"name":"AnanasGerste","steam_id":76561198133825211,"connected_time":757000000000,"state":"active","ping":46},{"user_id":373,"name":"Dapper","steam_id":76561198081694974,"connected_time":2657000000000,"state":"active","ping":56},{"user_id":369,"name":"AWildTamim","steam_id":76561198048060652,"connected_time":3120000000000,"state":"active","ping":48},{"user_id":423,"name":"乙乙乙．．．","steam_id":76561198004144266,"connected_time":245000000000,"state":"active","ping":74},{"user_id":398,"name":"Holo","steam_id":76561198066985194,"connected_time":1665000000000,"state":"active","ping":87},{"user_id":419,"name":"iShartPhone","steam_id":76561198057722639,"connected_time":283000000000,"state":"active","ping":73},{"user_id":416,"name":"tm`","steam_id":76561197993580412,"connected_time":297000000000,"state":"active","ping":55},{"user_id":343,"name":"Beggar's Bazooka default taunt","steam_id":76561198089727765,"connected_time":4894000000000,"state":"active","ping":78},{"user_id":426,"name":"Gut","steam_id":76561198081207148,"connected_time":78000000000,"state":"active","ping":59}]},{"server_id":110,"name":"Uncletopia | Frankfurt | 2 | All Maps","name_short":"frk-2","host":"frk-1.de.uncletopia.com","port":27025,"enabled":true,"region":"eu","cc":"de","latitude":50.110924,"longitude":8.682127,"reserved":0,"last_update":"0001-01-01T00:00:00Z","name_a2s":"Uncletopia | Frankfurt | 2 | All Maps","protocol":17,"map":"koth_viaduct","folder":"tf","game":"Team Fortress","app_id":440,"player_count":0,"max_players":24,"Bots":0,"server_type":"Dedicated","server_os":"Linux","password":true,"vac":true,"version":"7695204","steam_id":85568392924469990,"keywords":["cp","nocrits","nodmgspread","uncletopia"],"game_id":440,"stv_port":27026,"stv_name":"Uncletopia | Frankfurt | 2 | All Maps | STV","players":null},{"server_id":308,"name":"Uncletopia | Frankfurt | 3 | All Maps","name_short":"frk-3","host":"frk-1.de.uncletopia.com","port":27035,"enabled":true,"region":"eu","cc":"de","latitude":50.110924,"longitude":8.682127,"reserved":0,"last_update":"0001-01-01T00:00:00Z","name_a2s":"Uncletopia | Frankfurt | 3 | All Maps","protocol":17,"map":"koth_lakeside_final","folder":"tf","game":"Team Fortress","app_id":440,"player_count":0,"max_players":24,"Bots":0,"server_type":"Dedicated","server_os":"Linux","password":true,"vac":true,"version":"7695204","steam_id":85568392924504274,"keywords":["cp","nocrits","nodmgspread","uncletopia"],"game_id":440,"stv_port":27036,"stv_name":"Uncletopia | Frankfurt | 3 | All Maps | STV","players":null},{"server_id":309,"name":"Uncletopia | Frankfurt | 4 | All Maps","name_short":"frk-4","host":"frk-1.de.uncletopia.com","port":27045,"enabled":true,"region":"eu","cc":"de","latitude":50.110924,"longitude":8.682127,"reserved":0,"last_update":"0001-01-01T00:00:00Z","name_a2s":"Uncletopia | Frankfurt | 4 | All Maps","protocol":17,"map":"koth_cascade","folder":"tf","game":"Team Fortress","app_id":440,"player_count":0,"max_players":24,"Bots":0,"server_type":"Dedicated","server_os":"Linux","password":true,"vac":true,"version":"7695204","steam_id":85568392924504275,"keywords":["cp","nocrits","nodmgspread","uncletopia"],"game_id":440,"stv_port":27046,"stv_name":"Uncletopia | Frankfurt | 4 | All Maps | STV","players":null},{"server_id":310,"name":"Uncletopia | Frankfurt | 5 | All Maps","name_short":"frk-5","host":"frk-1.de.uncletopia.com","port":27055,"enabled":true,"region":"eu","cc":"de","latitude":50.110924,"longitude":8.682127,"reserved":0,"last_update":"0001-01-01T00:00:00Z","name_a2s":"Uncletopia | Frankfurt | 5 | All Maps","protocol":17,"map":"pl_borneo","folder":"tf","game":"Team Fortress","app_id":440,"player_count":2,"max_players":24,"Bots":0,"server_type":"Dedicated","server_os":"Linux","password":true,"vac":true,"version":"7695204","steam_id":85568392924504277,"keywords":["nocrits","nodmgspread","payload","uncletopia"],"game_id":440,"stv_port":27056,"stv_name":"Uncletopia | Frankfurt | 5 | All Maps | STV","players":[{"user_id":375,"name":"Affilox","steam_id":76561199165982843,"connected_time":761000000000,"state":"active","ping":166},{"user_id":376,"name":"BEYONCE","steam_id":76561199440783280,"connected_time":704000000000,"state":"active","ping":171}]},{"server_id":311,"name":"Uncletopia | Frankfurt | 6 | All Maps","name_short":"frk-6","host":"frk-1.de.uncletopia.com","port":27065,"enabled":true,"region":"eu","cc":"de","latitude":50.110924,"longitude":8.682127,"reserved":0,"last_update":"0001-01-01T00:00:00Z","name_a2s":"Uncletopia | Frankfurt | 6 | All Maps","protocol":17,"map":"pl_swiftwater_final1","folder":"tf","game":"Team Fortress","app_id":440,"player_count":0,"max_players":24,"Bots":0,"server_type":"Dedicated","server_os":"Linux","password":true,"vac":true,"version":"7695204","steam_id":85568392924504278,"keywords":["nocrits","nodmgspread","payload","uncletopia"],"game_id":440,"stv_port":27066,"stv_name":"Uncletopia | Frankfurt | 6 | All Maps | STV","players":null},{"server_id":23,"name":"Uncletopia | Frankfurt | 7 | No Payload","name_short":"frk-7","host":"frk-1.de.uncletopia.com","port":27075,"enabled":true,"region":"eu","cc":"de","latitude":50.110924,"longitude":8.682127,"reserved":0,"last_update":"0001-01-01T00:00:00Z","name_a2s":"Uncletopia | Frankfurt | 7 | No Payload","protocol":17,"map":"cp_5gorge","folder":"tf","game":"Team Fortress","app_id":440,"player_count":0,"max_players":24,"Bots":0,"server_type":"Dedicated","server_os":"Linux","password":true,"vac":true,"version":"7695204","steam_id":85568392924742827,"keywords":["cp","nocrits","nodmgspread","uncletopia"],"game_id":440,"stv_port":27076,"stv_name":"Uncletopia | Frankfurt | 7 | No Payload | STV","players":null},{"server_id":24,"name":"Uncletopia | Frankfurt | 8 | Community","name_short":"frk-8","host":"frk-1.de.uncletopia.com","port":27085,"enabled":true,"region":"eu","cc":"de","latitude":50.110924,"longitude":8.682127,"reserved":0,"last_update":"0001-01-01T00:00:00Z","name_a2s":"Uncletopia | Frankfurt | 8 | Community","protocol":17,"map":"koth_lakeside_final","folder":"tf","game":"Team Fortress","app_id":440,"player_count":0,"max_players":24,"Bots":0,"server_type":"Dedicated","server_os":"Linux","password":true,"vac":true,"version":"7695204","steam_id":85568392924742828,"keywords":["cp","nocrits","nodmgspread","uncletopia"],"game_id":440,"stv_port":0,"stv_name":"","players":null},{"server_id":202,"name":"Uncletopia | Hong Kong | 1 | All Maps","name_short":"hgk-1","host":"hgk-1.hk.uncletopia.com","port":27015,"enabled":true,"region":"asia","cc":"hk","latitude":22.302711,"longitude":114.177216,"reserved":0,"last_update":"0001-01-01T00:00:00Z","name_a2s":"Uncletopia | Hong Kong | 1 | All Maps","protocol":17,"map":"koth_viaduct","folder":"tf","game":"Team Fortress","app_id":440,"player_count":0,"max_players":24,"Bots":0,"server_type":"Dedicated","server_os":"Linux","password":true,"vac":true,"version":"7695204","steam_id":85568392924494504,"keywords":["cp","nocrits","nodmgspread","uncletopia"],"game_id":440,"stv_port":27016,"stv_name":"Uncletopia | Hong Kong | 1 | All Maps | STV","players":null},{"server_id":1,"name":"Uncletopia | Los Angeles | 1 | All Maps","name_short":"lax-1","host":"lax-1.us.uncletopia.com","port":27015,"enabled":true,"region":"us-west","cc":"us","latitude":33.94279,"longitude":-118.41004,"reserved":0,"last_update":"0001-01-01T00:00:00Z","name_a2s":"Uncletopia | Los Angeles | 1 | All Maps","protocol":17,"map":"plr_hightower","folder":"tf","game":"Team Fortress","app_id":440,"player_count":0,"max_players":24,"Bots":0,"server_type":"Dedicated","server_os":"Linux","password":true,"vac":true,"version":"7695204","steam_id":85568392924469991,"keywords":["nocrits","nodmgspread","payload","uncletopia"],"game_id":440,"stv_port":27016,"stv_name":"Uncletopia | Los Angeles | 1 | All Maps | STV","players":null},{"server_id":112,"name":"Uncletopia | Los Angeles | 2 | All Maps","name_short":"lax-2","host":"lax-1.us.uncletopia.com","port":27025,"enabled":true,"region":"us-west","cc":"us","latitude":33.94279,"longitude":-118.41004,"reserved":0,"last_update":"0001-01-01T00:00:00Z","name_a2s":"Uncletopia | Los Angeles | 2 | All Maps","protocol":17,"map":"pl_pier","folder":"tf","game":"Team Fortress","app_id":440,"player_count":0,"max_players":24,"Bots":0,"server_type":"Dedicated","server_os":"Linux","password":true,"vac":true,"version":"7695204","steam_id":85568392924469992,"keywords":["nocrits","nodmgspread","payload","uncletopia"],"game_id":440,"stv_port":27026,"stv_name":"Uncletopia | Los Angeles | 2 | All Maps | STV","players":null},{"server_id":324,"name":"Uncletopia | Los Angeles | 3 | All Maps","name_short":"lax-3","host":"lax-1.us.uncletopia.com","port":27035,"enabled":true,"region":"us-west","cc":"us","latitude":33.94279,"longitude":-118.41004,"reserved":0,"last_update":"0001-01-01T00:00:00Z","name_a2s":"Uncletopia | Los Angeles | 3 | All Maps","protocol":17,"map":"pl_upward","folder":"tf","game":"Team Fortress","app_id":440,"player_count":0,"max_players":24,"Bots":0,"server_type":"Dedicated","server_os":"Linux","password":true,"vac":true,"version":"7695204","steam_id":85568392924510198,"keywords":["nocrits","nodmgspread","payload","uncletopia"],"game_id":440,"stv_port":27036,"stv_name":"Uncletopia | Los Angeles | 3 | All Maps | STV","players":null},{"server_id":25,"name":"Uncletopia | Los Angeles | 4 | No Payload","name_short":"lax-4","host":"lax-1.us.uncletopia.com","port":27045,"enabled":true,"region":"us-west","cc":"us","latitude":33.94279,"longitude":-118.41004,"reserved":0,"last_update":"0001-01-01T00:00:00Z","name_a2s":"Uncletopia | Los Angeles | 4 | No Payload","protocol":17,"map":"cp_junction_final","folder":"tf","game":"Team Fortress","app_id":440,"player_count":0,"max_players":24,"Bots":0,"server_type":"Dedicated","server_os":"Linux","password":true,"vac":true,"version":"7695204","steam_id":85568392924510199,"keywords":["cp","nocrits","nodmgspread","uncletopia"],"game_id":440,"stv_port":27046,"stv_name":"Uncletopia | Los Angeles | 4 | No Payload | STV","players":null},{"server_id":11,"name":"Uncletopia | London | 1 | All Maps","name_short":"lon-1","host":"lon-1.uk.uncletopia.com","port":27015,"enabled":true,"region":"eu","cc":"gb","latitude":51.509865,"longitude":-0.118092,"reserved":0,"last_update":"0001-01-01T00:00:00Z","name_a2s":"Uncletopia | London | 1 | All Maps","protocol":17,"map":"pl_barnblitz","folder":"tf","game":"Team Fortress","app_id":440,"player_count":24,"max_players":24,"Bots":0,"server_type":"Dedicated","server_os":"Linux","password":true,"vac":true,"version":"7695204","steam_id":85568392924367362,"keywords":["nocrits","nodmgspread","payload","uncletopia"],"game_id":440,"stv_port":27016,"stv_name":"Uncletopia | London | 1 | All Maps | STV","players":[{"user_id":350,"name":"stonebum","steam_id":76561198057004606,"connected_time":609000000000,"state":"active","ping":60},{"user_id":314,"name":"merry snow","steam_id":76561198267463398,"connected_time":3776000000000,"state":"active","ping":60},{"user_id":343,"name":"Rhynx","steam_id":76561198401430022,"connected_time":1227000000000,"state":"active","ping":43},{"user_id":356,"name":"Dr.Disrespect","steam_id":76561198043820228,"connected_time":24000000000,"state":"active","ping":47},{"user_id":347,"name":"jp-karam","steam_id":76561198048947685,"connected_time":850000000000,"state":"active","ping":50},{"user_id":341,"name":"BreadBaubbles","steam_id":76561198174332826,"connected_time":1346000000000,"state":"active","ping":55},{"user_id":307,"name":"charlotte","steam_id":76561198075129898,"connected_time":5042000000000,"state":"active","ping":41},{"user_id":313,"name":"christmas clown :o)","steam_id":76561198074657015,"connected_time":3814000000000,"state":"active","ping":63},{"user_id":231,"name":"nalapl3","steam_id":76561198197607383,"connected_time":7954000000000,"state":"active","ping":66},{"user_id":352,"name":"D D","steam_id":76561198257836694,"connected_time":563000000000,"state":"active","ping":44},{"user_id":339,"name":"Pingu","steam_id":76561198074477219,"connected_time":1405000000000,"state":"active","ping":47},{"user_id":340,"name":"Panda","steam_id":76561198176342325,"connected_time":1352000000000,"state":"active","ping":90},{"user_id":353,"name":"TIM APPLE","steam_id":76561198201618337,"connected_time":554000000000,"state":"active","ping":46},{"user_id":348,"name":"dova","steam_id":76561198068912078,"connected_time":767000000000,"state":"active","ping":75},{"user_id":309,"name":"SuperBob103","steam_id":76561199175360012,"connected_time":4749000000000,"state":"active","ping":55},{"user_id":345,"name":"robbie","steam_id":76561198798195287,"connected_time":998000000000,"state":"active","ping":47},{"user_id":318,"name":"K'aax Itzam","steam_id":76561198044024509,"connected_time":3653000000000,"state":"active","ping":89},{"user_id":354,"name":"gremlin GOD","steam_id":76561198169972571,"connected_time":547000000000,"state":"active","ping":57},{"user_id":346,"name":"Tom","steam_id":76561198176543518,"connected_time":955000000000,"state":"active","ping":47},{"user_id":319,"name":"lepicah :)","steam_id":76561198797345502,"connected_time":3604000000000,"state":"active","ping":44},{"user_id":355,"name":"tomo","steam_id":76561199015097595,"connected_time":431000000000,"state":"active","ping":41},{"user_id":325,"name":"M2rtRa","steam_id":76561198111036466,"connected_time":3020000000000,"state":"active","ping":75},{"user_id":211,"name":"whimsmas.","steam_id":76561198878171763,"connected_time":10372000000000,"state":"active","ping":59},{"user_id":330,"name":"Him","steam_id":76561198155314925,"connected_time":2392000000000,"state":"active","ping":53}]},{"server_id":114,"name":"Uncletopia | London | 2 | All Maps","name_short":"lon-2","host":"lon-1.uk.uncletopia.com","port":27025,"enabled":true,"region":"eu","cc":"gb","latitude":51.509865,"longitude":-0.118092,"reserved":0,"last_update":"0001-01-01T00:00:00Z","name_a2s":"Uncletopia | London | 2 | All Maps","protocol":17,"map":"pl_thundermountain","folder":"tf","game":"Team Fortress","app_id":440,"player_count":6,"max_players":24,"Bots":0,"server_type":"Dedicated","server_os":"Linux","password":true,"vac":true,"version":"7695204","steam_id":85568392924470941,"keywords":["nocrits","nodmgspread","payload","uncletopia"],"game_id":440,"stv_port":27026,"stv_name":"Uncletopia | London | 2 | All Maps | STV","players":[{"user_id":195,"name":"tone","steam_id":76561197975301462,"connected_time":1638000000000,"state":"active","ping":70},{"user_id":199,"name":"Cosmetic brain","steam_id":76561198055936410,"connected_time":1421000000000,"state":"active","ping":73},{"user_id":142,"name":"Carol Olston","steam_id":76561198080257273,"connected_time":6161000000000,"state":"active","ping":32},{"user_id":204,"name":"The Punch","steam_id":76561198212488780,"connected_time":542000000000,"state":"active","ping":60},{"user_id":197,"name":"Sad Slut","steam_id":76561198838277022,"connected_time":1484000000000,"state":"active","ping":92},{"user_id":167,"name":"nedilya","steam_id":76561198039692077,"connected_time":3736000000000,"state":"active","ping":76}]},{"server_id":320,"name":"Uncletopia | London | 3 | All Maps","name_short":"lon-3","host":"lon-1.uk.uncletopia.com","port":27035,"enabled":true,"region":"eu","cc":"gb","latitude":51.509865,"longitude":-0.118092,"reserved":0,"last_update":"0001-01-01T00:00:00Z","name_a2s":"Uncletopia | London | 3 | All Maps","protocol":17,"map":"pl_goldrush","folder":"tf","game":"Team Fortress","app_id":440,"player_count":0,"max_players":24,"Bots":0,"server_type":"Dedicated","server_os":"Linux","password":true,"vac":true,"version":"7695204","steam_id":85568392924510192,"keywords":["nocrits","nodmgspread","payload","uncletopia"],"game_id":440,"stv_port":27036,"stv_name":"Uncletopia | London | 3 | All Maps | STV","players":null},{"server_id":321,"name":"Uncletopia | London | 4 | All Maps","name_short":"lon-4","host":"lon-1.uk.uncletopia.com","port":27045,"enabled":true,"region":"eu","cc":"gb","latitude":51.509865,"longitude":-0.118092,"reserved":0,"last_update":"0001-01-01T00:00:00Z","name_a2s":"Uncletopia | London | 4 | All Maps","protocol":17,"map":"cp_process_final","folder":"tf","game":"Team Fortress","app_id":440,"player_count":18,"max_players":24,"Bots":0,"server_type":"Dedicated","server_os":"Linux","password":true,"vac":true,"version":"7695204","steam_id":85568392924510193,"keywords":["cp","nocrits","nodmgspread","uncletopia"],"game_id":440,"stv_port":27046,"stv_name":"Uncletopia | London | 4 | All Maps | STV","players":[{"user_id":280,"name":"little ceasers smosh enthusiast","steam_id":76561199179040672,"connected_time":59000000000,"state":"active","ping":59},{"user_id":261,"name":"Miss Bari","steam_id":76561198365286092,"connected_time":1658000000000,"state":"active","ping":34},{"user_id":269,"name":"Ftg-TheGreat18","steam_id":76561198780744160,"connected_time":1097000000000,"state":"active","ping":101},{"user_id":271,"name":"Luc4-GottGames","steam_id":76561199082222844,"connected_time":832000000000,"state":"active","ping":80},{"user_id":255,"name":"Frank","steam_id":76561198086672774,"connected_time":2178000000000,"state":"active","ping":63},{"user_id":272,"name":"Sussy Cracker","steam_id":76561198438189873,"connected_time":702000000000,"state":"active","ping":64},{"user_id":232,"name":"Chowderr","steam_id":76561197996149548,"connected_time":3167000000000,"state":"active","ping":50},{"user_id":273,"name":"?x3","steam_id":76561198095238286,"connected_time":577000000000,"state":"active","ping":45},{"user_id":278,"name":"csnipery","steam_id":76561199435280050,"connected_time":208000000000,"state":"active","ping":61},{"user_id":210,"name":"Raeews","steam_id":76561198254646517,"connected_time":4760000000000,"state":"active","ping":44},{"user_id":274,"name":"Spikey Cowboy","steam_id":76561198081219644,"connected_time":538000000000,"state":"active","ping":104},{"user_id":205,"name":"am deef! (dont have headphones)","steam_id":76561198998745353,"connected_time":5752000000000,"state":"active","ping":105},{"user_id":239,"name":"DrHappiness","steam_id":76561198132854516,"connected_time":2644000000000,"state":"active","ping":39},{"user_id":277,"name":"puddy","steam_id":76561198042047036,"connected_time":447000000000,"state":"active","ping":68},{"user_id":279,"name":"Laurie","steam_id":76561198082951750,"connected_time":206000000000,"state":"active","ping":41},{"user_id":222,"name":"maya","steam_id":76561198068242853,"connected_time":4106000000000,"state":"active","ping":50},{"user_id":260,"name":"calum92","steam_id":76561197992188760,"connected_time":1971000000000,"state":"active","ping":57},{"user_id":263,"name":"Fuxx","steam_id":76561197999543806,"connected_time":1551000000000,"state":"active","ping":75}]},{"server_id":21,"name":"Uncletopia | London | 5 | All Maps","name_short":"lon-5","host":"lon-1.uk.uncletopia.com","port":27055,"enabled":true,"region":"eu","cc":"gb","latitude":51.509865,"longitude":-0.118092,"reserved":0,"last_update":"0001-01-01T00:00:00Z","name_a2s":"Uncletopia | London | 5 | All Maps","protocol":17,"map":"koth_cascade","folder":"tf","game":"Team Fortress","app_id":440,"player_count":0,"max_players":24,"Bots":0,"server_type":"Dedicated","server_os":"Linux","password":true,"vac":true,"version":"7695204","steam_id":85568392924742829,"keywords":["cp","nocrits","nodmgspread","uncletopia"],"game_id":440,"stv_port":0,"stv_name":"","players":null},{"server_id":22,"name":"Uncletopia | London | 6 | All Maps","name_short":"lon-6","host":"lon-1.uk.uncletopia.com","port":27065,"enabled":true,"region":"eu","cc":"gb","latitude":51.509865,"longitude":-0.118092,"reserved":0,"last_update":"0001-01-01T00:00:00Z","name_a2s":"Uncletopia | London | 6 | All Maps","protocol":17,"map":"cp_process_final","folder":"tf","game":"Team Fortress","app_id":440,"player_count":6,"max_players":24,"Bots":0,"server_type":"Dedicated","server_os":"Linux","password":true,"vac":true,"version":"7695204","steam_id":85568392924742830,"keywords":["cp","nocrits","nodmgspread","uncletopia"],"game_id":440,"stv_port":27066,"stv_name":"Uncletopia | London | 6 | All Maps | STV","players":[{"user_id":303,"name":"JestersPrivilege","steam_id":76561198038667483,"connected_time":164000000000,"state":"active","ping":90},{"user_id":302,"name":"Sou...","steam_id":76561198351154533,"connected_time":567000000000,"state":"active","ping":56},{"user_id":300,"name":"Fortezza","steam_id":76561198972539903,"connected_time":1298000000000,"state":"active","ping":60},{"user_id":304,"name":"eba","steam_id":76561198309765812,"connected_time":113000000000,"state":"active","ping":86},{"user_id":285,"name":"Ch4bby","steam_id":76561198058792875,"connected_time":2209000000000,"state":"active","ping":46},{"user_id":220,"name":"Proto-arc","steam_id":76561198012776747,"connected_time":6803000000000,"state":"active","ping":54}]},{"server_id":40,"name":"Uncletopia | London | 7 | No Payload","name_short":"lon-7","host":"lon-1.uk.uncletopia.com","port":27075,"enabled":true,"region":"eu","cc":"gb","latitude":51.509865,"longitude":-0.118092,"reserved":0,"last_update":"0001-01-01T00:00:00Z","name_a2s":"Uncletopia | London | 7 | No Payload","protocol":17,"map":"koth_sawmill","folder":"tf","game":"Team Fortress","app_id":440,"player_count":0,"max_players":24,"Bots":0,"server_type":"Dedicated","server_os":"Linux","password":true,"vac":true,"version":"7695204","steam_id":85568392924964314,"keywords":["cp","nocrits","nodmgspread","uncletopia"],"game_id":440,"stv_port":27076,"stv_name":"Uncletopia | London | 7 | No Payload | STV","players":null},{"server_id":41,"name":"Uncletopia | London | 8 | Community","name_short":"lon-8","host":"lon-1.uk.uncletopia.com","port":27085,"enabled":true,"region":"eu","cc":"gb","latitude":51.509865,"longitude":-0.118092,"reserved":0,"last_update":"0001-01-01T00:00:00Z","name_a2s":"Uncletopia | London | 8 | Community","protocol":17,"map":"cp_dustbowl","folder":"tf","game":"Team Fortress","app_id":440,"player_count":0,"max_players":24,"Bots":0,"server_type":"Dedicated","server_os":"Linux","password":true,"vac":true,"version":"7695204","steam_id":85568392924964315,"keywords":["cp","nocrits","nodmgspread","uncletopia"],"game_id":440,"stv_port":0,"stv_name":"","players":null},{"server_id":300,"name":"Uncletopia | Montréal | 1 | All Maps","name_short":"mtl-1","host":"mtl-1.ca.uncletopia.com","port":27015,"enabled":true,"region":"us-east","cc":"ca","latitude":45.50889,"longitude":-73.56167,"reserved":0,"last_update":"0001-01-01T00:00:00Z","name_a2s":"Uncletopia | Montréal | 1 | All Maps","protocol":17,"map":"ctf_2fort","folder":"tf","game":"Team Fortress","app_id":440,"player_count":0,"max_players":24,"Bots":0,"server_type":"Dedicated","server_os":"Linux","password":true,"vac":true,"version":"7695204","steam_id":85568392924500087,"keywords":["ctf","nocrits","nodmgspread","uncletopia"],"game_id":440,"stv_port":27016,"stv_name":"Uncletopia | Montréal | 1 | All Maps | STV","players":null},{"server_id":301,"name":"Uncletopia | Montréal | 2 | All Maps","name_short":"mtl-2","host":"mtl-1.ca.uncletopia.com","port":27025,"enabled":true,"region":"us-east","cc":"ca","latitude":45.50889,"longitude":-73.56167,"reserved":0,"last_update":"0001-01-01T00:00:00Z","name_a2s":"Uncletopia | Montréal | 2 | All Maps","protocol":17,"map":"pl_snowycoast","folder":"tf","game":"Team Fortress","app_id":440,"player_count":0,"max_players":24,"Bots":0,"server_type":"Dedicated","server_os":"Linux","password":true,"vac":true,"version":"7695204","steam_id":85568392924500088,"keywords":["nocrits","nodmgspread","payload","uncletopia"],"game_id":440,"stv_port":0,"stv_name":"","players":null},{"server_id":302,"name":"Uncletopia | Montréal | 3 | All Maps","name_short":"mtl-3","host":"mtl-1.ca.uncletopia.com","port":27035,"enabled":true,"region":"us-east","cc":"ca","latitude":45.50889,"longitude":-73.56167,"reserved":0,"last_update":"0001-01-01T00:00:00Z","name_a2s":"Uncletopia | Montréal | 3 | All Maps","protocol":17,"map":"koth_viaduct","folder":"tf","game":"Team Fortress","app_id":440,"player_count":0,"max_players":24,"Bots":0,"server_type":"Dedicated","server_os":"Linux","password":true,"vac":true,"version":"7695204","steam_id":85568392924500089,"keywords":["cp","nocrits","nodmgspread","uncletopia"],"game_id":440,"stv_port":0,"stv_name":"","players":null},{"server_id":303,"name":"Uncletopia | Montréal | 4 | No Payload","name_short":"mtl-4","host":"mtl-1.ca.uncletopia.com","port":27045,"enabled":true,"region":"us-east","cc":"ca","latitude":45.50889,"longitude":-73.56167,"reserved":0,"last_update":"0001-01-01T00:00:00Z","name_a2s":"Uncletopia | Montréal | 4 | No Payload","protocol":17,"map":"cp_snakewater_final1","folder":"tf","game":"Team Fortress","app_id":440,"player_count":0,"max_players":24,"Bots":0,"server_type":"Dedicated","server_os":"Linux","password":true,"vac":true,"version":"7695204","steam_id":85568392924500090,"keywords":["cp","nocrits","nodmgspread","uncletopia"],"game_id":440,"stv_port":27046,"stv_name":"Uncletopia | Montréal | 4 | No Payload | STV","players":null},{"server_id":13,"name":"Uncletopia | New York City | 1 | All Maps","name_short":"nyc-1","host":"nyc-1.us.uncletopia.com","port":27015,"enabled":true,"region":"us-east","cc":"us","latitude":40.73061,"longitude":-73.93524,"reserved":0,"last_update":"0001-01-01T00:00:00Z","name_a2s":"Uncletopia | New York City | 1 | All Maps","protocol":17,"map":"pl_thundermountain","folder":"tf","game":"Team Fortress","app_id":440,"player_count":24,"max_players":24,"Bots":0,"server_type":"Dedicated","server_os":"Linux","password":true,"vac":true,"version":"7695204","steam_id":85568392924469993,"keywords":["nocrits","nodmgspread","payload","uncletopia"],"game_id":440,"stv_port":27016,"stv_name":"Uncletopia | New York City | 1 | All Maps | STV","players":[{"user_id":248,"name":"Milton","steam_id":76561198383617571,"connected_time":1294000000000,"state":"active","ping":67},{"user_id":249,"name":"schmink90","steam_id":76561199131248103,"connected_time":1180000000000,"state":"active","ping":61},{"user_id":239,"name":"roman","steam_id":76561198170066797,"connected_time":1627000000000,"state":"active","ping":49},{"user_id":255,"name":"Ceiling Man","steam_id":76561198003959902,"connected_time":472000000000,"state":"active","ping":41},{"user_id":261,"name":"Ellis from Left For Dead","steam_id":76561199013473582,"connected_time":111000000000,"state":"active","ping":68},{"user_id":223,"name":"Timon's high on crack cocaine!","steam_id":76561198180396430,"connected_time":2206000000000,"state":"active","ping":45},{"user_id":238,"name":"Pockets","steam_id":76561198001742296,"connected_time":1644000000000,"state":"active","ping":76},{"user_id":260,"name":"parsee","steam_id":76561198095139889,"connected_time":191000000000,"state":"active","ping":48},{"user_id":240,"name":"freedom of 76","steam_id":76561197962886723,"connected_time":1612000000000,"state":"active","ping":57},{"user_id":196,"name":"Dihsar","steam_id":76561198065169821,"connected_time":2980000000000,"state":"active","ping":46},{"user_id":262,"name":"You Are Now Shitting Manually","steam_id":76561198044034546,"connected_time":18000000000,"state":"spawning","ping":56},{"user_id":253,"name":"N/A","steam_id":76561198815802809,"connected_time":979000000000,"state":"active","ping":73},{"user_id":257,"name":"BeerPowder","steam_id":76561198058129400,"connected_time":387000000000,"state":"active","ping":45},{"user_id":221,"name":"Nic0","steam_id":76561198305690218,"connected_time":2291000000000,"state":"active","ping":57},{"user_id":263,"name":"UncleSpunk","steam_id":76561198354672575,"connected_time":17000000000,"state":"spawning","ping":62},{"user_id":256,"name":"Turnabout","steam_id":76561198883325162,"connected_time":454000000000,"state":"active","ping":55},{"user_id":216,"name":"SE X","steam_id":76561198094525829,"connected_time":2500000000000,"state":"active","ping":55},{"user_id":243,"name":"Comfy Monkey","steam_id":76561197998434936,"connected_time":1553000000000,"state":"active","ping":47},{"user_id":264,"name":"Rude Dog","steam_id":76561197980385816,"connected_time":5000000000,"state":"spawning","ping":119},{"user_id":259,"name":"Orchids Never Die","steam_id":76561198918156397,"connected_time":230000000000,"state":"active","ping":58},{"user_id":251,"name":"(◔) Neville","steam_id":76561198025637970,"connected_time":1060000000000,"state":"active","ping":60},{"user_id":254,"name":"My Gamer Totoro","steam_id":76561199068382726,"connected_time":979000000000,"state":"active","ping":77},{"user_id":211,"name":"nack_swam","steam_id":76561198446423541,"connected_time":2802000000000,"state":"active","ping":61},{"user_id":237,"name":"ManLiker995@hotmail.cn","steam_id":76561198985929996,"connected_time":1830000000000,"state":"active","ping":56}]},{"server_id":14,"name":"Uncletopia | New York City | 2 | All Maps","name_short":"nyc-2","host":"nyc-1.us.uncletopia.com","port":27025,"enabled":true,"region":"us-east","cc":"us","latitude":40.73061,"longitude":-73.93524,"reserved":0,"last_update":"0001-01-01T00:00:00Z","name_a2s":"Uncletopia | New York City | 2 | All Maps","protocol":17,"map":"koth_king","folder":"tf","game":"Team Fortress","app_id":440,"player_count":24,"max_players":24,"Bots":0,"server_type":"Dedicated","server_os":"Linux","password":true,"vac":true,"version":"7695204","steam_id":85568392924469994,"keywords":["cp","nocrits","nodmgspread","uncletopia"],"game_id":440,"stv_port":27026,"stv_name":"Uncletopia | New York City | 2 | All Maps | STV","players":[{"user_id":291,"name":"Diogenes","steam_id":76561198122527295,"connected_time":1157000000000,"state":"active","ping":58},{"user_id":309,"name":"spock the rock doc ock and hulk","steam_id":76561198150567198,"connected_time":106000000000,"state":"active","ping":43},{"user_id":279,"name":"Phocae \u003c3","steam_id":76561199317584594,"connected_time":1885000000000,"state":"active","ping":56},{"user_id":266,"name":"Mr. Squidward","steam_id":76561198103821671,"connected_time":3333000000000,"state":"active","ping":53},{"user_id":293,"name":"DIZ","steam_id":76561199065119525,"connected_time":947000000000,"state":"active","ping":63},{"user_id":303,"name":"Bingus","steam_id":76561198144791538,"connected_time":349000000000,"state":"active","ping":56},{"user_id":289,"name":"bingo bango","steam_id":76561198068933412,"connected_time":1404000000000,"state":"active","ping":47},{"user_id":277,"name":"✿ willing victim of a canniba","steam_id":76561198294013916,"connected_time":2064000000000,"state":"active","ping":45},{"user_id":294,"name":"wassa","steam_id":76561198040493947,"connected_time":890000000000,"state":"active","ping":99},{"user_id":304,"name":"Infinitee","steam_id":76561198125409130,"connected_time":327000000000,"state":"active","ping":48},{"user_id":305,"name":"Van","steam_id":76561198073518712,"connected_time":312000000000,"state":"active","ping":46},{"user_id":306,"name":"DeadSea","steam_id":76561198060532840,"connected_time":305000000000,"state":"active","ping":73},{"user_id":292,"name":"Aggressive Pedestrian","steam_id":76561199229771413,"connected_time":1062000000000,"state":"active","ping":82},{"user_id":308,"name":"confused","steam_id":76561198018654093,"connected_time":137000000000,"state":"active","ping":57},{"user_id":248,"name":"Jenkinsclausman","steam_id":76561198174051530,"connected_time":4087000000000,"state":"active","ping":47},{"user_id":262,"name":"DistantJragon","steam_id":76561198117563641,"connected_time":3460000000000,"state":"active","ping":65},{"user_id":310,"name":"Bames Jond","steam_id":76561198037252756,"connected_time":47000000000,"state":"active","ping":96},{"user_id":283,"name":"Stormartillery","steam_id":76561198408982577,"connected_time":1797000000000,"state":"active","ping":53},{"user_id":285,"name":"krerdly is real","steam_id":76561198377555279,"connected_time":1766000000000,"state":"active","ping":81},{"user_id":245,"name":"CreeperCatBengal","steam_id":76561198213193221,"connected_time":4122000000000,"state":"active","ping":63},{"user_id":298,"name":"GiraffeMan","steam_id":76561198042104084,"connected_time":800000000000,"state":"active","ping":57},{"user_id":302,"name":"♡Alyx♡","steam_id":76561198024303978,"connected_time":523000000000,"state":"active","ping":49},{"user_id":307,"name":"Pills","steam_id":76561198799440163,"connected_time":298000000000,"state":"active","ping":100},{"user_id":311,"name":"Menace to Sobriety","steam_id":76561198245103000,"connected_time":22000000000,"state":"active","ping":79}]},{"server_id":15,"name":"Uncletopia | New York City | 3 | All Maps","name_short":"nyc-3","host":"nyc-1.us.uncletopia.com","port":27035,"enabled":true,"region":"us-east","cc":"us","latitude":40.73061,"longitude":-73.93524,"reserved":0,"last_update":"0001-01-01T00:00:00Z","name_a2s":"Uncletopia | New York City | 3 | All Maps","protocol":17,"map":"pl_badwater","folder":"tf","game":"Team Fortress","app_id":440,"player_count":24,"max_players":24,"Bots":0,"server_type":"Dedicated","server_os":"Linux","password":true,"vac":true,"version":"7695204","steam_id":85568392924742820,"keywords":["nocrits","nodmgspread","payload","uncletopia"],"game_id":440,"stv_port":27036,"stv_name":"Uncletopia | New York City | 3 | All Maps | STV","players":[{"user_id":290,"name":"sansa musa","steam_id":76561198163723555,"connected_time":411000000000,"state":"active","ping":58},{"user_id":231,"name":"Anyar","steam_id":76561198160174097,"connected_time":5177000000000,"state":"active","ping":78},{"user_id":300,"name":"weewa","steam_id":76561198064876090,"connected_time":117000000000,"state":"active","ping":57},{"user_id":293,"name":"Eternal","steam_id":76561197990721868,"connected_time":405000000000,"state":"active","ping":80},{"user_id":232,"name":"tac","steam_id":76561198155113345,"connected_time":5143000000000,"state":"active","ping":75},{"user_id":289,"name":"Donne","steam_id":76561198231266680,"connected_time":471000000000,"state":"active","ping":69},{"user_id":301,"name":"obbeymaster19","steam_id":76561199197244143,"connected_time":7000000000,"state":"spawning","ping":89},{"user_id":165,"name":"$NEWBIE$","steam_id":76561198020125135,"connected_time":11318000000000,"state":"active","ping":148},{"user_id":274,"name":"eldritchsigns","steam_id":76561198380930571,"connected_time":2485000000000,"state":"active","ping":84},{"user_id":282,"name":"Eradicator","steam_id":76561197972314510,"connected_time":1518000000000,"state":"active","ping":67},{"user_id":294,"name":"Johnny Lawrence #JohnnyMaxxing","steam_id":76561199367141671,"connected_time":379000000000,"state":"active","ping":50},{"user_id":299,"name":"Laelaps","steam_id":76561198100061416,"connected_time":232000000000,"state":"active","ping":53},{"user_id":291,"name":"glue consumer","steam_id":76561198083271257,"connected_time":411000000000,"state":"active","ping":83},{"user_id":288,"name":"TwizzlerNips","steam_id":76561198082853513,"connected_time":865000000000,"state":"active","ping":75},{"user_id":296,"name":"Funny Skeleton Man","steam_id":76561198264262564,"connected_time":348000000000,"state":"active","ping":68},{"user_id":292,"name":"Luis wid a mic","steam_id":76561198349570006,"connected_time":410000000000,"state":"active","ping":36},{"user_id":287,"name":"Ginger Powder","steam_id":76561198082650449,"connected_time":906000000000,"state":"active","ping":72},{"user_id":251,"name":"Zowei","steam_id":76561198910513509,"connected_time":3481000000000,"state":"active","ping":165},{"user_id":286,"name":"MiddleC","steam_id":76561198170332855,"connected_time":943000000000,"state":"active","ping":80},{"user_id":295,"name":"warpig","steam_id":76561199226313309,"connected_time":361000000000,"state":"active","ping":49},{"user_id":260,"name":"Kohbold","steam_id":76561198996480140,"connected_time":3059000000000,"state":"active","ping":82},{"user_id":273,"name":"Poser01","steam_id":76561197999257332,"connected_time":2546000000000,"state":"active","ping":124},{"user_id":276,"name":"Big Siege","steam_id":76561198002276803,"connected_time":1988000000000,"state":"active","ping":87},{"user_id":298,"name":"crankshaft","steam_id":76561197992798282,"connected_time":323000000000,"state":"active","ping":118}]},{"server_id":16,"name":"Uncletopia | New York City | 4 | Community","name_short":"nyc-4","host":"nyc-1.us.uncletopia.com","port":27045,"enabled":true,"region":"us-east","cc":"us","latitude":40.73061,"longitude":-73.93524,"reserved":0,"last_update":"0001-01-01T00:00:00Z","name_a2s":"Uncletopia | New York City | 4 | Community","protocol":17,"map":"workshop/koth_product_final.ugc454272353","folder":"tf","game":"Team Fortress","app_id":440,"player_count":0,"max_players":24,"Bots":0,"server_type":"Dedicated","server_os":"Linux","password":true,"vac":true,"version":"7695204","steam_id":85568392924742821,"keywords":["cp","nocrits","nodmgspread","uncletopia"],"game_id":440,"stv_port":27046,"stv_name":"Uncletopia | New York City | 4 | Community | STV","players":null},{"server_id":142,"name":"Uncletopia | São Paulo | 1 | All Maps","name_short":"sao-1","host":"sao-1.br.uncletopia.com","port":27015,"enabled":true,"region":"sa","cc":"br","latitude":-23.533773,"longitude":-46.62529,"reserved":0,"last_update":"0001-01-01T00:00:00Z","name_a2s":"Uncletopia | São Paulo | 1 | All Maps","protocol":17,"map":"cp_mountainlab","folder":"tf","game":"Team Fortress","app_id":440,"player_count":3,"max_players":24,"Bots":0,"server_type":"Dedicated","server_os":"Linux","password":true,"vac":true,"version":"7695204","steam_id":85568392924469996,"keywords":["cp","nocrits","nodmgspread","uncletopia"],"game_id":440,"stv_port":27016,"stv_name":"Uncletopia | São Paulo | 1 | All Maps | STV","players":[{"user_id":41,"name":"Homero chino","steam_id":76561199066605566,"connected_time":289000000000,"state":"active","ping":83},{"user_id":42,"name":"TuVieja_777_","steam_id":76561199289101211,"connected_time":195000000000,"state":"active","ping":95},{"user_id":43,"name":"CatalanMadridista","steam_id":76561199182150779,"connected_time":164000000000,"state":"active","ping":95}]},{"server_id":143,"name":"Uncletopia | São Paulo | 2 | All Maps","name_short":"sao-2","host":"sao-2.br.uncletopia.com","port":27015,"enabled":true,"region":"sa","cc":"br","latitude":-23.533773,"longitude":-46.62529,"reserved":0,"last_update":"0001-01-01T00:00:00Z","name_a2s":"Uncletopia | São Paulo | 2 | All Maps","protocol":17,"map":"pl_barnblitz","folder":"tf","game":"Team Fortress","app_id":440,"player_count":24,"max_players":24,"Bots":0,"server_type":"Dedicated","server_os":"Linux","password":true,"vac":true,"version":"7695204","steam_id":85568392924485349,"keywords":["nocrits","nodmgspread","payload","uncletopia"],"game_id":440,"stv_port":27016,"stv_name":"Uncletopia | São Paulo | 2 | All Maps | STV","players":[{"user_id":155,"name":"SexyBalls(real)","steam_id":76561199001369964,"connected_time":3510000000000,"state":"active","ping":75},{"user_id":172,"name":"palmeri","steam_id":76561198276113571,"connected_time":2586000000000,"state":"active","ping":41},{"user_id":107,"name":"Pathetic","steam_id":76561198051056987,"connected_time":9026000000000,"state":"active","ping":60},{"user_id":201,"name":"faultymouseguy","steam_id":76561199258606361,"connected_time":346000000000,"state":"active","ping":50},{"user_id":202,"name":"[-LC-] Sir Crusher","steam_id":76561198124065641,"connected_time":264000000000,"state":"active","ping":55},{"user_id":204,"name":"uf","steam_id":76561198090258106,"connected_time":164000000000,"state":"active","ping":89},{"user_id":197,"name":"banana phone","steam_id":76561199401357220,"connected_time":960000000000,"state":"active","ping":49},{"user_id":175,"name":"melancholia","steam_id":76561197977365746,"connected_time":2346000000000,"state":"active","ping":46},{"user_id":190,"name":"ARK","steam_id":76561198253139686,"connected_time":1301000000000,"state":"active","ping":87},{"user_id":188,"name":"RHD BRAZIL [\u003c O \u003e]","steam_id":76561198028190080,"connected_time":1564000000000,"state":"active","ping":41},{"user_id":192,"name":":)","steam_id":76561198401283683,"connected_time":1279000000000,"state":"active","ping":50},{"user_id":183,"name":"Beowulf","steam_id":76561198130601460,"connected_time":1773000000000,"state":"active","ping":95},{"user_id":193,"name":"ortipianinho","steam_id":76561199053319260,"connected_time":1273000000000,"state":"active","ping":61},{"user_id":164,"name":"ＥｎｄｅｒＮｅｃｒｏ","steam_id":76561198044304293,"connected_time":3237000000000,"state":"active","ping":38},{"user_id":98,"name":"Gustavocoste","steam_id":76561198233692404,"connected_time":10010000000000,"state":"active","ping":42},{"user_id":198,"name":"Silly (200ping)","steam_id":76561199021018459,"connected_time":880000000000,"state":"active","ping":108},{"user_id":205,"name":"coelho","steam_id":76561199033337439,"connected_time":138000000000,"state":"active","ping":48},{"user_id":177,"name":"Pr公道レース","steam_id":76561198976110673,"connected_time":2306000000000,"state":"active","ping":55},{"user_id":178,"name":"the bron jame","steam_id":76561198968423102,"connected_time":2298000000000,"state":"active","ping":127},{"user_id":206,"name":"Pedro_☔","steam_id":76561199173950718,"connected_time":47000000000,"state":"spawning","ping":59},{"user_id":179,"name":"Idol","steam_id":76561198137606413,"connected_time":2259000000000,"state":"active","ping":73},{"user_id":185,"name":"Dandiablo","steam_id":76561198049841015,"connected_time":1731000000000,"state":"active","ping":96},{"user_id":207,"name":"victourino (F2P)","steam_id":76561199058995595,"connected_time":8000000000,"state":"spawning","ping":67},{"user_id":182,"name":"Every year is getting shorter","steam_id":76561198026672557,"connected_time":2041000000000,"state":"active","ping":61}]},{"server_id":7,"name":"Uncletopia | Seattle | 1 | All Maps","name_short":"sea-1","host":"sea-1.us.uncletopia.com","port":27015,"enabled":true,"region":"us-west","cc":"us","latitude":47.608013,"longitude":-122.33517,"reserved":0,"last_update":"0001-01-01T00:00:00Z","name_a2s":"Uncletopia | Seattle | 1 | All Maps","protocol":17,"map":"cp_sunshine","folder":"tf","game":"Team Fortress","app_id":440,"player_count":24,"max_players":24,"Bots":0,"server_type":"Dedicated","server_os":"Linux","password":true,"vac":true,"version":"7695204","steam_id":85568392924469997,"keywords":["cp","nocrits","nodmgspread","uncletopia"],"game_id":440,"stv_port":27016,"stv_name":"Uncletopia | Seattle | 1 | All Maps | STV","players":[{"user_id":68,"name":"Level 99 Mudcrab","steam_id":76561198077452771,"connected_time":1032000000000,"state":"active","ping":52},{"user_id":82,"name":"R3PurpleOwl","steam_id":76561198049212557,"connected_time":421000000000,"state":"active","ping":74},{"user_id":77,"name":"lag","steam_id":76561197963872739,"connected_time":632000000000,"state":"active","ping":55},{"user_id":86,"name":":)","steam_id":76561199295900243,"connected_time":328000000000,"state":"active","ping":55},{"user_id":78,"name":"drive","steam_id":76561198041818185,"connected_time":629000000000,"state":"active","ping":100},{"user_id":52,"name":"dddumb510","steam_id":76561198030793492,"connected_time":1969000000000,"state":"active","ping":69},{"user_id":40,"name":"MAXIMUS","steam_id":76561198025747866,"connected_time":2374000000000,"state":"active","ping":49},{"user_id":33,"name":"Kobe Bryant but Trans","steam_id":76561198358324184,"connected_time":2631000000000,"state":"active","ping":69},{"user_id":36,"name":"Skeleton Bones Ghoulie","steam_id":76561199138772722,"connected_time":2506000000000,"state":"active","ping":76},{"user_id":80,"name":"virtual war hero","steam_id":76561198425628087,"connected_time":474000000000,"state":"active","ping":73},{"user_id":43,"name":"leonardo da bingi","steam_id":76561197978678262,"connected_time":2135000000000,"state":"active","ping":97},{"user_id":59,"name":"GUITAR GAMING!!!","steam_id":76561198199604767,"connected_time":1887000000000,"state":"active","ping":54},{"user_id":66,"name":"help","steam_id":76561199056338917,"connected_time":1046000000000,"state":"active","ping":113},{"user_id":90,"name":"Cuno Doesn't Care!","steam_id":76561198007372782,"connected_time":108000000000,"state":"active","ping":77},{"user_id":70,"name":"Amogous Supreme","steam_id":76561198025476774,"connected_time":970000000000,"state":"active","ping":77},{"user_id":83,"name":"winky","steam_id":76561199128617780,"connected_time":368000000000,"state":"active","ping":89},{"user_id":51,"name":"STrong Bomber","steam_id":76561198805051139,"connected_time":1982000000000,"state":"active","ping":57},{"user_id":53,"name":"Honeybunch","steam_id":76561198014850580,"connected_time":1955000000000,"state":"active","ping":40},{"user_id":84,"name":"tree funny","steam_id":76561199152882553,"connected_time":348000000000,"state":"active","ping":94},{"user_id":89,"name":"TinyDM","steam_id":76561199041872933,"connected_time":190000000000,"state":"active","ping":93},{"user_id":87,"name":"Frongus","steam_id":76561197979056451,"connected_time":295000000000,"state":"active","ping":51},{"user_id":88,"name":"eredyn","steam_id":76561198868116439,"connected_time":274000000000,"state":"active","ping":102},{"user_id":58,"name":"Hankjob","steam_id":76561198042724513,"connected_time":1946000000000,"state":"active","ping":125}]},{"server_id":119,"name":"Uncletopia | Seattle | 2 | All Maps","name_short":"sea-2","host":"sea-1.us.uncletopia.com","port":27025,"enabled":true,"region":"us-west","cc":"us","latitude":47.608013,"longitude":-122.33517,"reserved":0,"last_update":"0001-01-01T00:00:00Z","name_a2s":"Uncletopia | Seattle | 2 | All Maps","protocol":17,"map":"pl_borneo","folder":"tf","game":"Team Fortress","app_id":440,"player_count":24,"max_players":24,"Bots":0,"server_type":"Dedicated","server_os":"Linux","password":true,"vac":true,"version":"7695204","steam_id":85568392924469998,"keywords":["nocrits","nodmgspread","payload","uncletopia"],"game_id":440,"stv_port":27026,"stv_name":"Uncletopia | Seattle | 2 | All Maps | STV","players":[{"user_id":297,"name":"NoodleGoose01","steam_id":76561199081634658,"connected_time":686000000000,"state":"active","ping":81},{"user_id":282,"name":"JTuu","steam_id":76561198030606396,"connected_time":1464000000000,"state":"active","ping":41},{"user_id":292,"name":"Yoyo","steam_id":76561199122577289,"connected_time":869000000000,"state":"active","ping":132},{"user_id":284,"name":"DonoC","steam_id":76561198274473338,"connected_time":1369000000000,"state":"active","ping":103},{"user_id":233,"name":"CrunchCisco","steam_id":76561199162724832,"connected_time":5532000000000,"state":"active","ping":130},{"user_id":309,"name":"save on foods","steam_id":76561198146228439,"connected_time":383000000000,"state":"active","ping":48},{"user_id":305,"name":"oog","steam_id":76561198272986152,"connected_time":460000000000,"state":"active","ping":162},{"user_id":281,"name":"Hunter","steam_id":76561198050617754,"connected_time":1502000000000,"state":"active","ping":72},{"user_id":258,"name":"[DATS➡] Sugar Meowth","steam_id":76561197995251793,"connected_time":3211000000000,"state":"active","ping":39},{"user_id":273,"name":"MacchuPeachu","steam_id":76561199093242587,"connected_time":1813000000000,"state":"active","ping":62},{"user_id":302,"name":"A Random Guy","steam_id":76561198282519457,"connected_time":504000000000,"state":"active","ping":123},{"user_id":293,"name":"Angela","steam_id":76561198991101353,"connected_time":843000000000,"state":"active","ping":48},{"user_id":236,"name":"Themasterman75","steam_id":76561199385573293,"connected_time":5093000000000,"state":"active","ping":66},{"user_id":286,"name":"Fachedin","steam_id":76561198041850415,"connected_time":1311000000000,"state":"active","ping":80},{"user_id":277,"name":"jennco","steam_id":76561198212421513,"connected_time":1676000000000,"state":"active","ping":87},{"user_id":299,"name":"Gilgamesh","steam_id":76561198317113179,"connected_time":607000000000,"state":"active","ping":105},{"user_id":310,"name":"Pneumo.","steam_id":76561197987911883,"connected_time":204000000000,"state":"active","ping":57},{"user_id":237,"name":"tayzik","steam_id":76561199391478575,"connected_time":4836000000000,"state":"active","ping":69},{"user_id":298,"name":"KingTinkerer","steam_id":76561198226856548,"connected_time":637000000000,"state":"active","ping":71},{"user_id":296,"name":"fidel cashflow","steam_id":76561197988234127,"connected_time":715000000000,"state":"active","ping":38},{"user_id":246,"name":"BUNGUS","steam_id":76561198068879291,"connected_time":3951000000000,"state":"active","ping":53},{"user_id":271,"name":"Master Of Whales","steam_id":76561198349104889,"connected_time":1957000000000,"state":"active","ping":69},{"user_id":280,"name":"devamar","steam_id":76561198069115467,"connected_time":1535000000000,"state":"active","ping":75},{"user_id":304,"name":"FRANKY!!!","steam_id":76561199211305343,"connected_time":484000000000,"state":"active","ping":58}]},{"server_id":17,"name":"Uncletopia | San Francisco | 1 | All Maps","name_short":"sfo-1","host":"sfo-1.us.uncletopia.com","port":27015,"enabled":true,"region":"us-west","cc":"us","latitude":37.77397,"longitude":-122.4313,"reserved":0,"last_update":"0001-01-01T00:00:00Z","name_a2s":"Uncletopia | San Francisco | 1 | All Maps","protocol":17,"map":"cp_dustbowl","folder":"tf","game":"Team Fortress","app_id":440,"player_count":0,"max_players":24,"Bots":0,"server_type":"Dedicated","server_os":"Linux","password":true,"vac":true,"version":"7695204","steam_id":85568392924469999,"keywords":["cp","nocrits","nodmgspread","uncletopia"],"game_id":440,"stv_port":27016,"stv_name":"Uncletopia | San Francisco | 1 | All Maps | STV","players":null},{"server_id":18,"name":"Uncletopia | San Francisco | 2 | All Maps","name_short":"sfo-2","host":"sfo-1.us.uncletopia.com","port":27025,"enabled":true,"region":"us-west","cc":"us","latitude":37.77397,"longitude":-122.4313,"reserved":0,"last_update":"0001-01-01T00:00:00Z","name_a2s":"Uncletopia | San Francisco | 2 | All Maps","protocol":17,"map":"pl_frontier_final","folder":"tf","game":"Team Fortress","app_id":440,"player_count":24,"max_players":24,"Bots":0,"server_type":"Dedicated","server_os":"Linux","password":true,"vac":true,"version":"7695204","steam_id":85568392924470000,"keywords":["nocrits","nodmgspread","payload","uncletopia"],"game_id":440,"stv_port":27026,"stv_name":"Uncletopia | San Francisco | 2 | All Maps | STV","players":[{"user_id":182,"name":"Mason","steam_id":76561198125358775,"connected_time":10352000000000,"state":"active","ping":76},{"user_id":296,"name":"yolginmo","steam_id":76561198157985901,"connected_time":2456000000000,"state":"active","ping":66},{"user_id":287,"name":"Sammobot5","steam_id":76561199063956054,"connected_time":3294000000000,"state":"active","ping":79},{"user_id":301,"name":"The Caretaker","steam_id":76561198125241411,"connected_time":1670000000000,"state":"active","ping":69},{"user_id":310,"name":"Brando","steam_id":76561198078306678,"connected_time":1134000000000,"state":"active","ping":67},{"user_id":300,"name":"profnyan (he/they)","steam_id":76561198062755171,"connected_time":1835000000000,"state":"active","ping":71},{"user_id":293,"name":"2004 Honda Accord (real)","steam_id":76561199377928777,"connected_time":2493000000000,"state":"active","ping":70},{"user_id":309,"name":"TOOL fan","steam_id":76561198272021214,"connected_time":1208000000000,"state":"active","ping":66},{"user_id":230,"name":"dodecadron","steam_id":76561198027397222,"connected_time":7228000000000,"state":"active","ping":81},{"user_id":297,"name":"Many Bees' Chilling","steam_id":76561198079641282,"connected_time":2404000000000,"state":"active","ping":68},{"user_id":294,"name":"Pie","steam_id":76561198054721133,"connected_time":2490000000000,"state":"active","ping":67},{"user_id":280,"name":"b3afy","steam_id":76561198084208649,"connected_time":3996000000000,"state":"active","ping":70},{"user_id":303,"name":"GreenApples","steam_id":76561198120559543,"connected_time":1637000000000,"state":"active","ping":46},{"user_id":295,"name":"Mr. Yoshida","steam_id":76561198263829831,"connected_time":2488000000000,"state":"active","ping":80},{"user_id":308,"name":"tS | maxgb2000","steam_id":76561198079886300,"connected_time":1237000000000,"state":"active","ping":92},{"user_id":311,"name":"June","steam_id":76561198141803658,"connected_time":1122000000000,"state":"active","ping":60},{"user_id":306,"name":"Servitz","steam_id":76561198194446835,"connected_time":1418000000000,"state":"active","ping":112},{"user_id":315,"name":"Sith of Darkness","steam_id":76561198106636597,"connected_time":874000000000,"state":"active","ping":66},{"user_id":247,"name":"Ahzain","steam_id":76561198035894333,"connected_time":5779000000000,"state":"active","ping":109},{"user_id":281,"name":"tweet","steam_id":76561198166515735,"connected_time":3933000000000,"state":"active","ping":50},{"user_id":299,"name":"big sweaty","steam_id":76561197994594452,"connected_time":2007000000000,"state":"active","ping":59},{"user_id":313,"name":"Vojdo","steam_id":76561198064781517,"connected_time":992000000000,"state":"active","ping":64},{"user_id":273,"name":"✫P∀nck∈✫","steam_id":76561198050163618,"connected_time":4554000000000,"state":"active","ping":50},{"user_id":305,"name":"kim wexler","steam_id":76561198081284664,"connected_time":1608000000000,"state":"active","ping":58}]},{"server_id":19,"name":"Uncletopia | San Francisco | 3 | No Payload","name_short":"sfo-3","host":"sfo-1.us.uncletopia.com","port":27035,"enabled":true,"region":"us-west","cc":"us","latitude":37.77397,"longitude":-122.4313,"reserved":0,"last_update":"0001-01-01T00:00:00Z","name_a2s":"Uncletopia | San Francisco | 3 | No Payload","protocol":17,"map":"cp_snakewater_final1","folder":"tf","game":"Team Fortress","app_id":440,"player_count":0,"max_players":24,"Bots":0,"server_type":"Dedicated","server_os":"Linux","password":true,"vac":true,"version":"7695204","steam_id":85568392924742824,"keywords":["cp","nocrits","nodmgspread","uncletopia"],"game_id":440,"stv_port":0,"stv_name":"","players":null},{"server_id":20,"name":"Uncletopia | San Francisco | 4 | Community","name_short":"sfo-4","host":"sfo-1.us.uncletopia.com","port":27045,"enabled":true,"region":"us-west","cc":"us","latitude":37.77397,"longitude":-122.4313,"reserved":0,"last_update":"0001-01-01T00:00:00Z","name_a2s":"Uncletopia | San Francisco | 4 | Community","protocol":17,"map":"koth_highpass","folder":"tf","game":"Team Fortress","app_id":440,"player_count":3,"max_players":24,"Bots":0,"server_type":"Dedicated","server_os":"Linux","password":true,"vac":true,"version":"7695204","steam_id":85568392924742826,"keywords":["cp","nocrits","nodmgspread","uncletopia"],"game_id":440,"stv_port":0,"stv_name":"","players":[{"user_id":3,"name":"scrumpy","steam_id":76561199078477854,"connected_time":644000000000,"state":"active","ping":53},{"user_id":4,"name":"Toon Noah","steam_id":76561198299876785,"connected_time":598000000000,"state":"active","ping":150},{"user_id":5,"name":"MrCheeseTiger123","steam_id":76561198805414693,"connected_time":550000000000,"state":"active","ping":120}]},{"server_id":141,"name":"Uncletopia | Sydney | 1 | All Maps","name_short":"syd-1","host":"syd-1.au.uncletopia.com","port":27015,"enabled":true,"region":"au","cc":"au","latitude":-33.865143,"longitude":151.2099,"reserved":0,"last_update":"0001-01-01T00:00:00Z","name_a2s":"Uncletopia | Sydney | 1 | All Maps","protocol":17,"map":"pl_goldrush","folder":"tf","game":"Team Fortress","app_id":440,"player_count":24,"max_players":24,"Bots":0,"server_type":"Dedicated","server_os":"Linux","password":true,"vac":true,"version":"7695204","steam_id":85568392924470001,"keywords":["nocrits","nodmgspread","payload","uncletopia"],"game_id":440,"stv_port":27016,"stv_name":"Uncletopia | Sydney | 1 | All Maps | STV","players":[{"user_id":131,"name":"Jubs","steam_id":76561198095660304,"connected_time":1717000000000,"state":"active","ping":46},{"user_id":97,"name":"kcajnosbod","steam_id":76561198400431574,"connected_time":4541000000000,"state":"active","ping":60},{"user_id":67,"name":"cakey","steam_id":76561198173746761,"connected_time":6733000000000,"state":"active","ping":46},{"user_id":87,"name":"On My Way to Smooch You, I Am","steam_id":76561198041713339,"connected_time":5841000000000,"state":"active","ping":68},{"user_id":125,"name":"DJ","steam_id":76561198070691724,"connected_time":2431000000000,"state":"active","ping":60},{"user_id":128,"name":"ttv/ca7x3","steam_id":76561198181194862,"connected_time":2181000000000,"state":"active","ping":63},{"user_id":126,"name":"Van","steam_id":76561198027324852,"connected_time":2423000000000,"state":"active","ping":73},{"user_id":101,"name":"Jizfellow","steam_id":76561198067993108,"connected_time":4479000000000,"state":"active","ping":36},{"user_id":132,"name":"callum.jones2008","steam_id":76561198050053720,"connected_time":1701000000000,"state":"active","ping":68},{"user_id":137,"name":"hobo","steam_id":76561199046481213,"connected_time":1374000000000,"state":"active","ping":67},{"user_id":66,"name":"nojnosbod11","steam_id":76561199176012151,"connected_time":6878000000000,"state":"active","ping":61},{"user_id":112,"name":"Tomatolaxatives","steam_id":76561198165184407,"connected_time":3463000000000,"state":"active","ping":48},{"user_id":143,"name":"krandlez` (Any/All)","steam_id":76561198044839726,"connected_time":479000000000,"state":"active","ping":43},{"user_id":104,"name":"Slippo","steam_id":76561198079649290,"connected_time":4339000000000,"state":"active","ping":46},{"user_id":134,"name":"korn","steam_id":76561198022563294,"connected_time":1675000000000,"state":"active","ping":100},{"user_id":102,"name":"能豆儿","steam_id":76561197991089508,"connected_time":4454000000000,"state":"active","ping":39},{"user_id":138,"name":"Elves","steam_id":76561198010873624,"connected_time":639000000000,"state":"active","ping":56},{"user_id":146,"name":"Pigmop","steam_id":76561199096494193,"connected_time":231000000000,"state":"active","ping":93},{"user_id":145,"name":"Solty","steam_id":76561198044062896,"connected_time":370000000000,"state":"active","ping":44},{"user_id":127,"name":"Titan","steam_id":76561198423674328,"connected_time":2420000000000,"state":"active","ping":56},{"user_id":136,"name":"Selling Anti-Matter for $543","steam_id":76561198070708382,"connected_time":1474000000000,"state":"active","ping":83},{"user_id":95,"name":"Level 20 Commoner","steam_id":76561198020401609,"connected_time":4642000000000,"state":"active","ping":49},{"user_id":110,"name":"lizzy-wizzy","steam_id":76561198281156018,"connected_time":3470000000000,"state":"active","ping":55},{"user_id":123,"name":"Sky","steam_id":76561198851366510,"connected_time":2584000000000,"state":"active","ping":51}]},{"server_id":123,"name":"Uncletopia | Sydney | 2 | All Maps","name_short":"syd-2","host":"syd-1.au.uncletopia.com","port":27025,"enabled":true,"region":"au","cc":"au","latitude":-33.865143,"longitude":151.2099,"reserved":0,"last_update":"0001-01-01T00:00:00Z","name_a2s":"Uncletopia | Sydney | 2 | All Maps","protocol":17,"map":"cp_dustbowl","folder":"tf","game":"Team Fortress","app_id":440,"player_count":18,"max_players":24,"Bots":0,"server_type":"Dedicated","server_os":"Linux","password":true,"vac":true,"version":"7695204","steam_id":85568392924470002,"keywords":["cp","nocrits","nodmgspread","uncletopia"],"game_id":440,"stv_port":27026,"stv_name":"Uncletopia | Sydney | 2 | All Maps | STV","players":[{"user_id":58,"name":"Nylk","steam_id":76561198033625169,"connected_time":737000000000,"state":"active","ping":30},{"user_id":23,"name":"Glockenspe","steam_id":76561199184115241,"connected_time":2659000000000,"state":"active","ping":46},{"user_id":66,"name":"¯\\_(ツ)_/¯","steam_id":76561199206182584,"connected_time":224000000000,"state":"active","ping":46},{"user_id":67,"name":"IKEA","steam_id":76561199082795485,"connected_time":159000000000,"state":"active","ping":47},{"user_id":68,"name":"White Wine Vinegar","steam_id":76561198260148888,"connected_time":119000000000,"state":"active","ping":66},{"user_id":29,"name":"busyfuredball39","steam_id":76561199169804427,"connected_time":2177000000000,"state":"active","ping":62},{"user_id":30,"name":"tired transfem","steam_id":76561198260357417,"connected_time":1931000000000,"state":"active","ping":48},{"user_id":54,"name":"AzureFox","steam_id":76561198108179408,"connected_time":939000000000,"state":"active","ping":100},{"user_id":69,"name":"luiz.lineu13","steam_id":76561199057600862,"connected_time":88000000000,"state":"active","ping":329},{"user_id":33,"name":"Aspendale Assassin","steam_id":76561198086794190,"connected_time":1850000000000,"state":"active","ping":60},{"user_id":70,"name":"Orsn","steam_id":76561198297074145,"connected_time":65000000000,"state":"active","ping":89},{"user_id":71,"name":"UglyBarnicle","steam_id":76561198075921599,"connected_time":3000000000,"state":"spawning","ping":102},{"user_id":52,"name":"Detective Guzzler","steam_id":76561198114566532,"connected_time":1108000000000,"state":"active","ping":78},{"user_id":61,"name":"SpacePan","steam_id":76561199164052617,"connected_time":596000000000,"state":"active","ping":55},{"user_id":49,"name":"table","steam_id":76561199218095319,"connected_time":1328000000000,"state":"active","ping":50},{"user_id":41,"name":"MAN","steam_id":76561199206122753,"connected_time":1617000000000,"state":"active","ping":47},{"user_id":46,"name":"stevo","steam_id":76561198117749786,"connected_time":1398000000000,"state":"active","ping":79},{"user_id":62,"name":"Lancer","steam_id":76561198122813810,"connected_time":594000000000,"state":"active","ping":71}]},{"server_id":395,"name":"Uncletopia | Sydney | 3 | All Maps","name_short":"syd-3","host":"syd-1.au.uncletopia.com","port":27035,"enabled":true,"region":"au","cc":"au","latitude":-33.865143,"longitude":151.2099,"reserved":0,"last_update":"0001-01-01T00:00:00Z","name_a2s":"Uncletopia | Sydney | 3 | All Maps","protocol":17,"map":"koth_highpass","folder":"tf","game":"Team Fortress","app_id":440,"player_count":0,"max_players":24,"Bots":0,"server_type":"Dedicated","server_os":"Linux","password":true,"vac":true,"version":"7695204","steam_id":85568392925194467,"keywords":["cp","nocrits","nodmgspread","uncletopia"],"game_id":440,"stv_port":27036,"stv_name":"Uncletopia | Sydney | 3 | All Maps | STV","players":null},{"server_id":396,"name":"Uncletopia | Sydney | 4 | All Maps","name_short":"syd-4","host":"syd-1.au.uncletopia.com","port":27045,"enabled":true,"region":"au","cc":"au","latitude":-33.865143,"longitude":151.2099,"reserved":0,"last_update":"0001-01-01T00:00:00Z","name_a2s":"Uncletopia | Sydney | 4 | All Maps","protocol":17,"map":"koth_lakeside_final","folder":"tf","game":"Team Fortress","app_id":440,"player_count":0,"max_players":24,"Bots":0,"server_type":"Dedicated","server_os":"Linux","password":true,"vac":true,"version":"7695204","steam_id":85568392925397958,"keywords":["cp","nocrits","nodmgspread","uncletopia"],"game_id":440,"stv_port":27046,"stv_name":"Uncletopia | Sydney | 4 | All Maps | STV","players":null},{"server_id":58,"name":"Uncletopia | Sydney | 5 | No Payload","name_short":"syd-5","host":"syd-1.au.uncletopia.com","port":27055,"enabled":true,"region":"au","cc":"au","latitude":-33.865143,"longitude":151.2099,"reserved":0,"last_update":"0001-01-01T00:00:00Z","name_a2s":"Uncletopia | Sydney | 5 | No Payload","protocol":17,"map":"koth_viaduct","folder":"tf","game":"Team Fortress","app_id":440,"player_count":0,"max_players":24,"Bots":0,"server_type":"Dedicated","server_os":"Linux","password":true,"vac":true,"version":"7695204","steam_id":85568392925397959,"keywords":["cp","nocrits","nodmgspread","uncletopia"],"game_id":440,"stv_port":0,"stv_name":"","players":null},{"server_id":59,"name":"Uncletopia | Sydney | 6 | Community","name_short":"syd-6","host":"syd-1.au.uncletopia.com","port":27065,"enabled":true,"region":"au","cc":"au","latitude":-33.865143,"longitude":151.2099,"reserved":0,"last_update":"0001-01-01T00:00:00Z","name_a2s":"Uncletopia | Sydney | 6 | Community","protocol":17,"map":"pl_barnblitz","folder":"tf","game":"Team Fortress","app_id":440,"player_count":0,"max_players":24,"Bots":0,"server_type":"Dedicated","server_os":"Linux","password":true,"vac":true,"version":"7695204","steam_id":85568392925397960,"keywords":["nocrits","nodmgspread","payload","uncletopia"],"game_id":440,"stv_port":0,"stv_name":"","players":null},{"server_id":49,"name":"Uncletopia | Warsaw | 1 | All Maps","name_short":"waw-1","host":"waw-1.pl.uncletopia.com","port":27015,"enabled":true,"region":"eu","cc":"pl","latitude":52.2297,"longitude":21.017532,"reserved":0,"last_update":"0001-01-01T00:00:00Z","name_a2s":"Uncletopia | Warsaw | 1 | All Maps","protocol":17,"map":"koth_highpass","folder":"tf","game":"Team Fortress","app_id":440,"player_count":0,"max_players":24,"Bots":0,"server_type":"Dedicated","server_os":"Linux","password":true,"vac":true,"version":"7695204","steam_id":85568392925397850,"keywords":["cp","nocrits","nodmgspread","uncletopia"],"game_id":440,"stv_port":27016,"stv_name":"Uncletopia | Warsaw | 1 | All Maps | STV","players":null},{"server_id":50,"name":"Uncletopia | Warsaw | 2 | All Maps","name_short":"waw-2","host":"waw-1.pl.uncletopia.com","port":27025,"enabled":true,"region":"eu","cc":"pl","latitude":52.2297,"longitude":21.017532,"reserved":0,"last_update":"0001-01-01T00:00:00Z","name_a2s":"Uncletopia | Warsaw | 2 | All Maps","protocol":17,"map":"pl_pier","folder":"tf","game":"Team Fortress","app_id":440,"player_count":0,"max_players":24,"Bots":0,"server_type":"Dedicated","server_os":"Linux","password":true,"vac":true,"version":"7695204","steam_id":85568392925397851,"keywords":["nocrits","nodmgspread","payload","uncletopia"],"game_id":440,"stv_port":27026,"stv_name":"Uncletopia | Warsaw | 2 | All Maps | STV","players":null},{"server_id":51,"name":"Uncletopia | Warsaw | 3 | All Maps","name_short":"waw-3","host":"waw-1.pl.uncletopia.com","port":27035,"enabled":true,"region":"eu","cc":"pl","latitude":52.2297,"longitude":21.017532,"reserved":0,"last_update":"0001-01-01T00:00:00Z","name_a2s":"Uncletopia | Warsaw | 3 | All Maps","protocol":17,"map":"koth_highpass","folder":"tf","game":"Team Fortress","app_id":440,"player_count":0,"max_players":24,"Bots":0,"server_type":"Dedicated","server_os":"Linux","password":true,"vac":true,"version":"7695204","steam_id":85568392925397852,"keywords":["cp","nocrits","nodmgspread","uncletopia"],"game_id":440,"stv_port":27036,"stv_name":"Uncletopia | Warsaw | 3 | All Maps | STV","players":null},{"server_id":52,"name":"Uncletopia | Warsaw | 4 | All Maps","name_short":"waw-4","host":"waw-1.pl.uncletopia.com","port":27045,"enabled":true,"region":"eu","cc":"pl","latitude":52.2297,"longitude":21.017532,"reserved":0,"last_update":"0001-01-01T00:00:00Z","name_a2s":"Uncletopia | Warsaw | 4 | All Maps","protocol":17,"map":"pl_swiftwater_final1","folder":"tf","game":"Team Fortress","app_id":440,"player_count":0,"max_players":24,"Bots":0,"server_type":"Dedicated","server_os":"Linux","password":true,"vac":true,"version":"7695204","steam_id":85568392925397853,"keywords":["nocrits","nodmgspread","payload","uncletopia"],"game_id":440,"stv_port":27046,"stv_name":"Uncletopia | Warsaw | 4 | All Maps | STV","players":null},{"server_id":53,"name":"Uncletopia | Warsaw | 5 | No Payload","name_short":"waw-5","host":"waw-1.pl.uncletopia.com","port":27055,"enabled":true,"region":"eu","cc":"pl","latitude":52.2297,"longitude":21.017532,"reserved":0,"last_update":"0001-01-01T00:00:00Z","name_a2s":"Uncletopia | Warsaw | 5 | No Payload","protocol":17,"map":"koth_harvest_final","folder":"tf","game":"Team Fortress","app_id":440,"player_count":0,"max_players":24,"Bots":0,"server_type":"Dedicated","server_os":"Linux","password":true,"vac":true,"version":"7695204","steam_id":85568392925397854,"keywords":["cp","nocrits","nodmgspread","uncletopia"],"game_id":440,"stv_port":27056,"stv_name":"Uncletopia | Warsaw | 5 | No Payload | STV","players":null},{"server_id":54,"name":"Uncletopia | Warsaw | 6 | Community","name_short":"waw-6","host":"waw-1.pl.uncletopia.com","port":27065,"enabled":true,"region":"eu","cc":"pl","latitude":52.2297,"longitude":21.017532,"reserved":0,"last_update":"0001-01-01T00:00:00Z","name_a2s":"Uncletopia | Warsaw | 6 | Community","protocol":17,"map":"workshop/cp_logjam_rc12.ugc454812035","folder":"tf","game":"Team Fortress","app_id":440,"player_count":0,"max_players":24,"Bots":0,"server_type":"Dedicated","server_os":"Linux","password":true,"vac":true,"version":"7695204","steam_id":85568392925397856,"keywords":["cp","nocrits","nodmgspread","uncletopia"],"game_id":440,"stv_port":27066,"stv_name":"Uncletopia | Warsaw | 6 | Community | STV","players":null}]}