{"status":true,"message":"","result":[{"server_id":9,"name":"Uncletopia | Atlanta | 1 | All Maps","name_short":"atl-1","host":"atl-1.us.uncletopia.com","port":27015,"enabled":true,"region":"us-east","cc":"us","latitude":33.753746,"longitude":-84.38633,"reserved":0,"last_update":"0001-01-01T00:00:00Z","name_a2s":"Uncletopia | Atlanta | 1 | All Maps","protocol":17,"map":"pl_swiftwater_final1","folder":"tf","game":"Team Fortress","app_id":440,"player_count":24,"max_players":24,"Bots":0,"server_type":"Dedicated","server_os":"Linux","password":true,"vac":true,"version":"7742253","steam_id":85568392924469982,"keywords":["nocrits","nodmgspread","payload","uncletopia"],"game_id":440,"stv_port":27016,"stv_name":"Uncletopia | Atlanta | 1 | All Maps | STV","players":[{"user_id":398,"name":"ATL1 | Psionic Present","steam_id":76561198151019322,"connected_time":2527000000000,"state":"active","ping":72},{"user_id":357,"name":"Stampdawg","steam_id":76561198050500060,"connected_time":4925000000000,"state":"active","ping":90},{"user_id":387,"name":"Professor Piper","steam_id":76561198156041205,"connected_time":2715000000000,"state":"active","ping":51},{"user_id":417,"name":"swan","steam_id":76561198012569200,"connected_time":1321000000000,"state":"active","ping":73},{"user_id":414,"name":"CHRIMSTAS CAT","steam_id":76561198042570322,"connected_time":1627000000000,"state":"active","ping":71},{"user_id":396,"name":"Wahooka (Manrobics Instructor)","steam_id":76561197962240925,"connected_time":2548000000000,"state":"active","ping":59},{"user_id":418,"name":"Inky (Coolest)","steam_id":76561198968337022,"connected_time":1037000000000,"state":"active","ping":58},{"user_id":373,"name":"Smeller","steam_id":76561198041767882,"connected_time":3173000000000,"state":"active","ping":45},{"user_id":419,"name":"Rockhead","steam_id":76561197995196535,"connected_time":1030000000000,"state":"active","ping":64},{"user_id":390,"name":"christmas.jimmy.2014","steam_id":76561199177672325,"connected_time":2650000000000,"state":"active","ping":44},{"user_id":421,"name":"ATL1 | Mayhem","steam_id":76561199246637881,"connected_time":665000000000,"state":"active","ping":57},{"user_id":407,"name":"what","steam_id":76561198082336619,"connected_time":2028000000000,"state":"active","ping":69},{"user_id":426,"name":"gonko","steam_id":76561198343447995,"connected_time":362000000000,"state":"active","ping":72},{"user_id":362,"name":"Nyle","steam_id":76561198045652639,"connected_time":4306000000000,"state":"active","ping":120},{"user_id":404,"name":"Scoron","steam_id":76561198062099305,"connected_time":2151000000000,"state":"active","ping":119},{"user_id":403,"name":"DarkenedPolarity","steam_id":76561199073099596,"connected_time":2325000000000,"state":"active","ping":55},{"user_id":405,"name":"tf2 on n*ntendo switch","steam_id":76561198042735130,"connected_time":2117000000000,"state":"active","ping":119},{"user_id":363,"name":"Granny Krissy","steam_id":76561197960848174,"connected_time":4269000000000,"state":"active","ping":72},{"user_id":423,"name":"goober","steam_id":76561198943598378,"connected_time":588000000000,"state":"active","ping":59},{"user_id":408,"name":"GW4D","steam_id":76561198268791283,"connected_time":2025000000000,"state":"active","ping":119},{"user_id":409,"name":"Pizza","steam_id":76561198118748364,"connected_time":1998000000000,"state":"active","ping":74},{"user_id":402,"name":"SpinnerSpecial","steam_id":76561198065661869,"connected_time":2437000000000,"state":"active","ping":105},{"user_id":422,"name":"BowlzingShoes","steam_id":76561199127110073,"connected_time":621000000000,"state":"active","ping":81},{"user_id":425,"name":"☙ Corrupt ❧","steam_id":76561197977631915,"connected_time":406000000000,"state":"active","ping":65}]},{"server_id":400,"name":"Uncletopia | Atlanta | 3 | Stopwatch Beta","name_short":"atl-3","host":"atl-1.us.uncletopia.com","port":27035,"enabled":true,"region":"us-east","cc":"us","latitude":33.753746,"longitude":-84.38633,"reserved":0,"last_update":"0001-01-01T00:00:00Z","name_a2s":"Uncletopia | Atlanta | 3 | Stopwatch Beta","protocol":17,"map":"workshop/cp_process_f11.ugc2302948105","folder":"tf","game":"Team Fortress","app_id":440,"player_count":11,"max_players":24,"Bots":0,"server_type":"Dedicated","server_os":"Linux","password":true,"vac":true,"version":"7742253","steam_id":85568392924515187,"keywords":["cp","nocrits","nodmgspread","uncletopia"],"game_id":440,"stv_port":27036,"stv_name":"Uncletopia | Atlanta | 3 | Stopwatch Beta | STV","players":[{"user_id":264,"name":"Missing","steam_id":76561198884572657,"connected_time":2308000000000,"state":"active","ping":205},{"user_id":265,"name":"JimmY","steam_id":76561198386339252,"connected_time":1675000000000,"state":"active","ping":114},{"user_id":270,"name":"Drool","steam_id":76561199045901994,"connected_time":1315000000000,"state":"active","ping":107},{"user_id":273,"name":"Ch4rl33","steam_id":76561198037008621,"connected_time":1079000000000,"state":"active","ping":65},{"user_id":272,"name":"Spy_Is_Pye","steam_id":76561199439622967,"connected_time":1186000000000,"state":"active","ping":86},{"user_id":274,"name":"Nala An Bucky","steam_id":76561199290241517,"connected_time":971000000000,"state":"active","ping":65},{"user_id":282,"name":"MERCENARY ONE TO DEATH MERCHANT","steam_id":76561199446921772,"connected_time":568000000000,"state":"active","ping":101},{"user_id":288,"name":"The_N_Man_44","steam_id":76561198802835217,"connected_time":58000000000,"state":"active","ping":64},{"user_id":286,"name":"Abbreviated","steam_id":76561198088423054,"connected_time":161000000000,"state":"active","ping":50},{"user_id":287,"name":"MY MOM FOUND THE POOP SOCK","steam_id":76561199133307822,"connected_time":149000000000,"state":"active","ping":86},{"user_id":280,"name":"sayad","steam_id":76561198080897870,"connected_time":661000000000,"state":"active","ping":60}]},{"server_id":401,"name":"Uncletopia | Atlanta | 4 | No Payload","name_short":"atl-4","host":"atl-1.us.uncletopia.com","port":27045,"enabled":true,"region":"us-east","cc":"us","latitude":33.753746,"longitude":-84.38633,"reserved":0,"last_update":"0001-01-01T00:00:00Z","name_a2s":"Uncletopia | Atlanta | 4 | No Payload","protocol":17,"map":"pl_pier","folder":"tf","game":"Team Fortress","app_id":440,"player_count":0,"max_players":24,"Bots":0,"server_type":"Dedicated","server_os":"Linux","password":true,"vac":true,"version":"7723704","steam_id":85568392924515188,"keywords":["nocrits","nodmgspread","payload","uncletopia"],"game_id":440,"stv_port":27046,"stv_name":"Uncletopia | Atlanta | 4 | No Payload | STV","players":null},{"server_id":2,"name":"Uncletopia | Chicago | 1 | All Maps","name_short":"chi-1","host":"chi-1.us.uncletopia.com","port":27015,"enabled":true,"region":"us-central","cc":"us","latitude":41.881832,"longitude":-87.62318,"reserved":0,"last_update":"0001-01-01T00:00:00Z","name_a2s":"Uncletopia | Chicago | 1 | All Maps","protocol":17,"map":"pl_badwater","folder":"tf","game":"Team Fortress","app_id":440,"player_count":24,"max_players":24,"Bots":0,"server_type":"Dedicated","server_os":"Linux","password":true,"vac":true,"version":"7742253","steam_id":85568392924469984,"keywords":["nocrits","nodmgspread","payload","uncletopia"],"game_id":440,"stv_port":27016,"stv_name":"Uncletopia | Chicago | 1 | All Maps | STV","players":[{"user_id":495,"name":"jimmie","steam_id":76561198042583389,"connected_time":18000000000,"state":"active","ping":67},{"user_id":482,"name":"Merchants of Misery","steam_id":76561199188142396,"connected_time":897000000000,"state":"active","ping":81},{"user_id":477,"name":"godofarson01","steam_id":76561199270086637,"connected_time":1489000000000,"state":"active","ping":60},{"user_id":454,"name":"b3afy","steam_id":76561198084208649,"connected_time":3539000000000,"state":"active","ping":97},{"user_id":475,"name":"Stanv","steam_id":76561198259530604,"connected_time":1990000000000,"state":"active","ping":60},{"user_id":489,"name":"CRUSHED","steam_id":76561199065573642,"connected_time":545000000000,"state":"active","ping":39},{"user_id":488,"name":"Snale","steam_id":76561198039517965,"connected_time":639000000000,"state":"active","ping":130},{"user_id":469,"name":"debin","steam_id":76561198070711217,"connected_time":2163000000000,"state":"active","ping":57},{"user_id":471,"name":"I Sell PCP to 6th Graders","steam_id":76561198202195792,"connected_time":2150000000000,"state":"active","ping":62},{"user_id":484,"name":"Wafflemuscle","steam_id":76561198868628982,"connected_time":865000000000,"state":"active","ping":92},{"user_id":444,"name":"a_Pirate_King","steam_id":76561198041727612,"connected_time":4101000000000,"state":"active","ping":86},{"user_id":485,"name":"WildEvieAppears","steam_id":76561198004001828,"connected_time":856000000000,"state":"active","ping":50},{"user_id":464,"name":"Ademar","steam_id":76561199391802581,"connected_time":2786000000000,"state":"active","ping":61},{"user_id":483,"name":"PracticalPancakes","steam_id":76561198011172321,"connected_time":886000000000,"state":"active","ping":80},{"user_id":472,"name":"Reckless Klondike","steam_id":76561198060904416,"connected_time":2094000000000,"state":"active","ping":70},{"user_id":460,"name":"Remix.SMG","steam_id":76561198052895933,"connected_time":3344000000000,"state":"active","ping":75},{"user_id":486,"name":"Aimwork","steam_id":76561198158362528,"connected_time":830000000000,"state":"active","ping":53},{"user_id":494,"name":"HOG RIDER","steam_id":76561198298589502,"connected_time":88000000000,"state":"active","ping":106},{"user_id":466,"name":"Cuttle's Fish","steam_id":76561198280483257,"connected_time":2779000000000,"state":"active","ping":59},{"user_id":473,"name":"EmilyChains\u003c3","steam_id":76561198132008027,"connected_time":2093000000000,"state":"active","ping":89},{"user_id":476,"name":"footoftheday","steam_id":76561198052712449,"connected_time":1853000000000,"state":"active","ping":75},{"user_id":220,"name":"Pisser12434","steam_id":76561198835144780,"connected_time":19251000000000,"state":"active","ping":75},{"user_id":459,"name":"Ⓑ⓪⓪ⓣⓨⓒⓐⓚⓔⓢ","steam_id":76561198088776421,"connected_time":3481000000000,"state":"active","ping":72},{"user_id":479,"name":"killername","steam_id":76561199105156791,"connected_time":1488000000000,"state":"active","ping":66}]},{"server_id":106,"name":"Uncletopia | Chicago | 2 | All Maps","name_short":"chi-2","host":"chi-1.us.uncletopia.com","port":27025,"enabled":true,"region":"us-central","cc":"us","latitude":41.881832,"longitude":-87.62318,"reserved":0,"last_update":"0001-01-01T00:00:00Z","name_a2s":"Uncletopia | Chicago | 2 | All Maps","protocol":17,"map":"koth_harvest_final","folder":"tf","game":"Team Fortress","app_id":440,"player_count":0,"max_players":24,"Bots":0,"server_type":"Dedicated","server_os":"Linux","password":true,"vac":true,"version":"7742253","steam_id":85568392924469985,"keywords":["cp","nocrits","nodmgspread","uncletopia"],"game_id":440,"stv_port":27026,"stv_name":"Uncletopia | Chicago | 2 | All Maps | STV","players":null},{"server_id":402,"name":"Uncletopia | Chicago | 3 | All Maps","name_short":"chi-3","host":"chi-1.us.uncletopia.com","port":27035,"enabled":true,"region":"us-central","cc":"us","latitude":41.881832,"longitude":-87.62318,"reserved":0,"last_update":"0001-01-01T00:00:00Z","name_a2s":"Uncletopia | Chicago | 3 | All Maps","protocol":17,"map":"pl_snowycoast","folder":"tf","game":"Team Fortress","app_id":440,"player_count":24,"max_players":24,"Bots":0,"server_type":"Dedicated","server_os":"Linux","password":true,"vac":true,"version":"7742253","steam_id":85568392924515191,"keywords":["nocrits","nodmgspread","payload","uncletopia"],"game_id":440,"stv_port":27036,"stv_name":"Uncletopia | Chicago | 3 | All Maps | STV","players":[{"user_id":407,"name":"Nightfury105","steam_id":76561198250764492,"connected_time":1402000000000,"state":"active","ping":94},{"user_id":390,"name":"feel bad hit for the winter","steam_id":76561198079504588,"connected_time":2045000000000,"state":"active","ping":69},{"user_id":428,"name":"KaizerCalamaki","steam_id":76561198028206911,"connected_time":469000000000,"state":"active","ping":61},{"user_id":415,"name":"Jojoker","steam_id":76561198049833406,"connected_time":1159000000000,"state":"active","ping":74},{"user_id":399,"name":"E4Estrogen","steam_id":76561198085813708,"connected_time":1841000000000,"state":"active","ping":60},{"user_id":347,"name":"FreonAddict9x19","steam_id":76561198060010824,"connected_time":5178000000000,"state":"active","ping":75},{"user_id":423,"name":"T-jizzle","steam_id":76561198040332264,"connected_time":703000000000,"state":"active","ping":60},{"user_id":389,"name":"devamar","steam_id":76561198069115467,"connected_time":2570000000000,"state":"active","ping":69},{"user_id":424,"name":"All 24 Pokémon movies at once","steam_id":76561198164738311,"connected_time":695000000000,"state":"active","ping":44},{"user_id":429,"name":"Bali","steam_id":76561198038693845,"connected_time":191000000000,"state":"active","ping":110},{"user_id":371,"name":"Atlas","steam_id":76561198127975050,"connected_time":3210000000000,"state":"active","ping":71},{"user_id":400,"name":"Huggernaut","steam_id":76561198043998084,"connected_time":1837000000000,"state":"active","ping":68},{"user_id":425,"name":"Brobespierre","steam_id":76561198022225667,"connected_time":693000000000,"state":"active","ping":84},{"user_id":357,"name":"bike helmet gaming","steam_id":76561198115329718,"connected_time":4763000000000,"state":"active","ping":72},{"user_id":401,"name":"bluebird","steam_id":76561198065219155,"connected_time":1833000000000,"state":"active","ping":46},{"user_id":409,"name":"LivinInTheMyst","steam_id":76561199109119765,"connected_time":1374000000000,"state":"active","ping":61},{"user_id":427,"name":"paint thinner victim","steam_id":76561198176069217,"connected_time":624000000000,"state":"active","ping":95},{"user_id":364,"name":"Wild_Rumpus","steam_id":76561198066393719,"connected_time":3978000000000,"state":"active","ping":58},{"user_id":352,"name":"Riku","steam_id":76561198200428695,"connected_time":4957000000000,"state":"active","ping":45},{"user_id":421,"name":"Pink","steam_id":76561198042140694,"connected_time":749000000000,"state":"active","ping":126},{"user_id":422,"name":"Razor","steam_id":76561198008415797,"connected_time":748000000000,"state":"active","ping":56},{"user_id":426,"name":"kablong","steam_id":76561199094392047,"connected_time":687000000000,"state":"active","ping":82},{"user_id":413,"name":"Dreamzapp","steam_id":76561199084936632,"connected_time":1258000000000,"state":"active","ping":111},{"user_id":419,"name":"lau","steam_id":76561198141178845,"connected_time":839000000000,"state":"active","ping":95}]},{"server_id":403,"name":"Uncletopia | Chicago | 4 | All Maps","name_short":"chi-4","host":"chi-1.us.uncletopia.com","port":27045,"enabled":true,"region":"us-central","cc":"us","latitude":41.881832,"longitude":-87.62318,"reserved":0,"last_update":"0001-01-01T00:00:00Z","name_a2s":"Uncletopia | Chicago | 4 | All Maps","protocol":17,"map":"pl_swiftwater_final1","folder":"tf","game":"Team Fortress","app_id":440,"player_count":24,"max_players":24,"Bots":0,"server_type":"Dedicated","server_os":"Linux","password":true,"vac":true,"version":"7742253","steam_id":85568392924515193,"keywords":["nocrits","nodmgspread","payload","uncletopia"],"game_id":440,"stv_port":27046,"stv_name":"Uncletopia | Chicago | 4 | All Maps | STV","players":[{"user_id":96,"name":"Vox Vulpera","steam_id":76561198796227041,"connected_time":3111000000000,"state":"active","ping":76},{"user_id":67,"name":"Proofsie Claus","steam_id":76561198027122314,"connected_time":5542000000000,"state":"active","ping":58},{"user_id":66,"name":"Rappitor","steam_id":76561198105613110,"connected_time":5766000000000,"state":"active","ping":61},{"user_id":24,"name":"John Creighton-Cruz Harrison","steam_id":76561198031611806,"connected_time":8892000000000,"state":"active","ping":56},{"user_id":99,"name":"› Panik the Cat","steam_id":76561198050301260,"connected_time":2816000000000,"state":"active","ping":92},{"user_id":29,"name":"DeckofDragons","steam_id":76561198057398213,"connected_time":7525000000000,"state":"active","ping":68},{"user_id":107,"name":"A Hard Boiled Egg","steam_id":76561197979078330,"connected_time":1503000000000,"state":"active","ping":63},{"user_id":109,"name":"Fuzzy Toast","steam_id":76561198028067781,"connected_time":933000000000,"state":"active","ping":44},{"user_id":68,"name":"merry trapmas","steam_id":76561198402801140,"connected_time":5254000000000,"state":"active","ping":60},{"user_id":84,"name":"WitheringLeo","steam_id":76561198046722918,"connected_time":4072000000000,"state":"active","ping":69},{"user_id":100,"name":"Strange Festive Femboy","steam_id":76561198050385093,"connected_time":2688000000000,"state":"active","ping":80},{"user_id":110,"name":"moe","steam_id":76561198929586245,"connected_time":887000000000,"state":"active","ping":106},{"user_id":80,"name":"cleet","steam_id":76561198042510363,"connected_time":4454000000000,"state":"active","ping":74},{"user_id":114,"name":"Hylic","steam_id":76561199051314589,"connected_time":152000000000,"state":"active","ping":67},{"user_id":117,"name":"Crab Rangoon","steam_id":76561198059310510,"connected_time":101000000000,"state":"active","ping":75},{"user_id":101,"name":"Candy Sparkles","steam_id":76561198126871264,"connected_time":2662000000000,"state":"active","ping":84},{"user_id":46,"name":"NovaSc6ut","steam_id":76561198277163301,"connected_time":6946000000000,"state":"active","ping":84},{"user_id":115,"name":"atlas","steam_id":76561198184893754,"connected_time":148000000000,"state":"active","ping":77},{"user_id":102,"name":"Menlymen","steam_id":76561198046508051,"connected_time":2630000000000,"state":"active","ping":74},{"user_id":49,"name":"Weshmek","steam_id":76561198009950743,"connected_time":6876000000000,"state":"active","ping":61},{"user_id":116,"name":"Vladikr1","steam_id":76561198401495362,"connected_time":121000000000,"state":"active","ping":54},{"user_id":113,"name":"Coupon","steam_id":76561198111947598,"connected_time":216000000000,"state":"active","ping":71},{"user_id":112,"name":"Soldier Impact","steam_id":76561198157004224,"connected_time":770000000000,"state":"active","ping":59},{"user_id":64,"name":"OlympicChamp_12 | Trade.tf","steam_id":76561198830574526,"connected_time":6126000000000,"state":"active","ping":148}]},{"server_id":36,"name":"Uncletopia | Chicago | 5 | All Maps","name_short":"chi-5","host":"chi-2.us.uncletopia.com","port":27015,"enabled":true,"region":"us-central","cc":"us","latitude":41.881832,"longitude":-87.62318,"reserved":0,"last_update":"0001-01-01T00:00:00Z","name_a2s":"Uncletopia | Chicago | 5 | All Maps","protocol":17,"map":"pl_frontier_final","folder":"tf","game":"Team Fortress","app_id":440,"player_count":24,"max_players":24,"Bots":0,"server_type":"Dedicated","server_os":"Linux","password":true,"vac":true,"version":"7742253","steam_id":85568392924866362,"keywords":["nocrits","nodmgspread","payload","uncletopia"],"game_id":440,"stv_port":27016,"stv_name":"Uncletopia | Chicago | 5 | All Maps | STV","players":[{"user_id":183,"name":"GuyGoom","steam_id":76561198254522178,"connected_time":3159000000000,"state":"active","ping":58},{"user_id":219,"name":"[Mg] Zé Péquéno","steam_id":76561198000927489,"connected_time":477000000000,"state":"active","ping":161},{"user_id":188,"name":"Zero","steam_id":76561199383267408,"connected_time":3041000000000,"state":"active","ping":66},{"user_id":184,"name":"the.land.of.avalon","steam_id":76561198245431668,"connected_time":3156000000000,"state":"active","ping":61},{"user_id":206,"name":"Willy","steam_id":76561199240618325,"connected_time":1288000000000,"state":"active","ping":61},{"user_id":155,"name":"Queen Frau the Round","steam_id":76561197999942134,"connected_time":5701000000000,"state":"active","ping":46},{"user_id":216,"name":"sk","steam_id":76561198133360797,"connected_time":607000000000,"state":"active","ping":109},{"user_id":190,"name":"Dotshin","steam_id":76561198452926392,"connected_time":3027000000000,"state":"active","ping":103},{"user_id":83,"name":"Myagic","steam_id":76561198123746755,"connected_time":9935000000000,"state":"active","ping":64},{"user_id":213,"name":"Gibby","steam_id":76561198963413473,"connected_time":974000000000,"state":"active","ping":80},{"user_id":154,"name":"beats beats","steam_id":76561199245717718,"connected_time":5840000000000,"state":"active","ping":51},{"user_id":208,"name":"Soap","steam_id":76561198074619142,"connected_time":1256000000000,"state":"active","ping":69},{"user_id":215,"name":"ham gaming","steam_id":76561198072592880,"connected_time":797000000000,"state":"active","ping":47},{"user_id":167,"name":"hauntaholic","steam_id":76561198095051652,"connected_time":4745000000000,"state":"active","ping":68},{"user_id":214,"name":"Definitely Not A Replicant.","steam_id":76561198087464370,"connected_time":955000000000,"state":"active","ping":72},{"user_id":217,"name":"Amphetamine Gun","steam_id":76561199029189825,"connected_time":581000000000,"state":"active","ping":74},{"user_id":203,"name":"shaderoses","steam_id":76561198070800500,"connected_time":1959000000000,"state":"active","ping":82},{"user_id":210,"name":"Zaza_Wizard_Supreme","steam_id":76561198399487666,"connected_time":1225000000000,"state":"active","ping":62},{"user_id":218,"name":"C∅RVUS","steam_id":76561198100640019,"connected_time":544000000000,"state":"active","ping":117},{"user_id":205,"name":"FellowCum","steam_id":76561198809618726,"connected_time":1630000000000,"state":"active","ping":117},{"user_id":92,"name":"Rin \"Hindwing\" Redtail","steam_id":76561199074865638,"connected_time":9449000000000,"state":"active","ping":76},{"user_id":198,"name":"Allotrope","steam_id":76561197998450103,"connected_time":2889000000000,"state":"active","ping":53},{"user_id":204,"name":"ZyberTheTrilogy","steam_id":76561199224319852,"connected_time":1922000000000,"state":"active","ping":122},{"user_id":211,"name":"MUGMAS","steam_id":76561199353656571,"connected_time":1221000000000,"state":"active","ping":51}]},{"server_id":37,"name":"Uncletopia | Chicago | 6 | All Maps","name_short":"chi-6","host":"chi-2.us.uncletopia.com","port":27025,"enabled":true,"region":"us-central","cc":"us","latitude":41.881832,"longitude":-87.62318,"reserved":0,"last_update":"0001-01-01T00:00:00Z","name_a2s":"Uncletopia | Chicago | 6 | All Maps","protocol":17,"map":"pl_snowycoast","folder":"tf","game":"Team Fortress","app_id":440,"player_count":24,"max_players":24,"Bots":0,"server_type":"Dedicated","server_os":"Linux","password":true,"vac":true,"version":"7742253","steam_id":85568392924866363,"keywords":["nocrits","nodmgspread","payload","uncletopia"],"game_id":440,"stv_port":27026,"stv_name":"Uncletopia | Chicago | 6 | All Maps | STV","players":[{"user_id":12,"name":"theduckgoesmoo","steam_id":76561198232695752,"connected_time":6078000000000,"state":"active","ping":74},{"user_id":13,"name":"ZeR01206","steam_id":76561198980510227,"connected_time":6077000000000,"state":"active","ping":68},{"user_id":74,"name":"ItzRokian","steam_id":76561198307824762,"connected_time":2458000000000,"state":"active","ping":61},{"user_id":15,"name":"Cepheus Rogue","steam_id":76561198315065638,"connected_time":6069000000000,"state":"active","ping":72},{"user_id":102,"name":"Magneto","steam_id":76561199151206130,"connected_time":193000000000,"state":"active","ping":52},{"user_id":101,"name":"Universe Man","steam_id":76561197997710655,"connected_time":392000000000,"state":"active","ping":82},{"user_id":18,"name":"Umbrex","steam_id":76561198804359810,"connected_time":6000000000000,"state":"active","ping":72},{"user_id":19,"name":"Korporal K. Reep","steam_id":76561199098222561,"connected_time":5955000000000,"state":"active","ping":130},{"user_id":93,"name":"miki","steam_id":76561198331374895,"connected_time":1147000000000,"state":"active","ping":71},{"user_id":100,"name":"Jabbernewt","steam_id":76561198024255983,"connected_time":424000000000,"state":"active","ping":64},{"user_id":98,"name":"Toygar","steam_id":76561198023679830,"connected_time":891000000000,"state":"active","ping":58},{"user_id":96,"name":"sora","steam_id":76561198094256973,"connected_time":948000000000,"state":"active","ping":101},{"user_id":97,"name":"Super Noob","steam_id":76561199179611350,"connected_time":912000000000,"state":"active","ping":56},{"user_id":104,"name":"Taco","steam_id":76561198158621392,"connected_time":156000000000,"state":"active","ping":62},{"user_id":88,"name":"dog","steam_id":76561198066521617,"connected_time":1284000000000,"state":"active","ping":66},{"user_id":28,"name":"Overduecat","steam_id":76561198092452824,"connected_time":5590000000000,"state":"active","ping":65},{"user_id":92,"name":"Hou Tou Gu","steam_id":76561198041196591,"connected_time":1159000000000,"state":"active","ping":64},{"user_id":99,"name":"stealthy","steam_id":76561198071386492,"connected_time":720000000000,"state":"active","ping":65},{"user_id":105,"name":"CAPT Splashclaw","steam_id":76561198110019410,"connected_time":139000000000,"state":"active","ping":59},{"user_id":86,"name":"Loogi","steam_id":76561198332463848,"connected_time":1761000000000,"state":"active","ping":109},{"user_id":44,"name":"Disco Monke","steam_id":76561198023012230,"connected_time":4857000000000,"state":"active","ping":184},{"user_id":52,"name":"Beeveelution","steam_id":76561198331526301,"connected_time":3968000000000,"state":"active","ping":106},{"user_id":106,"name":"Xuey","steam_id":76561199120960187,"connected_time":69000000000,"state":"active","ping":62},{"user_id":95,"name":"Roz257","steam_id":76561198842844532,"connected_time":1036000000000,"state":"active","ping":72}]},{"server_id":38,"name":"Uncletopia | Chicago | 7 | Stopwatch Beta","name_short":"chi-7","host":"chi-2.us.uncletopia.com","port":27035,"enabled":true,"region":"us-central","cc":"us","latitude":41.881832,"longitude":-87.62318,"reserved":0,"last_update":"0001-01-01T00:00:00Z","name_a2s":"Uncletopia | Chicago | 7 | Stopwatch Beta","protocol":17,"map":"workshop/koth_ashville_final.ugc2130459942","folder":"tf","game":"Team Fortress","app_id":440,"player_count":0,"max_players":24,"Bots":0,"server_type":"Dedicated","server_os":"Linux","password":true,"vac":true,"version":"7742253","steam_id":85568392924866364,"keywords":["cp","nocrits","nodmgspread","uncletopia"],"game_id":440,"stv_port":27036,"stv_name":"Uncletopia | Chicago | 7 | Stopwatch Beta | STV","players":null},{"server_id":39,"name":"Uncletopia | Chicago | 8 | Community","name_short":"chi-8","host":"chi-2.us.uncletopia.com","port":27045,"enabled":true,"region":"us-central","cc":"us","latitude":41.881832,"longitude":-87.62318,"reserved":0,"last_update":"0001-01-01T00:00:00Z","name_a2s":"Uncletopia | Chicago | 8 | Community","protocol":17,"map":"koth_cascade","folder":"tf","game":"Team Fortress","app_id":440,"player_count":0,"max_players":24,"Bots":0,"server_type":"Dedicated","server_os":"Linux","password":true,"vac":true,"version":"7742253","steam_id":85568392924866365,"keywords":["cp","nocrits","nodmgspread","uncletopia"],"game_id":440,"stv_port":27046,"stv_name":"Uncletopia | Chicago | 8 | Community | STV","players":null},{"server_id":8,"name":"Uncletopia | Dallas | 1 | All Maps","name_short":"dal-1","host":"dal-1.us.uncletopia.com","port":27015,"enabled":true,"region":"us-central","cc":"us","latitude":32.779167,"longitude":-96.80889,"reserved":0,"last_update":"0001-01-01T00:00:00Z","name_a2s":"Uncletopia | Dallas | 1 | All Maps","protocol":17,"map":"cp_fastlane","folder":"tf","game":"Team Fortress","app_id":440,"player_count":15,"max_players":24,"Bots":0,"server_type":"Dedicated","server_os":"Linux","password":true,"vac":true,"version":"7742253","steam_id":85568392924469986,"keywords":["cp","nocrits","nodmgspread","uncletopia"],"game_id":440,"stv_port":27016,"stv_name":"Uncletopia | Dallas | 1 | All Maps | STV","players":[{"user_id":45,"name":"Alkzu","steam_id":76561198821833376,"connected_time":1065000000000,"state":"active","ping":198},{"user_id":50,"name":"The Spy of all time","steam_id":76561197995583747,"connected_time":473000000000,"state":"active","ping":66},{"user_id":58,"name":"Rer3m","steam_id":76561199175728658,"connected_time":85000000000,"state":"active","ping":90},{"user_id":51,"name":"tacofever","steam_id":76561198010966507,"connected_time":401000000000,"state":"active","ping":70},{"user_id":52,"name":"Orange bench","steam_id":76561198191269339,"connected_time":292000000000,"state":"active","ping":80},{"user_id":24,"name":"Hashmere","steam_id":76561198002797253,"connected_time":2290000000000,"state":"active","ping":86},{"user_id":53,"name":"[GSG] Fishy | trade.tf","steam_id":76561198798912734,"connected_time":291000000000,"state":"active","ping":87},{"user_id":54,"name":"Skip Hop Doo Bop","steam_id":76561199161571849,"connected_time":289000000000,"state":"active","ping":84},{"user_id":55,"name":"skele10","steam_id":76561198198460711,"connected_time":234000000000,"state":"active","ping":56},{"user_id":56,"name":"Bee Spy","steam_id":76561198061949885,"connected_time":148000000000,"state":"active","ping":89},{"user_id":57,"name":"Morkubine Porcupine","steam_id":76561199172053891,"connected_time":129000000000,"state":"active","ping":55},{"user_id":59,"name":"bit","steam_id":76561198056087333,"connected_time":38000000000,"state":"spawning","ping":69},{"user_id":31,"name":"gordon freeman christmas","steam_id":76561198367735460,"connected_time":2118000000000,"state":"active","ping":47},{"user_id":32,"name":"lola","steam_id":76561198133971971,"connected_time":2118000000000,"state":"active","ping":79},{"user_id":60,"name":"Room_237","steam_id":76561199135081315,"connected_time":22000000000,"state":"active","ping":92}]},{"server_id":108,"name":"Uncletopia | Dallas | 2 | All Maps","name_short":"dal-2","host":"dal-1.us.uncletopia.com","port":27025,"enabled":true,"region":"us-central","cc":"us","latitude":32.779167,"longitude":-96.80889,"reserved":0,"last_update":"0001-01-01T00:00:00Z","name_a2s":"Uncletopia | Dallas | 2 | All Maps","protocol":17,"map":"cp_dustbowl","folder":"tf","game":"Team Fortress","app_id":440,"player_count":24,"max_players":24,"Bots":0,"server_type":"Dedicated","server_os":"Linux","password":true,"vac":true,"version":"7742253","steam_id":85568392924469988,"keywords":["cp","nocrits","nodmgspread","uncletopia"],"game_id":440,"stv_port":27026,"stv_name":"Uncletopia | Dallas | 2 | All Maps | STV","players":[{"user_id":214,"name":"Lunastays","steam_id":76561198134373213,"connected_time":2009000000000,"state":"active","ping":84},{"user_id":209,"name":"Bonesala","steam_id":76561199052450127,"connected_time":2181000000000,"state":"active","ping":72},{"user_id":201,"name":"that ghastly gibus head","steam_id":76561198047331377,"connected_time":2842000000000,"state":"active","ping":55},{"user_id":212,"name":"FG7","steam_id":76561198381197197,"connected_time":2040000000000,"state":"active","ping":101},{"user_id":228,"name":"Sone","steam_id":76561198069601032,"connected_time":1031000000000,"state":"active","ping":98},{"user_id":225,"name":"hermit crab gaming","steam_id":76561198344927850,"connected_time":1760000000000,"state":"active","ping":56},{"user_id":217,"name":"TTV/PolperLane","steam_id":76561198079439317,"connected_time":1955000000000,"state":"active","ping":76},{"user_id":175,"name":"Jesus","steam_id":76561198018890911,"connected_time":4044000000000,"state":"active","ping":55},{"user_id":197,"name":"Digit","steam_id":76561198156589157,"connected_time":3341000000000,"state":"active","ping":81},{"user_id":193,"name":"[GUT] RiDiK®","steam_id":76561197969756446,"connected_time":3435000000000,"state":"active","ping":77},{"user_id":210,"name":"[GUT] tipups","steam_id":76561197972342705,"connected_time":2067000000000,"state":"active","ping":91},{"user_id":216,"name":"reymundo","steam_id":76561197989412830,"connected_time":1980000000000,"state":"active","ping":88},{"user_id":218,"name":"A Can of Arizona Green Tea","steam_id":76561198062481133,"connected_time":1944000000000,"state":"active","ping":66},{"user_id":215,"name":"Soney29","steam_id":76561198955863943,"connected_time":1993000000000,"state":"active","ping":103},{"user_id":229,"name":"Krow","steam_id":76561198010392099,"connected_time":747000000000,"state":"active","ping":49},{"user_id":227,"name":"The Figgler","steam_id":76561198168295944,"connected_time":1114000000000,"state":"active","ping":81},{"user_id":206,"name":"Battlemedic27","steam_id":76561198121818007,"connected_time":2527000000000,"state":"active","ping":49},{"user_id":219,"name":"Runic","steam_id":76561198442272533,"connected_time":1939000000000,"state":"active","ping":67},{"user_id":199,"name":"eBay","steam_id":76561198061214569,"connected_time":2911000000000,"state":"active","ping":83},{"user_id":220,"name":"jboi","steam_id":76561198967909005,"connected_time":1933000000000,"state":"active","ping":112},{"user_id":221,"name":"NoSympathy","steam_id":76561198035289430,"connected_time":1929000000000,"state":"active","ping":88},{"user_id":231,"name":"Starfruit66","steam_id":76561198069917277,"connected_time":182000000000,"state":"active","ping":82},{"user_id":230,"name":"Walmart Employee","steam_id":76561198840373909,"connected_time":479000000000,"state":"active","ping":89},{"user_id":196,"name":"Xmas Xtar","steam_id":76561198301774048,"connected_time":3394000000000,"state":"active","ping":104}]},{"server_id":5,"name":"Uncletopia | Frankfurt | 1 | All Maps","name_short":"frk-1","host":"frk-1.de.uncletopia.com","port":27015,"enabled":true,"region":"eu","cc":"de","latitude":50.110924,"longitude":8.682127,"reserved":0,"last_update":"0001-01-01T00:00:00Z","name_a2s":"Uncletopia | Frankfurt | 1 | All Maps","protocol":17,"map":"cp_dustbowl","folder":"tf","game":"Team Fortress","app_id":440,"player_count":0,"max_players":24,"Bots":0,"server_type":"Dedicated","server_os":"Linux","password":true,"vac":true,"version":"7742253","steam_id":85568392924469989,"keywords":["cp","nocrits","nodmgspread","uncletopia"],"game_id":440,"stv_port":27016,"stv_name":"Uncletopia | Frankfurt | 1 | All Maps | STV","players":null},{"server_id":110,"name":"Uncletopia | Frankfurt | 2 | All Maps","name_short":"frk-2","host":"frk-1.de.uncletopia.com","port":27025,"enabled":true,"region":"eu","cc":"de","latitude":50.110924,"longitude":8.682127,"reserved":0,"last_update":"0001-01-01T00:00:00Z","name_a2s":"Uncletopia | Frankfurt | 2 | All Maps","protocol":17,"map":"koth_lakeside_final","folder":"tf","game":"Team Fortress","app_id":440,"player_count":0,"max_players":24,"Bots":0,"server_type":"Dedicated","server_os":"Linux","password":true,"vac":true,"version":"7742253","steam_id":85568392924469990,"keywords":["cp","nocrits","nodmgspread","uncletopia"],"game_id":440,"stv_port":27026,"stv_name":"Uncletopia | Frankfurt | 2 | All Maps | STV","players":null},{"server_id":308,"name":"Uncletopia | Frankfurt | 3 | All Maps","name_short":"frk-3","host":"frk-1.de.uncletopia.com","port":27035,"enabled":true,"region":"eu","cc":"de","latitude":50.110924,"longitude":8.682127,"reserved":0,"last_update":"0001-01-01T00:00:00Z","name_a2s":"Uncletopia | Frankfurt | 3 | All Maps","protocol":17,"map":"koth_viaduct","folder":"tf","game":"Team Fortress","app_id":440,"player_count":0,"max_players":24,"Bots":0,"server_type":"Dedicated","server_os":"Linux","password":true,"vac":true,"version":"7742253","steam_id":85568392924504274,"keywords":["cp","nocrits","nodmgspread","uncletopia"],"game_id":440,"stv_port":27036,"stv_name":"Uncletopia | Frankfurt | 3 | All Maps | STV","players":null},{"server_id":309,"name":"Uncletopia | Frankfurt | 4 | All Maps","name_short":"frk-4","host":"frk-1.de.uncletopia.com","port":27045,"enabled":true,"region":"eu","cc":"de","latitude":50.110924,"longitude":8.682127,"reserved":0,"last_update":"0001-01-01T00:00:00Z","name_a2s":"Uncletopia | Frankfurt | 4 | All Maps","protocol":17,"map":"pl_badwater","folder":"tf","game":"Team Fortress","app_id":440,"player_count":0,"max_players":24,"Bots":0,"server_type":"Dedicated","server_os":"Linux","password":true,"vac":true,"version":"7742253","steam_id":85568392924504275,"keywords":["nocrits","nodmgspread","payload","uncletopia"],"game_id":440,"stv_port":27046,"stv_name":"Uncletopia | Frankfurt | 4 | All Maps | STV","players":null},{"server_id":310,"name":"Uncletopia | Frankfurt | 5 | All Maps","name_short":"frk-5","host":"frk-1.de.uncletopia.com","port":27055,"enabled":true,"region":"eu","cc":"de","latitude":50.110924,"longitude":8.682127,"reserved":0,"last_update":"0001-01-01T00:00:00Z","name_a2s":"Uncletopia | Frankfurt | 5 | All Maps","protocol":17,"map":"cp_snakewater_final1","folder":"tf","game":"Team Fortress","app_id":440,"player_count":0,"max_players":24,"Bots":0,"server_type":"Dedicated","server_os":"Linux","password":true,"vac":true,"version":"7742253","steam_id":85568392924504277,"keywords":["cp","nocrits","nodmgspread","uncletopia"],"game_id":440,"stv_port":27056,"stv_name":"Uncletopia | Frankfurt | 5 | All Maps | STV","players":null},{"server_id":311,"name":"Uncletopia | Frankfurt | 6 | All Maps","name_short":"frk-6","host":"frk-1.de.uncletopia.com","port":27065,"enabled":true,"region":"eu","cc":"de","latitude":50.110924,"longitude":8.682127,"reserved":0,"last_update":"0001-01-01T00:00:00Z","name_a2s":"Uncletopia | Frankfurt | 6 | All Maps","protocol":17,"map":"pl_badwater","folder":"tf","game":"Team Fortress","app_id":440,"player_count":21,"max_players":24,"Bots":0,"server_type":"Dedicated","server_os":"Linux","password":true,"vac":true,"version":"7742253","steam_id":85568392924504278,"keywords":["nocrits","nodmgspread","payload","uncletopia"],"game_id":440,"stv_port":27066,"stv_name":"Uncletopia | Frankfurt | 6 | All Maps | STV","players":[{"user_id":686,"name":"Wils","steam_id":76561198325853689,"connected_time":1824000000000,"state":"active","ping":176},{"user_id":681,"name":"Zakirály","steam_id":76561198160346889,"connected_time":2065000000000,"state":"active","ping":82},{"user_id":682,"name":"Fritzpoltergeist","steam_id":76561198036562184,"connected_time":2062000000000,"state":"active","ping":75},{"user_id":684,"name":"Kinas","steam_id":76561198084438097,"connected_time":1975000000000,"state":"active","ping":113},{"user_id":695,"name":"apple","steam_id":76561198116932635,"connected_time":1247000000000,"state":"active","ping":59},{"user_id":685,"name":"East#","steam_id":76561198126240609,"connected_time":1882000000000,"state":"active","ping":81},{"user_id":709,"name":"goner","steam_id":76561198057256978,"connected_time":141000000000,"state":"active","ping":44},{"user_id":688,"name":"gaming","steam_id":76561199139024345,"connected_time":1699000000000,"state":"active","ping":68},{"user_id":707,"name":"Johnny","steam_id":76561198880265246,"connected_time":314000000000,"state":"active","ping":70},{"user_id":694,"name":"Jar","steam_id":76561198156384007,"connected_time":1253000000000,"state":"active","ping":65},{"user_id":710,"name":"Yangus","steam_id":76561198147796010,"connected_time":42000000000,"state":"active","ping":60},{"user_id":609,"name":"Vershal Smershal","steam_id":76561198116223995,"connected_time":7617000000000,"state":"active","ping":60},{"user_id":678,"name":"Kutya7701","steam_id":76561198027503399,"connected_time":2115000000000,"state":"active","ping":60},{"user_id":690,"name":"bluebluffmuff1337","steam_id":76561199118797744,"connected_time":1496000000000,"state":"active","ping":57},{"user_id":696,"name":"drippin jimmy","steam_id":76561198219243969,"connected_time":1201000000000,"state":"active","ping":56},{"user_id":697,"name":"MilkMonkey22","steam_id":76561198347070760,"connected_time":1165000000000,"state":"active","ping":66},{"user_id":661,"name":"Rarky","steam_id":76561198054398642,"connected_time":3147000000000,"state":"active","ping":54},{"user_id":662,"name":"Catsanddogs123","steam_id":76561198030868386,"connected_time":3120000000000,"state":"active","ping":109},{"user_id":699,"name":"F1-M","steam_id":76561198198409875,"connected_time":1130000000000,"state":"active","ping":121},{"user_id":704,"name":"Jmen","steam_id":76561198000501096,"connected_time":691000000000,"state":"active","ping":61},{"user_id":703,"name":"a fresh pan of lemon squares","steam_id":76561197984071376,"connected_time":865000000000,"state":"active","ping":69}]},{"server_id":23,"name":"Uncletopia | Frankfurt | 7 | Stopwatch Beta","name_short":"frk-7","host":"frk-1.de.uncletopia.com","port":27075,"enabled":true,"region":"eu","cc":"de","latitude":50.110924,"longitude":8.682127,"reserved":0,"last_update":"0001-01-01T00:00:00Z","name_a2s":"Uncletopia | Frankfurt | 7 | Stopwatch Beta","protocol":17,"map":"cp_metalworks","folder":"tf","game":"Team Fortress","app_id":440,"player_count":23,"max_players":24,"Bots":0,"server_type":"Dedicated","server_os":"Linux","password":true,"vac":true,"version":"7742253","steam_id":85568392924742827,"keywords":["cp","nocrits","nodmgspread","uncletopia"],"game_id":440,"stv_port":27076,"stv_name":"Uncletopia | Frankfurt | 7 | Stopwatch Beta | STV","players":[{"user_id":375,"name":"Seail_M","steam_id":76561198002405605,"connected_time":284000000000,"state":"active","ping":57},{"user_id":382,"name":"Bob","steam_id":76561198218200489,"connected_time":83000000000,"state":"active","ping":62},{"user_id":386,"name":"Pingutaro","steam_id":76561198112803718,"connected_time":49000000000,"state":"connecting","ping":0},{"user_id":316,"name":"Ostarr","steam_id":76561198200054489,"connected_time":5072000000000,"state":"active","ping":60},{"user_id":317,"name":"ya boi","steam_id":76561198320746074,"connected_time":5053000000000,"state":"active","ping":57},{"user_id":318,"name":"Kelpy G gaming","steam_id":76561198056995633,"connected_time":5051000000000,"state":"active","ping":50},{"user_id":356,"name":"Kavary","steam_id":76561198024792146,"connected_time":1669000000000,"state":"active","ping":75},{"user_id":367,"name":"cazzoneporcodio","steam_id":76561198337994909,"connected_time":844000000000,"state":"active","ping":65},{"user_id":326,"name":"Nickbro101","steam_id":76561198044271692,"connected_time":4673000000000,"state":"active","ping":60},{"user_id":384,"name":"TidB","steam_id":76561198055342304,"connected_time":65000000000,"state":"active","ping":45},{"user_id":323,"name":"Arturias","steam_id":76561198188720263,"connected_time":4692000000000,"state":"active","ping":58},{"user_id":385,"name":"[REDACTED]TOWER","steam_id":76561197995723404,"connected_time":61000000000,"state":"active","ping":74},{"user_id":373,"name":"Ecton","steam_id":76561198025103720,"connected_time":410000000000,"state":"active","ping":64},{"user_id":387,"name":"nikals brawltf","steam_id":76561197965607462,"connected_time":44000000000,"state":"active","ping":79},{"user_id":337,"name":"r/sonofelicenellafece","steam_id":76561198262231733,"connected_time":3416000000000,"state":"active","ping":59},{"user_id":374,"name":"snowi","steam_id":76561198006502679,"connected_time":327000000000,"state":"active","ping":64},{"user_id":388,"name":"Videogamer","steam_id":76561198106012909,"connected_time":40000000000,"state":"active","ping":63},{"user_id":347,"name":"teddy","steam_id":76561198007436837,"connected_time":2963000000000,"state":"active","ping":56},{"user_id":389,"name":"Burgoo_King","steam_id":76561198133572225,"connected_time":37000000000,"state":"active","ping":73},{"user_id":371,"name":"Mental sickness","steam_id":76561198860276453,"connected_time":616000000000,"state":"active","ping":75},{"user_id":349,"name":"nobody","steam_id":76561198180637374,"connected_time":2572000000000,"state":"active","ping":86},{"user_id":350,"name":"unnam3d","steam_id":76561198286257338,"connected_time":2571000000000,"state":"active","ping":60},{"user_id":390,"name":"Alfred Schroom","steam_id":76561198117990411,"connected_time":27000000000,"state":"active","ping":78}]},{"server_id":24,"name":"Uncletopia | Frankfurt | 8 | Community","name_short":"frk-8","host":"frk-1.de.uncletopia.com","port":27085,"enabled":true,"region":"eu","cc":"de","latitude":50.110924,"longitude":8.682127,"reserved":0,"last_update":"0001-01-01T00:00:00Z","name_a2s":"Uncletopia | Frankfurt | 8 | Community","protocol":17,"map":"workshop/koth_ramjam_v2_b2.ugc2865676487","folder":"tf","game":"Team Fortress","app_id":440,"player_count":0,"max_players":24,"Bots":0,"server_type":"Dedicated","server_os":"Linux","password":true,"vac":true,"version":"7742253","steam_id":85568392924742828,"keywords":["cp","nocrits","nodmgspread","uncletopia"],"game_id":440,"stv_port":27086,"stv_name":"Uncletopia | Frankfurt | 8 | Community | STV","players":null},{"server_id":202,"name":"Uncletopia | Hong Kong | 1 | All Maps","name_short":"hgk-1","host":"hgk-1.hk.uncletopia.com","port":27015,"enabled":true,"region":"asia","cc":"hk","latitude":22.302711,"longitude":114.177216,"reserved":0,"last_update":"0001-01-01T00:00:00Z","name_a2s":"Uncletopia | Hong Kong | 1 | All Maps","protocol":17,"map":"koth_viaduct","folder":"tf","game":"Team Fortress","app_id":440,"player_count":0,"max_players":24,"Bots":0,"server_type":"Dedicated","server_os":"Linux","password":true,"vac":true,"version":"7742253","steam_id":85568392924494504,"keywords":["cp","nocrits","nodmgspread","uncletopia"],"game_id":440,"stv_port":27016,"stv_name":"Uncletopia | Hong Kong | 1 | All Maps | STV","players":null},{"server_id":1,"name":"Uncletopia | Los Angeles | 1 | All Maps","name_short":"lax-1","host":"lax-1.us.uncletopia.com","port":27015,"enabled":true,"region":"us-west","cc":"us","latitude":33.94279,"longitude":-118.41004,"reserved":0,"last_update":"0001-01-01T00:00:00Z","name_a2s":"Uncletopia | Los Angeles | 1 | All Maps","protocol":17,"map":"koth_viaduct","folder":"tf","game":"Team Fortress","app_id":440,"player_count":0,"max_players":24,"Bots":0,"server_type":"Dedicated","server_os":"Linux","password":true,"vac":true,"version":"7742253","steam_id":85568392924469991,"keywords":["cp","nocrits","nodmgspread","uncletopia"],"game_id":440,"stv_port":27016,"stv_name":"Uncletopia | Los Angeles | 1 | All Maps | STV","players":null},{"server_id":112,"name":"Uncletopia | Los Angeles | 2 | All Maps","name_short":"lax-2","host":"lax-1.us.uncletopia.com","port":27025,"enabled":true,"region":"us-west","cc":"us","latitude":33.94279,"longitude":-118.41004,"reserved":0,"last_update":"0001-01-01T00:00:00Z","name_a2s":"Uncletopia | Los Angeles | 2 | All Maps","protocol":17,"map":"pl_upward","folder":"tf","game":"Team Fortress","app_id":440,"player_count":0,"max_players":24,"Bots":0,"server_type":"Dedicated","server_os":"Linux","password":true,"vac":true,"version":"7742253","steam_id":85568392924469992,"keywords":["nocrits","nodmgspread","payload","uncletopia"],"game_id":440,"stv_port":27026,"stv_name":"Uncletopia | Los Angeles | 2 | All Maps | STV","players":null},{"server_id":324,"name":"Uncletopia | Los Angeles | 3 | All Maps","name_short":"lax-3","host":"lax-1.us.uncletopia.com","port":27035,"enabled":true,"region":"us-west","cc":"us","latitude":33.94279,"longitude":-118.41004,"reserved":0,"last_update":"0001-01-01T00:00:00Z","name_a2s":"Uncletopia | Los Angeles | 3 | All Maps","protocol":17,"map":"pl_borneo","folder":"tf","game":"Team Fortress","app_id":440,"player_count":0,"max_players":24,"Bots":0,"server_type":"Dedicated","server_os":"Linux","password":true,"vac":true,"version":"7742253","steam_id":85568392924510198,"keywords":["nocrits","nodmgspread","payload","uncletopia"],"game_id":440,"stv_port":27036,"stv_name":"Uncletopia | Los Angeles | 3 | All Maps | STV","players":null},{"server_id":25,"name":"Uncletopia | Los Angeles | 4 | Stopwatch Beta","name_short":"lax-4","host":"lax-1.us.uncletopia.com","port":27045,"enabled":true,"region":"us-west","cc":"us","latitude":33.94279,"longitude":-118.41004,"reserved":0,"last_update":"0001-01-01T00:00:00Z","name_a2s":"Uncletopia | Los Angeles | 4 | Stopwatch Beta","protocol":17,"map":"cp_process_final","folder":"tf","game":"Team Fortress","app_id":440,"player_count":0,"max_players":24,"Bots":0,"server_type":"Dedicated","server_os":"Linux","password":true,"vac":true,"version":"7742253","steam_id":85568392924510199,"keywords":["cp","nocrits","nodmgspread","uncletopia"],"game_id":440,"stv_port":27046,"stv_name":"Uncletopia | Los Angeles | 4 | Stopwatch Beta | STV","players":null},{"server_id":11,"name":"Uncletopia | London | 1 | All Maps","name_short":"lon-1","host":"lon-1.uk.uncletopia.com","port":27015,"enabled":true,"region":"eu","cc":"gb","latitude":51.509865,"longitude":-0.118092,"reserved":0,"last_update":"0001-01-01T00:00:00Z","name_a2s":"Uncletopia | London | 1 | All Maps","protocol":17,"map":"pl_barnblitz","folder":"tf","game":"Team Fortress","app_id":440,"player_count":24,"max_players":24,"Bots":0,"server_type":"Dedicated","server_os":"Linux","password":true,"vac":true,"version":"7742253","steam_id":85568392924367362,"keywords":["nocrits","nodmgspread","payload","uncletopia"],"game_id":440,"stv_port":27016,"stv_name":"Uncletopia | London | 1 | All Maps | STV","players":[{"user_id":588,"name":"Gry in vc","steam_id":76561198053961616,"connected_time":11542000000000,"state":"active","ping":56},{"user_id":670,"name":"ciliorkun18","steam_id":76561198228942500,"connected_time":1552000000000,"state":"active","ping":90},{"user_id":656,"name":"BreadBaubbles","steam_id":76561198174332826,"connected_time":3722000000000,"state":"active","ping":54},{"user_id":619,"name":"glyph","steam_id":76561197980736364,"connected_time":8184000000000,"state":"active","ping":83},{"user_id":684,"name":"Jakearooney","steam_id":76561198137205424,"connected_time":235000000000,"state":"active","ping":55},{"user_id":673,"name":"bruhemian but festive","steam_id":76561198191854931,"connected_time":1411000000000,"state":"active","ping":51},{"user_id":666,"name":"Kiska D","steam_id":76561198261377744,"connected_time":1913000000000,"state":"active","ping":106},{"user_id":679,"name":"Marssie","steam_id":76561198071368131,"connected_time":1081000000000,"state":"active","ping":67},{"user_id":659,"name":"Festive Yuletart","steam_id":76561198023918830,"connected_time":3145000000000,"state":"active","ping":42},{"user_id":674,"name":"Steen","steam_id":76561198122992510,"connected_time":1343000000000,"state":"active","ping":44},{"user_id":669,"name":"merry beebo","steam_id":76561199120277007,"connected_time":1902000000000,"state":"active","ping":54},{"user_id":645,"name":"The Grinch","steam_id":76561198073975078,"connected_time":5220000000000,"state":"active","ping":47},{"user_id":638,"name":"christmas clown :o)","steam_id":76561198074657015,"connected_time":6036000000000,"state":"active","ping":67},{"user_id":642,"name":"chrisssssssssssssy","steam_id":76561198096547662,"connected_time":5849000000000,"state":"active","ping":51},{"user_id":646,"name":"DrBr4n","steam_id":76561198111801228,"connected_time":5049000000000,"state":"active","ping":91},{"user_id":682,"name":"0","steam_id":76561198267909207,"connected_time":331000000000,"state":"active","ping":97},{"user_id":654,"name":"Jonathan","steam_id":76561198087988880,"connected_time":3869000000000,"state":"active","ping":60},{"user_id":627,"name":"Grey","steam_id":76561198187190267,"connected_time":7798000000000,"state":"active","ping":45},{"user_id":678,"name":"✪ Bricklebaum","steam_id":76561198094911581,"connected_time":1102000000000,"state":"active","ping":50},{"user_id":664,"name":"redder","steam_id":76561198168231617,"connected_time":2331000000000,"state":"active","ping":53},{"user_id":685,"name":"_Starlight_","steam_id":76561197993885738,"connected_time":10000000000,"state":"spawning","ping":69},{"user_id":663,"name":"Noob_with_source","steam_id":76561198870362103,"connected_time":2397000000000,"state":"active","ping":60},{"user_id":677,"name":"SOPHIIEEEEEEEEEEEEEEEEEEEEEEEEE","steam_id":76561198443798981,"connected_time":1204000000000,"state":"active","ping":57},{"user_id":660,"name":"[P-roc] Cmm Bert","steam_id":76561198016658674,"connected_time":3084000000000,"state":"active","ping":62}]},{"server_id":114,"name":"Uncletopia | London | 2 | All Maps","name_short":"lon-2","host":"lon-1.uk.uncletopia.com","port":27025,"enabled":true,"region":"eu","cc":"gb","latitude":51.509865,"longitude":-0.118092,"reserved":0,"last_update":"0001-01-01T00:00:00Z","name_a2s":"Uncletopia | London | 2 | All Maps","protocol":17,"map":"plr_bananabay","folder":"tf","game":"Team Fortress","app_id":440,"player_count":24,"max_players":24,"Bots":0,"server_type":"Dedicated","server_os":"Linux","password":true,"vac":true,"version":"7742253","steam_id":85568392924470941,"keywords":["nocrits","nodmgspread","payload","uncletopia"],"game_id":440,"stv_port":27026,"stv_name":"Uncletopia | London | 2 | All Maps | STV","players":[{"user_id":571,"name":"Chat Noir","steam_id":76561198069513598,"connected_time":560000000000,"state":"active","ping":59},{"user_id":567,"name":"(1)Sin","steam_id":76561198975489819,"connected_time":822000000000,"state":"active","ping":63},{"user_id":584,"name":"UNO, The Ubisoft Original","steam_id":76561198846784757,"connected_time":187000000000,"state":"active","ping":55},{"user_id":573,"name":"MrVAB","steam_id":76561197970331055,"connected_time":467000000000,"state":"active","ping":46},{"user_id":545,"name":"Alexander Maxwell Nox","steam_id":76561198936369385,"connected_time":2586000000000,"state":"active","ping":58},{"user_id":533,"name":"🜏 Drepp","steam_id":76561197998867164,"connected_time":3566000000000,"state":"active","ping":69},{"user_id":570,"name":"HeavyMetal","steam_id":76561199158386096,"connected_time":786000000000,"state":"active","ping":58},{"user_id":557,"name":"ryce","steam_id":76561198256262286,"connected_time":1610000000000,"state":"active","ping":53},{"user_id":575,"name":"reer","steam_id":76561198087222583,"connected_time":398000000000,"state":"active","ping":60},{"user_id":583,"name":"Penis Contortionist","steam_id":76561198073663784,"connected_time":214000000000,"state":"active","ping":52},{"user_id":578,"name":"xX_GamingGilf_Xx","steam_id":76561199118876157,"connected_time":336000000000,"state":"active","ping":59},{"user_id":580,"name":"Drommelsch","steam_id":76561198019318954,"connected_time":296000000000,"state":"active","ping":63},{"user_id":581,"name":"lura","steam_id":76561199439030016,"connected_time":289000000000,"state":"active","ping":116},{"user_id":528,"name":"UltimateAura","steam_id":76561198338361324,"connected_time":4050000000000,"state":"active","ping":39},{"user_id":585,"name":"MG TF 2004!","steam_id":76561198042975907,"connected_time":179000000000,"state":"active","ping":43},{"user_id":558,"name":"Slex_","steam_id":76561198118483396,"connected_time":1596000000000,"state":"active","ping":57},{"user_id":590,"name":"dustee","steam_id":76561198023486582,"connected_time":105000000000,"state":"active","ping":61},{"user_id":587,"name":"Nelly","steam_id":76561198815271970,"connected_time":149000000000,"state":"active","ping":70},{"user_id":588,"name":"Aiko","steam_id":76561198281703666,"connected_time":138000000000,"state":"active","ping":77},{"user_id":589,"name":"Cippo95","steam_id":76561198255311582,"connected_time":116000000000,"state":"active","ping":83},{"user_id":591,"name":"Beans on toast","steam_id":76561198007308717,"connected_time":102000000000,"state":"active","ping":63},{"user_id":592,"name":"jams","steam_id":76561198010380786,"connected_time":78000000000,"state":"active","ping":45},{"user_id":593,"name":"Castanean","steam_id":76561198014505726,"connected_time":51000000000,"state":"spawning","ping":99},{"user_id":538,"name":"Lods of Emone","steam_id":76561198188642265,"connected_time":3374000000000,"state":"active","ping":49}]},{"server_id":320,"name":"Uncletopia | London | 3 | All Maps","name_short":"lon-3","host":"lon-1.uk.uncletopia.com","port":27035,"enabled":true,"region":"eu","cc":"gb","latitude":51.509865,"longitude":-0.118092,"reserved":0,"last_update":"0001-01-01T00:00:00Z","name_a2s":"Uncletopia | London | 3 | All Maps","protocol":17,"map":"cp_snakewater_final1","folder":"tf","game":"Team Fortress","app_id":440,"player_count":20,"max_players":24,"Bots":0,"server_type":"Dedicated","server_os":"Linux","password":true,"vac":true,"version":"7742253","steam_id":85568392924510192,"keywords":["cp","nocrits","nodmgspread","uncletopia"],"game_id":440,"stv_port":27036,"stv_name":"Uncletopia | London | 3 | All Maps | STV","players":[{"user_id":684,"name":"shithead gaming","steam_id":76561198019065232,"connected_time":882000000000,"state":"active","ping":37},{"user_id":697,"name":"ALARM","steam_id":76561198120686521,"connected_time":54000000000,"state":"connecting","ping":197},{"user_id":658,"name":"rummy","steam_id":76561197997573379,"connected_time":2360000000000,"state":"active","ping":39},{"user_id":669,"name":"Borat","steam_id":76561198122226417,"connected_time":1771000000000,"state":"active","ping":40},{"user_id":654,"name":"Volcyy","steam_id":76561198063979124,"connected_time":2666000000000,"state":"active","ping":45},{"user_id":689,"name":"Biblo Ballbaggins","steam_id":76561198070593514,"connected_time":578000000000,"state":"active","ping":55},{"user_id":688,"name":"cow tools","steam_id":76561198216447231,"connected_time":718000000000,"state":"active","ping":42},{"user_id":678,"name":"Tarixxiv","steam_id":76561198084365415,"connected_time":1127000000000,"state":"active","ping":92},{"user_id":699,"name":"Pingutaro","steam_id":76561198112803718,"connected_time":24000000000,"state":"spawning","ping":149},{"user_id":700,"name":"Valoxi","steam_id":76561197995042938,"connected_time":20000000000,"state":"active","ping":69},{"user_id":642,"name":"Ixsus\u003c3","steam_id":76561198094756869,"connected_time":3033000000000,"state":"active","ping":65},{"user_id":693,"name":"jovi_","steam_id":76561198449280552,"connected_time":468000000000,"state":"active","ping":49},{"user_id":687,"name":"Senator Palpaprotein","steam_id":76561198081980254,"connected_time":832000000000,"state":"active","ping":44},{"user_id":661,"name":"One armed fiddle enthusiast","steam_id":76561198045847051,"connected_time":2047000000000,"state":"active","ping":50},{"user_id":682,"name":"C0d3s","steam_id":76561198093907544,"connected_time":943000000000,"state":"active","ping":85},{"user_id":651,"name":"The brown part of the banana","steam_id":76561198323425034,"connected_time":2955000000000,"state":"active","ping":70},{"user_id":691,"name":"Patrick Ratrick","steam_id":76561198086190783,"connected_time":490000000000,"state":"active","ping":46},{"user_id":695,"name":"Lee","steam_id":76561198113338123,"connected_time":224000000000,"state":"active","ping":71},{"user_id":652,"name":"333res","steam_id":76561198148106704,"connected_time":2913000000000,"state":"active","ping":96},{"user_id":676,"name":"Burgandy","steam_id":76561199162509578,"connected_time":1555000000000,"state":"active","ping":240}]},{"server_id":321,"name":"Uncletopia | London | 4 | All Maps","name_short":"lon-4","host":"lon-1.uk.uncletopia.com","port":27045,"enabled":true,"region":"eu","cc":"gb","latitude":51.509865,"longitude":-0.118092,"reserved":0,"last_update":"0001-01-01T00:00:00Z","name_a2s":"Uncletopia | London | 4 | All Maps","protocol":17,"map":"pl_borneo","folder":"tf","game":"Team Fortress","app_id":440,"player_count":1,"max_players":24,"Bots":0,"server_type":"Dedicated","server_os":"Linux","password":true,"vac":true,"version":"7742253","steam_id":85568392924510193,"keywords":["nocrits","nodmgspread","payload","uncletopia"],"game_id":440,"stv_port":27046,"stv_name":"Uncletopia | London | 4 | All Maps | STV","players":[{"user_id":651,"name":"The Goose","steam_id":76561198054113515,"connected_time":31000000000,"state":"active","ping":121}]},{"server_id":21,"name":"Uncletopia | London | 5 | All Maps","name_short":"lon-5","host":"lon-1.uk.uncletopia.com","port":27055,"enabled":true,"region":"eu","cc":"gb","latitude":51.509865,"longitude":-0.118092,"reserved":0,"last_update":"0001-01-01T00:00:00Z","name_a2s":"Uncletopia | London | 5 | All Maps","protocol":17,"map":"cp_dustbowl","folder":"tf","game":"Team Fortress","app_id":440,"player_count":4,"max_players":24,"Bots":0,"server_type":"Dedicated","server_os":"Linux","password":true,"vac":true,"version":"7742253","steam_id":85568392924742829,"keywords":["cp","nocrits","nodmgspread","uncletopia"],"game_id":440,"stv_port":27056,"stv_name":"Uncletopia | London | 5 | All Maps | STV","players":[{"user_id":21,"name":"i am bread","steam_id":76561199180277321,"connected_time":1643000000000,"state":"active","ping":47},{"user_id":17,"name":"jacob?","steam_id":76561199025525354,"connected_time":2951000000000,"state":"active","ping":54},{"user_id":18,"name":"Jordan Peterson, Kisser of Men","steam_id":76561198983900735,"connected_time":2851000000000,"state":"active","ping":60},{"user_id":22,"name":"Gin-Gi","steam_id":76561198108332859,"connected_time":458000000000,"state":"active","ping":51}]},{"server_id":22,"name":"Uncletopia | London | 6 | All Maps","name_short":"lon-6","host":"lon-1.uk.uncletopia.com","port":27065,"enabled":true,"region":"eu","cc":"gb","latitude":51.509865,"longitude":-0.118092,"reserved":0,"last_update":"0001-01-01T00:00:00Z","name_a2s":"Uncletopia | London | 6 | All Maps","protocol":17,"map":"koth_cascade","folder":"tf","game":"Team Fortress","app_id":440,"player_count":0,"max_players":24,"Bots":0,"server_type":"Dedicated","server_os":"Linux","password":true,"vac":true,"version":"7742253","steam_id":85568392924742830,"keywords":["cp","nocrits","nodmgspread","uncletopia"],"game_id":440,"stv_port":27066,"stv_name":"Uncletopia | London | 6 | All Maps | STV","players":null},{"server_id":40,"name":"Uncletopia | London | 7 | No Payload","name_short":"lon-7","host":"lon-1.uk.uncletopia.com","port":27075,"enabled":true,"region":"eu","cc":"gb","latitude":51.509865,"longitude":-0.118092,"reserved":0,"last_update":"0001-01-01T00:00:00Z","name_a2s":"Uncletopia | London | 7 | No Payload","protocol":17,"map":"koth_harvest_final","folder":"tf","game":"Team Fortress","app_id":440,"player_count":0,"max_players":24,"Bots":0,"server_type":"Dedicated","server_os":"Linux","password":true,"vac":true,"version":"7742253","steam_id":85568392924964314,"keywords":["cp","nocrits","nodmgspread","uncletopia"],"game_id":440,"stv_port":27076,"stv_name":"Uncletopia | London | 7 | No Payload | STV","players":null},{"server_id":41,"name":"Uncletopia | London | 8 | Community","name_short":"lon-8","host":"lon-1.uk.uncletopia.com","port":27085,"enabled":true,"region":"eu","cc":"gb","latitude":51.509865,"longitude":-0.118092,"reserved":0,"last_update":"0001-01-01T00:00:00Z","name_a2s":"Uncletopia | London | 8 | Community","protocol":17,"map":"workshop/cp_villa_b19.ugc2113052569","folder":"tf","game":"Team Fortress","app_id":440,"player_count":0,"max_players":24,"Bots":0,"server_type":"Dedicated","server_os":"Linux","password":true,"vac":true,"version":"7742253","steam_id":85568392924964315,"keywords":["cp","nocrits","nodmgspread","uncletopia"],"game_id":440,"stv_port":27086,"stv_name":"Uncletopia | London | 8 | Community | STV","players":null},{"server_id":300,"name":"Uncletopia | Montréal | 1 | All Maps","name_short":"mtl-1","host":"mtl-1.ca.uncletopia.com","port":27015,"enabled":true,"region":"us-east","cc":"ca","latitude":45.50889,"longitude":-73.56167,"reserved":0,"last_update":"0001-01-01T00:00:00Z","name_a2s":"Uncletopia | Montréal | 1 | All Maps","protocol":17,"map":"koth_lakeside_final","folder":"tf","game":"Team Fortress","app_id":440,"player_count":0,"max_players":24,"Bots":0,"server_type":"Dedicated","server_os":"Linux","password":true,"vac":true,"version":"7742253","steam_id":85568392924500087,"keywords":["cp","nocrits","nodmgspread","uncletopia"],"game_id":440,"stv_port":27016,"stv_name":"Uncletopia | Montréal | 1 | All Maps | STV","players":null},{"server_id":301,"name":"Uncletopia | Montréal | 2 | All Maps","name_short":"mtl-2","host":"mtl-1.ca.uncletopia.com","port":27025,"enabled":true,"region":"us-east","cc":"ca","latitude":45.50889,"longitude":-73.56167,"reserved":0,"last_update":"0001-01-01T00:00:00Z","name_a2s":"Uncletopia | Montréal | 2 | All Maps","protocol":17,"map":"koth_lakeside_final","folder":"tf","game":"Team Fortress","app_id":440,"player_count":0,"max_players":24,"Bots":0,"server_type":"Dedicated","server_os":"Linux","password":true,"vac":true,"version":"7742253","steam_id":85568392924500088,"keywords":["cp","nocrits","nodmgspread","uncletopia"],"game_id":440,"stv_port":27026,"stv_name":"Uncletopia | Montréal | 2 | All Maps | STV","players":null},{"server_id":302,"name":"Uncletopia | Montréal | 3 | All Maps","name_short":"mtl-3","host":"mtl-1.ca.uncletopia.com","port":27035,"enabled":true,"region":"us-east","cc":"ca","latitude":45.50889,"longitude":-73.56167,"reserved":0,"last_update":"0001-01-01T00:00:00Z","name_a2s":"Uncletopia | Montréal | 3 | All Maps","protocol":17,"map":"cp_altitude","folder":"tf","game":"Team Fortress","app_id":440,"player_count":0,"max_players":24,"Bots":0,"server_type":"Dedicated","server_os":"Linux","password":true,"vac":true,"version":"7742253","steam_id":85568392924500089,"keywords":["cp","nocrits","nodmgspread","uncletopia"],"game_id":440,"stv_port":27036,"stv_name":"Uncletopia | Montréal | 3 | All Maps | STV","players":null},{"server_id":303,"name":"Uncletopia | Montréal | 4 | No Payload","name_short":"mtl-4","host":"mtl-1.ca.uncletopia.com","port":27045,"enabled":true,"region":"us-east","cc":"ca","latitude":45.50889,"longitude":-73.56167,"reserved":0,"last_update":"0001-01-01T00:00:00Z","name_a2s":"Uncletopia | Montréal | 4 | No Payload","protocol":17,"map":"koth_highpass","folder":"tf","game":"Team Fortress","app_id":440,"player_count":0,"max_players":24,"Bots":0,"server_type":"Dedicated","server_os":"Linux","password":true,"vac":true,"version":"7742253","steam_id":85568392924500090,"keywords":["cp","nocrits","nodmgspread","uncletopia"],"game_id":440,"stv_port":27046,"stv_name":"Uncletopia | Montréal | 4 | No Payload | STV","players":null},{"server_id":13,"name":"Uncletopia | New York City | 1 | All Maps","name_short":"nyc-1","host":"nyc-1.us.uncletopia.com","port":27015,"enabled":true,"region":"us-east","cc":"us","latitude":40.73061,"longitude":-73.93524,"reserved":0,"last_update":"0001-01-01T00:00:00Z","name_a2s":"Uncletopia | New York City | 1 | All Maps","protocol":17,"map":"koth_viaduct","folder":"tf","game":"Team Fortress","app_id":440,"player_count":24,"max_players":24,"Bots":0,"server_type":"Dedicated","server_os":"Linux","password":true,"vac":true,"version":"7742253","steam_id":85568392924469993,"keywords":["cp","nocrits","nodmgspread","uncletopia"],"game_id":440,"stv_port":27016,"stv_name":"Uncletopia | New York City | 1 | All Maps | STV","players":[{"user_id":384,"name":"MMAD","steam_id":76561198026446420,"connected_time":93000000000,"state":"active","ping":93},{"user_id":350,"name":"cellogamer","steam_id":76561198016937098,"connected_time":1551000000000,"state":"active","ping":48},{"user_id":324,"name":"Runner175","steam_id":76561198307230510,"connected_time":3293000000000,"state":"active","ping":94},{"user_id":352,"name":"Spiral Mountain","steam_id":76561198058683715,"connected_time":1548000000000,"state":"active","ping":69},{"user_id":315,"name":"M249 | Spectre","steam_id":76561198118334485,"connected_time":3814000000000,"state":"active","ping":56},{"user_id":374,"name":"JA","steam_id":76561198308183330,"connected_time":930000000000,"state":"active","ping":32},{"user_id":357,"name":"Cracky-chan","steam_id":76561197989897924,"connected_time":1472000000000,"state":"active","ping":66},{"user_id":347,"name":"skaj","steam_id":76561198082278586,"connected_time":1724000000000,"state":"active","ping":75},{"user_id":327,"name":"EL CHUPA NIBRE","steam_id":76561199135644119,"connected_time":3280000000000,"state":"active","ping":70},{"user_id":354,"name":"Mike Ehrmantraut","steam_id":76561198082446459,"connected_time":1517000000000,"state":"active","ping":59},{"user_id":364,"name":"skipper","steam_id":76561198395965181,"connected_time":1414000000000,"state":"active","ping":53},{"user_id":387,"name":"Fry Sauce","steam_id":76561198056328408,"connected_time":0,"state":"spawning","ping":32},{"user_id":382,"name":"Dr. Feelgood (Ph.D, MD)","steam_id":76561198040611061,"connected_time":329000000000,"state":"active","ping":45},{"user_id":375,"name":"Frongus","steam_id":76561197979056451,"connected_time":928000000000,"state":"active","ping":107},{"user_id":371,"name":"faxxy","steam_id":76561198079621240,"connected_time":1312000000000,"state":"active","ping":66},{"user_id":366,"name":"sock","steam_id":76561199117597830,"connected_time":1401000000000,"state":"active","ping":59},{"user_id":385,"name":"GreenApples","steam_id":76561198120559543,"connected_time":54000000000,"state":"active","ping":117},{"user_id":349,"name":"gamer!","steam_id":76561198932121347,"connected_time":1696000000000,"state":"active","ping":63},{"user_id":380,"name":"Marc Antony","steam_id":76561198011366517,"connected_time":486000000000,"state":"active","ping":43},{"user_id":345,"name":"Randy \"the Man\" Johnson","steam_id":76561198039124445,"connected_time":1838000000000,"state":"active","ping":108},{"user_id":379,"name":"Goofball","steam_id":76561198074189084,"connected_time":589000000000,"state":"active","ping":36},{"user_id":369,"name":"Farseer Ulwithy","steam_id":76561197965179245,"connected_time":1395000000000,"state":"active","ping":112},{"user_id":386,"name":"Dullahan","steam_id":76561198119668908,"connected_time":53000000000,"state":"active","ping":113},{"user_id":372,"name":"J.R Prime","steam_id":76561198967753173,"connected_time":1092000000000,"state":"active","ping":56}]},{"server_id":14,"name":"Uncletopia | New York City | 2 | All Maps","name_short":"nyc-2","host":"nyc-1.us.uncletopia.com","port":27025,"enabled":true,"region":"us-east","cc":"us","latitude":40.73061,"longitude":-73.93524,"reserved":0,"last_update":"0001-01-01T00:00:00Z","name_a2s":"Uncletopia | New York City | 2 | All Maps","protocol":17,"map":"pl_borneo","folder":"tf","game":"Team Fortress","app_id":440,"player_count":24,"max_players":24,"Bots":0,"server_type":"Dedicated","server_os":"Linux","password":true,"vac":true,"version":"7742253","steam_id":85568392924469994,"keywords":["nocrits","nodmgspread","payload","uncletopia"],"game_id":440,"stv_port":27026,"stv_name":"Uncletopia | New York City | 2 | All Maps | STV","players":[{"user_id":448,"name":"EVIL MEDIC","steam_id":76561199151780779,"connected_time":176000000000,"state":"active","ping":53},{"user_id":445,"name":"CosmicGamer","steam_id":76561198272066630,"connected_time":411000000000,"state":"active","ping":90},{"user_id":399,"name":"zanealcannon","steam_id":76561198409950668,"connected_time":2627000000000,"state":"active","ping":54},{"user_id":371,"name":"Laelaps","steam_id":76561198100061416,"connected_time":4436000000000,"state":"active","ping":47},{"user_id":447,"name":"Minerkid2004","steam_id":76561198044262827,"connected_time":204000000000,"state":"active","ping":99},{"user_id":436,"name":"SLiPpeRyJoe.nosound","steam_id":76561197977206359,"connected_time":645000000000,"state":"active","ping":82},{"user_id":441,"name":"Geejohn Fiddlewhopper","steam_id":76561199048394020,"connected_time":532000000000,"state":"active","ping":71},{"user_id":363,"name":"❤ Ashley ❤","steam_id":76561198056428303,"connected_time":5497000000000,"state":"active","ping":105},{"user_id":434,"name":"pablo","steam_id":76561198395577807,"connected_time":668000000000,"state":"active","ping":34},{"user_id":446,"name":"Terraformer9x","steam_id":76561198018465835,"connected_time":409000000000,"state":"active","ping":49},{"user_id":431,"name":"Brongo Bongo","steam_id":76561198013542156,"connected_time":783000000000,"state":"active","ping":44},{"user_id":432,"name":"AFloatingShoppinList","steam_id":76561198300216562,"connected_time":719000000000,"state":"active","ping":47},{"user_id":422,"name":"Typical Gentleman","steam_id":76561199229771413,"connected_time":1548000000000,"state":"active","ping":77},{"user_id":443,"name":"Warpy","steam_id":76561198055852599,"connected_time":464000000000,"state":"active","ping":99},{"user_id":437,"name":"Naughty Number Nine","steam_id":76561198001368182,"connected_time":615000000000,"state":"active","ping":47},{"user_id":438,"name":"KaleidoscopeOk7981","steam_id":76561198110449520,"connected_time":612000000000,"state":"active","ping":75},{"user_id":407,"name":"Scootz","steam_id":76561198064722325,"connected_time":2079000000000,"state":"active","ping":79},{"user_id":388,"name":"Karaage","steam_id":76561198042834191,"connected_time":3055000000000,"state":"active","ping":122},{"user_id":449,"name":"L0git3ch","steam_id":76561198012721951,"connected_time":121000000000,"state":"active","ping":136},{"user_id":427,"name":"Sh3ba Spaniel","steam_id":76561198047412394,"connected_time":1019000000000,"state":"active","ping":80},{"user_id":428,"name":"Bean0914","steam_id":76561198261906023,"connected_time":1015000000000,"state":"active","ping":64},{"user_id":450,"name":"Xavibite","steam_id":76561198209380493,"connected_time":49000000000,"state":"active","ping":45},{"user_id":442,"name":"beefwellington1995@aol.com","steam_id":76561199085931379,"connected_time":514000000000,"state":"active","ping":74},{"user_id":419,"name":"supcupman","steam_id":76561198051513866,"connected_time":1743000000000,"state":"active","ping":121}]},{"server_id":15,"name":"Uncletopia | New York City | 3 | Stopwatch Beta","name_short":"nyc-3","host":"nyc-1.us.uncletopia.com","port":27035,"enabled":true,"region":"us-east","cc":"us","latitude":40.73061,"longitude":-73.93524,"reserved":0,"last_update":"0001-01-01T00:00:00Z","name_a2s":"Uncletopia | New York City | 3 | Stopwatch Beta","protocol":17,"map":"koth_lakeside_final","folder":"tf","game":"Team Fortress","app_id":440,"player_count":0,"max_players":24,"Bots":0,"server_type":"Dedicated","server_os":"Linux","password":true,"vac":true,"version":"7742253","steam_id":85568392924742820,"keywords":["cp","nocrits","nodmgspread","uncletopia"],"game_id":440,"stv_port":27036,"stv_name":"Uncletopia | New York City | 3 | Stopwatch Beta | STV","players":null},{"server_id":16,"name":"Uncletopia | New York City | 4 | Community","name_short":"nyc-4","host":"nyc-1.us.uncletopia.com","port":27045,"enabled":true,"region":"us-east","cc":"us","latitude":40.73061,"longitude":-73.93524,"reserved":0,"last_update":"0001-01-01T00:00:00Z","name_a2s":"Uncletopia | New York City | 4 | Community","protocol":17,"map":"workshop/koth_product_final.ugc454272353","folder":"tf","game":"Team Fortress","app_id":440,"player_count":0,"max_players":24,"Bots":0,"server_type":"Dedicated","server_os":"Linux","password":true,"vac":true,"version":"7742253","steam_id":85568392924742821,"keywords":["cp","nocrits","nodmgspread","uncletopia"],"game_id":440,"stv_port":27046,"stv_name":"Uncletopia | New York City | 4 | Community | STV","players":null},{"server_id":142,"name":"Uncletopia | São Paulo | 1 | All Maps","name_short":"sao-1","host":"sao-1.br.uncletopia.com","port":27015,"enabled":true,"region":"sa","cc":"br","latitude":-23.533773,"longitude":-46.62529,"reserved":0,"last_update":"0001-01-01T00:00:00Z","name_a2s":"Uncletopia | São Paulo | 1 | All Maps","protocol":17,"map":"pl_borneo","folder":"tf","game":"Team Fortress","app_id":440,"player_count":24,"max_players":24,"Bots":0,"server_type":"Dedicated","server_os":"Linux","password":true,"vac":true,"version":"7742253","steam_id":85568392924469996,"keywords":["nocrits","nodmgspread","payload","uncletopia"],"game_id":440,"stv_port":27016,"stv_name":"Uncletopia | São Paulo | 1 | All Maps | STV","players":[{"user_id":119,"name":"♡","steam_id":76561197977365746,"connected_time":357000000000,"state":"active","ping":42},{"user_id":120,"name":"SenhorFooca","steam_id":76561199269436074,"connected_time":338000000000,"state":"active","ping":46},{"user_id":58,"name":"Pathetic","steam_id":76561198051056987,"connected_time":4448000000000,"state":"active","ping":66},{"user_id":112,"name":"$r. Hello There #savetf2","steam_id":76561198874231807,"connected_time":871000000000,"state":"active","ping":43},{"user_id":97,"name":"luiz.lineu13","steam_id":76561199057600862,"connected_time":2130000000000,"state":"active","ping":93},{"user_id":113,"name":"Gogoyle50","steam_id":76561198148524228,"connected_time":693000000000,"state":"active","ping":46},{"user_id":114,"name":"fold","steam_id":76561199091915051,"connected_time":534000000000,"state":"active","ping":62},{"user_id":121,"name":"Mister Robot","steam_id":76561198251320860,"connected_time":320000000000,"state":"active","ping":55},{"user_id":116,"name":"ink biscuit","steam_id":76561198927983566,"connected_time":463000000000,"state":"active","ping":86},{"user_id":128,"name":"terzo","steam_id":76561198044494120,"connected_time":111000000000,"state":"active","ping":46},{"user_id":71,"name":"ＥｎｄｅｒＮｅｃｒｏ","steam_id":76561198044304293,"connected_time":3719000000000,"state":"active","ping":45},{"user_id":122,"name":"CoolBrazilianGuy","steam_id":76561198843338251,"connected_time":300000000000,"state":"active","ping":89},{"user_id":66,"name":"Destyail","steam_id":76561199115887361,"connected_time":3863000000000,"state":"active","ping":42},{"user_id":67,"name":"Jexzoid","steam_id":76561198869921242,"connected_time":3808000000000,"state":"active","ping":78},{"user_id":107,"name":"Zoom!","steam_id":76561198289562649,"connected_time":1670000000000,"state":"active","ping":45},{"user_id":123,"name":"Rodiza","steam_id":76561198069029324,"connected_time":271000000000,"state":"active","ping":40},{"user_id":127,"name":"otaY","steam_id":76561199066360306,"connected_time":117000000000,"state":"spawning","ping":110},{"user_id":125,"name":"pipi","steam_id":76561198093186108,"connected_time":213000000000,"state":"active","ping":67},{"user_id":108,"name":"LordDoSUS","steam_id":76561198406317878,"connected_time":1577000000000,"state":"active","ping":89},{"user_id":126,"name":"espirra o lança","steam_id":76561198074790850,"connected_time":175000000000,"state":"active","ping":58},{"user_id":85,"name":"ebd_Failnaught","steam_id":76561198108041555,"connected_time":2849000000000,"state":"active","ping":55},{"user_id":86,"name":"Tio KillerParty","steam_id":76561198067918814,"connected_time":2820000000000,"state":"active","ping":64},{"user_id":130,"name":"mimimito","steam_id":76561198002565927,"connected_time":64000000000,"state":"active","ping":44},{"user_id":92,"name":"Sex (GOTY edition)","steam_id":76561198311610096,"connected_time":2539000000000,"state":"active","ping":54}]},{"server_id":143,"name":"Uncletopia | São Paulo | 2 | All Maps","name_short":"sao-2","host":"sao-2.br.uncletopia.com","port":27015,"enabled":true,"region":"sa","cc":"br","latitude":-23.533773,"longitude":-46.62529,"reserved":0,"last_update":"0001-01-01T00:00:00Z","name_a2s":"Uncletopia | São Paulo | 2 | All Maps","protocol":17,"map":"koth_cascade","folder":"tf","game":"Team Fortress","app_id":440,"player_count":0,"max_players":24,"Bots":0,"server_type":"Dedicated","server_os":"Linux","password":true,"vac":true,"version":"7742253","steam_id":85568392924485349,"keywords":["cp","nocrits","nodmgspread","uncletopia"],"game_id":440,"stv_port":27016,"stv_name":"Uncletopia | São Paulo | 2 | All Maps | STV","players":null},{"server_id":7,"name":"Uncletopia | Seattle | 1 | All Maps","name_short":"sea-1","host":"sea-1.us.uncletopia.com","port":27015,"enabled":true,"region":"us-west","cc":"us","latitude":47.608013,"longitude":-122.33517,"reserved":0,"last_update":"0001-01-01T00:00:00Z","name_a2s":"Uncletopia | Seattle | 1 | All Maps","protocol":17,"map":"pl_borneo","folder":"tf","game":"Team Fortress","app_id":440,"player_count":24,"max_players":24,"Bots":0,"server_type":"Dedicated","server_os":"Linux","password":true,"vac":true,"version":"7742253","steam_id":85568392924469997,"keywords":["nocrits","nodmgspread","payload","uncletopia"],"game_id":440,"stv_port":27016,"stv_name":"Uncletopia | Seattle | 1 | All Maps | STV","players":[{"user_id":270,"name":"Sewer","steam_id":76561198803732690,"connected_time":757000000000,"state":"active","ping":74},{"user_id":252,"name":"big bang attack","steam_id":76561198886203540,"connected_time":1924000000000,"state":"active","ping":59},{"user_id":261,"name":"TheMagicMrWaffle","steam_id":76561198104357256,"connected_time":1439000000000,"state":"active","ping":74},{"user_id":263,"name":"Alltrex","steam_id":76561198202254225,"connected_time":1404000000000,"state":"active","ping":46},{"user_id":235,"name":"MCman","steam_id":76561198412110305,"connected_time":2840000000000,"state":"active","ping":76},{"user_id":278,"name":"Talented","steam_id":76561198800259660,"connected_time":232000000000,"state":"active","ping":124},{"user_id":262,"name":"Shah","steam_id":76561198047508851,"connected_time":1406000000000,"state":"active","ping":52},{"user_id":264,"name":"resting neutral face","steam_id":76561197999259502,"connected_time":1404000000000,"state":"active","ping":60},{"user_id":279,"name":"Goeffrey Portillo","steam_id":76561198162117215,"connected_time":215000000000,"state":"active","ping":67},{"user_id":171,"name":"jacix3 [gay wolfgirl]{she/it}","steam_id":76561198205004165,"connected_time":8147000000000,"state":"active","ping":56},{"user_id":265,"name":"help","steam_id":76561198171840525,"connected_time":1357000000000,"state":"active","ping":58},{"user_id":266,"name":"CampinCarl","steam_id":76561197997373624,"connected_time":1341000000000,"state":"active","ping":61},{"user_id":280,"name":"Dr. Fentanyl","steam_id":76561198880644890,"connected_time":194000000000,"state":"active","ping":88},{"user_id":275,"name":"cyra","steam_id":76561198025454291,"connected_time":248000000000,"state":"active","ping":36},{"user_id":267,"name":"Defeat","steam_id":76561198065203818,"connected_time":976000000000,"state":"active","ping":45},{"user_id":276,"name":"HO MY GOD HELP ME","steam_id":76561198119150842,"connected_time":248000000000,"state":"active","ping":66},{"user_id":277,"name":"AKKAWI","steam_id":76561198203159952,"connected_time":247000000000,"state":"active","ping":81},{"user_id":176,"name":"dust","steam_id":76561198045218909,"connected_time":7613000000000,"state":"active","ping":44},{"user_id":231,"name":"indec","steam_id":76561198978404397,"connected_time":3427000000000,"state":"active","ping":60},{"user_id":273,"name":"Holy Mary Mother of Joseph!","steam_id":76561199160246785,"connected_time":280000000000,"state":"active","ping":109},{"user_id":248,"name":"Blitzy","steam_id":76561198149472890,"connected_time":2365000000000,"state":"active","ping":61},{"user_id":201,"name":"T.w² | Sliced Bread","steam_id":76561198128489595,"connected_time":5184000000000,"state":"active","ping":83},{"user_id":214,"name":"EatSomeBEES","steam_id":76561198047334307,"connected_time":4591000000000,"state":"active","ping":74},{"user_id":259,"name":"Mugen","steam_id":76561198411174773,"connected_time":1535000000000,"state":"active","ping":81}]},{"server_id":119,"name":"Uncletopia | Seattle | 2 | All Maps","name_short":"sea-2","host":"sea-1.us.uncletopia.com","port":27025,"enabled":true,"region":"us-west","cc":"us","latitude":47.608013,"longitude":-122.33517,"reserved":0,"last_update":"0001-01-01T00:00:00Z","name_a2s":"Uncletopia | Seattle | 2 | All Maps","protocol":17,"map":"pl_badwater","folder":"tf","game":"Team Fortress","app_id":440,"player_count":24,"max_players":24,"Bots":0,"server_type":"Dedicated","server_os":"Linux","password":true,"vac":true,"version":"7742253","steam_id":85568392924469998,"keywords":["nocrits","nodmgspread","payload","uncletopia"],"game_id":440,"stv_port":27026,"stv_name":"Uncletopia | Seattle | 2 | All Maps | STV","players":[{"user_id":193,"name":"Lorne Chrones","steam_id":76561198023781211,"connected_time":967000000000,"state":"active","ping":108},{"user_id":117,"name":"noraneko","steam_id":76561198025418738,"connected_time":5390000000000,"state":"active","ping":45},{"user_id":129,"name":"mega","steam_id":76561198089520959,"connected_time":3924000000000,"state":"active","ping":85},{"user_id":203,"name":"DrFrank","steam_id":76561198150063390,"connected_time":24000000000,"state":"spawning","ping":134},{"user_id":185,"name":"D9","steam_id":76561197999151357,"connected_time":1128000000000,"state":"active","ping":106},{"user_id":202,"name":"Saint Laurent Don","steam_id":76561198116820706,"connected_time":246000000000,"state":"active","ping":47},{"user_id":143,"name":"pizza","steam_id":76561199389584938,"connected_time":3483000000000,"state":"active","ping":44},{"user_id":162,"name":"dougrocks421","steam_id":76561198165063918,"connected_time":2226000000000,"state":"active","ping":55},{"user_id":160,"name":"deez what sir?","steam_id":76561199001307670,"connected_time":2390000000000,"state":"active","ping":46},{"user_id":195,"name":"ඞ","steam_id":76561198256701755,"connected_time":860000000000,"state":"active","ping":62},{"user_id":165,"name":"Bobby Ray","steam_id":76561198044131188,"connected_time":1761000000000,"state":"active","ping":84},{"user_id":134,"name":"Elmer J. Fapp","steam_id":76561198049339994,"connected_time":3854000000000,"state":"active","ping":102},{"user_id":187,"name":"timmy","steam_id":76561198063322988,"connected_time":1061000000000,"state":"active","ping":46},{"user_id":200,"name":"Mr. Call You Back","steam_id":76561198025172811,"connected_time":510000000000,"state":"active","ping":94},{"user_id":156,"name":"S p a f f y","steam_id":76561198047892151,"connected_time":2544000000000,"state":"active","ping":87},{"user_id":159,"name":"Elias","steam_id":76561198031295139,"connected_time":2453000000000,"state":"active","ping":59},{"user_id":194,"name":"Bitkrin","steam_id":76561198995819530,"connected_time":935000000000,"state":"active","ping":79},{"user_id":201,"name":"Mak","steam_id":76561198089197922,"connected_time":508000000000,"state":"active","ping":59},{"user_id":182,"name":"Fermenting Kiwi","steam_id":76561198253303497,"connected_time":1200000000000,"state":"active","ping":78},{"user_id":183,"name":"Soap","steam_id":76561197994893383,"connected_time":1188000000000,"state":"active","ping":74},{"user_id":197,"name":"Radio","steam_id":76561197963596200,"connected_time":715000000000,"state":"active","ping":46},{"user_id":189,"name":"Carte","steam_id":76561198077424488,"connected_time":1055000000000,"state":"active","ping":75},{"user_id":177,"name":"Quantify45","steam_id":76561198044400135,"connected_time":1403000000000,"state":"active","ping":87},{"user_id":192,"name":"Luke","steam_id":76561198335956790,"connected_time":1011000000000,"state":"active","ping":55}]},{"server_id":406,"name":"Uncletopia | Seattle | 3 | Stopwatch Beta","name_short":"sea-3","host":"sea-1.us.uncletopia.com","port":27035,"enabled":true,"region":"us-west","cc":"us","latitude":47.608013,"longitude":-122.33517,"reserved":0,"last_update":"0001-01-01T00:00:00Z","name_a2s":"Uncletopia | Seattle | 3 | Stopwatch Beta","protocol":17,"map":"pl_upward","folder":"tf","game":"Team Fortress","app_id":440,"player_count":0,"max_players":24,"Bots":0,"server_type":"Dedicated","server_os":"Linux","password":true,"vac":false,"version":"7742253","steam_id":0,"keywords":["nocrits","nodmgspread","payload","uncletopia"],"game_id":440,"stv_port":27036,"stv_name":"Uncletopia | Seattle | 3 | Stopwatch Beta | STV","players":null},{"server_id":17,"name":"Uncletopia | San Francisco | 1 | All Maps","name_short":"sfo-1","host":"sfo-1.us.uncletopia.com","port":27015,"enabled":true,"region":"us-west","cc":"us","latitude":37.77397,"longitude":-122.4313,"reserved":0,"last_update":"0001-01-01T00:00:00Z","name_a2s":"Uncletopia | San Francisco | 1 | All Maps","protocol":17,"map":"koth_cascade","folder":"tf","game":"Team Fortress","app_id":440,"player_count":0,"max_players":24,"Bots":0,"server_type":"Dedicated","server_os":"Linux","password":true,"vac":true,"version":"7742253","steam_id":85568392924469999,"keywords":["cp","nocrits","nodmgspread","uncletopia"],"game_id":440,"stv_port":27016,"stv_name":"Uncletopia | San Francisco | 1 | All Maps | STV","players":null},{"server_id":18,"name":"Uncletopia | San Francisco | 2 | All Maps","name_short":"sfo-2","host":"sfo-1.us.uncletopia.com","port":27025,"enabled":true,"region":"us-west","cc":"us","latitude":37.77397,"longitude":-122.4313,"reserved":0,"last_update":"0001-01-01T00:00:00Z","name_a2s":"Uncletopia | San Francisco | 2 | All Maps","protocol":17,"map":"koth_highpass","folder":"tf","game":"Team Fortress","app_id":440,"player_count":0,"max_players":24,"Bots":0,"server_type":"Dedicated","server_os":"Linux","password":true,"vac":true,"version":"7742253","steam_id":85568392924470000,"keywords":["cp","nocrits","nodmgspread","uncletopia"],"game_id":440,"stv_port":27026,"stv_name":"Uncletopia | San Francisco | 2 | All Maps | STV","players":null},{"server_id":19,"name":"Uncletopia | San Francisco | 3 | Stopwatch Beta","name_short":"sfo-3","host":"sfo-1.us.uncletopia.com","port":27035,"enabled":true,"region":"us-west","cc":"us","latitude":37.77397,"longitude":-122.4313,"reserved":0,"last_update":"0001-01-01T00:00:00Z","name_a2s":"Uncletopia | San Francisco | 3 | Stopwatch Beta","protocol":17,"map":"cp_snakewater_final1","folder":"tf","game":"Team Fortress","app_id":440,"player_count":0,"max_players":24,"Bots":0,"server_type":"Dedicated","server_os":"Linux","password":true,"vac":true,"version":"7742253","steam_id":85568392924742824,"keywords":["cp","nocrits","nodmgspread","uncletopia"],"game_id":440,"stv_port":27036,"stv_name":"Uncletopia | San Francisco | 3 | Stopwatch Beta | STV","players":null},{"server_id":20,"name":"Uncletopia | San Francisco | 4 | Community","name_short":"sfo-4","host":"sfo-1.us.uncletopia.com","port":27045,"enabled":true,"region":"us-west","cc":"us","latitude":37.77397,"longitude":-122.4313,"reserved":0,"last_update":"0001-01-01T00:00:00Z","name_a2s":"Uncletopia | San Francisco | 4 | Community","protocol":17,"map":"cp_altitude","folder":"tf","game":"Team Fortress","app_id":440,"player_count":0,"max_players":24,"Bots":0,"server_type":"Dedicated","server_os":"Linux","password":true,"vac":true,"version":"7742253","steam_id":85568392924742826,"keywords":["cp","nocrits","nodmgspread","uncletopia"],"game_id":440,"stv_port":27046,"stv_name":"Uncletopia | San Francisco | 4 | Community | STV","players":null},{"server_id":141,"name":"Uncletopia | Sydney | 1 | All Maps","name_short":"syd-1","host":"syd-1.au.uncletopia.com","port":27015,"enabled":true,"region":"au","cc":"au","latitude":-33.865143,"longitude":151.2099,"reserved":0,"last_update":"0001-01-01T00:00:00Z","name_a2s":"Uncletopia | Sydney | 1 | All Maps","protocol":17,"map":"pl_barnblitz","folder":"tf","game":"Team Fortress","app_id":440,"player_count":0,"max_players":24,"Bots":0,"server_type":"Dedicated","server_os":"Linux","password":true,"vac":true,"version":"7742253","steam_id":85568392924470001,"keywords":["nocrits","nodmgspread","payload","uncletopia"],"game_id":440,"stv_port":27016,"stv_name":"Uncletopia | Sydney | 1 | All Maps | STV","players":null},{"server_id":123,"name":"Uncletopia | Sydney | 2 | All Maps","name_short":"syd-2","host":"syd-1.au.uncletopia.com","port":27025,"enabled":true,"region":"au","cc":"au","latitude":-33.865143,"longitude":151.2099,"reserved":0,"last_update":"0001-01-01T00:00:00Z","name_a2s":"Uncletopia | Sydney | 2 | All Maps","protocol":17,"map":"pl_pier","folder":"tf","game":"Team Fortress","app_id":440,"player_count":0,"max_players":24,"Bots":0,"server_type":"Dedicated","server_os":"Linux","password":true,"vac":true,"version":"7742253","steam_id":85568392924470002,"keywords":["nocrits","nodmgspread","payload","uncletopia"],"game_id":440,"stv_port":27026,"stv_name":"Uncletopia | Sydney | 2 | All Maps | STV","players":null},{"server_id":395,"name":"Uncletopia | Sydney | 3 | All Maps","name_short":"syd-3","host":"syd-1.au.uncletopia.com","port":27035,"enabled":true,"region":"au","cc":"au","latitude":-33.865143,"longitude":151.2099,"reserved":0,"last_update":"0001-01-01T00:00:00Z","name_a2s":"Uncletopia | Sydney | 3 | All Maps","protocol":17,"map":"cp_dustbowl","folder":"tf","game":"Team Fortress","app_id":440,"player_count":0,"max_players":24,"Bots":0,"server_type":"Dedicated","server_os":"Linux","password":true,"vac":true,"version":"7742253","steam_id":85568392925194467,"keywords":["cp","nocrits","nodmgspread","uncletopia"],"game_id":440,"stv_port":27036,"stv_name":"Uncletopia | Sydney | 3 | All Maps | STV","players":null},{"server_id":396,"name":"Uncletopia | Sydney | 4 | All Maps","name_short":"syd-4","host":"syd-1.au.uncletopia.com","port":27045,"enabled":true,"region":"au","cc":"au","latitude":-33.865143,"longitude":151.2099,"reserved":0,"last_update":"0001-01-01T00:00:00Z","name_a2s":"Uncletopia | Sydney | 4 | All Maps","protocol":17,"map":"pl_upward","folder":"tf","game":"Team Fortress","app_id":440,"player_count":9,"max_players":24,"Bots":0,"server_type":"Dedicated","server_os":"Linux","password":true,"vac":true,"version":"7742253","steam_id":85568392925397958,"keywords":["nocrits","nodmgspread","payload","uncletopia"],"game_id":440,"stv_port":27046,"stv_name":"Uncletopia | Sydney | 4 | All Maps | STV","players":[{"user_id":100,"name":"Skrittle?","steam_id":76561198084269658,"connected_time":1059000000000,"state":"active","ping":250},{"user_id":101,"name":"cement truck #1","steam_id":76561199214614229,"connected_time":1052000000000,"state":"active","ping":250},{"user_id":102,"name":"El Chupacabra","steam_id":76561198070641651,"connected_time":912000000000,"state":"active","ping":45},{"user_id":103,"name":"ericacummins","steam_id":76561198946280912,"connected_time":846000000000,"state":"active","ping":93},{"user_id":104,"name":"164KiloBytes","steam_id":76561198889481715,"connected_time":723000000000,"state":"active","ping":74},{"user_id":105,"name":"WindowOrange","steam_id":76561198994382802,"connected_time":307000000000,"state":"active","ping":44},{"user_id":107,"name":"jfan","steam_id":76561199111421716,"connected_time":108000000000,"state":"active","ping":124},{"user_id":108,"name":"P'pot","steam_id":76561198117278590,"connected_time":98000000000,"state":"active","ping":36},{"user_id":109,"name":"i need psychiatric help","steam_id":76561199089531604,"connected_time":93000000000,"state":"active","ping":52}]},{"server_id":58,"name":"Uncletopia | Sydney | 5 | Stopwatch Beta","name_short":"syd-5","host":"syd-1.au.uncletopia.com","port":27055,"enabled":true,"region":"au","cc":"au","latitude":-33.865143,"longitude":151.2099,"reserved":0,"last_update":"0001-01-01T00:00:00Z","name_a2s":"Uncletopia | Sydney | 5 | Stopwatch Beta","protocol":17,"map":"workshop/koth_ashville_final.ugc2130459942","folder":"tf","game":"Team Fortress","app_id":440,"player_count":0,"max_players":24,"Bots":0,"server_type":"Dedicated","server_os":"Linux","password":true,"vac":true,"version":"7742253","steam_id":85568392925397959,"keywords":["cp","nocrits","nodmgspread","uncletopia"],"game_id":440,"stv_port":27056,"stv_name":"Uncletopia | Sydney | 5 | Stopwatch Beta | STV","players":null},{"server_id":59,"name":"Uncletopia | Sydney | 6 | Community","name_short":"syd-6","host":"syd-1.au.uncletopia.com","port":27065,"enabled":true,"region":"au","cc":"au","latitude":-33.865143,"longitude":151.2099,"reserved":0,"last_update":"0001-01-01T00:00:00Z","name_a2s":"Uncletopia | Sydney | 6 | Community","protocol":17,"map":"workshop/pl_fifthcurve_rc1.ugc648227046","folder":"tf","game":"Team Fortress","app_id":440,"player_count":0,"max_players":24,"Bots":0,"server_type":"Dedicated","server_os":"Linux","password":true,"vac":true,"version":"7742253","steam_id":85568392925397960,"keywords":["nocrits","nodmgspread","payload","uncletopia"],"game_id":440,"stv_port":27066,"stv_name":"Uncletopia | Sydney | 6 | Community | STV","players":null},{"server_id":49,"name":"Uncletopia | Warsaw | 1 | All Maps","name_short":"waw-1","host":"waw-1.pl.uncletopia.com","port":27015,"enabled":true,"region":"eu","cc":"pl","latitude":52.2297,"longitude":21.017532,"reserved":0,"last_update":"0001-01-01T00:00:00Z","name_a2s":"Uncletopia | Warsaw | 1 | All Maps","protocol":17,"map":"koth_lakeside_final","folder":"tf","game":"Team Fortress","app_id":440,"player_count":0,"max_players":24,"Bots":0,"server_type":"Dedicated","server_os":"Linux","password":true,"vac":true,"version":"7723704","steam_id":85568392925397850,"keywords":["cp","nocrits","nodmgspread","uncletopia"],"game_id":440,"stv_port":27016,"stv_name":"Uncletopia | Warsaw | 1 | All Maps | STV","players":null},{"server_id":50,"name":"Uncletopia | Warsaw | 2 | All Maps","name_short":"waw-2","host":"waw-1.pl.uncletopia.com","port":27025,"enabled":true,"region":"eu","cc":"pl","latitude":52.2297,"longitude":21.017532,"reserved":0,"last_update":"0001-01-01T00:00:00Z","name_a2s":"Uncletopia | Warsaw | 2 | All Maps","protocol":17,"map":"koth_highpass","folder":"tf","game":"Team Fortress","app_id":440,"player_count":0,"max_players":24,"Bots":0,"server_type":"Dedicated","server_os":"Linux","password":true,"vac":true,"version":"7742253","steam_id":85568392925397851,"keywords":["cp","nocrits","nodmgspread","uncletopia"],"game_id":440,"stv_port":27026,"stv_name":"Uncletopia | Warsaw | 2 | All Maps | STV","players":null},{"server_id":51,"name":"Uncletopia | Warsaw | 3 | All Maps","name_short":"waw-3","host":"waw-1.pl.uncletopia.com","port":27035,"enabled":true,"region":"eu","cc":"pl","latitude":52.2297,"longitude":21.017532,"reserved":0,"last_update":"0001-01-01T00:00:00Z","name_a2s":"Uncletopia | Warsaw | 3 | All Maps","protocol":17,"map":"koth_cascade","folder":"tf","game":"Team Fortress","app_id":440,"player_count":0,"max_players":24,"Bots":0,"server_type":"Dedicated","server_os":"Linux","password":true,"vac":true,"version":"7742253","steam_id":85568392925397852,"keywords":["cp","nocrits","nodmgspread","uncletopia"],"game_id":440,"stv_port":27036,"stv_name":"Uncletopia | Warsaw | 3 | All Maps | STV","players":null},{"server_id":52,"name":"Uncletopia | Warsaw | 4 | All Maps","name_short":"waw-4","host":"waw-1.pl.uncletopia.com","port":27045,"enabled":true,"region":"eu","cc":"pl","latitude":52.2297,"longitude":21.017532,"reserved":0,"last_update":"0001-01-01T00:00:00Z","name_a2s":"Uncletopia | Warsaw | 4 | All Maps","protocol":17,"map":"pl_swiftwater_final1","folder":"tf","game":"Team Fortress","app_id":440,"player_count":0,"max_players":24,"Bots":0,"server_type":"Dedicated","server_os":"Linux","password":true,"vac":true,"version":"7742253","steam_id":85568392925397853,"keywords":["nocrits","nodmgspread","payload","uncletopia"],"game_id":440,"stv_port":27046,"stv_name":"Uncletopia | Warsaw | 4 | All Maps | STV","players":null},{"server_id":53,"name":"Uncletopia | Warsaw | 5 | Stopwatch Beta","name_short":"waw-5","host":"waw-1.pl.uncletopia.com","port":27055,"enabled":true,"region":"eu","cc":"pl","latitude":52.2297,"longitude":21.017532,"reserved":0,"last_update":"0001-01-01T00:00:00Z","name_a2s":"Uncletopia | Warsaw | 5 | Stopwatch Beta","protocol":17,"map":"pl_pier","folder":"tf","game":"Team Fortress","app_id":440,"player_count":0,"max_players":24,"Bots":0,"server_type":"Dedicated","server_os":"Linux","password":true,"vac":true,"version":"7742253","steam_id":85568392925397854,"keywords":["nocrits","nodmgspread","payload","uncletopia"],"game_id":440,"stv_port":27056,"stv_name":"Uncletopia | Warsaw | 5 | Stopwatch Beta | STV","players":null},{"server_id":54,"name":"Uncletopia | Warsaw | 6 | Community","name_short":"waw-6","host":"waw-1.pl.uncletopia.com","port":27065,"enabled":true,"region":"eu","cc":"pl","latitude":52.2297,"longitude":21.017532,"reserved":0,"last_update":"0001-01-01T00:00:00Z","name_a2s":"Uncletopia | Warsaw | 6 | Community","protocol":17,"map":"workshop/pl_cactuscanyon_redux_rc4b.ugc2579644293","folder":"tf","game":"Team Fortress","app_id":440,"player_count":0,"max_players":24,"Bots":0,"server_type":"Dedicated","server_os":"Linux","password":true,"vac":true,"version":"7742253","steam_id":85568392925397856,"keywords":["nocrits","nodmgspread","payload","uncletopia"],"game_id":440,"stv_port":27066,"stv_name":"Uncletopia | Warsaw | 6 | Community | STV","players":null}]}