{"status":true,"message":"","result":[{"server_id":9,"name":"Uncletopia | Atlanta | 1 | All Maps","name_short":"atl-1","host":"atl-1.us.uncletopia.com","port":27015,"enabled":true,"region":"us-east","cc":"us","latitude":33.753746,"longitude":-84.38633,"reserved":0,"last_update":"0001-01-01T00:00:00Z","name_a2s":"Uncletopia | Atlanta | 1 | All Maps","protocol":17,"map":"pl_barnblitz","folder":"tf","game":"Team Fortress","app_id":440,"player_count":24,"max_players":24,"Bots":0,"server_type":"Dedicated","server_os":"Linux","password":true,"vac":true,"version":"7961495","steam_id":85568392924469982,"keywords":["nocrits","nodmgspread","payload","uncletopia"],"game_id":440,"stv_port":27016,"stv_name":"Uncletopia | Atlanta | 1 | All Maps | STV","players":[{"user_id":407,"name":"asscastle 2","steam_id":76561198097330521,"connected_time":1357000000000,"state":"active","ping":170},{"user_id":404,"name":"bingus cheese","steam_id":76561198069010944,"connected_time":1390000000000,"state":"active","ping":85},{"user_id":330,"name":"Albino Jellyfish","steam_id":76561198208561097,"connected_time":2929000000000,"state":"active","ping":57},{"user_id":428,"name":"lil hog","steam_id":76561199230929836,"connected_time":521000000000,"state":"active","ping":88},{"user_id":292,"name":"a b o m","steam_id":76561198167974713,"connected_time":3701000000000,"state":"active","ping":59},{"user_id":429,"name":"‚ô• catra dummy ‚ô•","steam_id":76561198080909140,"connected_time":506000000000,"state":"active","ping":78},{"user_id":425,"name":"Kiss Master","steam_id":76561198289572271,"connected_time":720000000000,"state":"active","ping":57},{"user_id":438,"name":"Shooter of Walls","steam_id":76561197988105207,"connected_time":113000000000,"state":"active","ping":73},{"user_id":430,"name":"Pango","steam_id":76561198069811545,"connected_time":468000000000,"state":"active","ping":65},{"user_id":371,"name":"TheGingerOne","steam_id":76561198354203847,"connected_time":2080000000000,"state":"active","ping":88},{"user_id":427,"name":"SnazzyCelestial","steam_id":76561198328763813,"connected_time":579000000000,"state":"active","ping":71},{"user_id":439,"name":"Ok-Par","steam_id":76561199221067945,"connected_time":72000000000,"state":"active","ping":72},{"user_id":416,"name":"yomo","steam_id":76561198063175935,"connected_time":1047000000000,"state":"active","ping":61},{"user_id":411,"name":"Insert_User_","steam_id":76561199229663997,"connected_time":1203000000000,"state":"active","ping":90},{"user_id":409,"name":"LOVEDRAGON","steam_id":76561198089908485,"connected_time":1305000000000,"state":"active","ping":73},{"user_id":432,"name":"Speed Spell IV","steam_id":76561198298364415,"connected_time":461000000000,"state":"active","ping":102},{"user_id":289,"name":"Waffle Wannabe","steam_id":76561198064510650,"connected_time":3751000000000,"state":"active","ping":66},{"user_id":433,"name":"jazztree14","steam_id":76561199239395356,"connected_time":422000000000,"state":"active","ping":89},{"user_id":395,"name":"big steve","steam_id":76561199037050183,"connected_time":1523000000000,"state":"active","ping":83},{"user_id":201,"name":"BLOW UP NEW JERSEY","steam_id":76561198364439575,"connected_time":8122000000000,"state":"active","ping":68},{"user_id":434,"name":"BOO BOO KEYS","steam_id":76561198085815757,"connected_time":389000000000,"state":"active","ping":80},{"user_id":435,"name":"Nightman","steam_id":76561198089513762,"connected_time":377000000000,"state":"active","ping":101},{"user_id":437,"name":"beacchi","steam_id":76561198372506875,"connected_time":198000000000,"state":"active","ping":166},{"user_id":282,"name":"loser","steam_id":76561198259380127,"connected_time":3870000000000,"state":"active","ping":76}]},{"server_id":104,"name":"Uncletopia | Atlanta | 2 | All Maps","name_short":"atl-2","host":"atl-1.us.uncletopia.com","port":27025,"enabled":true,"region":"us-east","cc":"us","latitude":33.753746,"longitude":-84.38633,"reserved":0,"last_update":"0001-01-01T00:00:00Z","name_a2s":"Uncletopia | Atlanta | 2 | All Maps","protocol":17,"map":"cp_sunshine","folder":"tf","game":"Team Fortress","app_id":440,"player_count":24,"max_players":24,"Bots":0,"server_type":"Dedicated","server_os":"Linux","password":true,"vac":true,"version":"7961495","steam_id":85568392924469983,"keywords":["cp","nocrits","nodmgspread","uncletopia"],"game_id":440,"stv_port":27026,"stv_name":"Uncletopia | Atlanta | 2 | All Maps | STV","players":[{"user_id":10,"name":"The Dead Weight","steam_id":76561198056694098,"connected_time":14391000000000,"state":"active","ping":51},{"user_id":169,"name":"Gungus Dingaling","steam_id":76561198018270898,"connected_time":899000000000,"state":"active","ping":73},{"user_id":128,"name":"Naffty","steam_id":76561198119734981,"connected_time":4191000000000,"state":"active","ping":72},{"user_id":181,"name":"some ants shaped like a moron","steam_id":76561199100849880,"connected_time":274000000000,"state":"active","ping":102},{"user_id":172,"name":"Donnie","steam_id":76561198837857545,"connected_time":745000000000,"state":"active","ping":149},{"user_id":101,"name":"James","steam_id":76561198081313916,"connected_time":6676000000000,"state":"active","ping":56},{"user_id":149,"name":"roman","steam_id":76561198170066797,"connected_time":2034000000000,"state":"active","ping":47},{"user_id":131,"name":"RedBaron","steam_id":76561198972426107,"connected_time":3827000000000,"state":"active","ping":58},{"user_id":151,"name":"trobin120","steam_id":76561199122420273,"connected_time":2023000000000,"state":"active","ping":61},{"user_id":162,"name":"‚òºBarracuda‚òº","steam_id":76561198013022083,"connected_time":1575000000000,"state":"active","ping":75},{"user_id":170,"name":"Dakota","steam_id":76561198134092308,"connected_time":862000000000,"state":"active","ping":86},{"user_id":168,"name":"RogerSMT","steam_id":76561198389581513,"connected_time":921000000000,"state":"active","ping":78},{"user_id":141,"name":"metalfan666","steam_id":76561198386344068,"connected_time":3228000000000,"state":"active","ping":66},{"user_id":167,"name":"TheLonliestThelonius","steam_id":76561198097657243,"connected_time":938000000000,"state":"active","ping":113},{"user_id":159,"name":"[F2P] Garbage tf2 player","steam_id":76561199257316028,"connected_time":1807000000000,"state":"active","ping":76},{"user_id":171,"name":"That","steam_id":76561198040430632,"connected_time":817000000000,"state":"active","ping":67},{"user_id":183,"name":"rthrtsdfgrtdxcv","steam_id":76561198143132686,"connected_time":229000000000,"state":"active","ping":103},{"user_id":174,"name":"Kafka Stan","steam_id":76561198127039453,"connected_time":632000000000,"state":"active","ping":102},{"user_id":182,"name":"confield","steam_id":76561198004322265,"connected_time":256000000000,"state":"active","ping":54},{"user_id":184,"name":"Stevelonk","steam_id":76561198088224665,"connected_time":227000000000,"state":"active","ping":68},{"user_id":185,"name":"Unwavering Flavor","steam_id":76561198053306065,"connected_time":218000000000,"state":"active","ping":83},{"user_id":155,"name":"Dinosaur","steam_id":76561199079626189,"connected_time":1980000000000,"state":"active","ping":56},{"user_id":160,"name":"the pizza","steam_id":76561198221331476,"connected_time":1647000000000,"state":"active","ping":93},{"user_id":186,"name":"Rockgraham101","steam_id":76561198171740458,"connected_time":188000000000,"state":"active","ping":55}]},{"server_id":400,"name":"Uncletopia | Atlanta | 3 | Stopwatch","name_short":"atl-3","host":"atl-1.us.uncletopia.com","port":27035,"enabled":true,"region":"us-east","cc":"us","latitude":33.753746,"longitude":-84.38633,"reserved":0,"last_update":"0001-01-01T00:00:00Z","name_a2s":"Uncletopia | Atlanta | 3 | Stopwatch","protocol":17,"map":"workshop/koth_product_final.ugc454272353","folder":"tf","game":"Team Fortress","app_id":440,"player_count":0,"max_players":24,"Bots":0,"server_type":"Dedicated","server_os":"Linux","password":true,"vac":true,"version":"7961495","steam_id":85568392924515187,"keywords":["cp","nocrits","nodmgspread","uncletopia"],"game_id":440,"stv_port":27036,"stv_name":"Uncletopia | Atlanta | 3 | Stopwatch | STV","players":null},{"server_id":401,"name":"Uncletopia | Atlanta | 4 | Community","name_short":"atl-4","host":"atl-1.us.uncletopia.com","port":27045,"enabled":true,"region":"us-east","cc":"us","latitude":33.753746,"longitude":-84.38633,"reserved":0,"last_update":"0001-01-01T00:00:00Z","name_a2s":"Uncletopia | Atlanta | 4 | Community","protocol":17,"map":"workshop/pl_emerge_rc2.ugc888027758","folder":"tf","game":"Team Fortress","app_id":440,"player_count":0,"max_players":24,"Bots":0,"server_type":"Dedicated","server_os":"Linux","password":true,"vac":true,"version":"7961495","steam_id":85568392924515188,"keywords":["nocrits","nodmgspread","payload","uncletopia"],"game_id":440,"stv_port":27046,"stv_name":"Uncletopia | Atlanta | 4 | Community | STV","players":null},{"server_id":2,"name":"Uncletopia | Chicago | 1 | All Maps","name_short":"chi-1","host":"chi-1.us.uncletopia.com","port":27015,"enabled":true,"region":"us-central","cc":"us","latitude":41.881832,"longitude":-87.62318,"reserved":0,"last_update":"0001-01-01T00:00:00Z","name_a2s":"Uncletopia | Chicago | 1 | All Maps","protocol":17,"map":"pl_rumford_event","folder":"tf","game":"Team Fortress","app_id":440,"player_count":23,"max_players":24,"Bots":0,"server_type":"Dedicated","server_os":"Linux","password":true,"vac":true,"version":"7961495","steam_id":85568392924469984,"keywords":["nocrits","nodmgspread","payload","uncletopia"],"game_id":440,"stv_port":27016,"stv_name":"Uncletopia | Chicago | 1 | All Maps | STV","players":[{"user_id":271,"name":"‡ºò ‚ãÜÀöüéßCaffeine‚òï*Àñ¬∞","steam_id":76561199259309294,"connected_time":3831000000000,"state":"active","ping":67},{"user_id":326,"name":"Beebo, Son of Beebo","steam_id":76561198055948497,"connected_time":60000000000,"state":"active","ping":53},{"user_id":257,"name":"joyeuxnoelle","steam_id":76561198062423120,"connected_time":5064000000000,"state":"active","ping":74},{"user_id":294,"name":"trash beast","steam_id":76561198015792736,"connected_time":1875000000000,"state":"active","ping":76},{"user_id":289,"name":"Pootis","steam_id":76561198042482648,"connected_time":2308000000000,"state":"active","ping":111},{"user_id":303,"name":"og biden pack cart","steam_id":76561198253731826,"connected_time":1070000000000,"state":"active","ping":63},{"user_id":320,"name":"LavenderSys","steam_id":76561198289106015,"connected_time":522000000000,"state":"active","ping":80},{"user_id":315,"name":"HumFreY","steam_id":76561198076639682,"connected_time":639000000000,"state":"active","ping":69},{"user_id":283,"name":"radical larry","steam_id":76561198172246829,"connected_time":3164000000000,"state":"active","ping":40},{"user_id":316,"name":"teddy bear with human teeth","steam_id":76561198122628769,"connected_time":627000000000,"state":"active","ping":55},{"user_id":311,"name":"CrankShaft","steam_id":76561197970750813,"connected_time":835000000000,"state":"active","ping":60},{"user_id":261,"name":"Black Rose Oncore","steam_id":76561198040489960,"connected_time":4344000000000,"state":"active","ping":70},{"user_id":253,"name":"Joyous Jenny","steam_id":76561198127998866,"connected_time":5482000000000,"state":"active","ping":73},{"user_id":290,"name":"qory","steam_id":76561198152064890,"connected_time":2308000000000,"state":"active","ping":60},{"user_id":215,"name":"oyasumi","steam_id":76561198128614882,"connected_time":9058000000000,"state":"active","ping":77},{"user_id":292,"name":"Mellow Yellow","steam_id":76561198406276981,"connected_time":1908000000000,"state":"active","ping":54},{"user_id":305,"name":"‡∏∏","steam_id":76561198170624701,"connected_time":1050000000000,"state":"active","ping":78},{"user_id":322,"name":"Missing Minus","steam_id":76561198120822928,"connected_time":335000000000,"state":"active","ping":60},{"user_id":318,"name":"eotsu666","steam_id":76561199180399756,"connected_time":590000000000,"state":"active","ping":95},{"user_id":299,"name":"AstraAegis","steam_id":76561198291319035,"connected_time":1624000000000,"state":"active","ping":100},{"user_id":302,"name":"beesechurger‚Ñ¢","steam_id":76561198867219032,"connected_time":1360000000000,"state":"active","ping":53},{"user_id":313,"name":"üöΩKorfJobüöΩ","steam_id":76561198212932833,"connected_time":758000000000,"state":"active","ping":186},{"user_id":319,"name":"SoupTime","steam_id":76561198872501581,"connected_time":589000000000,"state":"active","ping":99}]},{"server_id":106,"name":"Uncletopia | Chicago | 2 | All Maps","name_short":"chi-2","host":"chi-1.us.uncletopia.com","port":27025,"enabled":true,"region":"us-central","cc":"us","latitude":41.881832,"longitude":-87.62318,"reserved":0,"last_update":"0001-01-01T00:00:00Z","name_a2s":"Uncletopia | Chicago | 2 | All Maps","protocol":17,"map":"pl_badwater","folder":"tf","game":"Team Fortress","app_id":440,"player_count":0,"max_players":24,"Bots":0,"server_type":"Dedicated","server_os":"Linux","password":true,"vac":true,"version":"7961495","steam_id":85568392924469985,"keywords":["nocrits","nodmgspread","payload","uncletopia"],"game_id":440,"stv_port":27026,"stv_name":"Uncletopia | Chicago | 2 | All Maps | STV","players":null},{"server_id":402,"name":"Uncletopia | Chicago | 3 | All Maps","name_short":"chi-3","host":"chi-1.us.uncletopia.com","port":27035,"enabled":true,"region":"us-central","cc":"us","latitude":41.881832,"longitude":-87.62318,"reserved":0,"last_update":"0001-01-01T00:00:00Z","name_a2s":"Uncletopia | Chicago | 3 | All Maps","protocol":17,"map":"koth_king","folder":"tf","game":"Team Fortress","app_id":440,"player_count":24,"max_players":24,"Bots":0,"server_type":"Dedicated","server_os":"Linux","password":true,"vac":true,"version":"7961495","steam_id":85568392924515191,"keywords":["cp","nocrits","nodmgspread","uncletopia"],"game_id":440,"stv_port":27036,"stv_name":"Uncletopia | Chicago | 3 | All Maps | STV","players":[{"user_id":175,"name":"Word To Your Mothership","steam_id":76561198034329138,"connected_time":78000000000,"state":"active","ping":94},{"user_id":154,"name":"beta central","steam_id":76561198301876831,"connected_time":1048000000000,"state":"active","ping":60},{"user_id":171,"name":"tooth","steam_id":76561197986437643,"connected_time":253000000000,"state":"active","ping":60},{"user_id":167,"name":"Wraith1312","steam_id":76561198075771749,"connected_time":355000000000,"state":"active","ping":66},{"user_id":116,"name":"Hashmere","steam_id":76561198002797253,"connected_time":3291000000000,"state":"active","ping":85},{"user_id":109,"name":"the_J_d0c","steam_id":76561198977851944,"connected_time":3364000000000,"state":"active","ping":62},{"user_id":176,"name":"two sentient corn cobs kissing","steam_id":76561198238842076,"connected_time":63000000000,"state":"spawning","ping":84},{"user_id":166,"name":"Eiss","steam_id":76561198343183806,"connected_time":373000000000,"state":"active","ping":75},{"user_id":141,"name":"Ninjoth","steam_id":76561198038611753,"connected_time":1653000000000,"state":"active","ping":83},{"user_id":156,"name":"gerf.","steam_id":76561198811706201,"connected_time":649000000000,"state":"active","ping":60},{"user_id":104,"name":"Lord Cutler Beckett","steam_id":76561198091356047,"connected_time":3952000000000,"state":"active","ping":51},{"user_id":142,"name":"hyazzz","steam_id":76561199100342013,"connected_time":1582000000000,"state":"active","ping":90},{"user_id":101,"name":"[NAME-REDACTED]","steam_id":76561198035682975,"connected_time":4091000000000,"state":"active","ping":72},{"user_id":159,"name":"Blaze","steam_id":76561198043797702,"connected_time":545000000000,"state":"active","ping":69},{"user_id":177,"name":"thursday","steam_id":76561198958620112,"connected_time":31000000000,"state":"active","ping":84},{"user_id":178,"name":"Class-D","steam_id":76561198016290546,"connected_time":22000000000,"state":"active","ping":84},{"user_id":163,"name":"-cc- cannanza * \u003c3 teafy","steam_id":76561198103496593,"connected_time":451000000000,"state":"active","ping":61},{"user_id":164,"name":"pipikopf","steam_id":76561198064196489,"connected_time":423000000000,"state":"active","ping":87},{"user_id":172,"name":"MMAD","steam_id":76561198026446420,"connected_time":220000000000,"state":"active","ping":78},{"user_id":138,"name":"la goblina","steam_id":76561198094225038,"connected_time":1736000000000,"state":"active","ping":50},{"user_id":145,"name":"1-800-GHOST-DANCE","steam_id":76561198835430429,"connected_time":1549000000000,"state":"active","ping":83},{"user_id":132,"name":"what the freak","steam_id":76561198080754727,"connected_time":2089000000000,"state":"active","ping":85},{"user_id":152,"name":"TheGrassMan (He/Him)","steam_id":76561198118984048,"connected_time":1150000000000,"state":"active","ping":66},{"user_id":147,"name":"Torensz64(But weezer)","steam_id":76561198239036482,"connected_time":1474000000000,"state":"active","ping":51}]},{"server_id":403,"name":"Uncletopia | Chicago | 4 | All Maps","name_short":"chi-4","host":"chi-1.us.uncletopia.com","port":27045,"enabled":true,"region":"us-central","cc":"us","latitude":41.881832,"longitude":-87.62318,"reserved":0,"last_update":"0001-01-01T00:00:00Z","name_a2s":"Uncletopia | Chicago | 4 | All Maps","protocol":17,"map":"cp_sunshine","folder":"tf","game":"Team Fortress","app_id":440,"player_count":19,"max_players":24,"Bots":0,"server_type":"Dedicated","server_os":"Linux","password":true,"vac":true,"version":"7961495","steam_id":85568392924515193,"keywords":["cp","nocrits","nodmgspread","uncletopia"],"game_id":440,"stv_port":27046,"stv_name":"Uncletopia | Chicago | 4 | All Maps | STV","players":[{"user_id":268,"name":"Billosky Time Lord","steam_id":76561199159626560,"connected_time":1866000000000,"state":"active","ping":157},{"user_id":243,"name":"Sunshine","steam_id":76561198885528098,"connected_time":3202000000000,"state":"active","ping":64},{"user_id":275,"name":"floppy muppet","steam_id":76561198003076261,"connected_time":252000000000,"state":"active","ping":76},{"user_id":262,"name":"Jtod3","steam_id":76561198012274782,"connected_time":2258000000000,"state":"active","ping":65},{"user_id":276,"name":"303","steam_id":76561199052840531,"connected_time":238000000000,"state":"active","ping":60},{"user_id":274,"name":"roast pig with apple in mouth","steam_id":76561198051353647,"connected_time":953000000000,"state":"active","ping":61},{"user_id":277,"name":"DagyDin","steam_id":76561199212257554,"connected_time":165000000000,"state":"active","ping":61},{"user_id":267,"name":"Mojave Mo'Problem","steam_id":76561198021706593,"connected_time":1948000000000,"state":"active","ping":76},{"user_id":282,"name":"Kuwait Grips","steam_id":76561198292689973,"connected_time":72000000000,"state":"active","ping":45},{"user_id":249,"name":"Bond","steam_id":76561198089262776,"connected_time":2938000000000,"state":"active","ping":76},{"user_id":279,"name":"(√î)√î)Wandering Singer(√î(√î)","steam_id":76561198126477141,"connected_time":144000000000,"state":"active","ping":70},{"user_id":280,"name":"EpochSpruce","steam_id":76561198067653839,"connected_time":135000000000,"state":"active","ping":69},{"user_id":271,"name":"Yam Jazzy Jim","steam_id":76561198000788950,"connected_time":1255000000000,"state":"active","ping":69},{"user_id":237,"name":"Jamal27 -iwnl-","steam_id":76561198068654532,"connected_time":3541000000000,"state":"active","ping":74},{"user_id":263,"name":"Big Black Dawg","steam_id":76561198050136796,"connected_time":2251000000000,"state":"active","ping":84},{"user_id":281,"name":"b√ºddeh","steam_id":76561198070735936,"connected_time":106000000000,"state":"active","ping":59},{"user_id":283,"name":"jello_hey","steam_id":76561199176327650,"connected_time":68000000000,"state":"active","ping":68},{"user_id":270,"name":"bdkaine1","steam_id":76561198133545467,"connected_time":1351000000000,"state":"active","ping":64},{"user_id":264,"name":"OHGODBEES!","steam_id":76561198000653374,"connected_time":2242000000000,"state":"active","ping":129}]},{"server_id":36,"name":"Uncletopia | Chicago | 5 | All Maps","name_short":"chi-5","host":"chi-2.us.uncletopia.com","port":27015,"enabled":true,"region":"us-central","cc":"us","latitude":41.881832,"longitude":-87.62318,"reserved":0,"last_update":"0001-01-01T00:00:00Z","name_a2s":"Uncletopia | Chicago | 5 | All Maps","protocol":17,"map":"koth_viaduct","folder":"tf","game":"Team Fortress","app_id":440,"player_count":1,"max_players":24,"Bots":0,"server_type":"Dedicated","server_os":"Linux","password":true,"vac":true,"version":"7961495","steam_id":85568392924866362,"keywords":["cp","nocrits","nodmgspread","uncletopia"],"game_id":440,"stv_port":27016,"stv_name":"Uncletopia | Chicago | 5 | All Maps | STV","players":[{"user_id":23,"name":"Derpkinglol456","steam_id":76561199124719679,"connected_time":5000000000,"state":"spawning","ping":72}]},{"server_id":37,"name":"Uncletopia | Chicago | 6 | All Maps","name_short":"chi-6","host":"chi-2.us.uncletopia.com","port":27025,"enabled":true,"region":"us-central","cc":"us","latitude":41.881832,"longitude":-87.62318,"reserved":0,"last_update":"0001-01-01T00:00:00Z","name_a2s":"Uncletopia | Chicago | 6 | All Maps","protocol":17,"map":"pl_barnblitz","folder":"tf","game":"Team Fortress","app_id":440,"player_count":16,"max_players":24,"Bots":0,"server_type":"Dedicated","server_os":"Linux","password":true,"vac":true,"version":"7961495","steam_id":85568392924866363,"keywords":["nocrits","nodmgspread","payload","uncletopia"],"game_id":440,"stv_port":27026,"stv_name":"Uncletopia | Chicago | 6 | All Maps | STV","players":[{"user_id":124,"name":"OddSlaush","steam_id":76561198043898488,"connected_time":187000000000,"state":"active","ping":100},{"user_id":122,"name":"Coms","steam_id":76561198204995668,"connected_time":333000000000,"state":"active","ping":86},{"user_id":123,"name":"I Can't Dance","steam_id":76561198212377560,"connected_time":233000000000,"state":"active","ping":56},{"user_id":101,"name":"_GOOSE","steam_id":76561198013747901,"connected_time":1207000000000,"state":"active","ping":63},{"user_id":84,"name":"Knuckles","steam_id":76561198000704259,"connected_time":1717000000000,"state":"active","ping":50},{"user_id":127,"name":"‚úßÔΩ•Ôæühooligan!!","steam_id":76561198874149130,"connected_time":106000000000,"state":"active","ping":67},{"user_id":125,"name":"dunk lft","steam_id":76561198066114874,"connected_time":177000000000,"state":"active","ping":106},{"user_id":126,"name":"U œâ U","steam_id":76561198118802562,"connected_time":155000000000,"state":"active","ping":115},{"user_id":128,"name":"wafflehamster2000","steam_id":76561198849161820,"connected_time":104000000000,"state":"active","ping":77},{"user_id":129,"name":"Richard Nixon Gaming","steam_id":76561199351608381,"connected_time":35000000000,"state":"active","ping":79},{"user_id":114,"name":"The Russian Aristocrat","steam_id":76561198136982572,"connected_time":692000000000,"state":"active","ping":100},{"user_id":95,"name":"H0wlr","steam_id":76561198012332824,"connected_time":1399000000000,"state":"active","ping":54},{"user_id":61,"name":"mkl","steam_id":76561197986401685,"connected_time":3545000000000,"state":"active","ping":75},{"user_id":82,"name":"googa","steam_id":76561198133130452,"connected_time":1766000000000,"state":"active","ping":61},{"user_id":86,"name":"Windows Vista Home Premium","steam_id":76561198043764863,"connected_time":1575000000000,"state":"active","ping":95},{"user_id":109,"name":"‚ôÇ I R O N ‚ôÇ M I K E ‚ôÇ","steam_id":76561199405378993,"connected_time":955000000000,"state":"active","ping":60}]},{"server_id":38,"name":"Uncletopia | Chicago | 7 | Stopwatch","name_short":"chi-7","host":"chi-2.us.uncletopia.com","port":27035,"enabled":true,"region":"us-central","cc":"us","latitude":41.881832,"longitude":-87.62318,"reserved":0,"last_update":"0001-01-01T00:00:00Z","name_a2s":"Uncletopia | Chicago | 7 | Stopwatch","protocol":17,"map":"pl_badwater","folder":"tf","game":"Team Fortress","app_id":440,"player_count":0,"max_players":24,"Bots":0,"server_type":"Dedicated","server_os":"Linux","password":true,"vac":true,"version":"7961495","steam_id":85568392924866364,"keywords":["nocrits","nodmgspread","payload","uncletopia"],"game_id":440,"stv_port":27036,"stv_name":"Uncletopia | Chicago | 7 | Stopwatch | STV","players":null},{"server_id":39,"name":"Uncletopia | Chicago | 8 | Community","name_short":"chi-8","host":"chi-2.us.uncletopia.com","port":27045,"enabled":true,"region":"us-central","cc":"us","latitude":41.881832,"longitude":-87.62318,"reserved":0,"last_update":"0001-01-01T00:00:00Z","name_a2s":"Uncletopia | Chicago | 8 | Community","protocol":17,"map":"workshop/pl_cashworks_final1.ugc2904065412","folder":"tf","game":"Team Fortress","app_id":440,"player_count":0,"max_players":24,"Bots":0,"server_type":"Dedicated","server_os":"Linux","password":true,"vac":true,"version":"7961495","steam_id":85568392924866365,"keywords":["nocrits","nodmgspread","payload","uncletopia"],"game_id":440,"stv_port":27046,"stv_name":"Uncletopia | Chicago | 8 | Community | STV","players":null},{"server_id":8,"name":"Uncletopia | Dallas | 1 | All Maps","name_short":"dal-1","host":"dal-1.us.uncletopia.com","port":27015,"enabled":true,"region":"us-central","cc":"us","latitude":32.779167,"longitude":-96.80889,"reserved":0,"last_update":"0001-01-01T00:00:00Z","name_a2s":"Uncletopia | Dallas | 1 | All Maps","protocol":17,"map":"pl_swiftwater_final1","folder":"tf","game":"Team Fortress","app_id":440,"player_count":20,"max_players":24,"Bots":0,"server_type":"Dedicated","server_os":"Linux","password":true,"vac":true,"version":"7961495","steam_id":85568392924469986,"keywords":["nocrits","nodmgspread","payload","uncletopia"],"game_id":440,"stv_port":27016,"stv_name":"Uncletopia | Dallas | 1 | All Maps | STV","players":[{"user_id":69,"name":"Dragon Mommy from Caelid","steam_id":76561198338424715,"connected_time":1011000000000,"state":"active","ping":85},{"user_id":79,"name":"Thunder","steam_id":76561198097721532,"connected_time":75000000000,"state":"active","ping":77},{"user_id":13,"name":"FanaticSalt","steam_id":76561199380123059,"connected_time":3653000000000,"state":"active","ping":42},{"user_id":57,"name":"Coffeemelon","steam_id":76561198285891257,"connected_time":1670000000000,"state":"active","ping":107},{"user_id":76,"name":"Dr. No Name","steam_id":76561198058656869,"connected_time":146000000000,"state":"active","ping":93},{"user_id":67,"name":"Neato!","steam_id":76561198043548668,"connected_time":1234000000000,"state":"active","ping":73},{"user_id":30,"name":"jojobinks613","steam_id":76561198841293111,"connected_time":2523000000000,"state":"active","ping":89},{"user_id":18,"name":"sloped wall (fake) [not real]","steam_id":76561198203952392,"connected_time":3233000000000,"state":"active","ping":84},{"user_id":72,"name":"Darling","steam_id":76561198127525888,"connected_time":396000000000,"state":"active","ping":46},{"user_id":26,"name":"Jimmy Cumstains","steam_id":76561198044086931,"connected_time":2672000000000,"state":"active","ping":95},{"user_id":62,"name":"Toasterduds","steam_id":76561198163477584,"connected_time":1556000000000,"state":"active","ping":85},{"user_id":68,"name":"SlurpyTheDog","steam_id":76561198799733154,"connected_time":1230000000000,"state":"active","ping":85},{"user_id":28,"name":"Grassman (Cc)","steam_id":76561198026488532,"connected_time":2638000000000,"state":"active","ping":81},{"user_id":55,"name":"LACTAID","steam_id":76561198276585202,"connected_time":1955000000000,"state":"active","ping":86},{"user_id":74,"name":"limecatcher","steam_id":76561198440239483,"connected_time":247000000000,"state":"active","ping":43},{"user_id":47,"name":"Harufloofer","steam_id":76561199084506827,"connected_time":2251000000000,"state":"active","ping":45},{"user_id":66,"name":"Rat God","steam_id":76561198066161598,"connected_time":1422000000000,"state":"active","ping":85},{"user_id":71,"name":"ThatOnePersonCalledCaine","steam_id":76561198089836391,"connected_time":498000000000,"state":"active","ping":87},{"user_id":65,"name":"Kantamoe","steam_id":76561198046661611,"connected_time":1499000000000,"state":"active","ping":85},{"user_id":73,"name":"Bush, Lord of Vibes","steam_id":76561198345973440,"connected_time":396000000000,"state":"active","ping":74}]},{"server_id":108,"name":"Uncletopia | Dallas | 2 | All Maps","name_short":"dal-2","host":"dal-1.us.uncletopia.com","port":27025,"enabled":true,"region":"us-central","cc":"us","latitude":32.779167,"longitude":-96.80889,"reserved":0,"last_update":"0001-01-01T00:00:00Z","name_a2s":"Uncletopia | Dallas | 2 | All Maps","protocol":17,"map":"pl_frontier_final","folder":"tf","game":"Team Fortress","app_id":440,"player_count":22,"max_players":24,"Bots":0,"server_type":"Dedicated","server_os":"Linux","password":true,"vac":true,"version":"7961495","steam_id":85568392924469988,"keywords":["nocrits","nodmgspread","payload","uncletopia"],"game_id":440,"stv_port":27026,"stv_name":"Uncletopia | Dallas | 2 | All Maps | STV","players":[{"user_id":130,"name":"[‚òØ] randomshagz*","steam_id":76561197968666646,"connected_time":1564000000000,"state":"active","ping":72},{"user_id":87,"name":"Meet The Racist","steam_id":76561198253927199,"connected_time":4131000000000,"state":"active","ping":161},{"user_id":163,"name":"momazos diegos","steam_id":76561199220257695,"connected_time":171000000000,"state":"active","ping":161},{"user_id":150,"name":"STARZ#1400","steam_id":76561198965593434,"connected_time":1191000000000,"state":"active","ping":60},{"user_id":102,"name":"guy","steam_id":76561198196443262,"connected_time":2945000000000,"state":"active","ping":78},{"user_id":161,"name":"Heartgold","steam_id":76561199062592062,"connected_time":255000000000,"state":"active","ping":87},{"user_id":165,"name":"Cactus‚Ñ¢ ‚ô•","steam_id":76561198036441270,"connected_time":91000000000,"state":"active","ping":107},{"user_id":133,"name":"bushy","steam_id":76561198138088830,"connected_time":1524000000000,"state":"active","ping":61},{"user_id":144,"name":"-W3E- grim10465","steam_id":76561198045698581,"connected_time":1400000000000,"state":"active","ping":74},{"user_id":104,"name":"‚õßAlkahestry","steam_id":76561198109641497,"connected_time":2867000000000,"state":"active","ping":78},{"user_id":164,"name":"Yopi","steam_id":76561198004298898,"connected_time":159000000000,"state":"active","ping":91},{"user_id":152,"name":"summerlis","steam_id":76561198165324438,"connected_time":1031000000000,"state":"active","ping":67},{"user_id":153,"name":"Nintenjoe","steam_id":76561198821530178,"connected_time":1023000000000,"state":"active","ping":91},{"user_id":107,"name":"FISH","steam_id":76561198093517274,"connected_time":2826000000000,"state":"active","ping":74},{"user_id":136,"name":"SkadooshPlayz","steam_id":76561198310986662,"connected_time":1491000000000,"state":"active","ping":98},{"user_id":156,"name":"Contract/Acheivement helper","steam_id":76561199230325479,"connected_time":854000000000,"state":"active","ping":86},{"user_id":159,"name":"Koala Bear","steam_id":76561198118025990,"connected_time":532000000000,"state":"active","ping":86},{"user_id":139,"name":"Cassini","steam_id":76561198318526294,"connected_time":1464000000000,"state":"active","ping":60},{"user_id":140,"name":"SolarusD","steam_id":76561198029279861,"connected_time":1464000000000,"state":"active","ping":86},{"user_id":151,"name":"Shadhin","steam_id":76561198119120212,"connected_time":1167000000000,"state":"active","ping":79},{"user_id":158,"name":"CyMeryy","steam_id":76561197984986540,"connected_time":818000000000,"state":"active","ping":55},{"user_id":143,"name":"Eat It Up Worms Hero","steam_id":76561198259956719,"connected_time":1431000000000,"state":"active","ping":72}]},{"server_id":404,"name":"Uncletopia | Dallas | 3 | All Maps","name_short":"dal-3","host":"dal-1.us.uncletopia.com","port":27035,"enabled":true,"region":"us-central","cc":"us","latitude":32.779167,"longitude":-96.80889,"reserved":0,"last_update":"0001-01-01T00:00:00Z","name_a2s":"Uncletopia | Dallas | 3 | All Maps","protocol":17,"map":"koth_nucleus","folder":"tf","game":"Team Fortress","app_id":440,"player_count":12,"max_players":24,"Bots":0,"server_type":"Dedicated","server_os":"Linux","password":true,"vac":true,"version":"7961495","steam_id":85568392924515219,"keywords":["cp","nocrits","nodmgspread","uncletopia"],"game_id":440,"stv_port":27036,"stv_name":"Uncletopia | Dallas | 3 | All Maps | STV","players":[{"user_id":441,"name":"Killer-Of-Night","steam_id":76561198054038830,"connected_time":1185000000000,"state":"active","ping":101},{"user_id":447,"name":"SaaxoM","steam_id":76561198208256603,"connected_time":342000000000,"state":"active","ping":78},{"user_id":437,"name":"Scrappy-Doo has been Drafted","steam_id":76561198292152534,"connected_time":1510000000000,"state":"active","ping":90},{"user_id":440,"name":"flarifier","steam_id":76561198315072848,"connected_time":1402000000000,"state":"active","ping":86},{"user_id":448,"name":"Timmy The Tyrant","steam_id":76561199156409732,"connected_time":303000000000,"state":"active","ping":37},{"user_id":442,"name":"+==[:::::::::::::::::::::::\u003e","steam_id":76561199051212534,"connected_time":912000000000,"state":"active","ping":94},{"user_id":443,"name":"Saliban","steam_id":76561198244521034,"connected_time":810000000000,"state":"active","ping":44},{"user_id":449,"name":"Ockulus","steam_id":76561199069638460,"connected_time":285000000000,"state":"active","ping":79},{"user_id":445,"name":"chickin","steam_id":76561199054804211,"connected_time":758000000000,"state":"active","ping":86},{"user_id":433,"name":"Texas guy","steam_id":76561198082315370,"connected_time":1681000000000,"state":"active","ping":84},{"user_id":450,"name":"Shady Kitty","steam_id":76561198056312200,"connected_time":252000000000,"state":"active","ping":88},{"user_id":404,"name":"Genetic Komodo (He/Him)","steam_id":76561198174806758,"connected_time":4581000000000,"state":"active","ping":39}]},{"server_id":405,"name":"Uncletopia | Dallas | 4 | Community","name_short":"dal-4","host":"dal-1.us.uncletopia.com","port":27045,"enabled":true,"region":"us-central","cc":"us","latitude":32.779167,"longitude":-96.80889,"reserved":0,"last_update":"0001-01-01T00:00:00Z","name_a2s":"Uncletopia | Dallas | 4 | Community","protocol":17,"map":"pl_pier","folder":"tf","game":"Team Fortress","app_id":440,"player_count":0,"max_players":24,"Bots":0,"server_type":"Dedicated","server_os":"Linux","password":true,"vac":true,"version":"7961495","steam_id":85568392924515220,"keywords":["nocrits","nodmgspread","payload","uncletopia"],"game_id":440,"stv_port":27046,"stv_name":"Uncletopia | Dallas | 4 | Community | STV","players":null},{"server_id":5,"name":"Uncletopia | Frankfurt | 1 | All Maps","name_short":"frk-1","host":"frk-1.de.uncletopia.com","port":27015,"enabled":true,"region":"eu","cc":"de","latitude":50.110924,"longitude":8.682127,"reserved":0,"last_update":"0001-01-01T00:00:00Z","name_a2s":"Uncletopia | Frankfurt | 1 | All Maps","protocol":17,"map":"pl_pier","folder":"tf","game":"Team Fortress","app_id":440,"player_count":24,"max_players":24,"Bots":0,"server_type":"Dedicated","server_os":"Linux","password":true,"vac":true,"version":"7961495","steam_id":85568392924469989,"keywords":["nocrits","nodmgspread","payload","uncletopia"],"game_id":440,"stv_port":27016,"stv_name":"Uncletopia | Frankfurt | 1 | All Maps | STV","players":[{"user_id":751,"name":"◊ê◊ë◊ê","steam_id":76561198184360615,"connected_time":252000000000,"state":"active","ping":90},{"user_id":748,"name":"SNEAKY TURTLE","steam_id":76561198172177650,"connected_time":276000000000,"state":"active","ping":75},{"user_id":671,"name":"wes","steam_id":76561198067000117,"connected_time":4462000000000,"state":"active","ping":61},{"user_id":683,"name":"Arsonist","steam_id":76561199087953833,"connected_time":4404000000000,"state":"active","ping":91},{"user_id":732,"name":"LOBZIK","steam_id":76561198114830120,"connected_time":1223000000000,"state":"active","ping":75},{"user_id":746,"name":"r^f nyanezt","steam_id":76561198253734265,"connected_time":333000000000,"state":"active","ping":93},{"user_id":735,"name":"Cream","steam_id":76561198204266952,"connected_time":1169000000000,"state":"active","ping":102},{"user_id":726,"name":"tua and seven","steam_id":76561198034955422,"connected_time":1764000000000,"state":"active","ping":73},{"user_id":696,"name":"r^f shrrrrrrekkkkk","steam_id":76561198347241576,"connected_time":3511000000000,"state":"active","ping":91},{"user_id":675,"name":"nezolif","steam_id":76561198102030382,"connected_time":4452000000000,"state":"active","ping":58},{"user_id":753,"name":"KnugenIV","steam_id":76561198127091993,"connected_time":187000000000,"state":"active","ping":60},{"user_id":677,"name":"Aspartus","steam_id":76561198101385763,"connected_time":4450000000000,"state":"active","ping":44},{"user_id":727,"name":"i look at gay people","steam_id":76561198078032019,"connected_time":1718000000000,"state":"active","ping":89},{"user_id":722,"name":"LiterallyRyanGosling","steam_id":76561199017856691,"connected_time":1847000000000,"state":"active","ping":66},{"user_id":647,"name":"SynthBox3","steam_id":76561199094075745,"connected_time":6664000000000,"state":"active","ping":83},{"user_id":729,"name":"Lemon","steam_id":76561198188535947,"connected_time":1423000000000,"state":"active","ping":84},{"user_id":742,"name":"Tomos160","steam_id":76561198023198826,"connected_time":445000000000,"state":"active","ping":66},{"user_id":755,"name":"LOW SKILL ISSUE","steam_id":76561198001711780,"connected_time":83000000000,"state":"active","ping":80},{"user_id":737,"name":"Snowmotion","steam_id":76561198075022454,"connected_time":1118000000000,"state":"active","ping":62},{"user_id":754,"name":"jjkun786","steam_id":76561199438517484,"connected_time":115000000000,"state":"active","ping":95},{"user_id":749,"name":"else1","steam_id":76561197996558319,"connected_time":271000000000,"state":"active","ping":78},{"user_id":750,"name":"F2P Challenge","steam_id":76561199498773639,"connected_time":260000000000,"state":"active","ping":70},{"user_id":686,"name":"ThatKetos","steam_id":76561198989682540,"connected_time":4383000000000,"state":"active","ping":45},{"user_id":687,"name":"debil boywife","steam_id":76561198160047415,"connected_time":4380000000000,"state":"active","ping":91}]},{"server_id":110,"name":"Uncletopia | Frankfurt | 2 | All Maps","name_short":"frk-2","host":"frk-1.de.uncletopia.com","port":27025,"enabled":true,"region":"eu","cc":"de","latitude":50.110924,"longitude":8.682127,"reserved":0,"last_update":"0001-01-01T00:00:00Z","name_a2s":"Uncletopia | Frankfurt | 2 | All Maps","protocol":17,"map":"pl_upward","folder":"tf","game":"Team Fortress","app_id":440,"player_count":0,"max_players":24,"Bots":0,"server_type":"Dedicated","server_os":"Linux","password":true,"vac":true,"version":"7961495","steam_id":85568392924469990,"keywords":["nocrits","nodmgspread","payload","uncletopia"],"game_id":440,"stv_port":27026,"stv_name":"Uncletopia | Frankfurt | 2 | All Maps | STV","players":null},{"server_id":308,"name":"Uncletopia | Frankfurt | 3 | All Maps","name_short":"frk-3","host":"frk-1.de.uncletopia.com","port":27035,"enabled":true,"region":"eu","cc":"de","latitude":50.110924,"longitude":8.682127,"reserved":0,"last_update":"0001-01-01T00:00:00Z","name_a2s":"Uncletopia | Frankfurt | 3 | All Maps","protocol":17,"map":"pl_frontier_final","folder":"tf","game":"Team Fortress","app_id":440,"player_count":20,"max_players":24,"Bots":0,"server_type":"Dedicated","server_os":"Linux","password":true,"vac":true,"version":"7961495","steam_id":85568392924504274,"keywords":["nocrits","nodmgspread","payload","uncletopia"],"game_id":440,"stv_port":27036,"stv_name":"Uncletopia | Frankfurt | 3 | All Maps | STV","players":[{"user_id":299,"name":"R@DIO","steam_id":76561197995533046,"connected_time":2450000000000,"state":"active","ping":73},{"user_id":315,"name":"POWER","steam_id":76561198073814518,"connected_time":1852000000000,"state":"active","ping":68},{"user_id":306,"name":"Atari Lynx","steam_id":76561198131764464,"connected_time":2264000000000,"state":"active","ping":88},{"user_id":305,"name":"BeefHammer","steam_id":76561198078426223,"connected_time":2278000000000,"state":"active","ping":94},{"user_id":282,"name":"Dr Bondus Bolongus Dongus","steam_id":76561198378657692,"connected_time":3577000000000,"state":"active","ping":58},{"user_id":325,"name":"Futaro","steam_id":76561198084534929,"connected_time":392000000000,"state":"active","ping":60},{"user_id":289,"name":"Swagmaster","steam_id":76561198045828392,"connected_time":2823000000000,"state":"active","ping":57},{"user_id":254,"name":"Skarp","steam_id":76561198034398376,"connected_time":5737000000000,"state":"active","ping":49},{"user_id":300,"name":"post-nuke selfie","steam_id":76561198082502910,"connected_time":2442000000000,"state":"active","ping":49},{"user_id":302,"name":"–ë–µ–ª—è—à-e–±–ª—è—à","steam_id":76561198122946306,"connected_time":2362000000000,"state":"active","ping":75},{"user_id":320,"name":"jovi_","steam_id":76561198449280552,"connected_time":812000000000,"state":"active","ping":55},{"user_id":308,"name":"Vitun vittu","steam_id":76561198110679463,"connected_time":2254000000000,"state":"active","ping":75},{"user_id":309,"name":"sui","steam_id":76561198185348855,"connected_time":2243000000000,"state":"active","ping":74},{"user_id":314,"name":"turbo shart","steam_id":76561198012351808,"connected_time":2157000000000,"state":"active","ping":67},{"user_id":322,"name":"Real (Real)","steam_id":76561198323425034,"connected_time":783000000000,"state":"active","ping":68},{"user_id":323,"name":"Grog the caveman","steam_id":76561199040975062,"connected_time":774000000000,"state":"active","ping":74},{"user_id":319,"name":"Suetolog","steam_id":76561199053090212,"connected_time":1225000000000,"state":"active","ping":46},{"user_id":287,"name":"Gorgeous George","steam_id":76561198144256544,"connected_time":3014000000000,"state":"active","ping":60},{"user_id":267,"name":"Lyncurion","steam_id":76561199260022725,"connected_time":4436000000000,"state":"active","ping":80},{"user_id":318,"name":"Wulpenstein","steam_id":76561198060873866,"connected_time":1721000000000,"state":"active","ping":131}]},{"server_id":309,"name":"Uncletopia | Frankfurt | 4 | All Maps","name_short":"frk-4","host":"frk-1.de.uncletopia.com","port":27045,"enabled":true,"region":"eu","cc":"de","latitude":50.110924,"longitude":8.682127,"reserved":0,"last_update":"0001-01-01T00:00:00Z","name_a2s":"Uncletopia | Frankfurt | 4 | All Maps","protocol":17,"map":"koth_suijin","folder":"tf","game":"Team Fortress","app_id":440,"player_count":5,"max_players":24,"Bots":0,"server_type":"Dedicated","server_os":"Linux","password":true,"vac":true,"version":"7961495","steam_id":85568392924504275,"keywords":["cp","nocrits","nodmgspread","uncletopia"],"game_id":440,"stv_port":27046,"stv_name":"Uncletopia | Frankfurt | 4 | All Maps | STV","players":[{"user_id":518,"name":"Obese Man","steam_id":76561199071707695,"connected_time":2407000000000,"state":"active","ping":169},{"user_id":519,"name":"goobie snoobert","steam_id":76561198195833338,"connected_time":2348000000000,"state":"active","ping":163},{"user_id":520,"name":"GibbusGod","steam_id":76561199232436690,"connected_time":2104000000000,"state":"active","ping":147},{"user_id":512,"name":"The Storm That Is Approaching","steam_id":76561198982155864,"connected_time":2988000000000,"state":"active","ping":75},{"user_id":532,"name":"Costarona","steam_id":76561197989455970,"connected_time":796000000000,"state":"active","ping":79}]},{"server_id":310,"name":"Uncletopia | Frankfurt | 5 | All Maps","name_short":"frk-5","host":"frk-1.de.uncletopia.com","port":27055,"enabled":true,"region":"eu","cc":"de","latitude":50.110924,"longitude":8.682127,"reserved":0,"last_update":"0001-01-01T00:00:00Z","name_a2s":"Uncletopia | Frankfurt | 5 | All Maps","protocol":17,"map":"pl_pier","folder":"tf","game":"Team Fortress","app_id":440,"player_count":24,"max_players":24,"Bots":0,"server_type":"Dedicated","server_os":"Linux","password":true,"vac":true,"version":"7961495","steam_id":85568392924504277,"keywords":["nocrits","nodmgspread","payload","uncletopia"],"game_id":440,"stv_port":27056,"stv_name":"Uncletopia | Frankfurt | 5 | All Maps | STV","players":[{"user_id":380,"name":"Tusho","steam_id":76561198115447383,"connected_time":655000000000,"state":"active","ping":60},{"user_id":325,"name":"Ham Merchant","steam_id":76561198389947352,"connected_time":4855000000000,"state":"active","ping":87},{"user_id":326,"name":"mr","steam_id":76561199037541925,"connected_time":4840000000000,"state":"active","ping":71},{"user_id":362,"name":"Benito Mussolini","steam_id":76561198362801147,"connected_time":2827000000000,"state":"active","ping":108},{"user_id":373,"name":"Jonno","steam_id":76561198023443744,"connected_time":1660000000000,"state":"active","ping":66},{"user_id":374,"name":"Testicular torsion","steam_id":76561198119547399,"connected_time":880000000000,"state":"active","ping":50},{"user_id":352,"name":"Cymric","steam_id":76561198208749713,"connected_time":3584000000000,"state":"active","ping":72},{"user_id":372,"name":"sad bitch kiki","steam_id":76561198838277022,"connected_time":1694000000000,"state":"active","ping":63},{"user_id":388,"name":"METhOphetamine","steam_id":76561198068216224,"connected_time":93000000000,"state":"active","ping":53},{"user_id":376,"name":"‚ò≠King‚ò≠","steam_id":76561199214677088,"connected_time":741000000000,"state":"active","ping":61},{"user_id":359,"name":"ELON MUSK","steam_id":76561198132788284,"connected_time":3068000000000,"state":"active","ping":68},{"user_id":377,"name":"minn","steam_id":76561198099101232,"connected_time":734000000000,"state":"active","ping":69},{"user_id":369,"name":"PiN hEaD","steam_id":76561198834713682,"connected_time":1887000000000,"state":"active","ping":76},{"user_id":381,"name":"DrHappiness","steam_id":76561198132854516,"connected_time":631000000000,"state":"active","ping":55},{"user_id":378,"name":"Claymeister","steam_id":76561198095967929,"connected_time":720000000000,"state":"active","ping":54},{"user_id":379,"name":"barrelzzen","steam_id":76561198219450897,"connected_time":690000000000,"state":"active","ping":93},{"user_id":389,"name":"POLAND MAUNTAIN","steam_id":76561198104933135,"connected_time":39000000000,"state":"active","ping":46},{"user_id":344,"name":"HynekN","steam_id":76561198126714831,"connected_time":4413000000000,"state":"active","ping":53},{"user_id":334,"name":"dirhs","steam_id":76561198383867611,"connected_time":4712000000000,"state":"active","ping":62},{"user_id":335,"name":"Shy cute eboy baka","steam_id":76561198353334467,"connected_time":4712000000000,"state":"active","ping":84},{"user_id":336,"name":"ELPOTATO","steam_id":76561198049743627,"connected_time":4708000000000,"state":"active","ping":102},{"user_id":385,"name":"I-LOVE-YOU.TXT.bvs","steam_id":76561198026676422,"connected_time":451000000000,"state":"active","ping":86},{"user_id":350,"name":"Jackom353","steam_id":76561198799931959,"connected_time":3938000000000,"state":"active","ping":77},{"user_id":390,"name":"NoobfromHell","steam_id":76561198394221491,"connected_time":35000000000,"state":"active","ping":59}]},{"server_id":311,"name":"Uncletopia | Frankfurt | 6 | All Maps","name_short":"frk-6","host":"frk-1.de.uncletopia.com","port":27065,"enabled":true,"region":"eu","cc":"de","latitude":50.110924,"longitude":8.682127,"reserved":0,"last_update":"0001-01-01T00:00:00Z","name_a2s":"Uncletopia | Frankfurt | 6 | All Maps","protocol":17,"map":"pl_badwater","folder":"tf","game":"Team Fortress","app_id":440,"player_count":15,"max_players":24,"Bots":0,"server_type":"Dedicated","server_os":"Linux","password":true,"vac":true,"version":"7961495","steam_id":85568392924504278,"keywords":["nocrits","nodmgspread","payload","uncletopia"],"game_id":440,"stv_port":27066,"stv_name":"Uncletopia | Frankfurt | 6 | All Maps | STV","players":[{"user_id":251,"name":"Zamorocian","steam_id":76561198076604017,"connected_time":3212000000000,"state":"active","ping":54},{"user_id":276,"name":"Dirk the Danilamix","steam_id":76561198080799171,"connected_time":659000000000,"state":"active","ping":69},{"user_id":252,"name":"The Lady","steam_id":76561198029895809,"connected_time":3211000000000,"state":"active","ping":75},{"user_id":279,"name":"kadanov","steam_id":76561198055365234,"connected_time":240000000000,"state":"active","ping":87},{"user_id":240,"name":"worgeral","steam_id":76561198050781898,"connected_time":3587000000000,"state":"active","ping":62},{"user_id":274,"name":"craig","steam_id":76561198907428350,"connected_time":890000000000,"state":"active","ping":62},{"user_id":272,"name":"skam","steam_id":76561198393181352,"connected_time":979000000000,"state":"active","ping":75},{"user_id":280,"name":"MaxNdez","steam_id":76561199150233050,"connected_time":59000000000,"state":"spawning","ping":214},{"user_id":241,"name":"meriones","steam_id":76561198034234373,"connected_time":3567000000000,"state":"active","ping":58},{"user_id":278,"name":"shenanigan","steam_id":76561198043452925,"connected_time":365000000000,"state":"active","ping":93},{"user_id":267,"name":"bastard","steam_id":76561198833767331,"connected_time":1673000000000,"state":"active","ping":66},{"user_id":263,"name":"tone","steam_id":76561197975301462,"connected_time":1960000000000,"state":"active","ping":71},{"user_id":273,"name":"Lucky Number 13","steam_id":76561198043951279,"connected_time":904000000000,"state":"active","ping":121},{"user_id":258,"name":"shadow39344","steam_id":76561198090639618,"connected_time":2902000000000,"state":"active","ping":63},{"user_id":269,"name":"Isak","steam_id":76561198085959762,"connected_time":1525000000000,"state":"active","ping":72}]},{"server_id":23,"name":"Uncletopia | Frankfurt | 7 | Stopwatch","name_short":"frk-7","host":"frk-1.de.uncletopia.com","port":27075,"enabled":true,"region":"eu","cc":"de","latitude":50.110924,"longitude":8.682127,"reserved":0,"last_update":"0001-01-01T00:00:00Z","name_a2s":"Uncletopia | Frankfurt | 7 | Stopwatch","protocol":17,"map":"koth_lakeside_final","folder":"tf","game":"Team Fortress","app_id":440,"player_count":0,"max_players":24,"Bots":0,"server_type":"Dedicated","server_os":"Linux","password":true,"vac":true,"version":"7961495","steam_id":85568392924742827,"keywords":["cp","nocrits","nodmgspread","uncletopia"],"game_id":440,"stv_port":27076,"stv_name":"Uncletopia | Frankfurt | 7 | Stopwatch | STV","players":null},{"server_id":24,"name":"Uncletopia | Frankfurt | 8 | Community","name_short":"frk-8","host":"frk-1.de.uncletopia.com","port":27085,"enabled":true,"region":"eu","cc":"de","latitude":50.110924,"longitude":8.682127,"reserved":0,"last_update":"0001-01-01T00:00:00Z","name_a2s":"Uncletopia | Frankfurt | 8 | Community","protocol":17,"map":"workshop/koth_kemptown_rc1.ugc767410655","folder":"tf","game":"Team Fortress","app_id":440,"player_count":0,"max_players":24,"Bots":0,"server_type":"Dedicated","server_os":"Linux","password":true,"vac":true,"version":"7961495","steam_id":85568392924742828,"keywords":["cp","nocrits","nodmgspread","uncletopia"],"game_id":440,"stv_port":27086,"stv_name":"Uncletopia | Frankfurt | 8 | Community | STV","players":null},{"server_id":202,"name":"Uncletopia | Hong Kong | 1 | All Maps","name_short":"hgk-1","host":"hgk-1.hk.uncletopia.com","port":27015,"enabled":true,"region":"asia","cc":"hk","latitude":22.302711,"longitude":114.177216,"reserved":0,"last_update":"0001-01-01T00:00:00Z","name_a2s":"Uncletopia | Hong Kong | 1 | All Maps","protocol":17,"map":"pl_frontier_final","folder":"tf","game":"Team Fortress","app_id":440,"player_count":0,"max_players":24,"Bots":0,"server_type":"Dedicated","server_os":"Linux","password":true,"vac":true,"version":"7961495","steam_id":85568392924494504,"keywords":["nocrits","nodmgspread","payload","uncletopia"],"game_id":440,"stv_port":27016,"stv_name":"Uncletopia | Hong Kong | 1 | All Maps | STV","players":null},{"server_id":1,"name":"Uncletopia | Los Angeles | 1 | All Maps","name_short":"lax-1","host":"lax-1.us.uncletopia.com","port":27015,"enabled":true,"region":"us-west","cc":"us","latitude":33.94279,"longitude":-118.41004,"reserved":0,"last_update":"0001-01-01T00:00:00Z","name_a2s":"Uncletopia | Los Angeles | 1 | All Maps","protocol":17,"map":"pl_upward","folder":"tf","game":"Team Fortress","app_id":440,"player_count":0,"max_players":24,"Bots":0,"server_type":"Dedicated","server_os":"Linux","password":true,"vac":true,"version":"7961495","steam_id":85568392924469991,"keywords":["nocrits","nodmgspread","payload","uncletopia"],"game_id":440,"stv_port":27016,"stv_name":"Uncletopia | Los Angeles | 1 | All Maps | STV","players":null},{"server_id":112,"name":"Uncletopia | Los Angeles | 2 | All Maps","name_short":"lax-2","host":"lax-1.us.uncletopia.com","port":27025,"enabled":true,"region":"us-west","cc":"us","latitude":33.94279,"longitude":-118.41004,"reserved":0,"last_update":"0001-01-01T00:00:00Z","name_a2s":"Uncletopia | Los Angeles | 2 | All Maps","protocol":17,"map":"pl_snowycoast","folder":"tf","game":"Team Fortress","app_id":440,"player_count":0,"max_players":24,"Bots":0,"server_type":"Dedicated","server_os":"Linux","password":true,"vac":true,"version":"7961495","steam_id":85568392924469992,"keywords":["nocrits","nodmgspread","payload","uncletopia"],"game_id":440,"stv_port":27026,"stv_name":"Uncletopia | Los Angeles | 2 | All Maps | STV","players":null},{"server_id":324,"name":"Uncletopia | Los Angeles | 3 | All Maps","name_short":"lax-3","host":"lax-1.us.uncletopia.com","port":27035,"enabled":true,"region":"us-west","cc":"us","latitude":33.94279,"longitude":-118.41004,"reserved":0,"last_update":"0001-01-01T00:00:00Z","name_a2s":"Uncletopia | Los Angeles | 3 | All Maps","protocol":17,"map":"koth_cascade","folder":"tf","game":"Team Fortress","app_id":440,"player_count":0,"max_players":24,"Bots":0,"server_type":"Dedicated","server_os":"Linux","password":true,"vac":true,"version":"7961495","steam_id":85568392924510198,"keywords":["cp","nocrits","nodmgspread","uncletopia"],"game_id":440,"stv_port":27036,"stv_name":"Uncletopia | Los Angeles | 3 | All Maps | STV","players":null},{"server_id":25,"name":"Uncletopia | Los Angeles | 4 | Stopwatch","name_short":"lax-4","host":"lax-1.us.uncletopia.com","port":27045,"enabled":true,"region":"us-west","cc":"us","latitude":33.94279,"longitude":-118.41004,"reserved":0,"last_update":"0001-01-01T00:00:00Z","name_a2s":"Uncletopia | Los Angeles | 4 | Stopwatch","protocol":17,"map":"pl_barnblitz","folder":"tf","game":"Team Fortress","app_id":440,"player_count":0,"max_players":24,"Bots":0,"server_type":"Dedicated","server_os":"Linux","password":true,"vac":true,"version":"7961495","steam_id":85568392924510199,"keywords":["nocrits","nodmgspread","payload","uncletopia"],"game_id":440,"stv_port":27046,"stv_name":"Uncletopia | Los Angeles | 4 | Stopwatch | STV","players":null},{"server_id":11,"name":"Uncletopia | London | 1 | All Maps","name_short":"lon-1","host":"lon-1.uk.uncletopia.com","port":27015,"enabled":true,"region":"eu","cc":"gb","latitude":51.509865,"longitude":-0.118092,"reserved":0,"last_update":"0001-01-01T00:00:00Z","name_a2s":"Uncletopia | London | 1 | All Maps","protocol":17,"map":"pl_swiftwater_final1","folder":"tf","game":"Team Fortress","app_id":440,"player_count":24,"max_players":24,"Bots":0,"server_type":"Dedicated","server_os":"Linux","password":true,"vac":true,"version":"7961495","steam_id":85568392924367362,"keywords":["nocrits","nodmgspread","payload","uncletopia"],"game_id":440,"stv_port":27016,"stv_name":"Uncletopia | London | 1 | All Maps | STV","players":[{"user_id":762,"name":"AlexLordFire","steam_id":76561198328609815,"connected_time":1357000000000,"state":"active","ping":59},{"user_id":738,"name":"RomAnjentululiantiarion","steam_id":76561198161417211,"connected_time":2213000000000,"state":"active","ping":97},{"user_id":763,"name":"waj","steam_id":76561198053628243,"connected_time":1347000000000,"state":"active","ping":44},{"user_id":749,"name":"Haha?","steam_id":76561198056882245,"connected_time":1821000000000,"state":"active","ping":41},{"user_id":722,"name":"RubyTheUnicorn","steam_id":76561198091772218,"connected_time":3465000000000,"state":"active","ping":72},{"user_id":764,"name":"BeepBeep2504Yes","steam_id":76561199118854229,"connected_time":1342000000000,"state":"active","ping":66},{"user_id":743,"name":"Jergu","steam_id":76561198023457541,"connected_time":2139000000000,"state":"active","ping":87},{"user_id":751,"name":"Plith","steam_id":76561198027499887,"connected_time":1791000000000,"state":"active","ping":90},{"user_id":765,"name":"dongus","steam_id":76561198042774930,"connected_time":1323000000000,"state":"active","ping":65},{"user_id":752,"name":"executive producer larry david","steam_id":76561198057868438,"connected_time":1726000000000,"state":"active","ping":60},{"user_id":732,"name":"pavyonspor","steam_id":76561198116530769,"connected_time":2595000000000,"state":"active","ping":94},{"user_id":704,"name":"Purps","steam_id":76561198053886680,"connected_time":5888000000000,"state":"active","ping":44},{"user_id":753,"name":"Fried_Dough","steam_id":76561198068746207,"connected_time":1658000000000,"state":"active","ping":130},{"user_id":733,"name":"BreadBubbles","steam_id":76561198174332826,"connected_time":2593000000000,"state":"active","ping":60},{"user_id":754,"name":"froglids","steam_id":76561198045466919,"connected_time":1647000000000,"state":"active","ping":73},{"user_id":724,"name":"hmscole09","steam_id":76561198811362788,"connected_time":3075000000000,"state":"active","ping":59},{"user_id":746,"name":"√áodar","steam_id":76561198235518444,"connected_time":1965000000000,"state":"active","ping":42},{"user_id":755,"name":"scarfweather","steam_id":76561198121331836,"connected_time":1621000000000,"state":"active","ping":53},{"user_id":756,"name":"Oisklet","steam_id":76561198105734948,"connected_time":1615000000000,"state":"active","ping":64},{"user_id":766,"name":"Gubbly Bubbins","steam_id":76561198101451654,"connected_time":1317000000000,"state":"active","ping":48},{"user_id":760,"name":"rummy","steam_id":76561197997573379,"connected_time":1503000000000,"state":"active","ping":46},{"user_id":742,"name":"GUMBO","steam_id":76561198183949987,"connected_time":2154000000000,"state":"active","ping":55},{"user_id":767,"name":"Bobo","steam_id":76561198052308399,"connected_time":1305000000000,"state":"active","ping":66},{"user_id":768,"name":"No Status","steam_id":76561198119526557,"connected_time":1303000000000,"state":"active","ping":39}]},{"server_id":114,"name":"Uncletopia | London | 2 | All Maps","name_short":"lon-2","host":"lon-1.uk.uncletopia.com","port":27025,"enabled":true,"region":"eu","cc":"gb","latitude":51.509865,"longitude":-0.118092,"reserved":0,"last_update":"0001-01-01T00:00:00Z","name_a2s":"Uncletopia | London | 2 | All Maps","protocol":17,"map":"pl_frontier_final","folder":"tf","game":"Team Fortress","app_id":440,"player_count":0,"max_players":24,"Bots":0,"server_type":"Dedicated","server_os":"Linux","password":true,"vac":true,"version":"7961495","steam_id":85568392924470941,"keywords":["nocrits","nodmgspread","payload","uncletopia"],"game_id":440,"stv_port":27026,"stv_name":"Uncletopia | London | 2 | All Maps | STV","players":null},{"server_id":320,"name":"Uncletopia | London | 3 | All Maps","name_short":"lon-3","host":"lon-1.uk.uncletopia.com","port":27035,"enabled":true,"region":"eu","cc":"gb","latitude":51.509865,"longitude":-0.118092,"reserved":0,"last_update":"0001-01-01T00:00:00Z","name_a2s":"Uncletopia | London | 3 | All Maps","protocol":17,"map":"cp_dustbowl","folder":"tf","game":"Team Fortress","app_id":440,"player_count":0,"max_players":24,"Bots":0,"server_type":"Dedicated","server_os":"Linux","password":true,"vac":true,"version":"7961495","steam_id":85568392924510192,"keywords":["cp","nocrits","nodmgspread","uncletopia"],"game_id":440,"stv_port":27036,"stv_name":"Uncletopia | London | 3 | All Maps | STV","players":null},{"server_id":321,"name":"Uncletopia | London | 4 | All Maps","name_short":"lon-4","host":"lon-1.uk.uncletopia.com","port":27045,"enabled":true,"region":"eu","cc":"gb","latitude":51.509865,"longitude":-0.118092,"reserved":0,"last_update":"0001-01-01T00:00:00Z","name_a2s":"Uncletopia | London | 4 | All Maps","protocol":17,"map":"pl_snowycoast","folder":"tf","game":"Team Fortress","app_id":440,"player_count":23,"max_players":24,"Bots":0,"server_type":"Dedicated","server_os":"Linux","password":true,"vac":true,"version":"7961495","steam_id":85568392924510193,"keywords":["nocrits","nodmgspread","payload","uncletopia"],"game_id":440,"stv_port":27046,"stv_name":"Uncletopia | London | 4 | All Maps | STV","players":[{"user_id":436,"name":"Lilypadio","steam_id":76561198090146457,"connected_time":527000000000,"state":"active","ping":39},{"user_id":450,"name":"2007 Toyota Corolla","steam_id":76561198060337360,"connected_time":60000000000,"state":"active","ping":37},{"user_id":405,"name":"un puie","steam_id":76561198084056439,"connected_time":2013000000000,"state":"active","ping":30},{"user_id":407,"name":"haydar198112","steam_id":76561198131197590,"connected_time":1986000000000,"state":"active","ping":142},{"user_id":438,"name":"TrashVerN","steam_id":76561197977444051,"connected_time":479000000000,"state":"active","ping":65},{"user_id":432,"name":"bingchilling","steam_id":76561198091737723,"connected_time":866000000000,"state":"active","ping":42},{"user_id":420,"name":"Panchol√≠n","steam_id":76561198262777640,"connected_time":1257000000000,"state":"active","ping":81},{"user_id":439,"name":"L=Maestro","steam_id":76561198108066852,"connected_time":467000000000,"state":"active","ping":45},{"user_id":441,"name":"thomas.jensen96","steam_id":76561198798803845,"connected_time":387000000000,"state":"active","ping":47},{"user_id":445,"name":"Agro | KritzKast","steam_id":76561197970498549,"connected_time":269000000000,"state":"active","ping":45},{"user_id":440,"name":"bigmouth strikes again","steam_id":76561198307037169,"connected_time":439000000000,"state":"active","ping":59},{"user_id":446,"name":"‚òÅ Lou1smeister ‚òÅ","steam_id":76561198004032968,"connected_time":251000000000,"state":"active","ping":61},{"user_id":384,"name":"ThatSiegeKid","steam_id":76561198368037656,"connected_time":2929000000000,"state":"active","ping":44},{"user_id":448,"name":"waffle toaster","steam_id":76561198799089628,"connected_time":129000000000,"state":"active","ping":44},{"user_id":422,"name":"smiley","steam_id":76561198042245117,"connected_time":1247000000000,"state":"active","ping":59},{"user_id":414,"name":"Skinny101","steam_id":76561197985599360,"connected_time":1668000000000,"state":"active","ping":55},{"user_id":443,"name":"lawn","steam_id":76561198001243486,"connected_time":315000000000,"state":"active","ping":37},{"user_id":359,"name":"TomNoSocks","steam_id":76561198114071046,"connected_time":4669000000000,"state":"active","ping":64},{"user_id":433,"name":"SoberDwarf","steam_id":76561198075477492,"connected_time":776000000000,"state":"active","ping":131},{"user_id":449,"name":"Endi","steam_id":76561198914938199,"connected_time":105000000000,"state":"active","ping":100},{"user_id":451,"name":"Zakucat","steam_id":76561198025422211,"connected_time":56000000000,"state":"active","ping":49},{"user_id":416,"name":"Impostor","steam_id":76561198133957159,"connected_time":1496000000000,"state":"active","ping":91},{"user_id":452,"name":"bobn","steam_id":76561198838515255,"connected_time":25000000000,"state":"spawning","ping":48}]},{"server_id":21,"name":"Uncletopia | London | 5 | All Maps","name_short":"lon-5","host":"lon-1.uk.uncletopia.com","port":27055,"enabled":true,"region":"eu","cc":"gb","latitude":51.509865,"longitude":-0.118092,"reserved":0,"last_update":"0001-01-01T00:00:00Z","name_a2s":"Uncletopia | London | 5 | All Maps","protocol":17,"map":"pl_swiftwater_final1","folder":"tf","game":"Team Fortress","app_id":440,"player_count":12,"max_players":24,"Bots":0,"server_type":"Dedicated","server_os":"Linux","password":true,"vac":true,"version":"7961495","steam_id":85568392924742829,"keywords":["nocrits","nodmgspread","payload","uncletopia"],"game_id":440,"stv_port":27056,"stv_name":"Uncletopia | London | 5 | All Maps | STV","players":[{"user_id":116,"name":"(MAC) [BN] Crazyking","steam_id":76561198001668616,"connected_time":6811000000000,"state":"active","ping":61},{"user_id":178,"name":"Conan","steam_id":76561198158321202,"connected_time":2245000000000,"state":"active","ping":63},{"user_id":144,"name":"kaelan","steam_id":76561198001425310,"connected_time":3881000000000,"state":"active","ping":74},{"user_id":161,"name":"zulfie","steam_id":76561198117390056,"connected_time":3086000000000,"state":"active","ping":41},{"user_id":153,"name":"biohazard.pt","steam_id":76561198088367808,"connected_time":3692000000000,"state":"active","ping":64},{"user_id":190,"name":"Gelato","steam_id":76561198282596343,"connected_time":1044000000000,"state":"active","ping":43},{"user_id":187,"name":"FreyjaBreadWitch","steam_id":76561199211405367,"connected_time":1340000000000,"state":"active","ping":106},{"user_id":193,"name":"YouR dad","steam_id":76561198044013623,"connected_time":740000000000,"state":"active","ping":142},{"user_id":159,"name":"Dromeka","steam_id":76561198963557200,"connected_time":3254000000000,"state":"active","ping":57},{"user_id":102,"name":"General Petrov","steam_id":76561198027204104,"connected_time":7576000000000,"state":"active","ping":70},{"user_id":171,"name":"[503. ]captain swiftfingers","steam_id":76561198043684517,"connected_time":2632000000000,"state":"active","ping":55},{"user_id":192,"name":"Mr. Salt Detector","steam_id":76561198089962282,"connected_time":868000000000,"state":"active","ping":69}]},{"server_id":22,"name":"Uncletopia | London | 6 | All Maps","name_short":"lon-6","host":"lon-1.uk.uncletopia.com","port":27065,"enabled":true,"region":"eu","cc":"gb","latitude":51.509865,"longitude":-0.118092,"reserved":0,"last_update":"0001-01-01T00:00:00Z","name_a2s":"Uncletopia | London | 6 | All Maps","protocol":17,"map":"plr_hightower","folder":"tf","game":"Team Fortress","app_id":440,"player_count":24,"max_players":24,"Bots":0,"server_type":"Dedicated","server_os":"Linux","password":true,"vac":true,"version":"7961495","steam_id":85568392924742830,"keywords":["nocrits","nodmgspread","payload","uncletopia"],"game_id":440,"stv_port":27066,"stv_name":"Uncletopia | London | 6 | All Maps | STV","players":[{"user_id":477,"name":"tr4ce","steam_id":76561198085296732,"connected_time":1725000000000,"state":"active","ping":42},{"user_id":450,"name":"mr.resetti","steam_id":76561198974520642,"connected_time":4445000000000,"state":"active","ping":73},{"user_id":495,"name":"nNT ‚â† Gara.Stark","steam_id":76561198009057907,"connected_time":590000000000,"state":"active","ping":82},{"user_id":417,"name":"OutOfDucks","steam_id":76561198166376227,"connected_time":6746000000000,"state":"active","ping":57},{"user_id":474,"name":"NeonNewt","steam_id":76561198066699212,"connected_time":1845000000000,"state":"active","ping":54},{"user_id":486,"name":"Ninjeg","steam_id":76561197995307947,"connected_time":1200000000000,"state":"active","ping":63},{"user_id":427,"name":"Loberless","steam_id":76561198277844777,"connected_time":5749000000000,"state":"active","ping":43},{"user_id":497,"name":"flange","steam_id":76561198040182692,"connected_time":255000000000,"state":"active","ping":37},{"user_id":492,"name":"Vivid","steam_id":76561198346546144,"connected_time":967000000000,"state":"active","ping":45},{"user_id":491,"name":"Jackal","steam_id":76561198263001231,"connected_time":1050000000000,"state":"active","ping":40},{"user_id":468,"name":"Mason Troy Adams (Real) (Hunter","steam_id":76561198310010748,"connected_time":1969000000000,"state":"active","ping":60},{"user_id":466,"name":"swallowed 10 pennies please hel","steam_id":76561198055816412,"connected_time":2145000000000,"state":"active","ping":47},{"user_id":421,"name":"LordTrap.exe","steam_id":76561198318089716,"connected_time":6643000000000,"state":"active","ping":58},{"user_id":480,"name":"It's a me Malario","steam_id":76561198176546013,"connected_time":1494000000000,"state":"active","ping":49},{"user_id":471,"name":"MustangCricket","steam_id":76561197963408317,"connected_time":1923000000000,"state":"active","ping":58},{"user_id":489,"name":"A Cat","steam_id":76561199015740181,"connected_time":1105000000000,"state":"active","ping":65},{"user_id":482,"name":"tapeworms!","steam_id":76561198069649097,"connected_time":1463000000000,"state":"active","ping":61},{"user_id":333,"name":":3","steam_id":76561198169471853,"connected_time":12807000000000,"state":"active","ping":39},{"user_id":494,"name":"AriLg23","steam_id":76561198106685366,"connected_time":793000000000,"state":"active","ping":47},{"user_id":496,"name":"Jayem","steam_id":76561198076470685,"connected_time":473000000000,"state":"active","ping":58},{"user_id":498,"name":"The Quackster","steam_id":76561198355208253,"connected_time":216000000000,"state":"active","ping":45},{"user_id":499,"name":"crit.","steam_id":76561198093233903,"connected_time":123000000000,"state":"active","ping":106},{"user_id":451,"name":"Fatmagic Mukbang ASMR","steam_id":76561198063492110,"connected_time":4348000000000,"state":"active","ping":83},{"user_id":485,"name":"Vastly Rigged","steam_id":76561198212991935,"connected_time":1405000000000,"state":"active","ping":95}]},{"server_id":40,"name":"Uncletopia | London | 7 | Stopwatch","name_short":"lon-7","host":"lon-1.uk.uncletopia.com","port":27075,"enabled":true,"region":"eu","cc":"gb","latitude":51.509865,"longitude":-0.118092,"reserved":0,"last_update":"0001-01-01T00:00:00Z","name_a2s":"Uncletopia | London | 7 | Stopwatch","protocol":17,"map":"workshop/koth_product_final.ugc454272353","folder":"tf","game":"Team Fortress","app_id":440,"player_count":0,"max_players":24,"Bots":0,"server_type":"Dedicated","server_os":"Linux","password":true,"vac":true,"version":"7961495","steam_id":85568392924964314,"keywords":["cp","nocrits","nodmgspread","uncletopia"],"game_id":440,"stv_port":27076,"stv_name":"Uncletopia | London | 7 | Stopwatch | STV","players":null},{"server_id":41,"name":"Uncletopia | London | 8 | Community","name_short":"lon-8","host":"lon-1.uk.uncletopia.com","port":27085,"enabled":true,"region":"eu","cc":"gb","latitude":51.509865,"longitude":-0.118092,"reserved":0,"last_update":"0001-01-01T00:00:00Z","name_a2s":"Uncletopia | London | 8 | Community","protocol":17,"map":"workshop/koth_kemptown_rc1.ugc767410655","folder":"tf","game":"Team Fortress","app_id":440,"player_count":0,"max_players":24,"Bots":0,"server_type":"Dedicated","server_os":"Linux","password":true,"vac":true,"version":"7961495","steam_id":85568392924964315,"keywords":["cp","nocrits","nodmgspread","uncletopia"],"game_id":440,"stv_port":27086,"stv_name":"Uncletopia | London | 8 | Community | STV","players":null},{"server_id":300,"name":"Uncletopia | Montr√©al | 1 | One Thousand Uncles","name_short":"mtl-1","host":"mtl-1.ca.uncletopia.com","port":27015,"enabled":true,"region":"us-east","cc":"ca","latitude":45.50889,"longitude":-73.56167,"reserved":0,"last_update":"0001-01-01T00:00:00Z","name_a2s":"","protocol":0,"map":"","folder":"","game":"","app_id":0,"player_count":0,"max_players":0,"Bots":0,"server_type":"","server_os":"","password":false,"vac":false,"version":"","steam_id":0,"keywords":null,"game_id":0,"stv_port":0,"stv_name":"","players":null},{"server_id":301,"name":"Uncletopia | Montr√©al | 2 | One Thousand Uncles","name_short":"mtl-2","host":"mtl-1.ca.uncletopia.com","port":27025,"enabled":true,"region":"us-east","cc":"ca","latitude":45.50889,"longitude":-73.56167,"reserved":0,"last_update":"0001-01-01T00:00:00Z","name_a2s":"","protocol":0,"map":"","folder":"","game":"","app_id":0,"player_count":1,"max_players":0,"Bots":0,"server_type":"","server_os":"","password":false,"vac":false,"version":"","steam_id":0,"keywords":null,"game_id":0,"stv_port":0,"stv_name":"","players":[{"user_id":2,"name":"Willi the Gifter of Chaos","steam_id":76561198066508251,"connected_time":2094000000000,"state":"active","ping":52}]},{"server_id":302,"name":"Uncletopia | Montr√©al | 3 | One Thousand Uncles","name_short":"mtl-3","host":"mtl-1.ca.uncletopia.com","port":27035,"enabled":true,"region":"us-east","cc":"ca","latitude":45.50889,"longitude":-73.56167,"reserved":0,"last_update":"0001-01-01T00:00:00Z","name_a2s":"","protocol":0,"map":"","folder":"","game":"","app_id":0,"player_count":3,"max_players":0,"Bots":0,"server_type":"","server_os":"","password":false,"vac":false,"version":"","steam_id":0,"keywords":null,"game_id":0,"stv_port":0,"stv_name":"","players":[{"user_id":71,"name":"nonagon infinity","steam_id":76561198397662124,"connected_time":3463000000000,"state":"active","ping":88},{"user_id":94,"name":"caberknight tf2  (f2p-ish)","steam_id":76561199273882768,"connected_time":321000000000,"state":"active","ping":47},{"user_id":41,"name":"con","steam_id":76561198850438326,"connected_time":6412000000000,"state":"active","ping":63}]},{"server_id":13,"name":"Uncletopia | New York City | 1 | All Maps","name_short":"nyc-1","host":"nyc-1.us.uncletopia.com","port":27015,"enabled":true,"region":"us-east","cc":"us","latitude":40.73061,"longitude":-73.93524,"reserved":0,"last_update":"0001-01-01T00:00:00Z","name_a2s":"Uncletopia | New York City | 1 | All Maps","protocol":17,"map":"pl_barnblitz","folder":"tf","game":"Team Fortress","app_id":440,"player_count":22,"max_players":24,"Bots":0,"server_type":"Dedicated","server_os":"Linux","password":true,"vac":true,"version":"7961495","steam_id":85568392924469993,"keywords":["nocrits","nodmgspread","payload","uncletopia"],"game_id":440,"stv_port":27016,"stv_name":"Uncletopia | New York City | 1 | All Maps | STV","players":[{"user_id":96,"name":"R01lAttack","steam_id":76561199077037502,"connected_time":4411000000000,"state":"active","ping":73},{"user_id":129,"name":"dzcreeper","steam_id":76561198072250723,"connected_time":1287000000000,"state":"active","ping":105},{"user_id":46,"name":"FrosbeeChill","steam_id":76561198182510862,"connected_time":7488000000000,"state":"active","ping":52},{"user_id":136,"name":"Hi, I'm Jesus","steam_id":76561198015327152,"connected_time":83000000000,"state":"active","ping":52},{"user_id":47,"name":"duskdotexe","steam_id":76561199353965946,"connected_time":7485000000000,"state":"active","ping":44},{"user_id":123,"name":"Brown_Dream","steam_id":76561198975766145,"connected_time":1840000000000,"state":"active","ping":71},{"user_id":132,"name":"flashwingfan2010","steam_id":76561199056223827,"connected_time":1171000000000,"state":"active","ping":49},{"user_id":138,"name":"Lemurian","steam_id":76561198324118507,"connected_time":49000000000,"state":"active","ping":67},{"user_id":137,"name":"the sludge","steam_id":76561198268816354,"connected_time":65000000000,"state":"active","ping":75},{"user_id":107,"name":"ElElliot","steam_id":76561198842278840,"connected_time":3354000000000,"state":"active","ping":69},{"user_id":105,"name":"Mkwhackertracker","steam_id":76561198128343704,"connected_time":3371000000000,"state":"active","ping":86},{"user_id":118,"name":"TheFallenAngel","steam_id":76561198162437125,"connected_time":2062000000000,"state":"active","ping":76},{"user_id":139,"name":"J O V A","steam_id":76561198090333536,"connected_time":44000000000,"state":"active","ping":69},{"user_id":125,"name":"I Missed","steam_id":76561199128672031,"connected_time":1456000000000,"state":"active","ping":64},{"user_id":113,"name":"Raisincineroar","steam_id":76561198116295334,"connected_time":2686000000000,"state":"active","ping":66},{"user_id":102,"name":"StretchySnail59","steam_id":76561198073535005,"connected_time":4204000000000,"state":"active","ping":64},{"user_id":115,"name":"SciFurLycan","steam_id":76561198809333252,"connected_time":2265000000000,"state":"active","ping":77},{"user_id":89,"name":"Pugzilla","steam_id":76561198108088960,"connected_time":5541000000000,"state":"active","ping":44},{"user_id":110,"name":"Acro","steam_id":76561198092451804,"connected_time":3314000000000,"state":"active","ping":78},{"user_id":131,"name":"o sexo atacante","steam_id":76561199503705310,"connected_time":1263000000000,"state":"active","ping":34},{"user_id":128,"name":"Orange Triangle","steam_id":76561198320498182,"connected_time":1374000000000,"state":"active","ping":77},{"user_id":74,"name":"Fly_Johnson","steam_id":76561198882285873,"connected_time":6310000000000,"state":"active","ping":47}]},{"server_id":14,"name":"Uncletopia | New York City | 2 | All Maps","name_short":"nyc-2","host":"nyc-1.us.uncletopia.com","port":27025,"enabled":true,"region":"us-east","cc":"us","latitude":40.73061,"longitude":-73.93524,"reserved":0,"last_update":"0001-01-01T00:00:00Z","name_a2s":"Uncletopia | New York City | 2 | All Maps","protocol":17,"map":"pl_borneo","folder":"tf","game":"Team Fortress","app_id":440,"player_count":17,"max_players":24,"Bots":0,"server_type":"Dedicated","server_os":"Linux","password":true,"vac":true,"version":"7961495","steam_id":85568392924469994,"keywords":["nocrits","nodmgspread","payload","uncletopia"],"game_id":440,"stv_port":27026,"stv_name":"Uncletopia | New York City | 2 | All Maps | STV","players":[{"user_id":251,"name":"goots","steam_id":76561198106483305,"connected_time":264000000000,"state":"active","ping":54},{"user_id":252,"name":"Ligmus Sigmus","steam_id":76561198168946002,"connected_time":116000000000,"state":"active","ping":44},{"user_id":228,"name":"Carson","steam_id":76561198076771071,"connected_time":1898000000000,"state":"active","ping":64},{"user_id":206,"name":"toastman","steam_id":76561198207073088,"connected_time":4642000000000,"state":"active","ping":73},{"user_id":221,"name":"A Low-Hanging Ceiling","steam_id":76561198894586082,"connected_time":3437000000000,"state":"active","ping":66},{"user_id":253,"name":"flip flop man(Lee)","steam_id":76561198374860339,"connected_time":31000000000,"state":"active","ping":145},{"user_id":254,"name":"fudo myoo","steam_id":76561198456258164,"connected_time":27000000000,"state":"active","ping":57},{"user_id":154,"name":"reis","steam_id":76561199232952016,"connected_time":9419000000000,"state":"active","ping":164},{"user_id":235,"name":"Johnny Lawrence #JohnnyMaxxing","steam_id":76561199367141671,"connected_time":958000000000,"state":"active","ping":44},{"user_id":238,"name":"SneakySneak","steam_id":76561198064847921,"connected_time":911000000000,"state":"active","ping":73},{"user_id":239,"name":"HotDogWater","steam_id":76561198354253380,"connected_time":851000000000,"state":"active","ping":61},{"user_id":167,"name":"Rennsellaer","steam_id":76561198096207580,"connected_time":8166000000000,"state":"active","ping":110},{"user_id":227,"name":"kiwiichie ‚Çç·ê¢·ê¢‚Çé","steam_id":76561198315449521,"connected_time":2629000000000,"state":"active","ping":85},{"user_id":191,"name":"corntent","steam_id":76561198824847948,"connected_time":5768000000000,"state":"active","ping":43},{"user_id":241,"name":"general.b","steam_id":76561198162480519,"connected_time":789000000000,"state":"active","ping":62},{"user_id":249,"name":"Zimil","steam_id":76561199187045818,"connected_time":318000000000,"state":"active","ping":87},{"user_id":250,"name":"Kraftlos","steam_id":76561198074350350,"connected_time":266000000000,"state":"active","ping":59}]},{"server_id":15,"name":"Uncletopia | New York City | 3 | Stopwatch","name_short":"nyc-3","host":"nyc-1.us.uncletopia.com","port":27035,"enabled":true,"region":"us-east","cc":"us","latitude":40.73061,"longitude":-73.93524,"reserved":0,"last_update":"0001-01-01T00:00:00Z","name_a2s":"Uncletopia | New York City | 3 | Stopwatch","protocol":17,"map":"workshop/pl_barnblitz_pro7.ugc582280235","folder":"tf","game":"Team Fortress","app_id":440,"player_count":0,"max_players":24,"Bots":0,"server_type":"Dedicated","server_os":"Linux","password":true,"vac":true,"version":"7961495","steam_id":85568392924742820,"keywords":["nocrits","nodmgspread","payload","uncletopia"],"game_id":440,"stv_port":27036,"stv_name":"Uncletopia | New York City | 3 | Stopwatch | STV","players":null},{"server_id":16,"name":"Uncletopia | New York City | 4 | Community","name_short":"nyc-4","host":"nyc-1.us.uncletopia.com","port":27045,"enabled":true,"region":"us-east","cc":"us","latitude":40.73061,"longitude":-73.93524,"reserved":0,"last_update":"0001-01-01T00:00:00Z","name_a2s":"Uncletopia | New York City | 4 | Community","protocol":17,"map":"workshop/koth_ramjam_rc1.ugc459778887","folder":"tf","game":"Team Fortress","app_id":440,"player_count":0,"max_players":24,"Bots":0,"server_type":"Dedicated","server_os":"Linux","password":true,"vac":true,"version":"7961495","steam_id":85568392924742821,"keywords":["cp","nocrits","nodmgspread","uncletopia"],"game_id":440,"stv_port":27046,"stv_name":"Uncletopia | New York City | 4 | Community | STV","players":null},{"server_id":142,"name":"Uncletopia | S√£o Paulo | 1 | All Maps","name_short":"sao-1","host":"sao-1.br.uncletopia.com","port":27015,"enabled":true,"region":"sa","cc":"br","latitude":-23.533773,"longitude":-46.62529,"reserved":0,"last_update":"0001-01-01T00:00:00Z","name_a2s":"Uncletopia | S√£o Paulo | 1 | All Maps","protocol":17,"map":"koth_highpass","folder":"tf","game":"Team Fortress","app_id":440,"player_count":0,"max_players":24,"Bots":0,"server_type":"Dedicated","server_os":"Linux","password":true,"vac":true,"version":"7961495","steam_id":85568392924469996,"keywords":["cp","nocrits","nodmgspread","uncletopia"],"game_id":440,"stv_port":27016,"stv_name":"Uncletopia | S√£o Paulo | 1 | All Maps | STV","players":null},{"server_id":143,"name":"Uncletopia | S√£o Paulo | 2 | Community","name_short":"sao-2","host":"sao-2.br.uncletopia.com","port":27015,"enabled":true,"region":"sa","cc":"br","latitude":-23.533773,"longitude":-46.62529,"reserved":0,"last_update":"0001-01-01T00:00:00Z","name_a2s":"Uncletopia | S√£o Paulo | 2 | Community","protocol":17,"map":"workshop/cp_sulfur_rc2.ugc619869471","folder":"tf","game":"Team Fortress","app_id":440,"player_count":0,"max_players":24,"Bots":0,"server_type":"Dedicated","server_os":"Linux","password":true,"vac":true,"version":"7961495","steam_id":85568392924485349,"keywords":["cp","nocrits","nodmgspread","uncletopia"],"game_id":440,"stv_port":27016,"stv_name":"Uncletopia | S√£o Paulo | 2 | Community | STV","players":null},{"server_id":7,"name":"Uncletopia | Seattle | 1 | All Maps","name_short":"sea-1","host":"sea-1.us.uncletopia.com","port":27015,"enabled":true,"region":"us-west","cc":"us","latitude":47.608013,"longitude":-122.33517,"reserved":0,"last_update":"0001-01-01T00:00:00Z","name_a2s":"Uncletopia | Seattle | 1 | All Maps","protocol":17,"map":"cp_process_final","folder":"tf","game":"Team Fortress","app_id":440,"player_count":16,"max_players":24,"Bots":0,"server_type":"Dedicated","server_os":"Linux","password":true,"vac":true,"version":"7961495","steam_id":85568392924469997,"keywords":["cp","nocrits","nodmgspread","uncletopia"],"game_id":440,"stv_port":27016,"stv_name":"Uncletopia | Seattle | 1 | All Maps | STV","players":[{"user_id":565,"name":"MacchuPeachu","steam_id":76561199093242587,"connected_time":1387000000000,"state":"active","ping":57},{"user_id":546,"name":"Dongus","steam_id":76561197979056451,"connected_time":2070000000000,"state":"active","ping":45},{"user_id":519,"name":"Rat Smoking a big cigar","steam_id":76561198090419068,"connected_time":4060000000000,"state":"active","ping":80},{"user_id":573,"name":"sadlaxx","steam_id":76561198061354919,"connected_time":811000000000,"state":"active","ping":86},{"user_id":577,"name":"idiot cat","steam_id":76561198245602912,"connected_time":56000000000,"state":"active","ping":60},{"user_id":530,"name":"moe","steam_id":76561198929586245,"connected_time":3365000000000,"state":"active","ping":71},{"user_id":575,"name":"Peppy","steam_id":76561198866629645,"connected_time":420000000000,"state":"active","ping":58},{"user_id":564,"name":"CHARLEMAGNE","steam_id":76561198042455103,"connected_time":1414000000000,"state":"active","ping":45},{"user_id":562,"name":"mobtownUSA","steam_id":76561198393054672,"connected_time":1483000000000,"state":"active","ping":82},{"user_id":533,"name":"K2f","steam_id":76561198049600563,"connected_time":3168000000000,"state":"active","ping":75},{"user_id":548,"name":"Mer","steam_id":76561198192171041,"connected_time":2066000000000,"state":"active","ping":149},{"user_id":552,"name":"Set","steam_id":76561198063949642,"connected_time":2035000000000,"state":"active","ping":43},{"user_id":570,"name":"Mocha Josie","steam_id":76561198066452726,"connected_time":951000000000,"state":"active","ping":61},{"user_id":574,"name":"Shipmunk","steam_id":76561198063062670,"connected_time":757000000000,"state":"active","ping":105},{"user_id":561,"name":"RedlineRush","steam_id":76561198122437356,"connected_time":1565000000000,"state":"active","ping":36},{"user_id":559,"name":"Whimsy!","steam_id":76561197989578836,"connected_time":1787000000000,"state":"active","ping":60}]},{"server_id":119,"name":"Uncletopia | Seattle | 2 | All Maps","name_short":"sea-2","host":"sea-1.us.uncletopia.com","port":27025,"enabled":true,"region":"us-west","cc":"us","latitude":47.608013,"longitude":-122.33517,"reserved":0,"last_update":"0001-01-01T00:00:00Z","name_a2s":"Uncletopia | Seattle | 2 | All Maps","protocol":17,"map":"koth_cascade","folder":"tf","game":"Team Fortress","app_id":440,"player_count":0,"max_players":24,"Bots":0,"server_type":"Dedicated","server_os":"Linux","password":true,"vac":true,"version":"7961495","steam_id":85568392924469998,"keywords":["cp","nocrits","nodmgspread","uncletopia"],"game_id":440,"stv_port":27026,"stv_name":"Uncletopia | Seattle | 2 | All Maps | STV","players":null},{"server_id":406,"name":"Uncletopia | Seattle | 3 | Stopwatch","name_short":"sea-3","host":"sea-1.us.uncletopia.com","port":27035,"enabled":true,"region":"us-west","cc":"us","latitude":47.608013,"longitude":-122.33517,"reserved":0,"last_update":"0001-01-01T00:00:00Z","name_a2s":"Uncletopia | Seattle | 3 | Stopwatch","protocol":17,"map":"pl_pier","folder":"tf","game":"Team Fortress","app_id":440,"player_count":0,"max_players":24,"Bots":0,"server_type":"Dedicated","server_os":"Linux","password":true,"vac":true,"version":"7961495","steam_id":85568392924515217,"keywords":["nocrits","nodmgspread","payload","uncletopia"],"game_id":440,"stv_port":27036,"stv_name":"Uncletopia | Seattle | 3 | Stopwatch | STV","players":null},{"server_id":17,"name":"Uncletopia | San Francisco | 1 | All Maps","name_short":"sfo-1","host":"sfo-1.us.uncletopia.com","port":27015,"enabled":true,"region":"us-west","cc":"us","latitude":37.77397,"longitude":-122.4313,"reserved":0,"last_update":"0001-01-01T00:00:00Z","name_a2s":"Uncletopia | San Francisco | 1 | All Maps","protocol":17,"map":"koth_cascade","folder":"tf","game":"Team Fortress","app_id":440,"player_count":0,"max_players":24,"Bots":0,"server_type":"Dedicated","server_os":"Linux","password":true,"vac":true,"version":"7961495","steam_id":85568392924469999,"keywords":["cp","nocrits","nodmgspread","uncletopia"],"game_id":440,"stv_port":27016,"stv_name":"Uncletopia | San Francisco | 1 | All Maps | STV","players":null},{"server_id":18,"name":"Uncletopia | San Francisco | 2 | All Maps","name_short":"sfo-2","host":"sfo-1.us.uncletopia.com","port":27025,"enabled":true,"region":"us-west","cc":"us","latitude":37.77397,"longitude":-122.4313,"reserved":0,"last_update":"0001-01-01T00:00:00Z","name_a2s":"Uncletopia | San Francisco | 2 | All Maps","protocol":17,"map":"koth_highpass","folder":"tf","game":"Team Fortress","app_id":440,"player_count":0,"max_players":24,"Bots":0,"server_type":"Dedicated","server_os":"Linux","password":true,"vac":true,"version":"7961495","steam_id":85568392924470000,"keywords":["cp","nocrits","nodmgspread","uncletopia"],"game_id":440,"stv_port":27026,"stv_name":"Uncletopia | San Francisco | 2 | All Maps | STV","players":null},{"server_id":19,"name":"Uncletopia | San Francisco | 3 | Stopwatch","name_short":"sfo-3","host":"sfo-1.us.uncletopia.com","port":27035,"enabled":true,"region":"us-west","cc":"us","latitude":37.77397,"longitude":-122.4313,"reserved":0,"last_update":"0001-01-01T00:00:00Z","name_a2s":"Uncletopia | San Francisco | 3 | Stopwatch","protocol":17,"map":"pl_pier","folder":"tf","game":"Team Fortress","app_id":440,"player_count":0,"max_players":24,"Bots":0,"server_type":"Dedicated","server_os":"Linux","password":true,"vac":true,"version":"7961495","steam_id":85568392924742824,"keywords":["nocrits","nodmgspread","payload","uncletopia"],"game_id":440,"stv_port":27036,"stv_name":"Uncletopia | San Francisco | 3 | Stopwatch | STV","players":null},{"server_id":20,"name":"Uncletopia | San Francisco | 4 | Community","name_short":"sfo-4","host":"sfo-1.us.uncletopia.com","port":27045,"enabled":true,"region":"us-west","cc":"us","latitude":37.77397,"longitude":-122.4313,"reserved":0,"last_update":"0001-01-01T00:00:00Z","name_a2s":"Uncletopia | San Francisco | 4 | Community","protocol":17,"map":"pl_pier","folder":"tf","game":"Team Fortress","app_id":440,"player_count":0,"max_players":24,"Bots":0,"server_type":"Dedicated","server_os":"Linux","password":true,"vac":true,"version":"7961495","steam_id":85568392924742826,"keywords":["nocrits","nodmgspread","payload","uncletopia"],"game_id":440,"stv_port":27046,"stv_name":"Uncletopia | San Francisco | 4 | Community | STV","players":null},{"server_id":141,"name":"Uncletopia | Sydney | 1 | All Maps","name_short":"syd-1","host":"syd-1.au.uncletopia.com","port":27015,"enabled":true,"region":"au","cc":"au","latitude":-33.865143,"longitude":151.2099,"reserved":0,"last_update":"0001-01-01T00:00:00Z","name_a2s":"Uncletopia | Sydney | 1 | All Maps","protocol":17,"map":"koth_viaduct","folder":"tf","game":"Team Fortress","app_id":440,"player_count":0,"max_players":24,"Bots":0,"server_type":"Dedicated","server_os":"Linux","password":true,"vac":true,"version":"7961495","steam_id":85568392924470001,"keywords":["cp","nocrits","nodmgspread","uncletopia"],"game_id":440,"stv_port":27016,"stv_name":"Uncletopia | Sydney | 1 | All Maps | STV","players":null},{"server_id":123,"name":"Uncletopia | Sydney | 2 | All Maps","name_short":"syd-2","host":"syd-1.au.uncletopia.com","port":27025,"enabled":true,"region":"au","cc":"au","latitude":-33.865143,"longitude":151.2099,"reserved":0,"last_update":"0001-01-01T00:00:00Z","name_a2s":"Uncletopia | Sydney | 2 | All Maps","protocol":17,"map":"koth_lakeside_final","folder":"tf","game":"Team Fortress","app_id":440,"player_count":0,"max_players":24,"Bots":0,"server_type":"Dedicated","server_os":"Linux","password":true,"vac":true,"version":"7961495","steam_id":85568392924470002,"keywords":["cp","nocrits","nodmgspread","uncletopia"],"game_id":440,"stv_port":27026,"stv_name":"Uncletopia | Sydney | 2 | All Maps | STV","players":null},{"server_id":395,"name":"Uncletopia | Sydney | 3 | All Maps","name_short":"syd-3","host":"syd-1.au.uncletopia.com","port":27035,"enabled":true,"region":"au","cc":"au","latitude":-33.865143,"longitude":151.2099,"reserved":0,"last_update":"0001-01-01T00:00:00Z","name_a2s":"Uncletopia | Sydney | 3 | All Maps","protocol":17,"map":"pl_frontier_final","folder":"tf","game":"Team Fortress","app_id":440,"player_count":0,"max_players":24,"Bots":0,"server_type":"Dedicated","server_os":"Linux","password":true,"vac":true,"version":"7961495","steam_id":85568392925194467,"keywords":["nocrits","nodmgspread","payload","uncletopia"],"game_id":440,"stv_port":27036,"stv_name":"Uncletopia | Sydney | 3 | All Maps | STV","players":null},{"server_id":396,"name":"Uncletopia | Sydney | 4 | All Maps","name_short":"syd-4","host":"syd-1.au.uncletopia.com","port":27045,"enabled":true,"region":"au","cc":"au","latitude":-33.865143,"longitude":151.2099,"reserved":0,"last_update":"0001-01-01T00:00:00Z","name_a2s":"Uncletopia | Sydney | 4 | All Maps","protocol":17,"map":"cp_process_final","folder":"tf","game":"Team Fortress","app_id":440,"player_count":0,"max_players":24,"Bots":0,"server_type":"Dedicated","server_os":"Linux","password":true,"vac":true,"version":"7961495","steam_id":85568392925397958,"keywords":["cp","nocrits","nodmgspread","uncletopia"],"game_id":440,"stv_port":27046,"stv_name":"Uncletopia | Sydney | 4 | All Maps | STV","players":null},{"server_id":58,"name":"Uncletopia | Sydney | 5 | Stopwatch","name_short":"syd-5","host":"syd-1.au.uncletopia.com","port":27055,"enabled":true,"region":"au","cc":"au","latitude":-33.865143,"longitude":151.2099,"reserved":0,"last_update":"0001-01-01T00:00:00Z","name_a2s":"Uncletopia | Sydney | 5 | Stopwatch","protocol":17,"map":"pl_frontier_final","folder":"tf","game":"Team Fortress","app_id":440,"player_count":0,"max_players":24,"Bots":0,"server_type":"Dedicated","server_os":"Linux","password":true,"vac":true,"version":"7961495","steam_id":85568392925397959,"keywords":["nocrits","nodmgspread","payload","uncletopia"],"game_id":440,"stv_port":27056,"stv_name":"Uncletopia | Sydney | 5 | Stopwatch | STV","players":null},{"server_id":59,"name":"Uncletopia | Sydney | 6 | Community","name_short":"syd-6","host":"syd-1.au.uncletopia.com","port":27065,"enabled":true,"region":"au","cc":"au","latitude":-33.865143,"longitude":151.2099,"reserved":0,"last_update":"0001-01-01T00:00:00Z","name_a2s":"Uncletopia | Sydney | 6 | Community","protocol":17,"map":"cp_sunshine","folder":"tf","game":"Team Fortress","app_id":440,"player_count":0,"max_players":24,"Bots":0,"server_type":"Dedicated","server_os":"Linux","password":true,"vac":true,"version":"7961495","steam_id":85568392925397960,"keywords":["cp","nocrits","nodmgspread","uncletopia"],"game_id":440,"stv_port":27066,"stv_name":"Uncletopia | Sydney | 6 | Community | STV","players":null},{"server_id":49,"name":"Uncletopia | Warsaw | 1 | One Thousand Uncles","name_short":"waw-1","host":"waw-1.pl.uncletopia.com","port":27015,"enabled":true,"region":"eu","cc":"pl","latitude":52.2297,"longitude":21.017532,"reserved":0,"last_update":"0001-01-01T00:00:00Z","name_a2s":"Uncletopia | Warsaw | 1 | One Thousand Uncles","protocol":17,"map":"pl_goldrush","folder":"tf","game":"Team Fortress","app_id":440,"player_count":24,"max_players":32,"Bots":16,"server_type":"Dedicated","server_os":"Linux","password":true,"vac":true,"version":"7961495","steam_id":85568392925397850,"keywords":["alltalk","bots","danepve","increased_maxplayers","nocrits","norespawntime","payload","uncletopia"],"game_id":440,"stv_port":0,"stv_name":"","players":[{"user_id":625,"name":"EetWontFlush","steam_id":76561198145118284,"connected_time":1166000000000,"state":"active","ping":88},{"user_id":627,"name":"erdemozgurytt","steam_id":76561199500260951,"connected_time":579000000000,"state":"active","ping":89},{"user_id":621,"name":"tyroksi :D","steam_id":76561198103875245,"connected_time":1526000000000,"state":"active","ping":106},{"user_id":619,"name":"Who?","steam_id":76561198271901063,"connected_time":1766000000000,"state":"active","ping":81},{"user_id":536,"name":"yes man","steam_id":76561199403589748,"connected_time":8316000000000,"state":"active","ping":152},{"user_id":611,"name":"( Õ†¬∞ Õü ñ Õ°¬∞)","steam_id":76561199362861027,"connected_time":2918000000000,"state":"active","ping":312},{"user_id":620,"name":"Ox","steam_id":76561198995730614,"connected_time":1681000000000,"state":"active","ping":39},{"user_id":630,"name":"The last Braincell","steam_id":76561199145278275,"connected_time":188000000000,"state":"active","ping":63}]},{"server_id":50,"name":"Uncletopia | Warsaw | 2 | One Thousand Uncles","name_short":"waw-2","host":"waw-1.pl.uncletopia.com","port":27025,"enabled":true,"region":"eu","cc":"pl","latitude":52.2297,"longitude":21.017532,"reserved":0,"last_update":"0001-01-01T00:00:00Z","name_a2s":"Uncletopia | Warsaw | 2 | One Thousand Uncles","protocol":17,"map":"cp_egypt_final","folder":"tf","game":"Team Fortress","app_id":440,"player_count":0,"max_players":32,"Bots":0,"server_type":"Dedicated","server_os":"Linux","password":true,"vac":true,"version":"7961495","steam_id":85568392925397851,"keywords":["alltalk","cp","danepve","increased_maxplayers","nocrits","norespawntime","uncletopia"],"game_id":440,"stv_port":0,"stv_name":"","players":null},{"server_id":51,"name":"Uncletopia | Warsaw | 3 | All Maps","name_short":"waw-3","host":"waw-1.pl.uncletopia.com","port":27035,"enabled":true,"region":"eu","cc":"pl","latitude":52.2297,"longitude":21.017532,"reserved":0,"last_update":"0001-01-01T00:00:00Z","name_a2s":"Uncletopia | Warsaw | 3 | All Maps","protocol":17,"map":"cp_dustbowl","folder":"tf","game":"Team Fortress","app_id":440,"player_count":0,"max_players":24,"Bots":0,"server_type":"Dedicated","server_os":"Linux","password":true,"vac":true,"version":"7961495","steam_id":85568392925397852,"keywords":["cp","nocrits","nodmgspread","uncletopia"],"game_id":440,"stv_port":27036,"stv_name":"Uncletopia | Warsaw | 3 | All Maps | STV","players":null},{"server_id":52,"name":"Uncletopia | Warsaw | 4 | All Maps","name_short":"waw-4","host":"waw-1.pl.uncletopia.com","port":27045,"enabled":true,"region":"eu","cc":"pl","latitude":52.2297,"longitude":21.017532,"reserved":0,"last_update":"0001-01-01T00:00:00Z","name_a2s":"Uncletopia | Warsaw | 4 | All Maps","protocol":17,"map":"cp_coldfront","folder":"tf","game":"Team Fortress","app_id":440,"player_count":0,"max_players":24,"Bots":0,"server_type":"Dedicated","server_os":"Linux","password":true,"vac":true,"version":"7961495","steam_id":85568392925397853,"keywords":["cp","nocrits","nodmgspread","uncletopia"],"game_id":440,"stv_port":27046,"stv_name":"Uncletopia | Warsaw | 4 | All Maps | STV","players":null},{"server_id":53,"name":"Uncletopia | Warsaw | 5 | Stopwatch","name_short":"waw-5","host":"waw-1.pl.uncletopia.com","port":27055,"enabled":true,"region":"eu","cc":"pl","latitude":52.2297,"longitude":21.017532,"reserved":0,"last_update":"0001-01-01T00:00:00Z","name_a2s":"Uncletopia | Warsaw | 5 | Stopwatch","protocol":17,"map":"workshop/pl_badwater_pro_v12.ugc2142942074","folder":"tf","game":"Team Fortress","app_id":440,"player_count":0,"max_players":24,"Bots":0,"server_type":"Dedicated","server_os":"Linux","password":true,"vac":true,"version":"7961495","steam_id":85568392925397854,"keywords":["nocrits","nodmgspread","payload","uncletopia"],"game_id":440,"stv_port":27056,"stv_name":"Uncletopia | Warsaw | 5 | Stopwatch | STV","players":null},{"server_id":54,"name":"Uncletopia | Warsaw | 6 | Community","name_short":"waw-6","host":"waw-1.pl.uncletopia.com","port":27065,"enabled":true,"region":"eu","cc":"pl","latitude":52.2297,"longitude":21.017532,"reserved":0,"last_update":"0001-01-01T00:00:00Z","name_a2s":"Uncletopia | Warsaw | 6 | Community","protocol":17,"map":"workshop/rd_asteroid_redux_b1.ugc2154902912","folder":"tf","game":"Team Fortress","app_id":440,"player_count":0,"max_players":24,"Bots":0,"server_type":"Dedicated","server_os":"Linux","password":true,"vac":true,"version":"7961495","steam_id":85568392925397856,"keywords":["beta","nocrits","nodmgspread","rd","uncletopia"],"game_id":440,"stv_port":27066,"stv_name":"Uncletopia | Warsaw | 6 | Community | STV","players":null}]}