{"status":true,"message":"","result":[{"server_id":2,"name":"Uncletopia | Chicago | 1 | All Maps","name_short":"chi-1","host":"chi-1.us.uncletopia.com","port":27015,"enabled":true,"region":"us-central","cc":"us","latitude":41.881832,"longitude":-87.62318,"reserved":0,"last_update":"0001-01-01T00:00:00Z","name_a2s":"Uncletopia | Chicago | 1 | All Maps","protocol":17,"map":"pl_frontier_final","folder":"tf","game":"Team Fortress","app_id":440,"player_count":24,"max_players":24,"Bots":0,"server_type":"Dedicated","server_os":"Linux","password":true,"vac":true,"version":"7932396","steam_id":85568392924469984,"keywords":["nocrits","nodmgspread","payload","uncletopia"],"game_id":440,"stv_port":27016,"stv_name":"Uncletopia | Chicago | 1 | All Maps | STV","players":[{"user_id":238,"name":"Quiet","steam_id":76561198119175817,"connected_time":3688000000000,"state":"active","ping":85},{"user_id":278,"name":"Jasper Zawn","steam_id":76561198077651204,"connected_time":889000000000,"state":"active","ping":61},{"user_id":284,"name":"Pluto","steam_id":76561198338593690,"connected_time":215000000000,"state":"active","ping":80},{"user_id":281,"name":"Giorno_Giovanna","steam_id":76561199014402406,"connected_time":478000000000,"state":"active","ping":82},{"user_id":206,"name":"Carl, Good to see you","steam_id":76561198070574075,"connected_time":7193000000000,"state":"active","ping":71},{"user_id":279,"name":"Scotty","steam_id":76561198268006443,"connected_time":866000000000,"state":"active","ping":90},{"user_id":246,"name":"!mute","steam_id":76561198219209367,"connected_time":3585000000000,"state":"active","ping":67},{"user_id":201,"name":"Apetometrist","steam_id":76561198045391635,"connected_time":7548000000000,"state":"active","ping":59},{"user_id":285,"name":"Jackie_Lope","steam_id":76561198048297412,"connected_time":188000000000,"state":"active","ping":48},{"user_id":280,"name":"TheAlmightyG","steam_id":76561198235946096,"connected_time":803000000000,"state":"active","ping":95},{"user_id":243,"name":"dubspol","steam_id":76561198114845137,"connected_time":3596000000000,"state":"active","ping":70},{"user_id":261,"name":"Morkmindy","steam_id":76561198065017954,"connected_time":2250000000000,"state":"active","ping":86},{"user_id":247,"name":"Swiftmend","steam_id":76561197995595692,"connected_time":3580000000000,"state":"active","ping":76},{"user_id":249,"name":"ᓀ‸ᓂ","steam_id":76561198046055673,"connected_time":3541000000000,"state":"active","ping":75},{"user_id":250,"name":"Kimba","steam_id":76561199092078325,"connected_time":3528000000000,"state":"active","ping":72},{"user_id":252,"name":"Stargazer","steam_id":76561198075490415,"connected_time":2930000000000,"state":"active","ping":73},{"user_id":283,"name":"Don't Fuckle with Shuckle","steam_id":76561199020102367,"connected_time":241000000000,"state":"active","ping":92},{"user_id":244,"name":"Hadvar","steam_id":76561198081681234,"connected_time":3594000000000,"state":"active","ping":77},{"user_id":266,"name":"alfajoor","steam_id":76561198968262613,"connected_time":1838000000000,"state":"active","ping":141},{"user_id":272,"name":"Quest For Prime Cuts","steam_id":76561198974286387,"connected_time":1438000000000,"state":"active","ping":70},{"user_id":240,"name":"crispy","steam_id":76561198971106376,"connected_time":3616000000000,"state":"active","ping":48},{"user_id":268,"name":"I'm luvin dis here rap game $$$","steam_id":76561199127423378,"connected_time":1581000000000,"state":"active","ping":110},{"user_id":276,"name":"gary","steam_id":76561198140226890,"connected_time":1199000000000,"state":"active","ping":60},{"user_id":277,"name":"StealthyZeroTwo","steam_id":76561198942692649,"connected_time":1066000000000,"state":"active","ping":77}]},{"server_id":106,"name":"Uncletopia | Chicago | 2 | All Maps","name_short":"chi-2","host":"chi-1.us.uncletopia.com","port":27025,"enabled":true,"region":"us-central","cc":"us","latitude":41.881832,"longitude":-87.62318,"reserved":0,"last_update":"0001-01-01T00:00:00Z","name_a2s":"Uncletopia | Chicago | 2 | All Maps","protocol":17,"map":"pl_upward","folder":"tf","game":"Team Fortress","app_id":440,"player_count":24,"max_players":24,"Bots":0,"server_type":"Dedicated","server_os":"Linux","password":true,"vac":true,"version":"7932396","steam_id":85568392924469985,"keywords":["nocrits","nodmgspread","payload","uncletopia"],"game_id":440,"stv_port":27026,"stv_name":"Uncletopia | Chicago | 2 | All Maps | STV","players":[{"user_id":5,"name":"ColorFury","steam_id":76561199109865481,"connected_time":3829000000000,"state":"active","ping":63},{"user_id":37,"name":"Fat Engi","steam_id":76561199243208497,"connected_time":1506000000000,"state":"active","ping":163},{"user_id":8,"name":"Captain Dusk","steam_id":76561199093333752,"connected_time":3098000000000,"state":"active","ping":81},{"user_id":9,"name":"Scientist005","steam_id":76561198117825609,"connected_time":2814000000000,"state":"active","ping":66},{"user_id":36,"name":"Dude","steam_id":76561199058616824,"connected_time":1537000000000,"state":"active","ping":70},{"user_id":11,"name":"Missing Minus","steam_id":76561198120822928,"connected_time":2773000000000,"state":"active","ping":58},{"user_id":54,"name":"Mysterious Stranger","steam_id":76561198212044371,"connected_time":94000000000,"state":"active","ping":67},{"user_id":47,"name":"Sugahu17S","steam_id":76561198799403828,"connected_time":333000000000,"state":"active","ping":54},{"user_id":14,"name":"Shady Businessman","steam_id":76561198143855968,"connected_time":2383000000000,"state":"active","ping":89},{"user_id":15,"name":"StompOnYourFace!!!!","steam_id":76561198065581117,"connected_time":2361000000000,"state":"active","ping":67},{"user_id":16,"name":"civilian","steam_id":76561198289811981,"connected_time":2349000000000,"state":"active","ping":80},{"user_id":17,"name":"glitch","steam_id":76561197979495589,"connected_time":2343000000000,"state":"active","ping":64},{"user_id":51,"name":"dirtyneedle126","steam_id":76561199014705397,"connected_time":223000000000,"state":"active","ping":54},{"user_id":45,"name":"TrustworthyStranger","steam_id":76561198154105678,"connected_time":704000000000,"state":"active","ping":74},{"user_id":40,"name":"Scoter1009","steam_id":76561198315464837,"connected_time":1342000000000,"state":"active","ping":71},{"user_id":21,"name":"IrisIsntHere","steam_id":76561198388271181,"connected_time":2278000000000,"state":"active","ping":77},{"user_id":22,"name":"VioletVixsyn","steam_id":76561198388575556,"connected_time":2237000000000,"state":"active","ping":74},{"user_id":23,"name":"Gutsavo the Branded  Espadachí","steam_id":76561198133608354,"connected_time":2179000000000,"state":"active","ping":70},{"user_id":43,"name":"TecnoJm","steam_id":76561198425397694,"connected_time":1094000000000,"state":"active","ping":112},{"user_id":48,"name":"SubWay #SaveTf2","steam_id":76561198336722096,"connected_time":328000000000,"state":"active","ping":93},{"user_id":52,"name":"Epifiny","steam_id":76561198027958086,"connected_time":185000000000,"state":"active","ping":64},{"user_id":46,"name":"big steve","steam_id":76561199037050183,"connected_time":454000000000,"state":"active","ping":93},{"user_id":44,"name":"Nelson","steam_id":76561198850327678,"connected_time":1057000000000,"state":"active","ping":93},{"user_id":32,"name":"Punjabi \u003c3","steam_id":76561198982141827,"connected_time":1979000000000,"state":"active","ping":77}]},{"server_id":402,"name":"Uncletopia | Chicago | 3 | All Maps","name_short":"chi-3","host":"chi-1.us.uncletopia.com","port":27035,"enabled":true,"region":"us-central","cc":"us","latitude":41.881832,"longitude":-87.62318,"reserved":0,"last_update":"0001-01-01T00:00:00Z","name_a2s":"Uncletopia | Chicago | 3 | All Maps","protocol":17,"map":"pl_swiftwater_final1","folder":"tf","game":"Team Fortress","app_id":440,"player_count":0,"max_players":24,"Bots":0,"server_type":"Dedicated","server_os":"Linux","password":true,"vac":true,"version":"7932396","steam_id":85568392924515191,"keywords":["nocrits","nodmgspread","payload","uncletopia"],"game_id":440,"stv_port":27036,"stv_name":"Uncletopia | Chicago | 3 | All Maps | STV","players":null},{"server_id":403,"name":"Uncletopia | Chicago | 4 | All Maps","name_short":"chi-4","host":"chi-1.us.uncletopia.com","port":27045,"enabled":true,"region":"us-central","cc":"us","latitude":41.881832,"longitude":-87.62318,"reserved":0,"last_update":"0001-01-01T00:00:00Z","name_a2s":"Uncletopia | Chicago | 4 | All Maps","protocol":17,"map":"pl_barnblitz","folder":"tf","game":"Team Fortress","app_id":440,"player_count":24,"max_players":24,"Bots":0,"server_type":"Dedicated","server_os":"Linux","password":true,"vac":true,"version":"7932396","steam_id":85568392924515193,"keywords":["nocrits","nodmgspread","payload","uncletopia"],"game_id":440,"stv_port":27046,"stv_name":"Uncletopia | Chicago | 4 | All Maps | STV","players":[{"user_id":70,"name":"NikoOS (NO SOUND)","steam_id":76561198180020521,"connected_time":1996000000000,"state":"active","ping":111},{"user_id":64,"name":"Dr_Riddler","steam_id":76561198139493285,"connected_time":2307000000000,"state":"active","ping":92},{"user_id":50,"name":"SСАТТЕR","steam_id":76561198405168492,"connected_time":3544000000000,"state":"active","ping":89},{"user_id":74,"name":"(no monitor) ayylien","steam_id":76561198042127970,"connected_time":1929000000000,"state":"active","ping":74},{"user_id":73,"name":"Charlotte","steam_id":76561198194975870,"connected_time":1942000000000,"state":"active","ping":76},{"user_id":67,"name":"exotic fishes","steam_id":76561199046490785,"connected_time":2164000000000,"state":"active","ping":65},{"user_id":62,"name":"nefarious criminal","steam_id":76561198077506415,"connected_time":2382000000000,"state":"active","ping":57},{"user_id":81,"name":"beats","steam_id":76561199245717718,"connected_time":1749000000000,"state":"active","ping":66},{"user_id":82,"name":"Turbulence","steam_id":76561198173172369,"connected_time":1570000000000,"state":"active","ping":167},{"user_id":58,"name":"Aeonspassed","steam_id":76561198014016451,"connected_time":2872000000000,"state":"active","ping":54},{"user_id":85,"name":"taCtaHpoT","steam_id":76561198152736160,"connected_time":437000000000,"state":"active","ping":54},{"user_id":75,"name":"ThePatheticMedic","steam_id":76561198873083105,"connected_time":1913000000000,"state":"active","ping":56},{"user_id":86,"name":"Malevo","steam_id":76561198148606522,"connected_time":415000000000,"state":"active","ping":78},{"user_id":76,"name":"Truck-kun2107","steam_id":76561199161417910,"connected_time":1912000000000,"state":"active","ping":93},{"user_id":87,"name":"Engideer","steam_id":76561198145733164,"connected_time":385000000000,"state":"active","ping":69},{"user_id":83,"name":"lynt","steam_id":76561198988333976,"connected_time":1403000000000,"state":"active","ping":62},{"user_id":89,"name":"envy","steam_id":76561198099470277,"connected_time":101000000000,"state":"active","ping":83},{"user_id":51,"name":"pea ttv/peabeanz","steam_id":76561198119551968,"connected_time":3489000000000,"state":"active","ping":81},{"user_id":78,"name":"Kobrakiddmeow","steam_id":76561198080696266,"connected_time":1899000000000,"state":"active","ping":100},{"user_id":79,"name":"Osrio","steam_id":76561198083428069,"connected_time":1878000000000,"state":"active","ping":89},{"user_id":63,"name":"Momma Anarchy","steam_id":76561198370212718,"connected_time":2369000000000,"state":"active","ping":76},{"user_id":35,"name":"AdorableMew","steam_id":76561198186706405,"connected_time":4104000000000,"state":"active","ping":72},{"user_id":80,"name":"Bee_Pirate","steam_id":76561199000599111,"connected_time":1864000000000,"state":"active","ping":61},{"user_id":88,"name":"mOoOoOoO","steam_id":76561198145615363,"connected_time":222000000000,"state":"active","ping":103}]},{"server_id":36,"name":"Uncletopia | Chicago | 5 | All Maps","name_short":"chi-5","host":"chi-2.us.uncletopia.com","port":27015,"enabled":true,"region":"us-central","cc":"us","latitude":41.881832,"longitude":-87.62318,"reserved":0,"last_update":"0001-01-01T00:00:00Z","name_a2s":"Uncletopia | Chicago | 5 | All Maps","protocol":17,"map":"koth_cascade","folder":"tf","game":"Team Fortress","app_id":440,"player_count":0,"max_players":24,"Bots":0,"server_type":"Dedicated","server_os":"Linux","password":true,"vac":true,"version":"7932396","steam_id":85568392924866362,"keywords":["cp","nocrits","nodmgspread","uncletopia"],"game_id":440,"stv_port":27016,"stv_name":"Uncletopia | Chicago | 5 | All Maps | STV","players":null},{"server_id":37,"name":"Uncletopia | Chicago | 6 | All Maps","name_short":"chi-6","host":"chi-2.us.uncletopia.com","port":27025,"enabled":true,"region":"us-central","cc":"us","latitude":41.881832,"longitude":-87.62318,"reserved":0,"last_update":"0001-01-01T00:00:00Z","name_a2s":"Uncletopia | Chicago | 6 | All Maps","protocol":17,"map":"koth_viaduct","folder":"tf","game":"Team Fortress","app_id":440,"player_count":0,"max_players":24,"Bots":0,"server_type":"Dedicated","server_os":"Linux","password":true,"vac":true,"version":"7932396","steam_id":85568392924866363,"keywords":["cp","nocrits","nodmgspread","uncletopia"],"game_id":440,"stv_port":27026,"stv_name":"Uncletopia | Chicago | 6 | All Maps | STV","players":null},{"server_id":38,"name":"Uncletopia | Chicago | 7 | Stopwatch Beta","name_short":"chi-7","host":"chi-2.us.uncletopia.com","port":27035,"enabled":true,"region":"us-central","cc":"us","latitude":41.881832,"longitude":-87.62318,"reserved":0,"last_update":"0001-01-01T00:00:00Z","name_a2s":"Uncletopia | Chicago | 7 | Stopwatch Beta","protocol":17,"map":"pl_borneo","folder":"tf","game":"Team Fortress","app_id":440,"player_count":0,"max_players":24,"Bots":0,"server_type":"Dedicated","server_os":"Linux","password":true,"vac":true,"version":"7932396","steam_id":85568392924866364,"keywords":["nocrits","nodmgspread","payload","uncletopia"],"game_id":440,"stv_port":27036,"stv_name":"Uncletopia | Chicago | 7 | Stopwatch Beta | STV","players":null},{"server_id":39,"name":"Uncletopia | Chicago | 8 | Community","name_short":"chi-8","host":"chi-2.us.uncletopia.com","port":27045,"enabled":true,"region":"us-central","cc":"us","latitude":41.881832,"longitude":-87.62318,"reserved":0,"last_update":"0001-01-01T00:00:00Z","name_a2s":"Uncletopia | Chicago | 8 | Community","protocol":17,"map":"workshop/cp_caldera_rc2.ugc2834196889","folder":"tf","game":"Team Fortress","app_id":440,"player_count":4,"max_players":24,"Bots":0,"server_type":"Dedicated","server_os":"Linux","password":true,"vac":true,"version":"7932396","steam_id":85568392924866365,"keywords":["cp","nocrits","nodmgspread","uncletopia"],"game_id":440,"stv_port":27046,"stv_name":"Uncletopia | Chicago | 8 | Community | STV","players":[{"user_id":4,"name":"Dragoon","steam_id":76561198211973253,"connected_time":4304000000000,"state":"active","ping":115},{"user_id":15,"name":"legopirate10","steam_id":76561198178827241,"connected_time":403000000000,"state":"active","ping":45},{"user_id":16,"name":"NewGuy","steam_id":76561198968058652,"connected_time":365000000000,"state":"active","ping":99},{"user_id":17,"name":"raccoonmanthing","steam_id":76561199042222863,"connected_time":215000000000,"state":"active","ping":92}]},{"server_id":8,"name":"Uncletopia | Dallas | 1 | All Maps","name_short":"dal-1","host":"dal-1.us.uncletopia.com","port":27015,"enabled":true,"region":"us-central","cc":"us","latitude":32.779167,"longitude":-96.80889,"reserved":0,"last_update":"0001-01-01T00:00:00Z","name_a2s":"Uncletopia | Dallas | 1 | All Maps","protocol":17,"map":"cp_snakewater_final1","folder":"tf","game":"Team Fortress","app_id":440,"player_count":3,"max_players":24,"Bots":0,"server_type":"Dedicated","server_os":"Linux","password":true,"vac":true,"version":"7932396","steam_id":85568392924469986,"keywords":["cp","nocrits","nodmgspread","uncletopia"],"game_id":440,"stv_port":27016,"stv_name":"Uncletopia | Dallas | 1 | All Maps | STV","players":[{"user_id":5,"name":"Sahbi (she/they)","steam_id":76561199196292242,"connected_time":556000000000,"state":"active","ping":56},{"user_id":6,"name":"Lazy Bones","steam_id":76561198198928941,"connected_time":357000000000,"state":"active","ping":63},{"user_id":7,"name":"Brian Williams","steam_id":76561198055586865,"connected_time":54000000000,"state":"active","ping":79}]},{"server_id":108,"name":"Uncletopia | Dallas | 2 | All Maps","name_short":"dal-2","host":"dal-1.us.uncletopia.com","port":27025,"enabled":true,"region":"us-central","cc":"us","latitude":32.779167,"longitude":-96.80889,"reserved":0,"last_update":"0001-01-01T00:00:00Z","name_a2s":"Uncletopia | Dallas | 2 | All Maps","protocol":17,"map":"cp_mountainlab","folder":"tf","game":"Team Fortress","app_id":440,"player_count":0,"max_players":24,"Bots":0,"server_type":"Dedicated","server_os":"Linux","password":true,"vac":true,"version":"7932396","steam_id":85568392924469988,"keywords":["cp","nocrits","nodmgspread","uncletopia"],"game_id":440,"stv_port":27026,"stv_name":"Uncletopia | Dallas | 2 | All Maps | STV","players":null},{"server_id":5,"name":"Uncletopia | Frankfurt | 1 | All Maps","name_short":"frk-1","host":"frk-1.de.uncletopia.com","port":27015,"enabled":true,"region":"eu","cc":"de","latitude":50.110924,"longitude":8.682127,"reserved":0,"last_update":"0001-01-01T00:00:00Z","name_a2s":"Uncletopia | Frankfurt | 1 | All Maps","protocol":17,"map":"pl_barnblitz","folder":"tf","game":"Team Fortress","app_id":440,"player_count":22,"max_players":24,"Bots":0,"server_type":"Dedicated","server_os":"Linux","password":true,"vac":true,"version":"7932396","steam_id":85568392924469989,"keywords":["nocrits","nodmgspread","payload","uncletopia"],"game_id":440,"stv_port":27016,"stv_name":"Uncletopia | Frankfurt | 1 | All Maps | STV","players":[{"user_id":168,"name":"Romultra","steam_id":76561198354105082,"connected_time":4687000000000,"state":"active","ping":45},{"user_id":199,"name":"Carrot Arc","steam_id":76561198164957006,"connected_time":2557000000000,"state":"active","ping":78},{"user_id":35,"name":"Paladin","steam_id":76561198042593027,"connected_time":12599000000000,"state":"active","ping":88},{"user_id":227,"name":"elio","steam_id":76561198142662131,"connected_time":701000000000,"state":"active","ping":71},{"user_id":214,"name":"Chilchuck","steam_id":76561198432445254,"connected_time":1254000000000,"state":"active","ping":171},{"user_id":141,"name":"Mister Sezamowy","steam_id":76561199123743313,"connected_time":5887000000000,"state":"active","ping":58},{"user_id":178,"name":"zapdos981","steam_id":76561198119674397,"connected_time":4518000000000,"state":"active","ping":71},{"user_id":226,"name":"elmstJP ₪ F4.exe","steam_id":76561197997909480,"connected_time":734000000000,"state":"active","ping":75},{"user_id":228,"name":"CouT1nho","steam_id":76561198203926376,"connected_time":674000000000,"state":"active","ping":44},{"user_id":243,"name":"WolfmanCZ","steam_id":76561199157141414,"connected_time":224000000000,"state":"active","ping":69},{"user_id":246,"name":"nevim","steam_id":76561199120843402,"connected_time":68000000000,"state":"active","ping":55},{"user_id":186,"name":"ROB","steam_id":76561198982164150,"connected_time":4226000000000,"state":"active","ping":77},{"user_id":223,"name":"HwK!","steam_id":76561198287835588,"connected_time":841000000000,"state":"active","ping":86},{"user_id":245,"name":"RiX","steam_id":76561197969053733,"connected_time":204000000000,"state":"active","ping":70},{"user_id":192,"name":"Spy is Sapping my Sandwich","steam_id":76561198011840096,"connected_time":3056000000000,"state":"active","ping":61},{"user_id":244,"name":"swagmaster9000","steam_id":76561198232259356,"connected_time":223000000000,"state":"active","ping":74},{"user_id":215,"name":"Striker25","steam_id":76561197975265634,"connected_time":1229000000000,"state":"active","ping":73},{"user_id":204,"name":"villagerpl4","steam_id":76561199490067804,"connected_time":1843000000000,"state":"active","ping":94},{"user_id":216,"name":"Jogi","steam_id":76561198123330794,"connected_time":1209000000000,"state":"active","ping":90},{"user_id":241,"name":"Pes Patron","steam_id":76561199004923871,"connected_time":295000000000,"state":"active","ping":88},{"user_id":177,"name":"Acheron","steam_id":76561198306593373,"connected_time":4577000000000,"state":"active","ping":71},{"user_id":218,"name":"garry","steam_id":76561198019078145,"connected_time":1083000000000,"state":"active","ping":74}]},{"server_id":110,"name":"Uncletopia | Frankfurt | 2 | All Maps","name_short":"frk-2","host":"frk-1.de.uncletopia.com","port":27025,"enabled":true,"region":"eu","cc":"de","latitude":50.110924,"longitude":8.682127,"reserved":0,"last_update":"0001-01-01T00:00:00Z","name_a2s":"Uncletopia | Frankfurt | 2 | All Maps","protocol":17,"map":"koth_harvest_final","folder":"tf","game":"Team Fortress","app_id":440,"player_count":0,"max_players":24,"Bots":0,"server_type":"Dedicated","server_os":"Linux","password":true,"vac":true,"version":"7932396","steam_id":85568392924469990,"keywords":["cp","nocrits","nodmgspread","uncletopia"],"game_id":440,"stv_port":27026,"stv_name":"Uncletopia | Frankfurt | 2 | All Maps | STV","players":null},{"server_id":308,"name":"Uncletopia | Frankfurt | 3 | All Maps","name_short":"frk-3","host":"frk-1.de.uncletopia.com","port":27035,"enabled":true,"region":"eu","cc":"de","latitude":50.110924,"longitude":8.682127,"reserved":0,"last_update":"0001-01-01T00:00:00Z","name_a2s":"Uncletopia | Frankfurt | 3 | All Maps","protocol":17,"map":"pl_thundermountain","folder":"tf","game":"Team Fortress","app_id":440,"player_count":24,"max_players":24,"Bots":0,"server_type":"Dedicated","server_os":"Linux","password":true,"vac":true,"version":"7932396","steam_id":85568392924504274,"keywords":["nocrits","nodmgspread","payload","uncletopia"],"game_id":440,"stv_port":27036,"stv_name":"Uncletopia | Frankfurt | 3 | All Maps | STV","players":[{"user_id":399,"name":"puck","steam_id":76561198121260981,"connected_time":488000000000,"state":"active","ping":52},{"user_id":400,"name":"BOT Grzegorz g4skins","steam_id":76561198317635320,"connected_time":470000000000,"state":"active","ping":80},{"user_id":390,"name":"boykisser","steam_id":76561198024960364,"connected_time":906000000000,"state":"active","ping":57},{"user_id":385,"name":"bikerkid207","steam_id":76561198390782783,"connected_time":1486000000000,"state":"active","ping":147},{"user_id":344,"name":"Leibeigener","steam_id":76561199275478305,"connected_time":4187000000000,"state":"active","ping":34},{"user_id":329,"name":"Schogard","steam_id":76561198847318421,"connected_time":4984000000000,"state":"active","ping":118},{"user_id":392,"name":"nellic","steam_id":76561198404172173,"connected_time":723000000000,"state":"active","ping":144},{"user_id":368,"name":"nyanezt","steam_id":76561198253734265,"connected_time":2317000000000,"state":"active","ping":115},{"user_id":401,"name":"Avaros","steam_id":76561198241631054,"connected_time":457000000000,"state":"active","ping":81},{"user_id":406,"name":"PLUTO","steam_id":76561198312436128,"connected_time":168000000000,"state":"active","ping":123},{"user_id":398,"name":"Raulca25","steam_id":76561199068256964,"connected_time":560000000000,"state":"active","ping":98},{"user_id":369,"name":"Aleknat","steam_id":76561198055379857,"connected_time":2276000000000,"state":"active","ping":70},{"user_id":391,"name":"Qwerty","steam_id":76561198023525894,"connected_time":871000000000,"state":"active","ping":89},{"user_id":389,"name":"Nanope","steam_id":76561198040056071,"connected_time":1072000000000,"state":"active","ping":68},{"user_id":351,"name":"Grenade The green goblin.","steam_id":76561197979603871,"connected_time":3447000000000,"state":"active","ping":62},{"user_id":360,"name":"Kristall_54","steam_id":76561199405759756,"connected_time":2736000000000,"state":"active","ping":74},{"user_id":403,"name":"Archer","steam_id":76561197994239444,"connected_time":263000000000,"state":"active","ping":226},{"user_id":373,"name":"Kowakum","steam_id":76561197998125950,"connected_time":2207000000000,"state":"active","ping":110},{"user_id":374,"name":"Dr.Cranium","steam_id":76561197992726926,"connected_time":2202000000000,"state":"active","ping":113},{"user_id":393,"name":"Krefa12","steam_id":76561198268375393,"connected_time":704000000000,"state":"active","ping":79},{"user_id":386,"name":"Spinya","steam_id":76561198086653667,"connected_time":1449000000000,"state":"active","ping":66},{"user_id":348,"name":"Maxmen","steam_id":76561198188541510,"connected_time":3821000000000,"state":"active","ping":134},{"user_id":404,"name":"Marginal","steam_id":76561198935566138,"connected_time":242000000000,"state":"active","ping":62},{"user_id":402,"name":"yell_cup","steam_id":76561199482507575,"connected_time":318000000000,"state":"active","ping":84}]},{"server_id":309,"name":"Uncletopia | Frankfurt | 4 | All Maps","name_short":"frk-4","host":"frk-1.de.uncletopia.com","port":27045,"enabled":true,"region":"eu","cc":"de","latitude":50.110924,"longitude":8.682127,"reserved":0,"last_update":"0001-01-01T00:00:00Z","name_a2s":"Uncletopia | Frankfurt | 4 | All Maps","protocol":17,"map":"pl_badwater","folder":"tf","game":"Team Fortress","app_id":440,"player_count":24,"max_players":24,"Bots":0,"server_type":"Dedicated","server_os":"Linux","password":true,"vac":true,"version":"7932396","steam_id":85568392924504275,"keywords":["nocrits","nodmgspread","payload","uncletopia"],"game_id":440,"stv_port":27046,"stv_name":"Uncletopia | Frankfurt | 4 | All Maps | STV","players":[{"user_id":240,"name":"Alekk","steam_id":76561198093533143,"connected_time":1785000000000,"state":"active","ping":74},{"user_id":223,"name":"Lightboom","steam_id":76561198104645103,"connected_time":3152000000000,"state":"active","ping":92},{"user_id":266,"name":"C Dull","steam_id":76561198170609049,"connected_time":882000000000,"state":"active","ping":92},{"user_id":202,"name":"Saint","steam_id":76561198003296382,"connected_time":4345000000000,"state":"active","ping":63},{"user_id":263,"name":"koko","steam_id":76561198903997529,"connected_time":921000000000,"state":"active","ping":91},{"user_id":256,"name":"walking plane","steam_id":76561198146779559,"connected_time":1376000000000,"state":"active","ping":75},{"user_id":238,"name":"zinzyk","steam_id":76561198128011822,"connected_time":1888000000000,"state":"active","ping":53},{"user_id":257,"name":"Nipa5000","steam_id":76561199027332005,"connected_time":1310000000000,"state":"active","ping":85},{"user_id":230,"name":"Yelowchy","steam_id":76561198199416121,"connected_time":2676000000000,"state":"active","ping":62},{"user_id":271,"name":"glue gunner","steam_id":76561198330025106,"connected_time":785000000000,"state":"active","ping":47},{"user_id":250,"name":"Doriian","steam_id":76561198071438810,"connected_time":1526000000000,"state":"active","ping":81},{"user_id":264,"name":"Javascript best language","steam_id":76561198097507847,"connected_time":918000000000,"state":"active","ping":74},{"user_id":243,"name":"LOBZIK","steam_id":76561198114830120,"connected_time":1755000000000,"state":"active","ping":76},{"user_id":268,"name":"puuksu_mees7","steam_id":76561198022616643,"connected_time":853000000000,"state":"active","ping":76},{"user_id":269,"name":"Diamhair","steam_id":76561198109020178,"connected_time":820000000000,"state":"active","ping":79},{"user_id":219,"name":"Varsk","steam_id":76561198061398890,"connected_time":3663000000000,"state":"active","ping":60},{"user_id":270,"name":"KnusprigeKloake","steam_id":76561198051422734,"connected_time":809000000000,"state":"active","ping":40},{"user_id":247,"name":"JamesPepega","steam_id":76561198019156154,"connected_time":1698000000000,"state":"active","ping":73},{"user_id":262,"name":"beeb","steam_id":76561198211644077,"connected_time":1153000000000,"state":"active","ping":75},{"user_id":272,"name":"C#","steam_id":76561198067204908,"connected_time":781000000000,"state":"active","ping":74},{"user_id":205,"name":"sondi :)","steam_id":76561198045466209,"connected_time":4306000000000,"state":"active","ping":61},{"user_id":252,"name":"peso enjoyer","steam_id":76561198798177799,"connected_time":1483000000000,"state":"active","ping":76},{"user_id":254,"name":"♥ artisticTerror ♥","steam_id":76561198200121427,"connected_time":1413000000000,"state":"active","ping":91},{"user_id":255,"name":"AADDAAMM","steam_id":76561198068584852,"connected_time":1412000000000,"state":"active","ping":147}]},{"server_id":310,"name":"Uncletopia | Frankfurt | 5 | All Maps","name_short":"frk-5","host":"frk-1.de.uncletopia.com","port":27055,"enabled":true,"region":"eu","cc":"de","latitude":50.110924,"longitude":8.682127,"reserved":0,"last_update":"0001-01-01T00:00:00Z","name_a2s":"Uncletopia | Frankfurt | 5 | All Maps","protocol":17,"map":"koth_cascade","folder":"tf","game":"Team Fortress","app_id":440,"player_count":0,"max_players":24,"Bots":0,"server_type":"Dedicated","server_os":"Linux","password":true,"vac":true,"version":"7932396","steam_id":85568392924504277,"keywords":["cp","nocrits","nodmgspread","uncletopia"],"game_id":440,"stv_port":27056,"stv_name":"Uncletopia | Frankfurt | 5 | All Maps | STV","players":null},{"server_id":311,"name":"Uncletopia | Frankfurt | 6 | All Maps","name_short":"frk-6","host":"frk-1.de.uncletopia.com","port":27065,"enabled":true,"region":"eu","cc":"de","latitude":50.110924,"longitude":8.682127,"reserved":0,"last_update":"0001-01-01T00:00:00Z","name_a2s":"Uncletopia | Frankfurt | 6 | All Maps","protocol":17,"map":"koth_viaduct","folder":"tf","game":"Team Fortress","app_id":440,"player_count":0,"max_players":24,"Bots":0,"server_type":"Dedicated","server_os":"Linux","password":true,"vac":true,"version":"7932396","steam_id":85568392924504278,"keywords":["cp","nocrits","nodmgspread","uncletopia"],"game_id":440,"stv_port":27066,"stv_name":"Uncletopia | Frankfurt | 6 | All Maps | STV","players":null},{"server_id":23,"name":"Uncletopia | Frankfurt | 7 | Stopwatch Beta","name_short":"frk-7","host":"frk-1.de.uncletopia.com","port":27075,"enabled":true,"region":"eu","cc":"de","latitude":50.110924,"longitude":8.682127,"reserved":0,"last_update":"0001-01-01T00:00:00Z","name_a2s":"Uncletopia | Frankfurt | 7 | Stopwatch Beta","protocol":17,"map":"pl_snowycoast","folder":"tf","game":"Team Fortress","app_id":440,"player_count":0,"max_players":24,"Bots":0,"server_type":"Dedicated","server_os":"Linux","password":true,"vac":true,"version":"7932396","steam_id":85568392924742827,"keywords":["nocrits","nodmgspread","payload","uncletopia"],"game_id":440,"stv_port":27076,"stv_name":"Uncletopia | Frankfurt | 7 | Stopwatch Beta | STV","players":null},{"server_id":24,"name":"Uncletopia | Frankfurt | 8 | Community","name_short":"frk-8","host":"frk-1.de.uncletopia.com","port":27085,"enabled":true,"region":"eu","cc":"de","latitude":50.110924,"longitude":8.682127,"reserved":0,"last_update":"0001-01-01T00:00:00Z","name_a2s":"Uncletopia | Frankfurt | 8 | Community","protocol":17,"map":"workshop/koth_bagel_rc6.ugc2514036946","folder":"tf","game":"Team Fortress","app_id":440,"player_count":0,"max_players":24,"Bots":0,"server_type":"Dedicated","server_os":"Linux","password":true,"vac":true,"version":"7932396","steam_id":85568392924742828,"keywords":["cp","nocrits","nodmgspread","uncletopia"],"game_id":440,"stv_port":27086,"stv_name":"Uncletopia | Frankfurt | 8 | Community | STV","players":null},{"server_id":202,"name":"Uncletopia | Hong Kong | 1 | All Maps","name_short":"hgk-1","host":"hgk-1.hk.uncletopia.com","port":27015,"enabled":true,"region":"asia","cc":"hk","latitude":22.302711,"longitude":114.177216,"reserved":0,"last_update":"0001-01-01T00:00:00Z","name_a2s":"Uncletopia | Hong Kong | 1 | All Maps","protocol":17,"map":"pl_thundermountain","folder":"tf","game":"Team Fortress","app_id":440,"player_count":17,"max_players":24,"Bots":0,"server_type":"Dedicated","server_os":"Linux","password":true,"vac":true,"version":"7932396","steam_id":85568392924494504,"keywords":["nocrits","nodmgspread","payload","uncletopia"],"game_id":440,"stv_port":27016,"stv_name":"Uncletopia | Hong Kong | 1 | All Maps | STV","players":[{"user_id":294,"name":"Phou","steam_id":76561198322136756,"connected_time":2977000000000,"state":"active","ping":81},{"user_id":302,"name":"PROFILE NAME#savetf2","steam_id":76561199080833813,"connected_time":2262000000000,"state":"active","ping":67},{"user_id":310,"name":"Guy Name Bob","steam_id":76561198026850302,"connected_time":51000000000,"state":"active","ping":99},{"user_id":269,"name":"silverhouse7","steam_id":76561198349634906,"connected_time":4929000000000,"state":"active","ping":66},{"user_id":296,"name":"sergant twinkletoes","steam_id":76561198378829574,"connected_time":2916000000000,"state":"active","ping":66},{"user_id":311,"name":"Redux","steam_id":76561198053532761,"connected_time":51000000000,"state":"active","ping":63},{"user_id":313,"name":"rubber bubble wrap","steam_id":76561198040977805,"connected_time":34000000000,"state":"active","ping":80},{"user_id":277,"name":"쿠키","steam_id":76561197997220367,"connected_time":4677000000000,"state":"active","ping":53},{"user_id":309,"name":"NOPE","steam_id":76561199244543572,"connected_time":276000000000,"state":"active","ping":71},{"user_id":232,"name":"母の肉団子@hao123.com","steam_id":76561198069561896,"connected_time":8873000000000,"state":"active","ping":44},{"user_id":276,"name":"AmaiToxic","steam_id":76561199122491157,"connected_time":4692000000000,"state":"active","ping":74},{"user_id":308,"name":"s4(nazuna)","steam_id":76561198173486463,"connected_time":593000000000,"state":"active","ping":51},{"user_id":292,"name":"Othopeus","steam_id":76561198283534382,"connected_time":3161000000000,"state":"active","ping":64},{"user_id":299,"name":"Hoto Cocoa","steam_id":76561198134724794,"connected_time":2574000000000,"state":"active","ping":92},{"user_id":214,"name":"Stewb","steam_id":76561198131423270,"connected_time":11832000000000,"state":"active","ping":63},{"user_id":305,"name":"Pyro Is Scout","steam_id":76561198966730125,"connected_time":1393000000000,"state":"active","ping":66},{"user_id":304,"name":"Socello123","steam_id":76561198400838979,"connected_time":1636000000000,"state":"active","ping":81}]},{"server_id":1,"name":"Uncletopia | Los Angeles | 1 | All Maps","name_short":"lax-1","host":"lax-1.us.uncletopia.com","port":27015,"enabled":true,"region":"us-west","cc":"us","latitude":33.94279,"longitude":-118.41004,"reserved":0,"last_update":"0001-01-01T00:00:00Z","name_a2s":"Uncletopia | Los Angeles | 1 | All Maps","protocol":17,"map":"cp_process_final","folder":"tf","game":"Team Fortress","app_id":440,"player_count":0,"max_players":24,"Bots":0,"server_type":"Dedicated","server_os":"Linux","password":true,"vac":true,"version":"7932396","steam_id":85568392924469991,"keywords":["cp","nocrits","nodmgspread","uncletopia"],"game_id":440,"stv_port":27016,"stv_name":"Uncletopia | Los Angeles | 1 | All Maps | STV","players":null},{"server_id":112,"name":"Uncletopia | Los Angeles | 2 | All Maps","name_short":"lax-2","host":"lax-1.us.uncletopia.com","port":27025,"enabled":true,"region":"us-west","cc":"us","latitude":33.94279,"longitude":-118.41004,"reserved":0,"last_update":"0001-01-01T00:00:00Z","name_a2s":"Uncletopia | Los Angeles | 2 | All Maps","protocol":17,"map":"pl_borneo","folder":"tf","game":"Team Fortress","app_id":440,"player_count":0,"max_players":24,"Bots":0,"server_type":"Dedicated","server_os":"Linux","password":true,"vac":true,"version":"7932396","steam_id":85568392924469992,"keywords":["nocrits","nodmgspread","payload","uncletopia"],"game_id":440,"stv_port":27026,"stv_name":"Uncletopia | Los Angeles | 2 | All Maps | STV","players":null},{"server_id":324,"name":"Uncletopia | Los Angeles | 3 | All Maps","name_short":"lax-3","host":"lax-1.us.uncletopia.com","port":27035,"enabled":true,"region":"us-west","cc":"us","latitude":33.94279,"longitude":-118.41004,"reserved":0,"last_update":"0001-01-01T00:00:00Z","name_a2s":"Uncletopia | Los Angeles | 3 | All Maps","protocol":17,"map":"pl_borneo","folder":"tf","game":"Team Fortress","app_id":440,"player_count":0,"max_players":24,"Bots":0,"server_type":"Dedicated","server_os":"Linux","password":true,"vac":true,"version":"7932396","steam_id":85568392924510198,"keywords":["nocrits","nodmgspread","payload","uncletopia"],"game_id":440,"stv_port":27036,"stv_name":"Uncletopia | Los Angeles | 3 | All Maps | STV","players":null},{"server_id":25,"name":"Uncletopia | Los Angeles | 4 | Stopwatch Beta","name_short":"lax-4","host":"lax-1.us.uncletopia.com","port":27045,"enabled":true,"region":"us-west","cc":"us","latitude":33.94279,"longitude":-118.41004,"reserved":0,"last_update":"0001-01-01T00:00:00Z","name_a2s":"Uncletopia | Los Angeles | 4 | Stopwatch Beta","protocol":17,"map":"cp_altitude","folder":"tf","game":"Team Fortress","app_id":440,"player_count":0,"max_players":24,"Bots":0,"server_type":"Dedicated","server_os":"Linux","password":true,"vac":true,"version":"7932396","steam_id":85568392924510199,"keywords":["cp","nocrits","nodmgspread","uncletopia"],"game_id":440,"stv_port":27046,"stv_name":"Uncletopia | Los Angeles | 4 | Stopwatch Beta | STV","players":null},{"server_id":11,"name":"Uncletopia | London | 1 | All Maps","name_short":"lon-1","host":"lon-1.uk.uncletopia.com","port":27015,"enabled":true,"region":"eu","cc":"gb","latitude":51.509865,"longitude":-0.118092,"reserved":0,"last_update":"0001-01-01T00:00:00Z","name_a2s":"Uncletopia | London | 1 | All Maps","protocol":17,"map":"pl_pier","folder":"tf","game":"Team Fortress","app_id":440,"player_count":24,"max_players":24,"Bots":0,"server_type":"Dedicated","server_os":"Linux","password":true,"vac":true,"version":"7932396","steam_id":85568392924367362,"keywords":["nocrits","nodmgspread","payload","uncletopia"],"game_id":440,"stv_port":27016,"stv_name":"Uncletopia | London | 1 | All Maps | STV","players":[{"user_id":169,"name":"Greencoffee","steam_id":76561198842090589,"connected_time":117000000000,"state":"active","ping":71},{"user_id":168,"name":"Caerot","steam_id":76561198839000676,"connected_time":159000000000,"state":"active","ping":62},{"user_id":166,"name":"Bobbegaard","steam_id":76561199425101629,"connected_time":176000000000,"state":"active","ping":73},{"user_id":74,"name":"fecal incident","steam_id":76561198086770023,"connected_time":7858000000000,"state":"active","ping":75},{"user_id":150,"name":"After8","steam_id":76561198090750865,"connected_time":1438000000000,"state":"active","ping":69},{"user_id":172,"name":"Mimic","steam_id":76561199204932956,"connected_time":80000000000,"state":"active","ping":41},{"user_id":152,"name":"Stunner (John Gaming)","steam_id":76561199085822219,"connected_time":1055000000000,"state":"active","ping":86},{"user_id":170,"name":"Batman","steam_id":76561199041636597,"connected_time":105000000000,"state":"active","ping":76},{"user_id":114,"name":"john fortress","steam_id":76561198013237629,"connected_time":4707000000000,"state":"active","ping":93},{"user_id":126,"name":"generic alias","steam_id":76561198271607226,"connected_time":3740000000000,"state":"active","ping":83},{"user_id":157,"name":"JoeFalco","steam_id":76561198064005012,"connected_time":826000000000,"state":"active","ping":176},{"user_id":173,"name":"Whackyone5588","steam_id":76561198846242972,"connected_time":14000000000,"state":"spawning","ping":142},{"user_id":144,"name":"Koli","steam_id":76561197992428783,"connected_time":1889000000000,"state":"active","ping":60},{"user_id":83,"name":"halow","steam_id":76561198061505163,"connected_time":7223000000000,"state":"active","ping":103},{"user_id":138,"name":"duchess abigail","steam_id":76561198166953966,"connected_time":2622000000000,"state":"active","ping":59},{"user_id":163,"name":"7Tales","steam_id":76561198121572869,"connected_time":194000000000,"state":"active","ping":53},{"user_id":165,"name":"SnowShot","steam_id":76561198004766638,"connected_time":190000000000,"state":"active","ping":78},{"user_id":104,"name":"Lartsa","steam_id":76561198275690230,"connected_time":5185000000000,"state":"active","ping":114},{"user_id":171,"name":"CF-TF2","steam_id":76561198145893044,"connected_time":99000000000,"state":"active","ping":123},{"user_id":139,"name":"png.png","steam_id":76561198444446521,"connected_time":2604000000000,"state":"active","ping":116},{"user_id":159,"name":"Even Rüüd","steam_id":76561197981144291,"connected_time":747000000000,"state":"active","ping":66},{"user_id":149,"name":"Quiet Kid","steam_id":76561199134800446,"connected_time":1492000000000,"state":"active","ping":114},{"user_id":147,"name":"alpha","steam_id":76561198250491640,"connected_time":1733000000000,"state":"active","ping":43},{"user_id":156,"name":"Skinny101","steam_id":76561197985599360,"connected_time":830000000000,"state":"active","ping":55}]},{"server_id":114,"name":"Uncletopia | London | 2 | All Maps","name_short":"lon-2","host":"lon-1.uk.uncletopia.com","port":27025,"enabled":true,"region":"eu","cc":"gb","latitude":51.509865,"longitude":-0.118092,"reserved":0,"last_update":"0001-01-01T00:00:00Z","name_a2s":"Uncletopia | London | 2 | All Maps","protocol":17,"map":"koth_highpass","folder":"tf","game":"Team Fortress","app_id":440,"player_count":0,"max_players":24,"Bots":0,"server_type":"Dedicated","server_os":"Linux","password":true,"vac":true,"version":"7932396","steam_id":85568392924470941,"keywords":["cp","nocrits","nodmgspread","uncletopia"],"game_id":440,"stv_port":27026,"stv_name":"Uncletopia | London | 2 | All Maps | STV","players":null},{"server_id":320,"name":"Uncletopia | London | 3 | All Maps","name_short":"lon-3","host":"lon-1.uk.uncletopia.com","port":27035,"enabled":true,"region":"eu","cc":"gb","latitude":51.509865,"longitude":-0.118092,"reserved":0,"last_update":"0001-01-01T00:00:00Z","name_a2s":"Uncletopia | London | 3 | All Maps","protocol":17,"map":"koth_viaduct","folder":"tf","game":"Team Fortress","app_id":440,"player_count":0,"max_players":24,"Bots":0,"server_type":"Dedicated","server_os":"Linux","password":true,"vac":true,"version":"7932396","steam_id":85568392924510192,"keywords":["cp","nocrits","nodmgspread","uncletopia"],"game_id":440,"stv_port":27036,"stv_name":"Uncletopia | London | 3 | All Maps | STV","players":null},{"server_id":321,"name":"Uncletopia | London | 4 | All Maps","name_short":"lon-4","host":"lon-1.uk.uncletopia.com","port":27045,"enabled":true,"region":"eu","cc":"gb","latitude":51.509865,"longitude":-0.118092,"reserved":0,"last_update":"0001-01-01T00:00:00Z","name_a2s":"Uncletopia | London | 4 | All Maps","protocol":17,"map":"cp_snakewater_final1","folder":"tf","game":"Team Fortress","app_id":440,"player_count":0,"max_players":24,"Bots":0,"server_type":"Dedicated","server_os":"Linux","password":true,"vac":true,"version":"7932396","steam_id":85568392924510193,"keywords":["cp","nocrits","nodmgspread","uncletopia"],"game_id":440,"stv_port":27046,"stv_name":"Uncletopia | London | 4 | All Maps | STV","players":null},{"server_id":21,"name":"Uncletopia | London | 5 | All Maps","name_short":"lon-5","host":"lon-1.uk.uncletopia.com","port":27055,"enabled":true,"region":"eu","cc":"gb","latitude":51.509865,"longitude":-0.118092,"reserved":0,"last_update":"0001-01-01T00:00:00Z","name_a2s":"Uncletopia | London | 5 | All Maps","protocol":17,"map":"cp_steel","folder":"tf","game":"Team Fortress","app_id":440,"player_count":24,"max_players":24,"Bots":0,"server_type":"Dedicated","server_os":"Linux","password":true,"vac":true,"version":"7932396","steam_id":85568392924742829,"keywords":["cp","nocrits","nodmgspread","uncletopia"],"game_id":440,"stv_port":27056,"stv_name":"Uncletopia | London | 5 | All Maps | STV","players":[{"user_id":272,"name":"Grimlock","steam_id":76561198087751260,"connected_time":727000000000,"state":"active","ping":75},{"user_id":259,"name":"[☁]Emiel","steam_id":76561198063814219,"connected_time":2018000000000,"state":"active","ping":51},{"user_id":233,"name":"spy from tf2 laughing at your e","steam_id":76561198047840330,"connected_time":4303000000000,"state":"active","ping":101},{"user_id":112,"name":"wal","steam_id":76561198066043883,"connected_time":13961000000000,"state":"active","ping":54},{"user_id":267,"name":"trampampoline","steam_id":76561198121286517,"connected_time":1398000000000,"state":"active","ping":45},{"user_id":114,"name":"Naix","steam_id":76561198053893077,"connected_time":13809000000000,"state":"active","ping":53},{"user_id":258,"name":"Puss in Boots","steam_id":76561198211599767,"connected_time":2088000000000,"state":"active","ping":56},{"user_id":39,"name":"gravity displeases me","steam_id":76561198342570528,"connected_time":19726000000000,"state":"active","ping":74},{"user_id":270,"name":"Lukas","steam_id":76561198009118452,"connected_time":1279000000000,"state":"active","ping":76},{"user_id":236,"name":"無意味","steam_id":76561198139729249,"connected_time":4262000000000,"state":"active","ping":105},{"user_id":260,"name":"Joel!","steam_id":76561198155422742,"connected_time":2012000000000,"state":"active","ping":39},{"user_id":275,"name":"Geoff the Oracle","steam_id":76561198053759965,"connected_time":594000000000,"state":"active","ping":58},{"user_id":276,"name":"Literally a Trans Woman","steam_id":76561198054639925,"connected_time":506000000000,"state":"active","ping":117},{"user_id":278,"name":"shablool","steam_id":76561199192795613,"connected_time":227000000000,"state":"active","ping":92},{"user_id":165,"name":"Hexagon","steam_id":76561198151205758,"connected_time":10615000000000,"state":"active","ping":56},{"user_id":246,"name":"GabGame","steam_id":76561198105631808,"connected_time":3133000000000,"state":"active","ping":63},{"user_id":240,"name":"Omyskull","steam_id":76561198131711758,"connected_time":3548000000000,"state":"active","ping":66},{"user_id":279,"name":"Borat","steam_id":76561198122226417,"connected_time":174000000000,"state":"active","ping":35},{"user_id":273,"name":"MegaKEKER","steam_id":76561199485792353,"connected_time":718000000000,"state":"active","ping":87},{"user_id":254,"name":"DelaNo","steam_id":76561199125086655,"connected_time":2812000000000,"state":"active","ping":46},{"user_id":265,"name":"DR4GONF1RE_18","steam_id":76561198821717786,"connected_time":1766000000000,"state":"active","ping":70},{"user_id":181,"name":"Zerfesh","steam_id":76561198117534358,"connected_time":8933000000000,"state":"active","ping":102},{"user_id":269,"name":"mogwaihudson","steam_id":76561199486770715,"connected_time":1363000000000,"state":"active","ping":48},{"user_id":228,"name":"Wuffington","steam_id":76561198033762881,"connected_time":4561000000000,"state":"active","ping":47}]},{"server_id":22,"name":"Uncletopia | London | 6 | All Maps","name_short":"lon-6","host":"lon-1.uk.uncletopia.com","port":27065,"enabled":true,"region":"eu","cc":"gb","latitude":51.509865,"longitude":-0.118092,"reserved":0,"last_update":"0001-01-01T00:00:00Z","name_a2s":"Uncletopia | London | 6 | All Maps","protocol":17,"map":"pl_borneo","folder":"tf","game":"Team Fortress","app_id":440,"player_count":24,"max_players":24,"Bots":0,"server_type":"Dedicated","server_os":"Linux","password":true,"vac":true,"version":"7932396","steam_id":85568392924742830,"keywords":["nocrits","nodmgspread","payload","uncletopia"],"game_id":440,"stv_port":27066,"stv_name":"Uncletopia | London | 6 | All Maps | STV","players":[{"user_id":56,"name":"cister0","steam_id":76561198130195469,"connected_time":3341000000000,"state":"active","ping":86},{"user_id":25,"name":"jj","steam_id":76561198079200985,"connected_time":4273000000000,"state":"active","ping":52},{"user_id":78,"name":"Alegz","steam_id":76561198287810139,"connected_time":2050000000000,"state":"active","ping":65},{"user_id":66,"name":"KaasKrans","steam_id":76561198240451972,"connected_time":2472000000000,"state":"active","ping":56},{"user_id":102,"name":"cheesed to meet you","steam_id":76561198342550411,"connected_time":541000000000,"state":"active","ping":45},{"user_id":106,"name":"Fucking Nep Nep","steam_id":76561198340419043,"connected_time":153000000000,"state":"active","ping":275},{"user_id":100,"name":"Sunshine","steam_id":76561198885528098,"connected_time":777000000000,"state":"active","ping":118},{"user_id":105,"name":"FishNachoz","steam_id":76561198026519426,"connected_time":195000000000,"state":"active","ping":55},{"user_id":16,"name":"Ruth(-less bitch)","steam_id":76561198150006573,"connected_time":4530000000000,"state":"active","ping":56},{"user_id":101,"name":"Kocham Wode z Filtra","steam_id":76561198016042113,"connected_time":686000000000,"state":"active","ping":85},{"user_id":89,"name":"Akkie.","steam_id":76561198017619091,"connected_time":1299000000000,"state":"active","ping":61},{"user_id":108,"name":"Madmoose96","steam_id":76561198081888486,"connected_time":115000000000,"state":"active","ping":73},{"user_id":103,"name":"RDZ","steam_id":76561198203921628,"connected_time":326000000000,"state":"active","ping":70},{"user_id":84,"name":"Well, off to hang myself","steam_id":76561198053374944,"connected_time":1683000000000,"state":"active","ping":90},{"user_id":93,"name":"TAFI03","steam_id":76561198213082089,"connected_time":992000000000,"state":"active","ping":69},{"user_id":107,"name":"KnugenIV","steam_id":76561198127091993,"connected_time":153000000000,"state":"active","ping":60},{"user_id":53,"name":"BreadAcres","steam_id":76561198098217082,"connected_time":3436000000000,"state":"active","ping":69},{"user_id":58,"name":"Ark-e","steam_id":76561198261870909,"connected_time":2991000000000,"state":"active","ping":51},{"user_id":104,"name":"Dr. Le Quack","steam_id":76561197995711176,"connected_time":218000000000,"state":"active","ping":87},{"user_id":96,"name":"Truegear","steam_id":76561198059511386,"connected_time":857000000000,"state":"active","ping":69},{"user_id":85,"name":"Nephi","steam_id":76561198031525122,"connected_time":1679000000000,"state":"active","ping":148},{"user_id":90,"name":"the neonate nailer","steam_id":76561198977420882,"connected_time":1268000000000,"state":"active","ping":44},{"user_id":97,"name":"Yuzu","steam_id":76561198121694613,"connected_time":855000000000,"state":"active","ping":46},{"user_id":62,"name":"ROX","steam_id":76561198272289320,"connected_time":2610000000000,"state":"active","ping":91}]},{"server_id":40,"name":"Uncletopia | London | 7 | No Payload","name_short":"lon-7","host":"lon-1.uk.uncletopia.com","port":27075,"enabled":true,"region":"eu","cc":"gb","latitude":51.509865,"longitude":-0.118092,"reserved":0,"last_update":"0001-01-01T00:00:00Z","name_a2s":"Uncletopia | London | 7 | No Payload","protocol":17,"map":"koth_viaduct","folder":"tf","game":"Team Fortress","app_id":440,"player_count":23,"max_players":24,"Bots":0,"server_type":"Dedicated","server_os":"Linux","password":true,"vac":true,"version":"7932396","steam_id":85568392924964314,"keywords":["cp","nocrits","nodmgspread","uncletopia"],"game_id":440,"stv_port":27076,"stv_name":"Uncletopia | London | 7 | No Payload | STV","players":[{"user_id":499,"name":"joachym","steam_id":76561198428579761,"connected_time":649000000000,"state":"active","ping":69},{"user_id":512,"name":"BoxLag","steam_id":76561198303995144,"connected_time":247000000000,"state":"active","ping":44},{"user_id":517,"name":"Miyck","steam_id":76561198100934403,"connected_time":160000000000,"state":"active","ping":74},{"user_id":494,"name":"Banatical Bean","steam_id":76561198122356617,"connected_time":936000000000,"state":"active","ping":66},{"user_id":513,"name":"8onJour","steam_id":76561198995725491,"connected_time":240000000000,"state":"active","ping":81},{"user_id":510,"name":"Spectre","steam_id":76561198163819482,"connected_time":444000000000,"state":"active","ping":63},{"user_id":519,"name":"void_tech_1234","steam_id":76561198245254406,"connected_time":85000000000,"state":"active","ping":64},{"user_id":520,"name":"jerf(pls make me woman)","steam_id":76561199213901239,"connected_time":36000000000,"state":"active","ping":44},{"user_id":495,"name":"Dr. \u003e:( \u0026 Dionysus","steam_id":76561197969471358,"connected_time":873000000000,"state":"active","ping":53},{"user_id":490,"name":"farus","steam_id":76561198066521617,"connected_time":1027000000000,"state":"active","ping":113},{"user_id":474,"name":"Zune","steam_id":76561198119382708,"connected_time":1729000000000,"state":"active","ping":86},{"user_id":491,"name":"Begone","steam_id":76561199093369711,"connected_time":981000000000,"state":"active","ping":95},{"user_id":420,"name":"Psyche","steam_id":76561198091662001,"connected_time":4801000000000,"state":"active","ping":63},{"user_id":344,"name":"MLG Peridot","steam_id":76561198069780233,"connected_time":8330000000000,"state":"active","ping":51},{"user_id":492,"name":"Alyosha","steam_id":76561198032771167,"connected_time":971000000000,"state":"active","ping":86},{"user_id":493,"name":"P3rsErkki","steam_id":76561198063093495,"connected_time":966000000000,"state":"active","ping":61},{"user_id":481,"name":"Snus Bismarck","steam_id":76561198216254741,"connected_time":1582000000000,"state":"active","ping":86},{"user_id":487,"name":"Door","steam_id":76561198111462976,"connected_time":1183000000000,"state":"active","ping":62},{"user_id":504,"name":"Fat Pigeon","steam_id":76561198817940142,"connected_time":501000000000,"state":"active","ping":45},{"user_id":484,"name":"I.AM.THE.BOOP.WHICH.IS.APROACHI","steam_id":76561198049342507,"connected_time":1380000000000,"state":"active","ping":94},{"user_id":463,"name":"afk in the brain","steam_id":76561198334042273,"connected_time":2484000000000,"state":"active","ping":56},{"user_id":518,"name":"Blackwind III","steam_id":76561198105143440,"connected_time":136000000000,"state":"active","ping":52},{"user_id":498,"name":"Jonathan","steam_id":76561198087988880,"connected_time":665000000000,"state":"active","ping":59}]},{"server_id":41,"name":"Uncletopia | London | 8 | Community","name_short":"lon-8","host":"lon-1.uk.uncletopia.com","port":27085,"enabled":true,"region":"eu","cc":"gb","latitude":51.509865,"longitude":-0.118092,"reserved":0,"last_update":"0001-01-01T00:00:00Z","name_a2s":"Uncletopia | London | 8 | Community","protocol":17,"map":"workshop/cp_sulfur_rc2.ugc619869471","folder":"tf","game":"Team Fortress","app_id":440,"player_count":0,"max_players":24,"Bots":0,"server_type":"Dedicated","server_os":"Linux","password":true,"vac":true,"version":"7932396","steam_id":85568392924964315,"keywords":["cp","nocrits","nodmgspread","uncletopia"],"game_id":440,"stv_port":27086,"stv_name":"Uncletopia | London | 8 | Community | STV","players":null},{"server_id":300,"name":"Uncletopia | Montréal | 1 | All Maps","name_short":"mtl-1","host":"mtl-1.ca.uncletopia.com","port":27015,"enabled":true,"region":"us-east","cc":"ca","latitude":45.50889,"longitude":-73.56167,"reserved":0,"last_update":"0001-01-01T00:00:00Z","name_a2s":"Uncletopia | Montréal | 1 | All Maps","protocol":17,"map":"cp_altitude","folder":"tf","game":"Team Fortress","app_id":440,"player_count":0,"max_players":24,"Bots":0,"server_type":"Dedicated","server_os":"Linux","password":true,"vac":true,"version":"7932396","steam_id":85568392924500087,"keywords":["cp","nocrits","nodmgspread","uncletopia"],"game_id":440,"stv_port":27016,"stv_name":"Uncletopia | Montréal | 1 | All Maps | STV","players":null},{"server_id":301,"name":"Uncletopia | Montréal | 2 | All Maps","name_short":"mtl-2","host":"mtl-1.ca.uncletopia.com","port":27025,"enabled":true,"region":"us-east","cc":"ca","latitude":45.50889,"longitude":-73.56167,"reserved":0,"last_update":"0001-01-01T00:00:00Z","name_a2s":"Uncletopia | Montréal | 2 | All Maps","protocol":17,"map":"koth_lakeside_final","folder":"tf","game":"Team Fortress","app_id":440,"player_count":0,"max_players":24,"Bots":0,"server_type":"Dedicated","server_os":"Linux","password":true,"vac":true,"version":"7932396","steam_id":85568392924500088,"keywords":["cp","nocrits","nodmgspread","uncletopia"],"game_id":440,"stv_port":27026,"stv_name":"Uncletopia | Montréal | 2 | All Maps | STV","players":null},{"server_id":302,"name":"Uncletopia | Montréal | 3 | All Maps","name_short":"mtl-3","host":"mtl-1.ca.uncletopia.com","port":27035,"enabled":true,"region":"us-east","cc":"ca","latitude":45.50889,"longitude":-73.56167,"reserved":0,"last_update":"0001-01-01T00:00:00Z","name_a2s":"Uncletopia | Montréal | 3 | All Maps","protocol":17,"map":"cp_process_final","folder":"tf","game":"Team Fortress","app_id":440,"player_count":0,"max_players":24,"Bots":0,"server_type":"Dedicated","server_os":"Linux","password":true,"vac":true,"version":"7932396","steam_id":85568392924500089,"keywords":["cp","nocrits","nodmgspread","uncletopia"],"game_id":440,"stv_port":27036,"stv_name":"Uncletopia | Montréal | 3 | All Maps | STV","players":null},{"server_id":303,"name":"Uncletopia | Montréal | 4 | No Payload","name_short":"mtl-4","host":"mtl-1.ca.uncletopia.com","port":27045,"enabled":true,"region":"us-east","cc":"ca","latitude":45.50889,"longitude":-73.56167,"reserved":0,"last_update":"0001-01-01T00:00:00Z","name_a2s":"Uncletopia | Montréal | 4 | No Payload","protocol":17,"map":"cp_snakewater_final1","folder":"tf","game":"Team Fortress","app_id":440,"player_count":0,"max_players":24,"Bots":0,"server_type":"Dedicated","server_os":"Linux","password":true,"vac":true,"version":"7932396","steam_id":85568392924500090,"keywords":["cp","nocrits","nodmgspread","uncletopia"],"game_id":440,"stv_port":27046,"stv_name":"Uncletopia | Montréal | 4 | No Payload | STV","players":null},{"server_id":13,"name":"Uncletopia | New York City | 1 | All Maps","name_short":"nyc-1","host":"nyc-1.us.uncletopia.com","port":27015,"enabled":true,"region":"us-east","cc":"us","latitude":40.73061,"longitude":-73.93524,"reserved":0,"last_update":"0001-01-01T00:00:00Z","name_a2s":"Uncletopia | New York City | 1 | All Maps","protocol":17,"map":"cp_dustbowl","folder":"tf","game":"Team Fortress","app_id":440,"player_count":0,"max_players":24,"Bots":0,"server_type":"Dedicated","server_os":"Linux","password":true,"vac":true,"version":"7932396","steam_id":85568392924469993,"keywords":["cp","nocrits","nodmgspread","uncletopia"],"game_id":440,"stv_port":27016,"stv_name":"Uncletopia | New York City | 1 | All Maps | STV","players":null},{"server_id":14,"name":"Uncletopia | New York City | 2 | All Maps","name_short":"nyc-2","host":"nyc-1.us.uncletopia.com","port":27025,"enabled":true,"region":"us-east","cc":"us","latitude":40.73061,"longitude":-73.93524,"reserved":0,"last_update":"0001-01-01T00:00:00Z","name_a2s":"Uncletopia | New York City | 2 | All Maps","protocol":17,"map":"koth_lakeside_final","folder":"tf","game":"Team Fortress","app_id":440,"player_count":0,"max_players":24,"Bots":0,"server_type":"Dedicated","server_os":"Linux","password":true,"vac":true,"version":"7932396","steam_id":85568392924469994,"keywords":["cp","nocrits","nodmgspread","uncletopia"],"game_id":440,"stv_port":27026,"stv_name":"Uncletopia | New York City | 2 | All Maps | STV","players":null},{"server_id":15,"name":"Uncletopia | New York City | 3 | Stopwatch Beta","name_short":"nyc-3","host":"nyc-1.us.uncletopia.com","port":27035,"enabled":true,"region":"us-east","cc":"us","latitude":40.73061,"longitude":-73.93524,"reserved":0,"last_update":"0001-01-01T00:00:00Z","name_a2s":"Uncletopia | New York City | 3 | Stopwatch Beta","protocol":17,"map":"cp_granary","folder":"tf","game":"Team Fortress","app_id":440,"player_count":0,"max_players":24,"Bots":0,"server_type":"Dedicated","server_os":"Linux","password":true,"vac":true,"version":"7932396","steam_id":85568392924742820,"keywords":["cp","nocrits","nodmgspread","uncletopia"],"game_id":440,"stv_port":27036,"stv_name":"Uncletopia | New York City | 3 | Stopwatch Beta | STV","players":null},{"server_id":16,"name":"Uncletopia | New York City | 4 | Community","name_short":"nyc-4","host":"nyc-1.us.uncletopia.com","port":27045,"enabled":true,"region":"us-east","cc":"us","latitude":40.73061,"longitude":-73.93524,"reserved":0,"last_update":"0001-01-01T00:00:00Z","name_a2s":"Uncletopia | New York City | 4 | Community","protocol":17,"map":"pl_barnblitz","folder":"tf","game":"Team Fortress","app_id":440,"player_count":0,"max_players":24,"Bots":0,"server_type":"Dedicated","server_os":"Linux","password":true,"vac":true,"version":"7932396","steam_id":85568392924742821,"keywords":["nocrits","nodmgspread","payload","uncletopia"],"game_id":440,"stv_port":27046,"stv_name":"Uncletopia | New York City | 4 | Community | STV","players":null},{"server_id":142,"name":"Uncletopia | São Paulo | 1 | All Maps","name_short":"sao-1","host":"sao-1.br.uncletopia.com","port":27015,"enabled":true,"region":"sa","cc":"br","latitude":-23.533773,"longitude":-46.62529,"reserved":0,"last_update":"0001-01-01T00:00:00Z","name_a2s":"Uncletopia | São Paulo | 1 | All Maps","protocol":17,"map":"pl_snowycoast","folder":"tf","game":"Team Fortress","app_id":440,"player_count":0,"max_players":24,"Bots":0,"server_type":"Dedicated","server_os":"Linux","password":true,"vac":true,"version":"7932396","steam_id":85568392924469996,"keywords":["nocrits","nodmgspread","payload","uncletopia"],"game_id":440,"stv_port":27016,"stv_name":"Uncletopia | São Paulo | 1 | All Maps | STV","players":null},{"server_id":143,"name":"Uncletopia | São Paulo | 2 | All Maps","name_short":"sao-2","host":"sao-2.br.uncletopia.com","port":27015,"enabled":true,"region":"sa","cc":"br","latitude":-23.533773,"longitude":-46.62529,"reserved":0,"last_update":"0001-01-01T00:00:00Z","name_a2s":"Uncletopia | São Paulo | 2 | All Maps","protocol":17,"map":"pl_swiftwater_final1","folder":"tf","game":"Team Fortress","app_id":440,"player_count":0,"max_players":24,"Bots":0,"server_type":"Dedicated","server_os":"Linux","password":true,"vac":true,"version":"7932396","steam_id":85568392924485349,"keywords":["nocrits","nodmgspread","payload","uncletopia"],"game_id":440,"stv_port":27016,"stv_name":"Uncletopia | São Paulo | 2 | All Maps | STV","players":null},{"server_id":7,"name":"Uncletopia | Seattle | 1 | All Maps","name_short":"sea-1","host":"sea-1.us.uncletopia.com","port":27015,"enabled":true,"region":"us-west","cc":"us","latitude":47.608013,"longitude":-122.33517,"reserved":0,"last_update":"0001-01-01T00:00:00Z","name_a2s":"Uncletopia | Seattle | 1 | All Maps","protocol":17,"map":"koth_lakeside_final","folder":"tf","game":"Team Fortress","app_id":440,"player_count":17,"max_players":24,"Bots":0,"server_type":"Dedicated","server_os":"Linux","password":true,"vac":true,"version":"7932396","steam_id":85568392924469997,"keywords":["cp","nocrits","nodmgspread","uncletopia"],"game_id":440,"stv_port":27016,"stv_name":"Uncletopia | Seattle | 1 | All Maps | STV","players":[{"user_id":149,"name":"The Jarge","steam_id":76561198970722195,"connected_time":1669000000000,"state":"active","ping":114},{"user_id":168,"name":"Null | Crack Clan","steam_id":76561198895762836,"connected_time":636000000000,"state":"active","ping":71},{"user_id":150,"name":"Confirmed Bachelor","steam_id":76561198441041496,"connected_time":1643000000000,"state":"active","ping":59},{"user_id":177,"name":"Grandpa 1MinecraftEmpire","steam_id":76561198069046338,"connected_time":11000000000,"state":"spawning","ping":45},{"user_id":158,"name":"Urbanzpinapple","steam_id":76561198115426938,"connected_time":1367000000000,"state":"active","ping":99},{"user_id":130,"name":"Eris","steam_id":76561198347660282,"connected_time":2762000000000,"state":"active","ping":74},{"user_id":154,"name":"too much peyote","steam_id":76561198161747964,"connected_time":1532000000000,"state":"active","ping":71},{"user_id":173,"name":"rachael rabies","steam_id":76561198000851637,"connected_time":118000000000,"state":"active","ping":119},{"user_id":160,"name":"Jimjonjoe","steam_id":76561199195695913,"connected_time":1273000000000,"state":"active","ping":94},{"user_id":171,"name":"Dungeon Master | MTM |","steam_id":76561198050236594,"connected_time":590000000000,"state":"active","ping":76},{"user_id":175,"name":"FlamingManiac","steam_id":76561198361996837,"connected_time":16000000000,"state":"spawning","ping":208},{"user_id":140,"name":"Tinyangel124","steam_id":76561199387234901,"connected_time":2406000000000,"state":"active","ping":85},{"user_id":176,"name":"Kzjytsugn","steam_id":76561198130241974,"connected_time":14000000000,"state":"active","ping":34},{"user_id":166,"name":"cluster","steam_id":76561199248502907,"connected_time":866000000000,"state":"active","ping":139},{"user_id":121,"name":"Muralo","steam_id":76561198202160268,"connected_time":3699000000000,"state":"active","ping":43},{"user_id":141,"name":"Daz","steam_id":76561198041431938,"connected_time":2398000000000,"state":"active","ping":45},{"user_id":110,"name":"Cornsauce","steam_id":76561198085007342,"connected_time":5164000000000,"state":"active","ping":84}]},{"server_id":119,"name":"Uncletopia | Seattle | 2 | All Maps","name_short":"sea-2","host":"sea-1.us.uncletopia.com","port":27025,"enabled":true,"region":"us-west","cc":"us","latitude":47.608013,"longitude":-122.33517,"reserved":0,"last_update":"0001-01-01T00:00:00Z","name_a2s":"Uncletopia | Seattle | 2 | All Maps","protocol":17,"map":"cp_dustbowl","folder":"tf","game":"Team Fortress","app_id":440,"player_count":0,"max_players":24,"Bots":0,"server_type":"Dedicated","server_os":"Linux","password":true,"vac":true,"version":"7932396","steam_id":85568392924469998,"keywords":["cp","nocrits","nodmgspread","uncletopia"],"game_id":440,"stv_port":27026,"stv_name":"Uncletopia | Seattle | 2 | All Maps | STV","players":null},{"server_id":406,"name":"Uncletopia | Seattle | 3 | Stopwatch Beta","name_short":"sea-3","host":"sea-1.us.uncletopia.com","port":27035,"enabled":true,"region":"us-west","cc":"us","latitude":47.608013,"longitude":-122.33517,"reserved":0,"last_update":"0001-01-01T00:00:00Z","name_a2s":"Uncletopia | Seattle | 3 | Stopwatch Beta","protocol":17,"map":"cp_mountainlab","folder":"tf","game":"Team Fortress","app_id":440,"player_count":0,"max_players":24,"Bots":0,"server_type":"Dedicated","server_os":"Linux","password":true,"vac":true,"version":"7932396","steam_id":85568392924515217,"keywords":["cp","nocrits","nodmgspread","uncletopia"],"game_id":440,"stv_port":27036,"stv_name":"Uncletopia | Seattle | 3 | Stopwatch Beta | STV","players":null},{"server_id":17,"name":"Uncletopia | San Francisco | 1 | All Maps","name_short":"sfo-1","host":"sfo-1.us.uncletopia.com","port":27015,"enabled":true,"region":"us-west","cc":"us","latitude":37.77397,"longitude":-122.4313,"reserved":0,"last_update":"0001-01-01T00:00:00Z","name_a2s":"Uncletopia | San Francisco | 1 | All Maps","protocol":17,"map":"koth_highpass","folder":"tf","game":"Team Fortress","app_id":440,"player_count":0,"max_players":24,"Bots":0,"server_type":"Dedicated","server_os":"Linux","password":true,"vac":true,"version":"7932396","steam_id":85568392924469999,"keywords":["cp","nocrits","nodmgspread","uncletopia"],"game_id":440,"stv_port":27016,"stv_name":"Uncletopia | San Francisco | 1 | All Maps | STV","players":null},{"server_id":18,"name":"Uncletopia | San Francisco | 2 | All Maps","name_short":"sfo-2","host":"sfo-1.us.uncletopia.com","port":27025,"enabled":true,"region":"us-west","cc":"us","latitude":37.77397,"longitude":-122.4313,"reserved":0,"last_update":"0001-01-01T00:00:00Z","name_a2s":"Uncletopia | San Francisco | 2 | All Maps","protocol":17,"map":"pl_frontier_final","folder":"tf","game":"Team Fortress","app_id":440,"player_count":0,"max_players":24,"Bots":0,"server_type":"Dedicated","server_os":"Linux","password":true,"vac":true,"version":"7932396","steam_id":85568392924470000,"keywords":["nocrits","nodmgspread","payload","uncletopia"],"game_id":440,"stv_port":27026,"stv_name":"Uncletopia | San Francisco | 2 | All Maps | STV","players":null},{"server_id":19,"name":"Uncletopia | San Francisco | 3 | Stopwatch Beta","name_short":"sfo-3","host":"sfo-1.us.uncletopia.com","port":27035,"enabled":true,"region":"us-west","cc":"us","latitude":37.77397,"longitude":-122.4313,"reserved":0,"last_update":"0001-01-01T00:00:00Z","name_a2s":"Uncletopia | San Francisco | 3 | Stopwatch Beta","protocol":17,"map":"koth_lakeside_final","folder":"tf","game":"Team Fortress","app_id":440,"player_count":0,"max_players":24,"Bots":0,"server_type":"Dedicated","server_os":"Linux","password":true,"vac":true,"version":"7932396","steam_id":85568392924742824,"keywords":["cp","nocrits","nodmgspread","uncletopia"],"game_id":440,"stv_port":27036,"stv_name":"Uncletopia | San Francisco | 3 | Stopwatch Beta | STV","players":null},{"server_id":20,"name":"Uncletopia | San Francisco | 4 | Community","name_short":"sfo-4","host":"sfo-1.us.uncletopia.com","port":27045,"enabled":true,"region":"us-west","cc":"us","latitude":37.77397,"longitude":-122.4313,"reserved":0,"last_update":"0001-01-01T00:00:00Z","name_a2s":"Uncletopia | San Francisco | 4 | Community","protocol":17,"map":"workshop/cp_alloy_rc3.ugc592805587","folder":"tf","game":"Team Fortress","app_id":440,"player_count":0,"max_players":24,"Bots":0,"server_type":"Dedicated","server_os":"Linux","password":true,"vac":true,"version":"7932396","steam_id":85568392924742826,"keywords":["cp","nocrits","nodmgspread","uncletopia"],"game_id":440,"stv_port":27046,"stv_name":"Uncletopia | San Francisco | 4 | Community | STV","players":null},{"server_id":141,"name":"Uncletopia | Sydney | 1 | All Maps","name_short":"syd-1","host":"syd-1.au.uncletopia.com","port":27015,"enabled":true,"region":"au","cc":"au","latitude":-33.865143,"longitude":151.2099,"reserved":0,"last_update":"0001-01-01T00:00:00Z","name_a2s":"Uncletopia | Sydney | 1 | All Maps","protocol":17,"map":"koth_viaduct","folder":"tf","game":"Team Fortress","app_id":440,"player_count":0,"max_players":24,"Bots":0,"server_type":"Dedicated","server_os":"Linux","password":true,"vac":true,"version":"7932396","steam_id":85568392924470001,"keywords":["cp","nocrits","nodmgspread","uncletopia"],"game_id":440,"stv_port":27016,"stv_name":"Uncletopia | Sydney | 1 | All Maps | STV","players":null},{"server_id":123,"name":"Uncletopia | Sydney | 2 | All Maps","name_short":"syd-2","host":"syd-1.au.uncletopia.com","port":27025,"enabled":true,"region":"au","cc":"au","latitude":-33.865143,"longitude":151.2099,"reserved":0,"last_update":"0001-01-01T00:00:00Z","name_a2s":"Uncletopia | Sydney | 2 | All Maps","protocol":17,"map":"cp_altitude","folder":"tf","game":"Team Fortress","app_id":440,"player_count":0,"max_players":24,"Bots":0,"server_type":"Dedicated","server_os":"Linux","password":true,"vac":true,"version":"7932396","steam_id":85568392924470002,"keywords":["cp","nocrits","nodmgspread","uncletopia"],"game_id":440,"stv_port":27026,"stv_name":"Uncletopia | Sydney | 2 | All Maps | STV","players":null},{"server_id":395,"name":"Uncletopia | Sydney | 3 | All Maps","name_short":"syd-3","host":"syd-1.au.uncletopia.com","port":27035,"enabled":true,"region":"au","cc":"au","latitude":-33.865143,"longitude":151.2099,"reserved":0,"last_update":"0001-01-01T00:00:00Z","name_a2s":"Uncletopia | Sydney | 3 | All Maps","protocol":17,"map":"koth_cascade","folder":"tf","game":"Team Fortress","app_id":440,"player_count":0,"max_players":24,"Bots":0,"server_type":"Dedicated","server_os":"Linux","password":true,"vac":true,"version":"7932396","steam_id":85568392925194467,"keywords":["cp","nocrits","nodmgspread","uncletopia"],"game_id":440,"stv_port":27036,"stv_name":"Uncletopia | Sydney | 3 | All Maps | STV","players":null},{"server_id":396,"name":"Uncletopia | Sydney | 4 | All Maps","name_short":"syd-4","host":"syd-1.au.uncletopia.com","port":27045,"enabled":true,"region":"au","cc":"au","latitude":-33.865143,"longitude":151.2099,"reserved":0,"last_update":"0001-01-01T00:00:00Z","name_a2s":"Uncletopia | Sydney | 4 | All Maps","protocol":17,"map":"koth_cascade","folder":"tf","game":"Team Fortress","app_id":440,"player_count":0,"max_players":24,"Bots":0,"server_type":"Dedicated","server_os":"Linux","password":true,"vac":true,"version":"7932396","steam_id":85568392925397958,"keywords":["cp","nocrits","nodmgspread","uncletopia"],"game_id":440,"stv_port":27046,"stv_name":"Uncletopia | Sydney | 4 | All Maps | STV","players":null},{"server_id":58,"name":"Uncletopia | Sydney | 5 | Stopwatch Beta","name_short":"syd-5","host":"syd-1.au.uncletopia.com","port":27055,"enabled":true,"region":"au","cc":"au","latitude":-33.865143,"longitude":151.2099,"reserved":0,"last_update":"0001-01-01T00:00:00Z","name_a2s":"Uncletopia | Sydney | 5 | Stopwatch Beta","protocol":17,"map":"pl_borneo","folder":"tf","game":"Team Fortress","app_id":440,"player_count":0,"max_players":24,"Bots":0,"server_type":"Dedicated","server_os":"Linux","password":true,"vac":true,"version":"7932396","steam_id":85568392925397959,"keywords":["nocrits","nodmgspread","payload","uncletopia"],"game_id":440,"stv_port":27056,"stv_name":"Uncletopia | Sydney | 5 | Stopwatch Beta | STV","players":null},{"server_id":59,"name":"Uncletopia | Sydney | 6 | Community","name_short":"syd-6","host":"syd-1.au.uncletopia.com","port":27065,"enabled":true,"region":"au","cc":"au","latitude":-33.865143,"longitude":151.2099,"reserved":0,"last_update":"0001-01-01T00:00:00Z","name_a2s":"Uncletopia | Sydney | 6 | Community","protocol":17,"map":"workshop/cp_glacier_rc6.ugc2905735376","folder":"tf","game":"Team Fortress","app_id":440,"player_count":0,"max_players":24,"Bots":0,"server_type":"Dedicated","server_os":"Linux","password":true,"vac":true,"version":"7932396","steam_id":85568392925397960,"keywords":["cp","nocrits","nodmgspread","uncletopia"],"game_id":440,"stv_port":27066,"stv_name":"Uncletopia | Sydney | 6 | Community | STV","players":null},{"server_id":49,"name":"Uncletopia | Warsaw | 1 | All Maps","name_short":"waw-1","host":"waw-1.pl.uncletopia.com","port":27015,"enabled":true,"region":"eu","cc":"pl","latitude":52.2297,"longitude":21.017532,"reserved":0,"last_update":"0001-01-01T00:00:00Z","name_a2s":"","protocol":0,"map":"","folder":"","game":"","app_id":0,"player_count":0,"max_players":0,"Bots":0,"server_type":"","server_os":"","password":false,"vac":false,"version":"","steam_id":0,"keywords":null,"game_id":0,"stv_port":0,"stv_name":"","players":null},{"server_id":50,"name":"Uncletopia | Warsaw | 2 | All Maps","name_short":"waw-2","host":"waw-1.pl.uncletopia.com","port":27025,"enabled":true,"region":"eu","cc":"pl","latitude":52.2297,"longitude":21.017532,"reserved":0,"last_update":"0001-01-01T00:00:00Z","name_a2s":"Uncletopia | Warsaw | 2 | All Maps","protocol":17,"map":"cp_snakewater_final1","folder":"tf","game":"Team Fortress","app_id":440,"player_count":0,"max_players":24,"Bots":0,"server_type":"Dedicated","server_os":"Linux","password":true,"vac":true,"version":"7932396","steam_id":85568392925397851,"keywords":["cp","nocrits","nodmgspread","uncletopia"],"game_id":440,"stv_port":27026,"stv_name":"Uncletopia | Warsaw | 2 | All Maps | STV","players":null},{"server_id":51,"name":"Uncletopia | Warsaw | 3 | All Maps","name_short":"waw-3","host":"waw-1.pl.uncletopia.com","port":27035,"enabled":true,"region":"eu","cc":"pl","latitude":52.2297,"longitude":21.017532,"reserved":0,"last_update":"0001-01-01T00:00:00Z","name_a2s":"Uncletopia | Warsaw | 3 | All Maps","protocol":17,"map":"pl_borneo","folder":"tf","game":"Team Fortress","app_id":440,"player_count":4,"max_players":24,"Bots":0,"server_type":"Dedicated","server_os":"Linux","password":true,"vac":true,"version":"7932396","steam_id":85568392925397852,"keywords":["nocrits","nodmgspread","payload","uncletopia"],"game_id":440,"stv_port":27036,"stv_name":"Uncletopia | Warsaw | 3 | All Maps | STV","players":[{"user_id":35,"name":"Amyxts36","steam_id":76561198872232094,"connected_time":414000000000,"state":"active","ping":208},{"user_id":37,"name":"Momovsky","steam_id":76561198005738407,"connected_time":399000000000,"state":"active","ping":73},{"user_id":31,"name":"Rez","steam_id":76561198410598772,"connected_time":969000000000,"state":"active","ping":53},{"user_id":23,"name":"Braquemart le Barbare","steam_id":76561198799097492,"connected_time":1655000000000,"state":"active","ping":64}]},{"server_id":52,"name":"Uncletopia | Warsaw | 4 | All Maps","name_short":"waw-4","host":"waw-1.pl.uncletopia.com","port":27045,"enabled":true,"region":"eu","cc":"pl","latitude":52.2297,"longitude":21.017532,"reserved":0,"last_update":"0001-01-01T00:00:00Z","name_a2s":"Uncletopia | Warsaw | 4 | All Maps","protocol":17,"map":"cp_dustbowl","folder":"tf","game":"Team Fortress","app_id":440,"player_count":2,"max_players":24,"Bots":0,"server_type":"Dedicated","server_os":"Linux","password":true,"vac":true,"version":"7932396","steam_id":85568392925397853,"keywords":["cp","nocrits","nodmgspread","uncletopia"],"game_id":440,"stv_port":27046,"stv_name":"Uncletopia | Warsaw | 4 | All Maps | STV","players":[{"user_id":7,"name":"griddy hitter na bojišti","steam_id":76561198406483941,"connected_time":624000000000,"state":"active","ping":84},{"user_id":8,"name":"39","steam_id":76561199091672937,"connected_time":371000000000,"state":"active","ping":79}]},{"server_id":53,"name":"Uncletopia | Warsaw | 5 | Stopwatch Beta","name_short":"waw-5","host":"waw-1.pl.uncletopia.com","port":27055,"enabled":true,"region":"eu","cc":"pl","latitude":52.2297,"longitude":21.017532,"reserved":0,"last_update":"0001-01-01T00:00:00Z","name_a2s":"Uncletopia | Warsaw | 5 | Stopwatch Beta","protocol":17,"map":"koth_highpass","folder":"tf","game":"Team Fortress","app_id":440,"player_count":0,"max_players":24,"Bots":0,"server_type":"Dedicated","server_os":"Linux","password":true,"vac":true,"version":"7932396","steam_id":85568392925397854,"keywords":["cp","nocrits","nodmgspread","uncletopia"],"game_id":440,"stv_port":27056,"stv_name":"Uncletopia | Warsaw | 5 | Stopwatch Beta | STV","players":null},{"server_id":54,"name":"Uncletopia | Warsaw | 6 | Community","name_short":"waw-6","host":"waw-1.pl.uncletopia.com","port":27065,"enabled":true,"region":"eu","cc":"pl","latitude":52.2297,"longitude":21.017532,"reserved":0,"last_update":"0001-01-01T00:00:00Z","name_a2s":"Uncletopia | Warsaw | 6 | Community","protocol":17,"map":"workshop/pl_shoreleave_rc2.ugc1238849347","folder":"tf","game":"Team Fortress","app_id":440,"player_count":0,"max_players":24,"Bots":0,"server_type":"Dedicated","server_os":"Linux","password":true,"vac":true,"version":"7932396","steam_id":85568392925397856,"keywords":["nocrits","nodmgspread","payload","uncletopia"],"game_id":440,"stv_port":27066,"stv_name":"Uncletopia | Warsaw | 6 | Community | STV","players":null}]}