{"status":true,"message":"","result":[{"server_id":9,"name":"Uncletopia | Atlanta | 1 | All Maps","name_short":"atl-1","host":"atl-1.us.uncletopia.com","port":27015,"enabled":true,"region":"us-east","cc":"us","latitude":33.753746,"longitude":-84.38633,"reserved":0,"last_update":"0001-01-01T00:00:00Z","name_a2s":"Uncletopia | Atlanta | 1 | All Maps","protocol":17,"map":"cp_process_final","folder":"tf","game":"Team Fortress","app_id":440,"player_count":24,"max_players":24,"Bots":0,"server_type":"Dedicated","server_os":"Linux","password":true,"vac":true,"version":"7757534","steam_id":85568392924469982,"keywords":["cp","nocrits","nodmgspread","uncletopia"],"game_id":440,"stv_port":27016,"stv_name":"Uncletopia | Atlanta | 1 | All Maps | STV","players":[{"user_id":454,"name":"melancholy","steam_id":76561198024301465,"connected_time":8588000000000,"state":"active","ping":44},{"user_id":540,"name":"Shathe","steam_id":76561198061268044,"connected_time":2051000000000,"state":"active","ping":82},{"user_id":566,"name":"mrcatman","steam_id":76561198358434883,"connected_time":87000000000,"state":"active","ping":71},{"user_id":514,"name":"Dr.Zarann","steam_id":76561198163952958,"connected_time":4495000000000,"state":"active","ping":54},{"user_id":549,"name":"vitamin","steam_id":76561198277799227,"connected_time":1331000000000,"state":"active","ping":62},{"user_id":538,"name":"Jin Gulilo","steam_id":76561198065151242,"connected_time":2357000000000,"state":"active","ping":71},{"user_id":510,"name":"lil hog","steam_id":76561199230929836,"connected_time":4719000000000,"state":"active","ping":78},{"user_id":563,"name":"Pascal","steam_id":76561198902657591,"connected_time":524000000000,"state":"active","ping":52},{"user_id":495,"name":"Ellis","steam_id":76561198072685954,"connected_time":5708000000000,"state":"active","ping":138},{"user_id":532,"name":"Flint","steam_id":76561198066547582,"connected_time":2568000000000,"state":"active","ping":104},{"user_id":556,"name":"MyamE","steam_id":76561198133278462,"connected_time":884000000000,"state":"active","ping":78},{"user_id":395,"name":"eish","steam_id":76561198089463603,"connected_time":14092000000000,"state":"active","ping":117},{"user_id":558,"name":"cheeks","steam_id":76561197993371179,"connected_time":872000000000,"state":"active","ping":46},{"user_id":555,"name":"stink","steam_id":76561198099318923,"connected_time":888000000000,"state":"active","ping":75},{"user_id":562,"name":"ATL1 | Psionic Box","steam_id":76561198151019322,"connected_time":548000000000,"state":"active","ping":60},{"user_id":564,"name":"Houndoo","steam_id":76561198079003902,"connected_time":254000000000,"state":"active","ping":70},{"user_id":567,"name":"CapnKris22","steam_id":76561198049010994,"connected_time":32000000000,"state":"spawning","ping":244},{"user_id":471,"name":"‚òô Corrupt ‚ùß","steam_id":76561197977631915,"connected_time":7408000000000,"state":"active","ping":58},{"user_id":560,"name":"I\u003c3 DUSTBOWL STEEL AND VANGUARD","steam_id":76561198333513882,"connected_time":857000000000,"state":"active","ping":70},{"user_id":554,"name":"THE MONARCH","steam_id":76561198144158938,"connected_time":1138000000000,"state":"active","ping":50},{"user_id":552,"name":"‚áå|œütriKer|‚áã","steam_id":76561199389089862,"connected_time":1248000000000,"state":"active","ping":139},{"user_id":537,"name":"RabidTaco","steam_id":76561198023404808,"connected_time":2543000000000,"state":"active","ping":63},{"user_id":467,"name":"ATL1 | Vee (very cool)","steam_id":76561198330432889,"connected_time":7902000000000,"state":"active","ping":69},{"user_id":545,"name":"wife","steam_id":76561198141795632,"connected_time":1907000000000,"state":"active","ping":55}]},{"server_id":400,"name":"Uncletopia | Atlanta | 3 | Community","name_short":"atl-3","host":"atl-1.us.uncletopia.com","port":27035,"enabled":true,"region":"us-east","cc":"us","latitude":33.753746,"longitude":-84.38633,"reserved":0,"last_update":"0001-01-01T00:00:00Z","name_a2s":"Uncletopia | Atlanta | 3 | Community","protocol":17,"map":"workshop/cp_bruhstbowl_b5.ugc2878604990","folder":"tf","game":"Team Fortress","app_id":440,"player_count":23,"max_players":24,"Bots":0,"server_type":"Dedicated","server_os":"Linux","password":true,"vac":true,"version":"7757534","steam_id":85568392924515187,"keywords":["cp","nocrits","nodmgspread","uncletopia"],"game_id":440,"stv_port":27036,"stv_name":"Uncletopia | Atlanta | 3 | Community | STV","players":[{"user_id":75,"name":"iansav","steam_id":76561198346746454,"connected_time":5377000000000,"state":"active","ping":73},{"user_id":76,"name":"ribbonborn","steam_id":76561198001195423,"connected_time":5307000000000,"state":"active","ping":67},{"user_id":127,"name":"carp","steam_id":76561198042865147,"connected_time":2208000000000,"state":"active","ping":70},{"user_id":131,"name":"bigboy2457","steam_id":76561199096489471,"connected_time":1651000000000,"state":"active","ping":79},{"user_id":157,"name":"yeyoi","steam_id":76561198069821885,"connected_time":234000000000,"state":"active","ping":71},{"user_id":158,"name":"Sink","steam_id":76561198192420249,"connected_time":225000000000,"state":"active","ping":66},{"user_id":83,"name":"sinisterMayo","steam_id":76561198087244649,"connected_time":4772000000000,"state":"active","ping":74},{"user_id":144,"name":"magotago","steam_id":76561198013650292,"connected_time":866000000000,"state":"active","ping":100},{"user_id":146,"name":"Voon","steam_id":76561198166843533,"connected_time":629000000000,"state":"active","ping":72},{"user_id":85,"name":"BoneMonk","steam_id":76561198213201172,"connected_time":4651000000000,"state":"active","ping":119},{"user_id":159,"name":"one of the friends ive ever met","steam_id":76561198025489194,"connected_time":207000000000,"state":"active","ping":67},{"user_id":160,"name":"scout tf2","steam_id":76561199031241776,"connected_time":199000000000,"state":"active","ping":61},{"user_id":149,"name":"Rac","steam_id":76561198354938093,"connected_time":497000000000,"state":"active","ping":68},{"user_id":155,"name":"Jazz2T","steam_id":76561198154418867,"connected_time":396000000000,"state":"active","ping":91},{"user_id":139,"name":"HatCat","steam_id":76561198976144813,"connected_time":1118000000000,"state":"active","ping":72},{"user_id":114,"name":"ashelin praxis nude mod","steam_id":76561198167907089,"connected_time":3717000000000,"state":"active","ping":54},{"user_id":94,"name":"PISSF****T","steam_id":76561199062570438,"connected_time":4301000000000,"state":"active","ping":54},{"user_id":156,"name":"Walmart Employee","steam_id":76561198840373909,"connected_time":331000000000,"state":"active","ping":81},{"user_id":116,"name":"may (punished)","steam_id":76561198195828454,"connected_time":3240000000000,"state":"active","ping":51},{"user_id":133,"name":"QueenPinharam","steam_id":76561199015626409,"connected_time":1499000000000,"state":"active","ping":75},{"user_id":161,"name":"WitchyyWeasel","steam_id":76561199191273370,"connected_time":117000000000,"state":"active","ping":58},{"user_id":132,"name":"autumn !","steam_id":76561199207081631,"connected_time":1576000000000,"state":"active","ping":100},{"user_id":142,"name":"ninety9dragonfly","steam_id":76561198363406983,"connected_time":959000000000,"state":"active","ping":119}]},{"server_id":401,"name":"Uncletopia | Atlanta | 4 | No Payload","name_short":"atl-4","host":"atl-1.us.uncletopia.com","port":27045,"enabled":true,"region":"us-east","cc":"us","latitude":33.753746,"longitude":-84.38633,"reserved":0,"last_update":"0001-01-01T00:00:00Z","name_a2s":"","protocol":0,"map":"","folder":"","game":"","app_id":0,"player_count":0,"max_players":0,"Bots":0,"server_type":"","server_os":"","password":false,"vac":false,"version":"","steam_id":0,"keywords":null,"game_id":0,"stv_port":0,"stv_name":"","players":null},{"server_id":2,"name":"Uncletopia | Chicago | 1 | All Maps","name_short":"chi-1","host":"chi-1.us.uncletopia.com","port":27015,"enabled":true,"region":"us-central","cc":"us","latitude":41.881832,"longitude":-87.62318,"reserved":0,"last_update":"0001-01-01T00:00:00Z","name_a2s":"Uncletopia | Chicago | 1 | All Maps","protocol":17,"map":"pl_snowycoast","folder":"tf","game":"Team Fortress","app_id":440,"player_count":24,"max_players":24,"Bots":0,"server_type":"Dedicated","server_os":"Linux","password":true,"vac":true,"version":"7757534","steam_id":85568392924469984,"keywords":["nocrits","nodmgspread","payload","uncletopia"],"game_id":440,"stv_port":27016,"stv_name":"Uncletopia | Chicago | 1 | All Maps | STV","players":[{"user_id":743,"name":"Coupon","steam_id":76561198111947598,"connected_time":3396000000000,"state":"active","ping":90},{"user_id":681,"name":"Ademar","steam_id":76561199391802581,"connected_time":6868000000000,"state":"active","ping":63},{"user_id":703,"name":"boob","steam_id":76561198117256239,"connected_time":5820000000000,"state":"active","ping":45},{"user_id":758,"name":"Iron Raccoon","steam_id":76561198084676159,"connected_time":1613000000000,"state":"active","ping":53},{"user_id":736,"name":"Nephs","steam_id":76561198136763403,"connected_time":3857000000000,"state":"active","ping":74},{"user_id":768,"name":"JohnnyG","steam_id":76561198078395002,"connected_time":244000000000,"state":"active","ping":60},{"user_id":707,"name":"willow","steam_id":76561198068266114,"connected_time":5698000000000,"state":"active","ping":69},{"user_id":776,"name":"katana","steam_id":76561198079488962,"connected_time":105000000000,"state":"active","ping":98},{"user_id":773,"name":"coolguy782","steam_id":76561198165212575,"connected_time":191000000000,"state":"active","ping":71},{"user_id":741,"name":"XLMasterBlaster","steam_id":76561198106966397,"connected_time":3493000000000,"state":"active","ping":64},{"user_id":737,"name":"Trox","steam_id":76561198263581464,"connected_time":3811000000000,"state":"active","ping":86},{"user_id":765,"name":"gps","steam_id":76561198067492304,"connected_time":320000000000,"state":"active","ping":84},{"user_id":747,"name":"IGuy","steam_id":76561197996590728,"connected_time":3066000000000,"state":"active","ping":60},{"user_id":774,"name":"Liquid Oxycodone","steam_id":76561198154162664,"connected_time":174000000000,"state":"active","ping":68},{"user_id":763,"name":"micah","steam_id":76561197984579630,"connected_time":851000000000,"state":"active","ping":97},{"user_id":752,"name":"Funkadilla","steam_id":76561198420639264,"connected_time":2280000000000,"state":"active","ping":80},{"user_id":767,"name":"Cutimus","steam_id":76561198029813157,"connected_time":247000000000,"state":"active","ping":61},{"user_id":745,"name":"TheTruthOfTheCessationOfDukkha","steam_id":76561198214370515,"connected_time":3355000000000,"state":"active","ping":70},{"user_id":759,"name":"[ŸäŸáŸàÿØŸä] Bill Clinton [◊ê◊ú","steam_id":76561198163291190,"connected_time":1473000000000,"state":"active","ping":86},{"user_id":771,"name":"I am a mooshroom","steam_id":76561198104198295,"connected_time":237000000000,"state":"active","ping":86},{"user_id":756,"name":"pro-PAIN","steam_id":76561198104544593,"connected_time":2016000000000,"state":"active","ping":105},{"user_id":772,"name":"Astoriae!","steam_id":76561199090168858,"connected_time":234000000000,"state":"active","ping":79},{"user_id":760,"name":"Ero","steam_id":76561198087863312,"connected_time":1469000000000,"state":"active","ping":60},{"user_id":775,"name":"Iggly Azalea","steam_id":76561198024846050,"connected_time":129000000000,"state":"active","ping":70}]},{"server_id":106,"name":"Uncletopia | Chicago | 2 | All Maps","name_short":"chi-2","host":"chi-1.us.uncletopia.com","port":27025,"enabled":true,"region":"us-central","cc":"us","latitude":41.881832,"longitude":-87.62318,"reserved":0,"last_update":"0001-01-01T00:00:00Z","name_a2s":"Uncletopia | Chicago | 2 | All Maps","protocol":17,"map":"cp_sunshine","folder":"tf","game":"Team Fortress","app_id":440,"player_count":24,"max_players":24,"Bots":0,"server_type":"Dedicated","server_os":"Linux","password":true,"vac":true,"version":"7757534","steam_id":85568392924469985,"keywords":["cp","nocrits","nodmgspread","uncletopia"],"game_id":440,"stv_port":27026,"stv_name":"Uncletopia | Chicago | 2 | All Maps | STV","players":[{"user_id":732,"name":"Amtyk","steam_id":76561197979130554,"connected_time":1598000000000,"state":"active","ping":66},{"user_id":729,"name":"Crombun","steam_id":76561198031559642,"connected_time":2061000000000,"state":"active","ping":79},{"user_id":739,"name":"Sobertoday","steam_id":76561198010606163,"connected_time":1194000000000,"state":"active","ping":87},{"user_id":762,"name":"Buttons :)","steam_id":76561198139478534,"connected_time":267000000000,"state":"active","ping":109},{"user_id":760,"name":"Bony","steam_id":76561199001748822,"connected_time":614000000000,"state":"active","ping":88},{"user_id":725,"name":"Ragnoratsu","steam_id":76561198189688723,"connected_time":2117000000000,"state":"active","ping":45},{"user_id":726,"name":"unchi","steam_id":76561198130813230,"connected_time":2106000000000,"state":"active","ping":54},{"user_id":719,"name":"Sone","steam_id":76561198069601032,"connected_time":3074000000000,"state":"active","ping":81},{"user_id":751,"name":"kina*:„ÉªÔæü‚úß","steam_id":76561198109783729,"connected_time":899000000000,"state":"active","ping":47},{"user_id":749,"name":"Pubbington","steam_id":76561198985685870,"connected_time":1007000000000,"state":"active","ping":87},{"user_id":743,"name":"rax","steam_id":76561198987579589,"connected_time":1080000000000,"state":"active","ping":49},{"user_id":744,"name":"MR. MODE","steam_id":76561198046775352,"connected_time":1078000000000,"state":"active","ping":95},{"user_id":727,"name":"xkcd.hoverboard","steam_id":76561199079595193,"connected_time":2096000000000,"state":"active","ping":103},{"user_id":759,"name":"Roberto Del Fuego","steam_id":76561198043458554,"connected_time":783000000000,"state":"active","ping":52},{"user_id":720,"name":"Acid-talon","steam_id":76561198039545578,"connected_time":3068000000000,"state":"active","ping":80},{"user_id":746,"name":"Banjobug","steam_id":76561198025230371,"connected_time":1054000000000,"state":"active","ping":80},{"user_id":747,"name":"Bird of Paradise","steam_id":76561198891152046,"connected_time":1028000000000,"state":"active","ping":104},{"user_id":748,"name":"Lore","steam_id":76561198098407538,"connected_time":1017000000000,"state":"active","ping":58},{"user_id":750,"name":"Kartyac","steam_id":76561197991069005,"connected_time":999000000000,"state":"active","ping":81},{"user_id":689,"name":"Ace","steam_id":76561198309637160,"connected_time":5175000000000,"state":"active","ping":43},{"user_id":734,"name":"Eblizard","steam_id":76561198111481965,"connected_time":1279000000000,"state":"active","ping":89},{"user_id":761,"name":"Willy","steam_id":76561198046508940,"connected_time":309000000000,"state":"active","ping":70},{"user_id":705,"name":"noah","steam_id":76561198173310157,"connected_time":3963000000000,"state":"active","ping":59},{"user_id":735,"name":"Fiendish Frog","steam_id":76561198029478821,"connected_time":1225000000000,"state":"active","ping":75}]},{"server_id":402,"name":"Uncletopia | Chicago | 3 | All Maps","name_short":"chi-3","host":"chi-1.us.uncletopia.com","port":27035,"enabled":true,"region":"us-central","cc":"us","latitude":41.881832,"longitude":-87.62318,"reserved":0,"last_update":"0001-01-01T00:00:00Z","name_a2s":"Uncletopia | Chicago | 3 | All Maps","protocol":17,"map":"pl_badwater","folder":"tf","game":"Team Fortress","app_id":440,"player_count":24,"max_players":24,"Bots":0,"server_type":"Dedicated","server_os":"Linux","password":true,"vac":true,"version":"7757534","steam_id":85568392924515191,"keywords":["nocrits","nodmgspread","payload","uncletopia"],"game_id":440,"stv_port":27036,"stv_name":"Uncletopia | Chicago | 3 | All Maps | STV","players":[{"user_id":559,"name":"Wilhelmktx","steam_id":76561198158102295,"connected_time":8238000000000,"state":"active","ping":54},{"user_id":664,"name":"MogulSoap","steam_id":76561198043610132,"connected_time":395000000000,"state":"active","ping":81},{"user_id":657,"name":"Lynx181","steam_id":76561198090949585,"connected_time":1083000000000,"state":"active","ping":46},{"user_id":596,"name":"tacofever","steam_id":76561198010966507,"connected_time":5945000000000,"state":"active","ping":105},{"user_id":641,"name":"StatesideSnake","steam_id":76561198272957048,"connected_time":2546000000000,"state":"active","ping":93},{"user_id":663,"name":"dave strider","steam_id":76561198065112186,"connected_time":430000000000,"state":"active","ping":69},{"user_id":659,"name":"Alice in Rubberland","steam_id":76561198087328346,"connected_time":854000000000,"state":"active","ping":45},{"user_id":628,"name":"romopoji","steam_id":76561199475967281,"connected_time":3463000000000,"state":"active","ping":74},{"user_id":589,"name":"Razz","steam_id":76561198158027533,"connected_time":6186000000000,"state":"active","ping":44},{"user_id":629,"name":"Yarn","steam_id":76561199227148369,"connected_time":3456000000000,"state":"active","ping":83},{"user_id":648,"name":".BL14","steam_id":76561198374604922,"connected_time":1795000000000,"state":"active","ping":60},{"user_id":644,"name":"ww","steam_id":76561198066996002,"connected_time":2395000000000,"state":"active","ping":179},{"user_id":658,"name":"bad","steam_id":76561198372994028,"connected_time":980000000000,"state":"active","ping":80},{"user_id":661,"name":"Rein","steam_id":76561198300340427,"connected_time":436000000000,"state":"active","ping":61},{"user_id":660,"name":"Bread Baker","steam_id":76561198185335103,"connected_time":698000000000,"state":"active","ping":57},{"user_id":524,"name":"Madrox Who?","steam_id":76561197988859134,"connected_time":10825000000000,"state":"active","ping":75},{"user_id":640,"name":"Murrdogg","steam_id":76561198210491188,"connected_time":2643000000000,"state":"active","ping":59},{"user_id":668,"name":"vv","steam_id":76561198134813102,"connected_time":196000000000,"state":"active","ping":59},{"user_id":670,"name":"Satan-2","steam_id":76561199231742764,"connected_time":66000000000,"state":"active","ping":72},{"user_id":637,"name":"eWVra2Vy","steam_id":76561198453565942,"connected_time":3021000000000,"state":"active","ping":81},{"user_id":647,"name":"moe5x","steam_id":76561198316877833,"connected_time":1969000000000,"state":"active","ping":112},{"user_id":655,"name":"mr.edderkopper","steam_id":76561198152614478,"connected_time":1460000000000,"state":"active","ping":57},{"user_id":667,"name":"psy","steam_id":76561198013195018,"connected_time":341000000000,"state":"active","ping":75},{"user_id":656,"name":"L√∏st","steam_id":76561198035677801,"connected_time":1436000000000,"state":"active","ping":69}]},{"server_id":403,"name":"Uncletopia | Chicago | 4 | All Maps","name_short":"chi-4","host":"chi-1.us.uncletopia.com","port":27045,"enabled":true,"region":"us-central","cc":"us","latitude":41.881832,"longitude":-87.62318,"reserved":0,"last_update":"0001-01-01T00:00:00Z","name_a2s":"Uncletopia | Chicago | 4 | All Maps","protocol":17,"map":"cp_mercenarypark","folder":"tf","game":"Team Fortress","app_id":440,"player_count":18,"max_players":24,"Bots":0,"server_type":"Dedicated","server_os":"Linux","password":true,"vac":true,"version":"7757534","steam_id":85568392924515193,"keywords":["cp","nocrits","nodmgspread","uncletopia"],"game_id":440,"stv_port":27046,"stv_name":"Uncletopia | Chicago | 4 | All Maps | STV","players":[{"user_id":587,"name":"M@verick","steam_id":76561198006363519,"connected_time":839000000000,"state":"active","ping":72},{"user_id":599,"name":"Gian","steam_id":76561198041434512,"connected_time":293000000000,"state":"active","ping":110},{"user_id":571,"name":"CSharp","steam_id":76561199185191710,"connected_time":1655000000000,"state":"active","ping":162},{"user_id":589,"name":"Titar Industries","steam_id":76561198143078476,"connected_time":811000000000,"state":"active","ping":67},{"user_id":565,"name":"Ruben","steam_id":76561198048508642,"connected_time":1834000000000,"state":"active","ping":103},{"user_id":567,"name":"Ena","steam_id":76561198046524916,"connected_time":1765000000000,"state":"active","ping":78},{"user_id":602,"name":"Azzy","steam_id":76561198195409931,"connected_time":118000000000,"state":"active","ping":73},{"user_id":603,"name":"OrangeGuy","steam_id":76561198240712332,"connected_time":106000000000,"state":"active","ping":91},{"user_id":584,"name":"Schizophrenic Skullfox","steam_id":76561198082632923,"connected_time":983000000000,"state":"active","ping":58},{"user_id":593,"name":"Scrumpy Main","steam_id":76561198146302597,"connected_time":667000000000,"state":"active","ping":48},{"user_id":592,"name":"Mugman","steam_id":76561199011841575,"connected_time":709000000000,"state":"active","ping":69},{"user_id":550,"name":"LunarrD","steam_id":76561198811220107,"connected_time":3794000000000,"state":"active","ping":85},{"user_id":583,"name":"JimboSlice","steam_id":76561199225336634,"connected_time":1323000000000,"state":"active","ping":71},{"user_id":459,"name":"SEXY_MINIONITA","steam_id":76561198041017977,"connected_time":10653000000000,"state":"active","ping":73},{"user_id":572,"name":"Brendan","steam_id":76561198041079914,"connected_time":1653000000000,"state":"active","ping":73},{"user_id":591,"name":"Cuphead","steam_id":76561198211892779,"connected_time":795000000000,"state":"active","ping":62},{"user_id":517,"name":"MILK","steam_id":76561198253574099,"connected_time":5908000000000,"state":"active","ping":52},{"user_id":577,"name":"luka","steam_id":76561198047891247,"connected_time":1607000000000,"state":"active","ping":69}]},{"server_id":36,"name":"Uncletopia | Chicago | 5 | All Maps","name_short":"chi-5","host":"chi-2.us.uncletopia.com","port":27015,"enabled":true,"region":"us-central","cc":"us","latitude":41.881832,"longitude":-87.62318,"reserved":0,"last_update":"0001-01-01T00:00:00Z","name_a2s":"Uncletopia | Chicago | 5 | All Maps","protocol":17,"map":"pl_thundermountain","folder":"tf","game":"Team Fortress","app_id":440,"player_count":23,"max_players":24,"Bots":0,"server_type":"Dedicated","server_os":"Linux","password":true,"vac":true,"version":"7757534","steam_id":85568392924866362,"keywords":["nocrits","nodmgspread","payload","uncletopia"],"game_id":440,"stv_port":27016,"stv_name":"Uncletopia | Chicago | 5 | All Maps | STV","players":[{"user_id":594,"name":"LordOfTheNoobs","steam_id":76561197962697523,"connected_time":947000000000,"state":"active","ping":63},{"user_id":593,"name":"Dieu-Sama","steam_id":76561198002075862,"connected_time":1029000000000,"state":"active","ping":75},{"user_id":550,"name":"Robin","steam_id":76561198121165149,"connected_time":4890000000000,"state":"active","ping":38},{"user_id":523,"name":"Ishy the Lagger","steam_id":76561198835943890,"connected_time":5959000000000,"state":"active","ping":79},{"user_id":599,"name":"Andrew","steam_id":76561198070615190,"connected_time":3000000000,"state":"spawning","ping":59},{"user_id":574,"name":"Dagoth","steam_id":76561198100896443,"connected_time":3087000000000,"state":"active","ping":65},{"user_id":525,"name":"AutoCon17","steam_id":76561198209977473,"connected_time":5943000000000,"state":"active","ping":34},{"user_id":595,"name":"threethree","steam_id":76561198177354155,"connected_time":666000000000,"state":"active","ping":37},{"user_id":590,"name":"kirbo","steam_id":76561198057895955,"connected_time":1767000000000,"state":"active","ping":71},{"user_id":582,"name":"L0b5terlick","steam_id":76561198134990930,"connected_time":2567000000000,"state":"active","ping":58},{"user_id":575,"name":"kivee","steam_id":76561198838223023,"connected_time":3081000000000,"state":"active","ping":53},{"user_id":544,"name":"trashbro","steam_id":76561199417993197,"connected_time":4929000000000,"state":"active","ping":100},{"user_id":580,"name":"thecal","steam_id":76561198307893384,"connected_time":2664000000000,"state":"active","ping":59},{"user_id":596,"name":"SomeScuffedKid","steam_id":76561198086113234,"connected_time":615000000000,"state":"active","ping":62},{"user_id":597,"name":"Tanner Jarring","steam_id":76561198172024365,"connected_time":78000000000,"state":"active","ping":74},{"user_id":565,"name":"Lucid","steam_id":76561198145522551,"connected_time":4423000000000,"state":"active","ping":71},{"user_id":554,"name":"‚ù§ ‚ô• nugget ‚ô• ‚ù§","steam_id":76561198280031462,"connected_time":4841000000000,"state":"active","ping":46},{"user_id":598,"name":"Childhood Obesity","steam_id":76561198061190813,"connected_time":21000000000,"state":"active","ping":103},{"user_id":583,"name":" ï‚Ä¢·¥•‚Ä¢ î the bear","steam_id":76561197989591976,"connected_time":2553000000000,"state":"active","ping":75},{"user_id":571,"name":"Skinny Pete","steam_id":76561198801608576,"connected_time":3531000000000,"state":"active","ping":84},{"user_id":478,"name":"Walkiing","steam_id":76561198074473413,"connected_time":10092000000000,"state":"active","ping":44},{"user_id":578,"name":"„ÄåSwede„Äç","steam_id":76561198024821171,"connected_time":2946000000000,"state":"active","ping":97},{"user_id":592,"name":"C4K3","steam_id":76561197996963285,"connected_time":1051000000000,"state":"active","ping":74}]},{"server_id":37,"name":"Uncletopia | Chicago | 6 | All Maps","name_short":"chi-6","host":"chi-2.us.uncletopia.com","port":27025,"enabled":true,"region":"us-central","cc":"us","latitude":41.881832,"longitude":-87.62318,"reserved":0,"last_update":"0001-01-01T00:00:00Z","name_a2s":"Uncletopia | Chicago | 6 | All Maps","protocol":17,"map":"cp_dustbowl","folder":"tf","game":"Team Fortress","app_id":440,"player_count":23,"max_players":24,"Bots":0,"server_type":"Dedicated","server_os":"Linux","password":true,"vac":true,"version":"7757534","steam_id":85568392924866363,"keywords":["cp","nocrits","nodmgspread","uncletopia"],"game_id":440,"stv_port":27026,"stv_name":"Uncletopia | Chicago | 6 | All Maps | STV","players":[{"user_id":673,"name":"banan team fortes","steam_id":76561199073621650,"connected_time":2208000000000,"state":"active","ping":99},{"user_id":643,"name":"saltysagan","steam_id":76561197981854067,"connected_time":5372000000000,"state":"active","ping":71},{"user_id":697,"name":"kametro4","steam_id":76561198835430429,"connected_time":496000000000,"state":"active","ping":77},{"user_id":675,"name":"sergeant Adderall","steam_id":76561199010296481,"connected_time":2175000000000,"state":"active","ping":83},{"user_id":694,"name":"They Call me Mr.FussyPants","steam_id":76561198217210987,"connected_time":779000000000,"state":"active","ping":66},{"user_id":689,"name":"alolan duntski","steam_id":76561198038826744,"connected_time":1568000000000,"state":"active","ping":50},{"user_id":702,"name":"HammerHead","steam_id":76561197975668646,"connected_time":185000000000,"state":"active","ping":63},{"user_id":645,"name":"still bad at video games","steam_id":76561198328675913,"connected_time":5350000000000,"state":"active","ping":122},{"user_id":610,"name":"Swshbcklr","steam_id":76561197969421355,"connected_time":7894000000000,"state":"active","ping":63},{"user_id":644,"name":"MedRed‚Ñ¢ #IATAH","steam_id":76561198002962970,"connected_time":5366000000000,"state":"active","ping":93},{"user_id":671,"name":"earthbound393","steam_id":76561199444276547,"connected_time":2827000000000,"state":"active","ping":106},{"user_id":646,"name":"Broly From Dragon Ball Z","steam_id":76561198398934562,"connected_time":5340000000000,"state":"active","ping":75},{"user_id":703,"name":"gamer girl looking for a bf","steam_id":76561198279901162,"connected_time":170000000000,"state":"active","ping":66},{"user_id":681,"name":"hej","steam_id":76561197996366940,"connected_time":2113000000000,"state":"active","ping":61},{"user_id":695,"name":"Omni-S","steam_id":76561198082396372,"connected_time":694000000000,"state":"active","ping":79},{"user_id":621,"name":"while(1)","steam_id":76561198000876529,"connected_time":6374000000000,"state":"active","ping":45},{"user_id":640,"name":"Kraftlos","steam_id":76561198074350350,"connected_time":5411000000000,"state":"active","ping":74},{"user_id":686,"name":"Remy the rat","steam_id":76561198080519558,"connected_time":1703000000000,"state":"active","ping":76},{"user_id":696,"name":"Wolf","steam_id":76561198069458790,"connected_time":650000000000,"state":"active","ping":97},{"user_id":704,"name":"Forevershooting","steam_id":76561198124213574,"connected_time":22000000000,"state":"active","ping":109},{"user_id":699,"name":"breadtangle of pizza","steam_id":76561198045832398,"connected_time":467000000000,"state":"active","ping":84},{"user_id":700,"name":"challen","steam_id":76561197961277967,"connected_time":453000000000,"state":"active","ping":77},{"user_id":701,"name":"Timber","steam_id":76561198024886009,"connected_time":376000000000,"state":"active","ping":57}]},{"server_id":38,"name":"Uncletopia | Chicago | 7 | Stopwatch Beta","name_short":"chi-7","host":"chi-2.us.uncletopia.com","port":27035,"enabled":true,"region":"us-central","cc":"us","latitude":41.881832,"longitude":-87.62318,"reserved":0,"last_update":"0001-01-01T00:00:00Z","name_a2s":"Uncletopia | Chicago | 7 | Stopwatch Beta","protocol":17,"map":"pl_swiftwater_final1","folder":"tf","game":"Team Fortress","app_id":440,"player_count":0,"max_players":24,"Bots":0,"server_type":"Dedicated","server_os":"Linux","password":true,"vac":true,"version":"7757534","steam_id":85568392924866364,"keywords":["nocrits","nodmgspread","payload","uncletopia"],"game_id":440,"stv_port":27036,"stv_name":"Uncletopia | Chicago | 7 | Stopwatch Beta | STV","players":null},{"server_id":39,"name":"Uncletopia | Chicago | 8 | Community","name_short":"chi-8","host":"chi-2.us.uncletopia.com","port":27045,"enabled":true,"region":"us-central","cc":"us","latitude":41.881832,"longitude":-87.62318,"reserved":0,"last_update":"0001-01-01T00:00:00Z","name_a2s":"Uncletopia | Chicago | 8 | Community","protocol":17,"map":"workshop/cp_kalinka_rc6a.ugc1272700588","folder":"tf","game":"Team Fortress","app_id":440,"player_count":0,"max_players":24,"Bots":0,"server_type":"Dedicated","server_os":"Linux","password":true,"vac":true,"version":"7757534","steam_id":85568392924866365,"keywords":["cp","nocrits","nodmgspread","uncletopia"],"game_id":440,"stv_port":27046,"stv_name":"Uncletopia | Chicago | 8 | Community | STV","players":null},{"server_id":8,"name":"Uncletopia | Dallas | 1 | All Maps","name_short":"dal-1","host":"dal-1.us.uncletopia.com","port":27015,"enabled":true,"region":"us-central","cc":"us","latitude":32.779167,"longitude":-96.80889,"reserved":0,"last_update":"0001-01-01T00:00:00Z","name_a2s":"Uncletopia | Dallas | 1 | All Maps","protocol":17,"map":"cp_snakewater_final1","folder":"tf","game":"Team Fortress","app_id":440,"player_count":24,"max_players":24,"Bots":0,"server_type":"Dedicated","server_os":"Linux","password":true,"vac":true,"version":"7757534","steam_id":85568392924469986,"keywords":["cp","nocrits","nodmgspread","uncletopia"],"game_id":440,"stv_port":27016,"stv_name":"Uncletopia | Dallas | 1 | All Maps | STV","players":[{"user_id":607,"name":"Cursed Dog","steam_id":76561198090785078,"connected_time":2658000000000,"state":"active","ping":74},{"user_id":618,"name":"[_Dr.Scythe_]","steam_id":76561198845245858,"connected_time":985000000000,"state":"active","ping":65},{"user_id":638,"name":"Mr. Tickle","steam_id":76561198126684647,"connected_time":463000000000,"state":"active","ping":90},{"user_id":609,"name":"GarretGood","steam_id":76561198071881495,"connected_time":2618000000000,"state":"active","ping":89},{"user_id":637,"name":"yolginmo","steam_id":76561198157985901,"connected_time":488000000000,"state":"active","ping":117},{"user_id":627,"name":"Psych03","steam_id":76561198061753667,"connected_time":729000000000,"state":"active","ping":78},{"user_id":580,"name":"Dr. Dynamo","steam_id":76561198114569365,"connected_time":4811000000000,"state":"active","ping":64},{"user_id":598,"name":"AJones97","steam_id":76561198028973438,"connected_time":3421000000000,"state":"active","ping":82},{"user_id":639,"name":"Jared In Target","steam_id":76561198372449718,"connected_time":416000000000,"state":"active","ping":53},{"user_id":628,"name":"TheDieeg","steam_id":76561199443116996,"connected_time":687000000000,"state":"active","ping":78},{"user_id":626,"name":"Gamer9er","steam_id":76561198113637099,"connected_time":746000000000,"state":"active","ping":103},{"user_id":610,"name":"Dictator Noodle","steam_id":76561198277243768,"connected_time":2615000000000,"state":"active","ping":79},{"user_id":547,"name":"DragonHeart","steam_id":76561198013245625,"connected_time":7877000000000,"state":"active","ping":74},{"user_id":612,"name":"Yahtza","steam_id":76561198152171495,"connected_time":1935000000000,"state":"active","ping":73},{"user_id":562,"name":"Dragons\u003eEverything","steam_id":76561199140784635,"connected_time":6702000000000,"state":"active","ping":55},{"user_id":605,"name":"Shaizo","steam_id":76561199118241286,"connected_time":2834000000000,"state":"active","ping":75},{"user_id":606,"name":"Noble Sax","steam_id":76561198183283495,"connected_time":2765000000000,"state":"active","ping":60},{"user_id":590,"name":"Snoogs","steam_id":76561198444880931,"connected_time":4188000000000,"state":"active","ping":85},{"user_id":592,"name":"tekan","steam_id":76561199077174231,"connected_time":3902000000000,"state":"active","ping":99},{"user_id":611,"name":"white woman","steam_id":76561199116679777,"connected_time":2068000000000,"state":"active","ping":70},{"user_id":613,"name":"Shamrock Shake Oct.10.2020 @8pm","steam_id":76561198833313201,"connected_time":1644000000000,"state":"active","ping":85},{"user_id":641,"name":"Red","steam_id":76561198031865869,"connected_time":348000000000,"state":"active","ping":68},{"user_id":603,"name":"FlexFan420","steam_id":76561198322663988,"connected_time":3130000000000,"state":"active","ping":85},{"user_id":642,"name":"freak","steam_id":76561198049544552,"connected_time":283000000000,"state":"active","ping":45}]},{"server_id":108,"name":"Uncletopia | Dallas | 2 | All Maps","name_short":"dal-2","host":"dal-1.us.uncletopia.com","port":27025,"enabled":true,"region":"us-central","cc":"us","latitude":32.779167,"longitude":-96.80889,"reserved":0,"last_update":"0001-01-01T00:00:00Z","name_a2s":"Uncletopia | Dallas | 2 | All Maps","protocol":17,"map":"cp_egypt_final","folder":"tf","game":"Team Fortress","app_id":440,"player_count":19,"max_players":24,"Bots":0,"server_type":"Dedicated","server_os":"Linux","password":true,"vac":true,"version":"7757534","steam_id":85568392924469988,"keywords":["cp","nocrits","nodmgspread","uncletopia"],"game_id":440,"stv_port":27026,"stv_name":"Uncletopia | Dallas | 2 | All Maps | STV","players":[{"user_id":326,"name":"CreativeUsername","steam_id":76561198186045503,"connected_time":2281000000000,"state":"active","ping":73},{"user_id":340,"name":"alpha1zer0ready","steam_id":76561199206731331,"connected_time":832000000000,"state":"active","ping":69},{"user_id":307,"name":"General Sherman","steam_id":76561198044769376,"connected_time":3616000000000,"state":"active","ping":60},{"user_id":292,"name":"jimmy outlaw","steam_id":76561198070380402,"connected_time":4546000000000,"state":"active","ping":46},{"user_id":345,"name":"YHH face","steam_id":76561198035629877,"connected_time":180000000000,"state":"active","ping":59},{"user_id":346,"name":"Matte :)","steam_id":76561198070631073,"connected_time":180000000000,"state":"active","ping":75},{"user_id":347,"name":"raphaim #bb","steam_id":76561198089649422,"connected_time":161000000000,"state":"active","ping":75},{"user_id":348,"name":"it's thicc thirty","steam_id":76561198027052378,"connected_time":161000000000,"state":"active","ping":76},{"user_id":337,"name":"DeckofDragons","steam_id":76561198057398213,"connected_time":954000000000,"state":"active","ping":76},{"user_id":349,"name":"BambuBabyPackRunner","steam_id":76561198320866421,"connected_time":102000000000,"state":"active","ping":66},{"user_id":350,"name":"≈ölimak","steam_id":76561198296476784,"connected_time":99000000000,"state":"active","ping":150},{"user_id":351,"name":"canakblasteran","steam_id":76561199472518822,"connected_time":49000000000,"state":"active","ping":72},{"user_id":352,"name":"Zero","steam_id":76561199383267408,"connected_time":7000000000,"state":"spawning","ping":43},{"user_id":353,"name":"artlex","steam_id":76561198849767970,"connected_time":6000000000,"state":"spawning","ping":70},{"user_id":325,"name":"The Ultimate Coomer","steam_id":76561199128833757,"connected_time":2347000000000,"state":"active","ping":47},{"user_id":300,"name":"happer","steam_id":76561198018252253,"connected_time":4364000000000,"state":"active","ping":88},{"user_id":330,"name":"JimmyBreeze (3)","steam_id":76561198243918128,"connected_time":1852000000000,"state":"active","ping":70},{"user_id":335,"name":"estrogen addict","steam_id":76561199185046348,"connected_time":1551000000000,"state":"active","ping":85},{"user_id":313,"name":"Tostada","steam_id":76561198383206211,"connected_time":3445000000000,"state":"active","ping":808}]},{"server_id":5,"name":"Uncletopia | Frankfurt | 1 | All Maps","name_short":"frk-1","host":"frk-1.de.uncletopia.com","port":27015,"enabled":true,"region":"eu","cc":"de","latitude":50.110924,"longitude":8.682127,"reserved":0,"last_update":"0001-01-01T00:00:00Z","name_a2s":"Uncletopia | Frankfurt | 1 | All Maps","protocol":17,"map":"pl_barnblitz","folder":"tf","game":"Team Fortress","app_id":440,"player_count":24,"max_players":24,"Bots":0,"server_type":"Dedicated","server_os":"Linux","password":true,"vac":true,"version":"7757534","steam_id":85568392924469989,"keywords":["nocrits","nodmgspread","payload","uncletopia"],"game_id":440,"stv_port":27016,"stv_name":"Uncletopia | Frankfurt | 1 | All Maps | STV","players":[{"user_id":918,"name":"LionKing","steam_id":76561198023399545,"connected_time":9342000000000,"state":"active","ping":46},{"user_id":1003,"name":"anguish","steam_id":76561198086442571,"connected_time":2857000000000,"state":"active","ping":59},{"user_id":930,"name":"brainrot","steam_id":76561199414716848,"connected_time":8838000000000,"state":"active","ping":60},{"user_id":981,"name":"r2d2.(/Àå…ëÀêr.tuÀêÀàdiÀêtuÀê/)","steam_id":76561198201235703,"connected_time":5280000000000,"state":"active","ping":53},{"user_id":1013,"name":"pootis_patrol","steam_id":76561198026052716,"connected_time":2179000000000,"state":"active","ping":60},{"user_id":1006,"name":"bum","steam_id":76561198067678158,"connected_time":2532000000000,"state":"active","ping":59},{"user_id":938,"name":"TurboTabs","steam_id":76561198009785131,"connected_time":8027000000000,"state":"active","ping":63},{"user_id":935,"name":"Samus","steam_id":76561198045943019,"connected_time":8119000000000,"state":"active","ping":45},{"user_id":1026,"name":"Spam „Ç¥ „Ç¥","steam_id":76561198038118301,"connected_time":924000000000,"state":"active","ping":89},{"user_id":1035,"name":"‚õß Akira ‚õß","steam_id":76561198387275404,"connected_time":87000000000,"state":"active","ping":83},{"user_id":1030,"name":"MadeIn2005","steam_id":76561198186929317,"connected_time":641000000000,"state":"active","ping":135},{"user_id":846,"name":"≈Åyku","steam_id":76561198299149372,"connected_time":14368000000000,"state":"active","ping":73},{"user_id":976,"name":"puck_panzer","steam_id":76561198121260981,"connected_time":5820000000000,"state":"active","ping":54},{"user_id":958,"name":"KittyKate ‚ù§","steam_id":76561198116340817,"connected_time":7057000000000,"state":"active","ping":60},{"user_id":1018,"name":"lowdash","steam_id":76561198327827635,"connected_time":1341000000000,"state":"active","ping":66},{"user_id":1031,"name":"Arti","steam_id":76561197983352845,"connected_time":637000000000,"state":"active","ping":65},{"user_id":998,"name":"Pestdoktor","steam_id":76561198058159271,"connected_time":3849000000000,"state":"active","ping":59},{"user_id":1036,"name":"Kyazu","steam_id":76561198856117336,"connected_time":85000000000,"state":"active","ping":57},{"user_id":1024,"name":"Carnold","steam_id":76561198163819918,"connected_time":1062000000000,"state":"active","ping":159},{"user_id":984,"name":"rag","steam_id":76561198083505031,"connected_time":5156000000000,"state":"active","ping":51},{"user_id":1037,"name":"MIFIXZZZZ#SaveTF2","steam_id":76561198976567322,"connected_time":80000000000,"state":"active","ping":146},{"user_id":959,"name":"BuzzBees ‚ù§","steam_id":76561198101502273,"connected_time":7049000000000,"state":"active","ping":61},{"user_id":994,"name":"Mach :)","steam_id":76561198952487564,"connected_time":4720000000000,"state":"active","ping":81},{"user_id":999,"name":"SuperBob103","steam_id":76561199175360012,"connected_time":3848000000000,"state":"active","ping":62}]},{"server_id":110,"name":"Uncletopia | Frankfurt | 2 | All Maps","name_short":"frk-2","host":"frk-1.de.uncletopia.com","port":27025,"enabled":true,"region":"eu","cc":"de","latitude":50.110924,"longitude":8.682127,"reserved":0,"last_update":"0001-01-01T00:00:00Z","name_a2s":"Uncletopia | Frankfurt | 2 | All Maps","protocol":17,"map":"cp_sunshine","folder":"tf","game":"Team Fortress","app_id":440,"player_count":0,"max_players":24,"Bots":0,"server_type":"Dedicated","server_os":"Linux","password":true,"vac":true,"version":"7757534","steam_id":85568392924469990,"keywords":["cp","nocrits","nodmgspread","uncletopia"],"game_id":440,"stv_port":27026,"stv_name":"Uncletopia | Frankfurt | 2 | All Maps | STV","players":null},{"server_id":308,"name":"Uncletopia | Frankfurt | 3 | All Maps","name_short":"frk-3","host":"frk-1.de.uncletopia.com","port":27035,"enabled":true,"region":"eu","cc":"de","latitude":50.110924,"longitude":8.682127,"reserved":0,"last_update":"0001-01-01T00:00:00Z","name_a2s":"Uncletopia | Frankfurt | 3 | All Maps","protocol":17,"map":"pl_pier","folder":"tf","game":"Team Fortress","app_id":440,"player_count":0,"max_players":24,"Bots":0,"server_type":"Dedicated","server_os":"Linux","password":true,"vac":true,"version":"7757534","steam_id":85568392924504274,"keywords":["nocrits","nodmgspread","payload","uncletopia"],"game_id":440,"stv_port":27036,"stv_name":"Uncletopia | Frankfurt | 3 | All Maps | STV","players":null},{"server_id":309,"name":"Uncletopia | Frankfurt | 4 | All Maps","name_short":"frk-4","host":"frk-1.de.uncletopia.com","port":27045,"enabled":true,"region":"eu","cc":"de","latitude":50.110924,"longitude":8.682127,"reserved":0,"last_update":"0001-01-01T00:00:00Z","name_a2s":"Uncletopia | Frankfurt | 4 | All Maps","protocol":17,"map":"pl_snowycoast","folder":"tf","game":"Team Fortress","app_id":440,"player_count":0,"max_players":24,"Bots":0,"server_type":"Dedicated","server_os":"Linux","password":true,"vac":true,"version":"7757534","steam_id":85568392924504275,"keywords":["nocrits","nodmgspread","payload","uncletopia"],"game_id":440,"stv_port":27046,"stv_name":"Uncletopia | Frankfurt | 4 | All Maps | STV","players":null},{"server_id":310,"name":"Uncletopia | Frankfurt | 5 | All Maps","name_short":"frk-5","host":"frk-1.de.uncletopia.com","port":27055,"enabled":true,"region":"eu","cc":"de","latitude":50.110924,"longitude":8.682127,"reserved":0,"last_update":"0001-01-01T00:00:00Z","name_a2s":"Uncletopia | Frankfurt | 5 | All Maps","protocol":17,"map":"pl_upward","folder":"tf","game":"Team Fortress","app_id":440,"player_count":0,"max_players":24,"Bots":0,"server_type":"Dedicated","server_os":"Linux","password":true,"vac":true,"version":"7757534","steam_id":85568392924504277,"keywords":["nocrits","nodmgspread","payload","uncletopia"],"game_id":440,"stv_port":27056,"stv_name":"Uncletopia | Frankfurt | 5 | All Maps | STV","players":null},{"server_id":311,"name":"Uncletopia | Frankfurt | 6 | All Maps","name_short":"frk-6","host":"frk-1.de.uncletopia.com","port":27065,"enabled":true,"region":"eu","cc":"de","latitude":50.110924,"longitude":8.682127,"reserved":0,"last_update":"0001-01-01T00:00:00Z","name_a2s":"Uncletopia | Frankfurt | 6 | All Maps","protocol":17,"map":"plr_nightfall_final","folder":"tf","game":"Team Fortress","app_id":440,"player_count":0,"max_players":24,"Bots":0,"server_type":"Dedicated","server_os":"Linux","password":true,"vac":true,"version":"7757534","steam_id":85568392924504278,"keywords":["nocrits","nodmgspread","payload","uncletopia"],"game_id":440,"stv_port":27066,"stv_name":"Uncletopia | Frankfurt | 6 | All Maps | STV","players":null},{"server_id":23,"name":"Uncletopia | Frankfurt | 7 | Stopwatch Beta","name_short":"frk-7","host":"frk-1.de.uncletopia.com","port":27075,"enabled":true,"region":"eu","cc":"de","latitude":50.110924,"longitude":8.682127,"reserved":0,"last_update":"0001-01-01T00:00:00Z","name_a2s":"Uncletopia | Frankfurt | 7 | Stopwatch Beta","protocol":17,"map":"workshop/koth_ramjam_rc1.ugc459778887","folder":"tf","game":"Team Fortress","app_id":440,"player_count":0,"max_players":24,"Bots":0,"server_type":"Dedicated","server_os":"Linux","password":true,"vac":true,"version":"7757534","steam_id":85568392924742827,"keywords":["cp","nocrits","nodmgspread","uncletopia"],"game_id":440,"stv_port":27076,"stv_name":"Uncletopia | Frankfurt | 7 | Stopwatch Beta | STV","players":null},{"server_id":24,"name":"Uncletopia | Frankfurt | 8 | Community","name_short":"frk-8","host":"frk-1.de.uncletopia.com","port":27085,"enabled":true,"region":"eu","cc":"de","latitude":50.110924,"longitude":8.682127,"reserved":0,"last_update":"0001-01-01T00:00:00Z","name_a2s":"Uncletopia | Frankfurt | 8 | Community","protocol":17,"map":"workshop/koth_product_final.ugc454272353","folder":"tf","game":"Team Fortress","app_id":440,"player_count":0,"max_players":24,"Bots":0,"server_type":"Dedicated","server_os":"Linux","password":true,"vac":true,"version":"7757534","steam_id":85568392924742828,"keywords":["cp","nocrits","nodmgspread","uncletopia"],"game_id":440,"stv_port":27086,"stv_name":"Uncletopia | Frankfurt | 8 | Community | STV","players":null},{"server_id":202,"name":"Uncletopia | Hong Kong | 1 | All Maps","name_short":"hgk-1","host":"hgk-1.hk.uncletopia.com","port":27015,"enabled":true,"region":"asia","cc":"hk","latitude":22.302711,"longitude":114.177216,"reserved":0,"last_update":"0001-01-01T00:00:00Z","name_a2s":"Uncletopia | Hong Kong | 1 | All Maps","protocol":17,"map":"pl_snowycoast","folder":"tf","game":"Team Fortress","app_id":440,"player_count":24,"max_players":24,"Bots":0,"server_type":"Dedicated","server_os":"Linux","password":true,"vac":true,"version":"7757534","steam_id":85568392924494504,"keywords":["nocrits","nodmgspread","payload","uncletopia"],"game_id":440,"stv_port":27016,"stv_name":"Uncletopia | Hong Kong | 1 | All Maps | STV","players":[{"user_id":119,"name":"TomProPlayer","steam_id":76561199223292521,"connected_time":1592000000000,"state":"active","ping":73},{"user_id":114,"name":"CuongDollar","steam_id":76561199108599808,"connected_time":2077000000000,"state":"active","ping":115},{"user_id":120,"name":"corpse_cadaver","steam_id":76561199225360457,"connected_time":1581000000000,"state":"active","ping":73},{"user_id":115,"name":"jeeping jaguar!!1!!1!1","steam_id":76561199107596818,"connected_time":2000000000000,"state":"active","ping":108},{"user_id":116,"name":"Xx_EpicTrickstabber_xX","steam_id":76561199024960087,"connected_time":1980000000000,"state":"active","ping":76},{"user_id":117,"name":"why6","steam_id":76561199126937183,"connected_time":1978000000000,"state":"active","ping":136},{"user_id":118,"name":"‚≠êA Random Guy „ÉÑ","steam_id":76561199076452888,"connected_time":1778000000000,"state":"active","ping":92},{"user_id":30,"name":"vintage","steam_id":76561198230213828,"connected_time":8851000000000,"state":"active","ping":68},{"user_id":138,"name":"Puddin","steam_id":76561198140052918,"connected_time":244000000000,"state":"active","ping":90},{"user_id":135,"name":"Mystery cheese üßÄ","steam_id":76561198304002409,"connected_time":312000000000,"state":"active","ping":87},{"user_id":132,"name":"TomCat","steam_id":76561198133744053,"connected_time":864000000000,"state":"active","ping":115},{"user_id":67,"name":"Grimo_1","steam_id":76561199100139135,"connected_time":4506000000000,"state":"active","ping":137},{"user_id":134,"name":"0 percep vast","steam_id":76561198320532821,"connected_time":536000000000,"state":"active","ping":81},{"user_id":140,"name":"Big Purple Demon Sister","steam_id":76561199023086791,"connected_time":38000000000,"state":"active","ping":61},{"user_id":61,"name":"‚úßBaKa BAzooKA‚úß(‚óï‚ñø‚óï )","steam_id":76561198061628689,"connected_time":4911000000000,"state":"active","ping":47},{"user_id":125,"name":"L4MA","steam_id":76561198249200320,"connected_time":1333000000000,"state":"active","ping":44},{"user_id":133,"name":"christianoronaldofan7","steam_id":76561199468027876,"connected_time":770000000000,"state":"active","ping":84},{"user_id":99,"name":"i think i lost chromosomes","steam_id":76561199475779872,"connected_time":2967000000000,"state":"active","ping":71},{"user_id":100,"name":"anemoia","steam_id":76561198074339034,"connected_time":2915000000000,"state":"active","ping":75},{"user_id":139,"name":"aeross","steam_id":76561198834445483,"connected_time":240000000000,"state":"active","ping":88},{"user_id":128,"name":"bruh","steam_id":76561199068229379,"connected_time":1188000000000,"state":"active","ping":78},{"user_id":129,"name":"Giouri","steam_id":76561199152247162,"connected_time":1144000000000,"state":"active","ping":132},{"user_id":85,"name":"Aerotronics","steam_id":76561198821190704,"connected_time":3868000000000,"state":"active","ping":143},{"user_id":131,"name":"jimmyfortnite2014","steam_id":76561198987713830,"connected_time":1062000000000,"state":"active","ping":149}]},{"server_id":1,"name":"Uncletopia | Los Angeles | 1 | All Maps","name_short":"lax-1","host":"lax-1.us.uncletopia.com","port":27015,"enabled":true,"region":"us-west","cc":"us","latitude":33.94279,"longitude":-118.41004,"reserved":0,"last_update":"0001-01-01T00:00:00Z","name_a2s":"Uncletopia | Los Angeles | 1 | All Maps","protocol":17,"map":"cp_dustbowl","folder":"tf","game":"Team Fortress","app_id":440,"player_count":22,"max_players":24,"Bots":0,"server_type":"Dedicated","server_os":"Linux","password":true,"vac":true,"version":"7757534","steam_id":85568392924469991,"keywords":["cp","nocrits","nodmgspread","uncletopia"],"game_id":440,"stv_port":27016,"stv_name":"Uncletopia | Los Angeles | 1 | All Maps | STV","players":[{"user_id":385,"name":"kab789","steam_id":76561198069842202,"connected_time":1204000000000,"state":"active","ping":111},{"user_id":393,"name":"Epiknezz","steam_id":76561198040397776,"connected_time":601000000000,"state":"active","ping":48},{"user_id":390,"name":"Fazer","steam_id":76561197979461186,"connected_time":675000000000,"state":"active","ping":40},{"user_id":388,"name":"Seamus Finnegan III","steam_id":76561198839962880,"connected_time":727000000000,"state":"active","ping":124},{"user_id":357,"name":"Flembrane","steam_id":76561197995328898,"connected_time":3738000000000,"state":"active","ping":44},{"user_id":374,"name":"indyjacob","steam_id":76561198065158713,"connected_time":1643000000000,"state":"active","ping":89},{"user_id":373,"name":"Salt","steam_id":76561198240551142,"connected_time":1660000000000,"state":"active","ping":108},{"user_id":369,"name":"Uprightmoss7528","steam_id":76561199200138486,"connected_time":2551000000000,"state":"active","ping":66},{"user_id":391,"name":"monkey squirts","steam_id":76561197983101644,"connected_time":670000000000,"state":"active","ping":45},{"user_id":376,"name":"purp","steam_id":76561198269599010,"connected_time":1625000000000,"state":"active","ping":115},{"user_id":379,"name":"mcthiccom$","steam_id":76561198240156286,"connected_time":1587000000000,"state":"active","ping":121},{"user_id":363,"name":"Mom","steam_id":76561198207936000,"connected_time":3340000000000,"state":"active","ping":73},{"user_id":392,"name":"Jeff The Clown","steam_id":76561198071123791,"connected_time":652000000000,"state":"active","ping":62},{"user_id":386,"name":"Pines","steam_id":76561199024146278,"connected_time":842000000000,"state":"active","ping":60},{"user_id":365,"name":"Nuts","steam_id":76561199258535559,"connected_time":3283000000000,"state":"active","ping":71},{"user_id":377,"name":"shnubba","steam_id":76561198356352279,"connected_time":1618000000000,"state":"active","ping":84},{"user_id":396,"name":"zapato","steam_id":76561198142278437,"connected_time":483000000000,"state":"active","ping":103},{"user_id":398,"name":"|ƒ∂iƒªƒÉ| ‚Ä¢“âDelicate Cheese","steam_id":76561198049481939,"connected_time":402000000000,"state":"active","ping":85},{"user_id":397,"name":"ObiWanCanBloMe","steam_id":76561198087216254,"connected_time":445000000000,"state":"active","ping":47},{"user_id":378,"name":"Florida Man","steam_id":76561198418116040,"connected_time":1618000000000,"state":"active","ping":140},{"user_id":399,"name":"Ronnie McNutt","steam_id":76561198453543661,"connected_time":389000000000,"state":"active","ping":101},{"user_id":400,"name":"heisenberg","steam_id":76561198075341060,"connected_time":373000000000,"state":"active","ping":56}]},{"server_id":112,"name":"Uncletopia | Los Angeles | 2 | All Maps","name_short":"lax-2","host":"lax-1.us.uncletopia.com","port":27025,"enabled":true,"region":"us-west","cc":"us","latitude":33.94279,"longitude":-118.41004,"reserved":0,"last_update":"0001-01-01T00:00:00Z","name_a2s":"Uncletopia | Los Angeles | 2 | All Maps","protocol":17,"map":"cp_snakewater_final1","folder":"tf","game":"Team Fortress","app_id":440,"player_count":24,"max_players":24,"Bots":0,"server_type":"Dedicated","server_os":"Linux","password":true,"vac":true,"version":"7757534","steam_id":85568392924469992,"keywords":["cp","nocrits","nodmgspread","uncletopia"],"game_id":440,"stv_port":27026,"stv_name":"Uncletopia | Los Angeles | 2 | All Maps | STV","players":[{"user_id":415,"name":"walrooos","steam_id":76561198024521839,"connected_time":1529000000000,"state":"active","ping":44},{"user_id":430,"name":"GAY PEOPLE ARE REAL ???","steam_id":76561198200785531,"connected_time":868000000000,"state":"active","ping":31},{"user_id":427,"name":"McNamJam","steam_id":76561198028128686,"connected_time":1162000000000,"state":"active","ping":63},{"user_id":411,"name":"Bing Soy","steam_id":76561199091381775,"connected_time":2155000000000,"state":"active","ping":60},{"user_id":360,"name":"Mr_Blue_Sun","steam_id":76561198803462433,"connected_time":4566000000000,"state":"active","ping":110},{"user_id":391,"name":"HanakoToast","steam_id":76561198045233131,"connected_time":3495000000000,"state":"active","ping":65},{"user_id":417,"name":"Arthur Drexel","steam_id":76561198003904750,"connected_time":1419000000000,"state":"active","ping":140},{"user_id":418,"name":"See? Bass!","steam_id":76561198207220181,"connected_time":1398000000000,"state":"active","ping":92},{"user_id":429,"name":"bringanotebook","steam_id":76561198838822605,"connected_time":923000000000,"state":"active","ping":123},{"user_id":420,"name":"Ozone-Flavored Starburst","steam_id":76561199163688421,"connected_time":1371000000000,"state":"active","ping":103},{"user_id":355,"name":"motion","steam_id":76561198935158462,"connected_time":5137000000000,"state":"active","ping":59},{"user_id":435,"name":"Typhoid","steam_id":76561198067791086,"connected_time":702000000000,"state":"active","ping":43},{"user_id":439,"name":"Moth","steam_id":76561198170253694,"connected_time":84000000000,"state":"active","ping":95},{"user_id":317,"name":"_normal","steam_id":76561198338505734,"connected_time":6821000000000,"state":"active","ping":87},{"user_id":432,"name":"Sidekick1004","steam_id":76561198071611669,"connected_time":829000000000,"state":"active","ping":50},{"user_id":312,"name":"Leftshadows","steam_id":76561199089515791,"connected_time":6977000000000,"state":"active","ping":67},{"user_id":437,"name":"Owl_eyes","steam_id":76561198066199203,"connected_time":661000000000,"state":"active","ping":56},{"user_id":400,"name":"Glar","steam_id":76561198341907150,"connected_time":2623000000000,"state":"active","ping":66},{"user_id":433,"name":"obese farts","steam_id":76561198206922028,"connected_time":804000000000,"state":"active","ping":53},{"user_id":425,"name":"amia","steam_id":76561198228125224,"connected_time":1268000000000,"state":"active","ping":46},{"user_id":434,"name":"A loaf of bread","steam_id":76561198152372219,"connected_time":741000000000,"state":"active","ping":71},{"user_id":426,"name":"Edboi","steam_id":76561198117849098,"connected_time":1260000000000,"state":"active","ping":61},{"user_id":436,"name":"worker","steam_id":76561198039608940,"connected_time":696000000000,"state":"active","ping":97},{"user_id":438,"name":"PinguEnjoyer6","steam_id":76561199186723516,"connected_time":307000000000,"state":"active","ping":129}]},{"server_id":324,"name":"Uncletopia | Los Angeles | 3 | All Maps","name_short":"lax-3","host":"lax-1.us.uncletopia.com","port":27035,"enabled":true,"region":"us-west","cc":"us","latitude":33.94279,"longitude":-118.41004,"reserved":0,"last_update":"0001-01-01T00:00:00Z","name_a2s":"Uncletopia | Los Angeles | 3 | All Maps","protocol":17,"map":"pl_frontier_final","folder":"tf","game":"Team Fortress","app_id":440,"player_count":8,"max_players":24,"Bots":0,"server_type":"Dedicated","server_os":"Linux","password":true,"vac":true,"version":"7757534","steam_id":85568392924510198,"keywords":["nocrits","nodmgspread","payload","uncletopia"],"game_id":440,"stv_port":27036,"stv_name":"Uncletopia | Los Angeles | 3 | All Maps | STV","players":[{"user_id":144,"name":"RightBackAtChu","steam_id":76561199104849434,"connected_time":171000000000,"state":"active","ping":53},{"user_id":141,"name":"FriskyDemon","steam_id":76561198043684646,"connected_time":1013000000000,"state":"active","ping":66},{"user_id":145,"name":"Loamy","steam_id":76561198064183674,"connected_time":67000000000,"state":"active","ping":37},{"user_id":107,"name":"The Robot Menace","steam_id":76561198043390413,"connected_time":3161000000000,"state":"active","ping":80},{"user_id":142,"name":"jimbo","steam_id":76561198821535846,"connected_time":837000000000,"state":"active","ping":110},{"user_id":105,"name":"Grinski","steam_id":76561198054787727,"connected_time":3402000000000,"state":"active","ping":69},{"user_id":103,"name":"Mitty","steam_id":76561198014177684,"connected_time":3562000000000,"state":"active","ping":53},{"user_id":104,"name":"„ÄåJimbo Reference„Äç","steam_id":76561198016078541,"connected_time":3546000000000,"state":"active","ping":55}]},{"server_id":25,"name":"Uncletopia | Los Angeles | 4 | Stopwatch Beta","name_short":"lax-4","host":"lax-1.us.uncletopia.com","port":27045,"enabled":true,"region":"us-west","cc":"us","latitude":33.94279,"longitude":-118.41004,"reserved":0,"last_update":"0001-01-01T00:00:00Z","name_a2s":"Uncletopia | Los Angeles | 4 | Stopwatch Beta","protocol":17,"map":"workshop/koth_ashville_final.ugc2130459942","folder":"tf","game":"Team Fortress","app_id":440,"player_count":2,"max_players":24,"Bots":0,"server_type":"Dedicated","server_os":"Linux","password":true,"vac":true,"version":"7757534","steam_id":85568392924510199,"keywords":["cp","nocrits","nodmgspread","uncletopia"],"game_id":440,"stv_port":27046,"stv_name":"Uncletopia | Los Angeles | 4 | Stopwatch Beta | STV","players":[{"user_id":19,"name":"Subderhenge","steam_id":76561198090955892,"connected_time":2223000000000,"state":"active","ping":97},{"user_id":20,"name":"Thequirka","steam_id":76561198968058652,"connected_time":2195000000000,"state":"active","ping":74}]},{"server_id":11,"name":"Uncletopia | London | 1 | All Maps","name_short":"lon-1","host":"lon-1.uk.uncletopia.com","port":27015,"enabled":true,"region":"eu","cc":"gb","latitude":51.509865,"longitude":-0.118092,"reserved":0,"last_update":"0001-01-01T00:00:00Z","name_a2s":"Uncletopia | London | 1 | All Maps","protocol":17,"map":"koth_cascade","folder":"tf","game":"Team Fortress","app_id":440,"player_count":0,"max_players":24,"Bots":0,"server_type":"Dedicated","server_os":"Linux","password":true,"vac":true,"version":"7757534","steam_id":85568392924367362,"keywords":["cp","nocrits","nodmgspread","uncletopia"],"game_id":440,"stv_port":27016,"stv_name":"Uncletopia | London | 1 | All Maps | STV","players":null},{"server_id":114,"name":"Uncletopia | London | 2 | All Maps","name_short":"lon-2","host":"lon-1.uk.uncletopia.com","port":27025,"enabled":true,"region":"eu","cc":"gb","latitude":51.509865,"longitude":-0.118092,"reserved":0,"last_update":"0001-01-01T00:00:00Z","name_a2s":"Uncletopia | London | 2 | All Maps","protocol":17,"map":"pl_thundermountain","folder":"tf","game":"Team Fortress","app_id":440,"player_count":23,"max_players":24,"Bots":0,"server_type":"Dedicated","server_os":"Linux","password":true,"vac":true,"version":"7757534","steam_id":85568392924470941,"keywords":["nocrits","nodmgspread","payload","uncletopia"],"game_id":440,"stv_port":27026,"stv_name":"Uncletopia | London | 2 | All Maps | STV","players":[{"user_id":572,"name":"cat","steam_id":76561198353427757,"connected_time":1049000000000,"state":"active","ping":40},{"user_id":576,"name":"internet gnome","steam_id":76561198035392601,"connected_time":716000000000,"state":"active","ping":87},{"user_id":493,"name":"gibb (official)","steam_id":76561198074097655,"connected_time":7037000000000,"state":"active","ping":41},{"user_id":548,"name":"gneeda","steam_id":76561198147249160,"connected_time":3148000000000,"state":"active","ping":110},{"user_id":488,"name":"dairy","steam_id":76561198117033273,"connected_time":7277000000000,"state":"active","ping":47},{"user_id":558,"name":"AsuX","steam_id":76561197990333289,"connected_time":2705000000000,"state":"active","ping":63},{"user_id":551,"name":"Kris","steam_id":76561198240638652,"connected_time":2854000000000,"state":"active","ping":44},{"user_id":570,"name":"poshtoo @_@","steam_id":76561198106182078,"connected_time":1215000000000,"state":"active","ping":106},{"user_id":553,"name":"Tails8521","steam_id":76561198051747164,"connected_time":2820000000000,"state":"active","ping":56},{"user_id":565,"name":"hud_saytext_time 0","steam_id":76561198010327228,"connected_time":1590000000000,"state":"active","ping":67},{"user_id":581,"name":"sketchex","steam_id":76561198344458602,"connected_time":211000000000,"state":"active","ping":45},{"user_id":578,"name":"charlotte","steam_id":76561199244029427,"connected_time":583000000000,"state":"active","ping":90},{"user_id":574,"name":"apples","steam_id":76561198250917690,"connected_time":1033000000000,"state":"active","ping":82},{"user_id":579,"name":"Bagel","steam_id":76561198372722828,"connected_time":362000000000,"state":"active","ping":116},{"user_id":577,"name":"Feujitive","steam_id":76561199439539218,"connected_time":606000000000,"state":"active","ping":66},{"user_id":580,"name":"Montrose","steam_id":76561198338911736,"connected_time":355000000000,"state":"active","ping":177},{"user_id":554,"name":"HurrpNana","steam_id":76561199102156562,"connected_time":2811000000000,"state":"active","ping":103},{"user_id":566,"name":"Gernhardt Reinlunzen #savetf2","steam_id":76561198147571688,"connected_time":1535000000000,"state":"active","ping":59},{"user_id":513,"name":"Mushy.","steam_id":76561198107247371,"connected_time":6076000000000,"state":"active","ping":74},{"user_id":564,"name":"Onceknown1","steam_id":76561198120580611,"connected_time":1638000000000,"state":"active","ping":60},{"user_id":549,"name":"Hong Kong Larry","steam_id":76561198071829617,"connected_time":3009000000000,"state":"active","ping":48},{"user_id":550,"name":"CHEEKI BREEKI","steam_id":76561198023120431,"connected_time":2999000000000,"state":"active","ping":71},{"user_id":567,"name":"Couch/Luper","steam_id":76561198531978435,"connected_time":1455000000000,"state":"active","ping":69}]},{"server_id":320,"name":"Uncletopia | London | 3 | All Maps","name_short":"lon-3","host":"lon-1.uk.uncletopia.com","port":27035,"enabled":true,"region":"eu","cc":"gb","latitude":51.509865,"longitude":-0.118092,"reserved":0,"last_update":"0001-01-01T00:00:00Z","name_a2s":"Uncletopia | London | 3 | All Maps","protocol":17,"map":"koth_highpass","folder":"tf","game":"Team Fortress","app_id":440,"player_count":0,"max_players":24,"Bots":0,"server_type":"Dedicated","server_os":"Linux","password":true,"vac":true,"version":"7757534","steam_id":85568392924510192,"keywords":["cp","nocrits","nodmgspread","uncletopia"],"game_id":440,"stv_port":27036,"stv_name":"Uncletopia | London | 3 | All Maps | STV","players":null},{"server_id":321,"name":"Uncletopia | London | 4 | All Maps","name_short":"lon-4","host":"lon-1.uk.uncletopia.com","port":27045,"enabled":true,"region":"eu","cc":"gb","latitude":51.509865,"longitude":-0.118092,"reserved":0,"last_update":"0001-01-01T00:00:00Z","name_a2s":"Uncletopia | London | 4 | All Maps","protocol":17,"map":"koth_viaduct","folder":"tf","game":"Team Fortress","app_id":440,"player_count":0,"max_players":24,"Bots":0,"server_type":"Dedicated","server_os":"Linux","password":true,"vac":true,"version":"7757534","steam_id":85568392924510193,"keywords":["cp","nocrits","nodmgspread","uncletopia"],"game_id":440,"stv_port":27046,"stv_name":"Uncletopia | London | 4 | All Maps | STV","players":null},{"server_id":21,"name":"Uncletopia | London | 5 | All Maps","name_short":"lon-5","host":"lon-1.uk.uncletopia.com","port":27055,"enabled":true,"region":"eu","cc":"gb","latitude":51.509865,"longitude":-0.118092,"reserved":0,"last_update":"0001-01-01T00:00:00Z","name_a2s":"Uncletopia | London | 5 | All Maps","protocol":17,"map":"koth_nucleus","folder":"tf","game":"Team Fortress","app_id":440,"player_count":0,"max_players":24,"Bots":0,"server_type":"Dedicated","server_os":"Linux","password":true,"vac":true,"version":"7757534","steam_id":85568392924742829,"keywords":["cp","nocrits","nodmgspread","uncletopia"],"game_id":440,"stv_port":27056,"stv_name":"Uncletopia | London | 5 | All Maps | STV","players":null},{"server_id":22,"name":"Uncletopia | London | 6 | All Maps","name_short":"lon-6","host":"lon-1.uk.uncletopia.com","port":27065,"enabled":true,"region":"eu","cc":"gb","latitude":51.509865,"longitude":-0.118092,"reserved":0,"last_update":"0001-01-01T00:00:00Z","name_a2s":"Uncletopia | London | 6 | All Maps","protocol":17,"map":"koth_cascade","folder":"tf","game":"Team Fortress","app_id":440,"player_count":0,"max_players":24,"Bots":0,"server_type":"Dedicated","server_os":"Linux","password":true,"vac":true,"version":"7757534","steam_id":85568392924742830,"keywords":["cp","nocrits","nodmgspread","uncletopia"],"game_id":440,"stv_port":27066,"stv_name":"Uncletopia | London | 6 | All Maps | STV","players":null},{"server_id":40,"name":"Uncletopia | London | 7 | No Payload","name_short":"lon-7","host":"lon-1.uk.uncletopia.com","port":27075,"enabled":true,"region":"eu","cc":"gb","latitude":51.509865,"longitude":-0.118092,"reserved":0,"last_update":"0001-01-01T00:00:00Z","name_a2s":"Uncletopia | London | 7 | No Payload","protocol":17,"map":"cp_gullywash_final1","folder":"tf","game":"Team Fortress","app_id":440,"player_count":0,"max_players":24,"Bots":0,"server_type":"Dedicated","server_os":"Linux","password":true,"vac":true,"version":"7757534","steam_id":85568392924964314,"keywords":["cp","nocrits","nodmgspread","uncletopia"],"game_id":440,"stv_port":27076,"stv_name":"Uncletopia | London | 7 | No Payload | STV","players":null},{"server_id":41,"name":"Uncletopia | London | 8 | Community","name_short":"lon-8","host":"lon-1.uk.uncletopia.com","port":27085,"enabled":true,"region":"eu","cc":"gb","latitude":51.509865,"longitude":-0.118092,"reserved":0,"last_update":"0001-01-01T00:00:00Z","name_a2s":"Uncletopia | London | 8 | Community","protocol":17,"map":"workshop/koth_slaughter_rc1.ugc1712845210","folder":"tf","game":"Team Fortress","app_id":440,"player_count":0,"max_players":24,"Bots":0,"server_type":"Dedicated","server_os":"Linux","password":true,"vac":true,"version":"7757534","steam_id":85568392924964315,"keywords":["cp","nocrits","nodmgspread","uncletopia"],"game_id":440,"stv_port":27086,"stv_name":"Uncletopia | London | 8 | Community | STV","players":null},{"server_id":300,"name":"Uncletopia | Montr√©al | 1 | All Maps","name_short":"mtl-1","host":"mtl-1.ca.uncletopia.com","port":27015,"enabled":true,"region":"us-east","cc":"ca","latitude":45.50889,"longitude":-73.56167,"reserved":0,"last_update":"0001-01-01T00:00:00Z","name_a2s":"Uncletopia | Montr√©al | 1 | All Maps","protocol":17,"map":"pl_pier","folder":"tf","game":"Team Fortress","app_id":440,"player_count":0,"max_players":24,"Bots":0,"server_type":"Dedicated","server_os":"Linux","password":true,"vac":true,"version":"7757534","steam_id":85568392924500087,"keywords":["nocrits","nodmgspread","payload","uncletopia"],"game_id":440,"stv_port":27016,"stv_name":"Uncletopia | Montr√©al | 1 | All Maps | STV","players":null},{"server_id":301,"name":"Uncletopia | Montr√©al | 2 | All Maps","name_short":"mtl-2","host":"mtl-1.ca.uncletopia.com","port":27025,"enabled":true,"region":"us-east","cc":"ca","latitude":45.50889,"longitude":-73.56167,"reserved":0,"last_update":"0001-01-01T00:00:00Z","name_a2s":"Uncletopia | Montr√©al | 2 | All Maps","protocol":17,"map":"koth_cascade","folder":"tf","game":"Team Fortress","app_id":440,"player_count":0,"max_players":24,"Bots":0,"server_type":"Dedicated","server_os":"Linux","password":true,"vac":true,"version":"7757534","steam_id":85568392924500088,"keywords":["cp","nocrits","nodmgspread","uncletopia"],"game_id":440,"stv_port":27026,"stv_name":"Uncletopia | Montr√©al | 2 | All Maps | STV","players":null},{"server_id":302,"name":"Uncletopia | Montr√©al | 3 | All Maps","name_short":"mtl-3","host":"mtl-1.ca.uncletopia.com","port":27035,"enabled":true,"region":"us-east","cc":"ca","latitude":45.50889,"longitude":-73.56167,"reserved":0,"last_update":"0001-01-01T00:00:00Z","name_a2s":"Uncletopia | Montr√©al | 3 | All Maps","protocol":17,"map":"pl_snowycoast","folder":"tf","game":"Team Fortress","app_id":440,"player_count":0,"max_players":24,"Bots":0,"server_type":"Dedicated","server_os":"Linux","password":true,"vac":true,"version":"7757534","steam_id":85568392924500089,"keywords":["nocrits","nodmgspread","payload","uncletopia"],"game_id":440,"stv_port":27036,"stv_name":"Uncletopia | Montr√©al | 3 | All Maps | STV","players":null},{"server_id":303,"name":"Uncletopia | Montr√©al | 4 | No Payload","name_short":"mtl-4","host":"mtl-1.ca.uncletopia.com","port":27045,"enabled":true,"region":"us-east","cc":"ca","latitude":45.50889,"longitude":-73.56167,"reserved":0,"last_update":"0001-01-01T00:00:00Z","name_a2s":"Uncletopia | Montr√©al | 4 | No Payload","protocol":17,"map":"koth_sawmill","folder":"tf","game":"Team Fortress","app_id":440,"player_count":0,"max_players":24,"Bots":0,"server_type":"Dedicated","server_os":"Linux","password":true,"vac":true,"version":"7757534","steam_id":85568392924500090,"keywords":["cp","nocrits","nodmgspread","uncletopia"],"game_id":440,"stv_port":27046,"stv_name":"Uncletopia | Montr√©al | 4 | No Payload | STV","players":null},{"server_id":13,"name":"Uncletopia | New York City | 1 | All Maps","name_short":"nyc-1","host":"nyc-1.us.uncletopia.com","port":27015,"enabled":true,"region":"us-east","cc":"us","latitude":40.73061,"longitude":-73.93524,"reserved":0,"last_update":"0001-01-01T00:00:00Z","name_a2s":"Uncletopia | New York City | 1 | All Maps","protocol":17,"map":"koth_harvest_final","folder":"tf","game":"Team Fortress","app_id":440,"player_count":22,"max_players":24,"Bots":0,"server_type":"Dedicated","server_os":"Linux","password":true,"vac":true,"version":"7757534","steam_id":85568392924469993,"keywords":["cp","nocrits","nodmgspread","uncletopia"],"game_id":440,"stv_port":27016,"stv_name":"Uncletopia | New York City | 1 | All Maps | STV","players":[{"user_id":902,"name":"feurolant","steam_id":76561198050929765,"connected_time":1351000000000,"state":"active","ping":57},{"user_id":928,"name":"Ripley","steam_id":76561198080766916,"connected_time":496000000000,"state":"active","ping":65},{"user_id":924,"name":"Skateboard Pete","steam_id":76561198124069244,"connected_time":714000000000,"state":"active","ping":86},{"user_id":904,"name":"CRAZY engineer","steam_id":76561198887937902,"connected_time":1340000000000,"state":"active","ping":43},{"user_id":929,"name":"jeremimi","steam_id":76561198818225102,"connected_time":393000000000,"state":"active","ping":105},{"user_id":860,"name":"TTV.SkullSquishe","steam_id":76561198092721889,"connected_time":3826000000000,"state":"active","ping":86},{"user_id":941,"name":"[chef] iron","steam_id":76561197970888616,"connected_time":28000000000,"state":"active","ping":74},{"user_id":930,"name":"iceetee","steam_id":76561198156275931,"connected_time":381000000000,"state":"active","ping":61},{"user_id":931,"name":"„ÄéYARE„Äè","steam_id":76561198158421145,"connected_time":326000000000,"state":"active","ping":137},{"user_id":932,"name":"Gramps","steam_id":76561198166076216,"connected_time":320000000000,"state":"active","ping":67},{"user_id":916,"name":"putz","steam_id":76561198100601393,"connected_time":1170000000000,"state":"active","ping":46},{"user_id":933,"name":"The_Skull_boy","steam_id":76561198227692664,"connected_time":301000000000,"state":"active","ping":129},{"user_id":938,"name":"QwilfishFan22","steam_id":76561198078565975,"connected_time":192000000000,"state":"active","ping":46},{"user_id":879,"name":"Shmebulock","steam_id":76561198046941925,"connected_time":2676000000000,"state":"active","ping":71},{"user_id":937,"name":"Pixeled","steam_id":76561198088917077,"connected_time":209000000000,"state":"active","ping":83},{"user_id":935,"name":"ChickenP√¶ng","steam_id":76561198072939903,"connected_time":270000000000,"state":"active","ping":184},{"user_id":877,"name":"wokky bin laddn","steam_id":76561198265200834,"connected_time":2756000000000,"state":"active","ping":71},{"user_id":939,"name":"transgender is like ferrari","steam_id":76561199023017383,"connected_time":70000000000,"state":"active","ping":57},{"user_id":885,"name":"MILF Gaming","steam_id":76561198155378170,"connected_time":2549000000000,"state":"active","ping":45},{"user_id":940,"name":"Ros","steam_id":76561199055963822,"connected_time":44000000000,"state":"active","ping":71},{"user_id":883,"name":"the GGer","steam_id":76561198157983180,"connected_time":2630000000000,"state":"active","ping":45},{"user_id":884,"name":"Gandalf Gaming","steam_id":76561198368151490,"connected_time":2620000000000,"state":"active","ping":43}]},{"server_id":14,"name":"Uncletopia | New York City | 2 | All Maps","name_short":"nyc-2","host":"nyc-1.us.uncletopia.com","port":27025,"enabled":true,"region":"us-east","cc":"us","latitude":40.73061,"longitude":-73.93524,"reserved":0,"last_update":"0001-01-01T00:00:00Z","name_a2s":"Uncletopia | New York City | 2 | All Maps","protocol":17,"map":"pl_upward","folder":"tf","game":"Team Fortress","app_id":440,"player_count":24,"max_players":24,"Bots":0,"server_type":"Dedicated","server_os":"Linux","password":true,"vac":true,"version":"7757534","steam_id":85568392924469994,"keywords":["nocrits","nodmgspread","payload","uncletopia"],"game_id":440,"stv_port":27026,"stv_name":"Uncletopia | New York City | 2 | All Maps | STV","players":[{"user_id":496,"name":"SIGMA [BS]","steam_id":76561197962604879,"connected_time":12055000000000,"state":"active","ping":53},{"user_id":757,"name":"quinn","steam_id":76561199187747394,"connected_time":986000000000,"state":"active","ping":59},{"user_id":762,"name":"Snugboo","steam_id":76561198147970327,"connected_time":807000000000,"state":"active","ping":41},{"user_id":744,"name":"Aristotle Voulton","steam_id":76561198100174923,"connected_time":1969000000000,"state":"active","ping":93},{"user_id":747,"name":"redzach","steam_id":76561198444094359,"connected_time":1583000000000,"state":"active","ping":69},{"user_id":748,"name":"thepokeyen","steam_id":76561198236847572,"connected_time":1554000000000,"state":"active","ping":89},{"user_id":740,"name":"Definitely Not A Replicant.","steam_id":76561198087464370,"connected_time":2074000000000,"state":"active","ping":126},{"user_id":764,"name":"ConiferCarver(#SaveTF2)","steam_id":76561198195875845,"connected_time":684000000000,"state":"active","ping":119},{"user_id":727,"name":"Grand Piano Tuna","steam_id":76561198135137213,"connected_time":2367000000000,"state":"active","ping":107},{"user_id":752,"name":"BLACK MAN FROM JOJO","steam_id":76561198272948471,"connected_time":1381000000000,"state":"active","ping":63},{"user_id":641,"name":"The slattiator","steam_id":76561198084422657,"connected_time":5983000000000,"state":"active","ping":105},{"user_id":760,"name":"toastman","steam_id":76561198207073088,"connected_time":842000000000,"state":"active","ping":74},{"user_id":758,"name":"stbb","steam_id":76561198173047169,"connected_time":904000000000,"state":"active","ping":46},{"user_id":761,"name":"Hammy","steam_id":76561198040086142,"connected_time":813000000000,"state":"active","ping":45},{"user_id":753,"name":"EmeraldCola","steam_id":76561198066663687,"connected_time":1378000000000,"state":"active","ping":57},{"user_id":728,"name":"Source Enjoyer","steam_id":76561198105663173,"connected_time":2362000000000,"state":"active","ping":75},{"user_id":729,"name":"deech","steam_id":76561198066429444,"connected_time":2360000000000,"state":"active","ping":49},{"user_id":701,"name":"BasicPeaches","steam_id":76561198190890150,"connected_time":4062000000000,"state":"active","ping":62},{"user_id":730,"name":"Holy Dwight","steam_id":76561198012334980,"connected_time":2352000000000,"state":"active","ping":90},{"user_id":763,"name":"OpenDown","steam_id":76561198064132688,"connected_time":781000000000,"state":"active","ping":86},{"user_id":745,"name":"Chechens Spotted","steam_id":76561199028910893,"connected_time":1968000000000,"state":"active","ping":75},{"user_id":738,"name":"Space Cops","steam_id":76561198032414253,"connected_time":2235000000000,"state":"active","ping":47},{"user_id":709,"name":"VioletSpecs","steam_id":76561198089366466,"connected_time":3417000000000,"state":"active","ping":62}]},{"server_id":15,"name":"Uncletopia | New York City | 3 | Stopwatch Beta","name_short":"nyc-3","host":"nyc-1.us.uncletopia.com","port":27035,"enabled":true,"region":"us-east","cc":"us","latitude":40.73061,"longitude":-73.93524,"reserved":0,"last_update":"0001-01-01T00:00:00Z","name_a2s":"Uncletopia | New York City | 3 | Stopwatch Beta","protocol":17,"map":"pl_upward","folder":"tf","game":"Team Fortress","app_id":440,"player_count":0,"max_players":24,"Bots":0,"server_type":"Dedicated","server_os":"Linux","password":true,"vac":true,"version":"7757534","steam_id":85568392924742820,"keywords":["nocrits","nodmgspread","payload","uncletopia"],"game_id":440,"stv_port":27036,"stv_name":"Uncletopia | New York City | 3 | Stopwatch Beta | STV","players":null},{"server_id":16,"name":"Uncletopia | New York City | 4 | Community","name_short":"nyc-4","host":"nyc-1.us.uncletopia.com","port":27045,"enabled":true,"region":"us-east","cc":"us","latitude":40.73061,"longitude":-73.93524,"reserved":0,"last_update":"0001-01-01T00:00:00Z","name_a2s":"Uncletopia | New York City | 4 | Community","protocol":17,"map":"workshop/cp_reckoner_rc6.ugc674719999","folder":"tf","game":"Team Fortress","app_id":440,"player_count":24,"max_players":24,"Bots":0,"server_type":"Dedicated","server_os":"Linux","password":true,"vac":true,"version":"7757534","steam_id":85568392924742821,"keywords":["cp","nocrits","nodmgspread","uncletopia"],"game_id":440,"stv_port":27046,"stv_name":"Uncletopia | New York City | 4 | Community | STV","players":[{"user_id":132,"name":"ShaqtusHD (She/Her)","steam_id":76561199138286233,"connected_time":1306000000000,"state":"active","ping":62},{"user_id":150,"name":"The Gamer Chicken","steam_id":76561198058256094,"connected_time":4000000000,"state":"spawning","ping":32},{"user_id":145,"name":"Bheem","steam_id":76561198170453459,"connected_time":540000000000,"state":"active","ping":105},{"user_id":123,"name":"orange porridge","steam_id":76561198044102244,"connected_time":1580000000000,"state":"active","ping":50},{"user_id":134,"name":"TinySuperion","steam_id":76561198917460128,"connected_time":1270000000000,"state":"active","ping":60},{"user_id":141,"name":"bob27","steam_id":76561198807658771,"connected_time":819000000000,"state":"active","ping":66},{"user_id":146,"name":"Bilgecrank","steam_id":76561197967191751,"connected_time":472000000000,"state":"active","ping":122},{"user_id":117,"name":".jpg","steam_id":76561198137237377,"connected_time":1894000000000,"state":"active","ping":62},{"user_id":108,"name":"waru","steam_id":76561198044251420,"connected_time":2356000000000,"state":"active","ping":56},{"user_id":136,"name":"Aeront","steam_id":76561198072032723,"connected_time":1227000000000,"state":"active","ping":82},{"user_id":137,"name":"Treeckogeek","steam_id":76561198453328078,"connected_time":1225000000000,"state":"active","ping":76},{"user_id":114,"name":"for the king","steam_id":76561197973488858,"connected_time":2197000000000,"state":"active","ping":45},{"user_id":138,"name":"TheSneakiestOfAllTime","steam_id":76561198860646189,"connected_time":951000000000,"state":"active","ping":84},{"user_id":149,"name":"Xeme","steam_id":76561198804059729,"connected_time":108000000000,"state":"active","ping":32},{"user_id":129,"name":"Sabaman55","steam_id":76561198212267979,"connected_time":1408000000000,"state":"active","ping":68},{"user_id":142,"name":"Lemur2016","steam_id":76561198194372906,"connected_time":811000000000,"state":"active","ping":68},{"user_id":140,"name":"LXS","steam_id":76561198150627999,"connected_time":929000000000,"state":"active","ping":61},{"user_id":130,"name":"SMUG mesurara","steam_id":76561198046953937,"connected_time":1398000000000,"state":"active","ping":134},{"user_id":148,"name":"MagikarpEX","steam_id":76561198166172279,"connected_time":142000000000,"state":"active","ping":57},{"user_id":128,"name":"el muchacho","steam_id":76561198282632562,"connected_time":1446000000000,"state":"active","ping":99},{"user_id":126,"name":"emily","steam_id":76561198051872256,"connected_time":1534000000000,"state":"active","ping":74},{"user_id":131,"name":"biwanji","steam_id":76561198024262939,"connected_time":1393000000000,"state":"active","ping":93},{"user_id":144,"name":"Moshi Man","steam_id":76561198038249762,"connected_time":597000000000,"state":"active","ping":66},{"user_id":147,"name":"bomster","steam_id":76561198243084082,"connected_time":472000000000,"state":"active","ping":69}]},{"server_id":142,"name":"Uncletopia | S√£o Paulo | 1 | All Maps","name_short":"sao-1","host":"sao-1.br.uncletopia.com","port":27015,"enabled":true,"region":"sa","cc":"br","latitude":-23.533773,"longitude":-46.62529,"reserved":0,"last_update":"0001-01-01T00:00:00Z","name_a2s":"Uncletopia | S√£o Paulo | 1 | All Maps","protocol":17,"map":"koth_highpass","folder":"tf","game":"Team Fortress","app_id":440,"player_count":0,"max_players":24,"Bots":0,"server_type":"Dedicated","server_os":"Linux","password":true,"vac":true,"version":"7757534","steam_id":85568392924469996,"keywords":["cp","nocrits","nodmgspread","uncletopia"],"game_id":440,"stv_port":27016,"stv_name":"Uncletopia | S√£o Paulo | 1 | All Maps | STV","players":null},{"server_id":143,"name":"Uncletopia | S√£o Paulo | 2 | All Maps","name_short":"sao-2","host":"sao-2.br.uncletopia.com","port":27015,"enabled":true,"region":"sa","cc":"br","latitude":-23.533773,"longitude":-46.62529,"reserved":0,"last_update":"0001-01-01T00:00:00Z","name_a2s":"Uncletopia | S√£o Paulo | 2 | All Maps","protocol":17,"map":"pl_barnblitz","folder":"tf","game":"Team Fortress","app_id":440,"player_count":0,"max_players":24,"Bots":0,"server_type":"Dedicated","server_os":"Linux","password":true,"vac":true,"version":"7757534","steam_id":85568392924485349,"keywords":["nocrits","nodmgspread","payload","uncletopia"],"game_id":440,"stv_port":27016,"stv_name":"Uncletopia | S√£o Paulo | 2 | All Maps | STV","players":null},{"server_id":7,"name":"Uncletopia | Seattle | 1 | All Maps","name_short":"sea-1","host":"sea-1.us.uncletopia.com","port":27015,"enabled":true,"region":"us-west","cc":"us","latitude":47.608013,"longitude":-122.33517,"reserved":0,"last_update":"0001-01-01T00:00:00Z","name_a2s":"Uncletopia | Seattle | 1 | All Maps","protocol":17,"map":"cp_dustbowl","folder":"tf","game":"Team Fortress","app_id":440,"player_count":24,"max_players":24,"Bots":0,"server_type":"Dedicated","server_os":"Linux","password":true,"vac":true,"version":"7757534","steam_id":85568392924469997,"keywords":["cp","nocrits","nodmgspread","uncletopia"],"game_id":440,"stv_port":27016,"stv_name":"Uncletopia | Seattle | 1 | All Maps | STV","players":[{"user_id":692,"name":"pyrotechnic","steam_id":76561198043558709,"connected_time":296000000000,"state":"active","ping":57},{"user_id":691,"name":"[Interpol] Fran√ßois Dubonais","steam_id":76561198191536489,"connected_time":335000000000,"state":"active","ping":89},{"user_id":685,"name":"WACKY JIM","steam_id":76561198961641122,"connected_time":945000000000,"state":"active","ping":56},{"user_id":687,"name":"LProduct","steam_id":76561199442139670,"connected_time":803000000000,"state":"active","ping":93},{"user_id":690,"name":"5392vin","steam_id":76561198880493511,"connected_time":341000000000,"state":"active","ping":62},{"user_id":688,"name":"The Super Mario Bros. Movie","steam_id":76561198871692156,"connected_time":802000000000,"state":"active","ping":58},{"user_id":670,"name":"N√©oGothiqueüïØ","steam_id":76561198003467269,"connected_time":2496000000000,"state":"active","ping":107},{"user_id":674,"name":"TheCowledWiz","steam_id":76561198016735868,"connected_time":2019000000000,"state":"active","ping":46},{"user_id":673,"name":"cable","steam_id":76561198061674484,"connected_time":2043000000000,"state":"active","ping":157},{"user_id":610,"name":"Ayayahuasca","steam_id":76561199002906056,"connected_time":8271000000000,"state":"active","ping":52},{"user_id":642,"name":"A Duck With Socks","steam_id":76561198018844227,"connected_time":6031000000000,"state":"active","ping":64},{"user_id":684,"name":"mhmyeah_yeahmhm","steam_id":76561198341190679,"connected_time":966000000000,"state":"active","ping":56},{"user_id":664,"name":"Tom Skirrett","steam_id":76561198014600788,"connected_time":3246000000000,"state":"active","ping":73},{"user_id":689,"name":"At0m1x","steam_id":76561198241192420,"connected_time":347000000000,"state":"active","ping":59},{"user_id":678,"name":"ansoonii","steam_id":76561198092494136,"connected_time":1804000000000,"state":"active","ping":92},{"user_id":651,"name":"jacix3 [gay wolfgirl]{she/it}","steam_id":76561198205004165,"connected_time":4779000000000,"state":"active","ping":68},{"user_id":693,"name":"KentYardAssociate","steam_id":76561198290499758,"connected_time":292000000000,"state":"active","ping":137},{"user_id":620,"name":"Mignyanne :3","steam_id":76561198048754056,"connected_time":7491000000000,"state":"active","ping":60},{"user_id":694,"name":"ChromeOwl","steam_id":76561198953786715,"connected_time":282000000000,"state":"active","ping":55},{"user_id":672,"name":"Kir","steam_id":76561198057745344,"connected_time":2233000000000,"state":"active","ping":105},{"user_id":679,"name":"harmless_nerd","steam_id":76561199470510373,"connected_time":1777000000000,"state":"active","ping":96},{"user_id":659,"name":"blinkerton city","steam_id":76561198054270410,"connected_time":3862000000000,"state":"active","ping":57},{"user_id":681,"name":"Universal","steam_id":76561198450085685,"connected_time":1014000000000,"state":"active","ping":71},{"user_id":682,"name":"SomeGuyWhoLikesPotatoes","steam_id":76561198110276797,"connected_time":1014000000000,"state":"active","ping":57}]},{"server_id":119,"name":"Uncletopia | Seattle | 2 | All Maps","name_short":"sea-2","host":"sea-1.us.uncletopia.com","port":27025,"enabled":true,"region":"us-west","cc":"us","latitude":47.608013,"longitude":-122.33517,"reserved":0,"last_update":"0001-01-01T00:00:00Z","name_a2s":"Uncletopia | Seattle | 2 | All Maps","protocol":17,"map":"pl_badwater","folder":"tf","game":"Team Fortress","app_id":440,"player_count":23,"max_players":24,"Bots":0,"server_type":"Dedicated","server_os":"Linux","password":true,"vac":true,"version":"7757534","steam_id":85568392924469998,"keywords":["nocrits","nodmgspread","payload","uncletopia"],"game_id":440,"stv_port":27026,"stv_name":"Uncletopia | Seattle | 2 | All Maps | STV","players":[{"user_id":577,"name":"Halcyon","steam_id":76561199103213955,"connected_time":1044000000000,"state":"active","ping":80},{"user_id":575,"name":"IntravenusDeMilo","steam_id":76561197970629020,"connected_time":1314000000000,"state":"active","ping":32},{"user_id":546,"name":"KingTinkerer","steam_id":76561198226856548,"connected_time":3517000000000,"state":"active","ping":78},{"user_id":578,"name":"MrJokester","steam_id":76561198019101367,"connected_time":1018000000000,"state":"active","ping":47},{"user_id":565,"name":"der","steam_id":76561198060762287,"connected_time":2137000000000,"state":"active","ping":47},{"user_id":548,"name":"Dr. Banana boy","steam_id":76561199012105803,"connected_time":3132000000000,"state":"active","ping":57},{"user_id":581,"name":"Eraser cat","steam_id":76561199045570463,"connected_time":931000000000,"state":"active","ping":45},{"user_id":568,"name":"ChuChu","steam_id":76561199443647976,"connected_time":2121000000000,"state":"active","ping":96},{"user_id":532,"name":"zone 5 (bone zone)","steam_id":76561197979056451,"connected_time":4107000000000,"state":"active","ping":46},{"user_id":522,"name":"Dilo","steam_id":76561198799078414,"connected_time":4619000000000,"state":"active","ping":89},{"user_id":582,"name":"Isopentyl Ethanoate","steam_id":76561198116389072,"connected_time":918000000000,"state":"active","ping":57},{"user_id":564,"name":"dearender","steam_id":76561199427644498,"connected_time":2194000000000,"state":"active","ping":75},{"user_id":572,"name":"VixianUwU","steam_id":76561198948815060,"connected_time":1577000000000,"state":"active","ping":83},{"user_id":440,"name":"Grammaring","steam_id":76561198867366139,"connected_time":12207000000000,"state":"active","ping":75},{"user_id":583,"name":"Speavy","steam_id":76561198847690613,"connected_time":793000000000,"state":"active","ping":130},{"user_id":586,"name":"John Calibur","steam_id":76561197999986606,"connected_time":618000000000,"state":"active","ping":75},{"user_id":567,"name":"litcherally in vents","steam_id":76561199169558959,"connected_time":2125000000000,"state":"active","ping":36},{"user_id":584,"name":"F_L Vision Spire","steam_id":76561198095923905,"connected_time":765000000000,"state":"active","ping":100},{"user_id":535,"name":"zone 6","steam_id":76561198068672882,"connected_time":4062000000000,"state":"active","ping":71},{"user_id":491,"name":"big car","steam_id":76561198067082350,"connected_time":6719000000000,"state":"active","ping":80},{"user_id":585,"name":"D0VE","steam_id":76561198151618566,"connected_time":712000000000,"state":"active","ping":62},{"user_id":536,"name":"self sufficient kitten","steam_id":76561197960592612,"connected_time":4052000000000,"state":"active","ping":45},{"user_id":540,"name":"AmyPercent","steam_id":76561198071896932,"connected_time":3886000000000,"state":"active","ping":86}]},{"server_id":406,"name":"Uncletopia | Seattle | 3 | Stopwatch Beta","name_short":"sea-3","host":"sea-1.us.uncletopia.com","port":27035,"enabled":true,"region":"us-west","cc":"us","latitude":47.608013,"longitude":-122.33517,"reserved":0,"last_update":"0001-01-01T00:00:00Z","name_a2s":"Uncletopia | Seattle | 3 | Stopwatch Beta","protocol":17,"map":"workshop/koth_ashville_final.ugc2130459942","folder":"tf","game":"Team Fortress","app_id":440,"player_count":0,"max_players":24,"Bots":0,"server_type":"Dedicated","server_os":"Linux","password":true,"vac":true,"version":"7757534","steam_id":85568392924515217,"keywords":["cp","nocrits","nodmgspread","uncletopia"],"game_id":440,"stv_port":27036,"stv_name":"Uncletopia | Seattle | 3 | Stopwatch Beta | STV","players":null},{"server_id":17,"name":"Uncletopia | San Francisco | 1 | All Maps","name_short":"sfo-1","host":"sfo-1.us.uncletopia.com","port":27015,"enabled":true,"region":"us-west","cc":"us","latitude":37.77397,"longitude":-122.4313,"reserved":0,"last_update":"0001-01-01T00:00:00Z","name_a2s":"Uncletopia | San Francisco | 1 | All Maps","protocol":17,"map":"pl_frontier_final","folder":"tf","game":"Team Fortress","app_id":440,"player_count":24,"max_players":24,"Bots":0,"server_type":"Dedicated","server_os":"Linux","password":true,"vac":true,"version":"7757534","steam_id":85568392924469999,"keywords":["nocrits","nodmgspread","payload","uncletopia"],"game_id":440,"stv_port":27016,"stv_name":"Uncletopia | San Francisco | 1 | All Maps | STV","players":[{"user_id":161,"name":"grugposter","steam_id":76561198035805348,"connected_time":3512000000000,"state":"active","ping":48},{"user_id":189,"name":"Brando","steam_id":76561198078306678,"connected_time":1936000000000,"state":"active","ping":71},{"user_id":124,"name":"BLU3","steam_id":76561198059652670,"connected_time":6236000000000,"state":"active","ping":62},{"user_id":123,"name":"ORANGE","steam_id":76561198000401769,"connected_time":6242000000000,"state":"active","ping":64},{"user_id":188,"name":"Marcus Annius Verus","steam_id":76561198036850392,"connected_time":2004000000000,"state":"active","ping":116},{"user_id":211,"name":"„Äê caden / karma „Äë","steam_id":76561198072276429,"connected_time":294000000000,"state":"active","ping":116},{"user_id":208,"name":"Zokku","steam_id":76561198070185695,"connected_time":467000000000,"state":"active","ping":128},{"user_id":184,"name":"Soap","steam_id":76561197994893383,"connected_time":2410000000000,"state":"active","ping":75},{"user_id":207,"name":"FREE PALESTINE","steam_id":76561197990511314,"connected_time":478000000000,"state":"active","ping":52},{"user_id":213,"name":"b i i g m a n","steam_id":76561198111147624,"connected_time":279000000000,"state":"active","ping":75},{"user_id":185,"name":"Len","steam_id":76561199141913673,"connected_time":2377000000000,"state":"active","ping":36},{"user_id":202,"name":"Enforcer Enthusiast","steam_id":76561199124102271,"connected_time":791000000000,"state":"active","ping":73},{"user_id":168,"name":"Nyges","steam_id":76561198139236154,"connected_time":3299000000000,"state":"active","ping":59},{"user_id":204,"name":"Jones","steam_id":76561198046037216,"connected_time":750000000000,"state":"active","ping":91},{"user_id":218,"name":"Perilous_N-gus_Lau","steam_id":76561198395490266,"connected_time":8000000000,"state":"spawning","ping":30},{"user_id":173,"name":"JellyParrot","steam_id":76561199190990163,"connected_time":3265000000000,"state":"active","ping":110},{"user_id":182,"name":"Yords","steam_id":76561198027925729,"connected_time":2932000000000,"state":"active","ping":87},{"user_id":196,"name":"jayeskae","steam_id":76561198144220801,"connected_time":1381000000000,"state":"active","ping":69},{"user_id":117,"name":"Bobby Ray","steam_id":76561198044131188,"connected_time":6466000000000,"state":"active","ping":73},{"user_id":201,"name":"kr1tsurf3r","steam_id":76561198076402476,"connected_time":822000000000,"state":"active","ping":82},{"user_id":181,"name":"Timmy Thick","steam_id":76561198031018737,"connected_time":2946000000000,"state":"active","ping":56},{"user_id":216,"name":"supcupman","steam_id":76561198051513866,"connected_time":127000000000,"state":"active","ping":69},{"user_id":217,"name":"poob","steam_id":76561198406728732,"connected_time":58000000000,"state":"active","ping":105},{"user_id":195,"name":"clancy","steam_id":76561199294116951,"connected_time":1566000000000,"state":"active","ping":84}]},{"server_id":18,"name":"Uncletopia | San Francisco | 2 | All Maps","name_short":"sfo-2","host":"sfo-1.us.uncletopia.com","port":27025,"enabled":true,"region":"us-west","cc":"us","latitude":37.77397,"longitude":-122.4313,"reserved":0,"last_update":"0001-01-01T00:00:00Z","name_a2s":"Uncletopia | San Francisco | 2 | All Maps","protocol":17,"map":"cp_mountainlab","folder":"tf","game":"Team Fortress","app_id":440,"player_count":14,"max_players":24,"Bots":0,"server_type":"Dedicated","server_os":"Linux","password":true,"vac":true,"version":"7757534","steam_id":85568392924470000,"keywords":["cp","nocrits","nodmgspread","uncletopia"],"game_id":440,"stv_port":27026,"stv_name":"Uncletopia | San Francisco | 2 | All Maps | STV","players":[{"user_id":545,"name":"valefor","steam_id":76561198074777193,"connected_time":706000000000,"state":"active","ping":64},{"user_id":546,"name":"Dorsia Reservation","steam_id":76561198124528566,"connected_time":576000000000,"state":"active","ping":59},{"user_id":547,"name":"Dosario","steam_id":76561198298095535,"connected_time":359000000000,"state":"active","ping":75},{"user_id":531,"name":"C4BA","steam_id":76561198043310014,"connected_time":2510000000000,"state":"active","ping":45},{"user_id":548,"name":"DragonWing","steam_id":76561198353039415,"connected_time":357000000000,"state":"active","ping":114},{"user_id":557,"name":"come here cupcake","steam_id":76561198877042360,"connected_time":20000000000,"state":"spawning","ping":90},{"user_id":544,"name":"Insanity_Book","steam_id":76561198282715309,"connected_time":790000000000,"state":"active","ping":70},{"user_id":552,"name":"Jarlpy","steam_id":76561198193905778,"connected_time":156000000000,"state":"active","ping":131},{"user_id":554,"name":"Dog","steam_id":76561198798733918,"connected_time":97000000000,"state":"active","ping":74},{"user_id":555,"name":"NoBeeme","steam_id":76561198277825198,"connected_time":95000000000,"state":"active","ping":80},{"user_id":556,"name":"Zachguin","steam_id":76561198068947962,"connected_time":87000000000,"state":"active","ping":99},{"user_id":558,"name":"Mystikkal","steam_id":76561198003949147,"connected_time":10000000000,"state":"active","ping":68},{"user_id":447,"name":"||:‚ô©‚ô©‚ô©‚ô™:|| Opplydead","steam_id":76561198028630334,"connected_time":7924000000000,"state":"active","ping":55},{"user_id":539,"name":"Most Powerfulest Gamer","steam_id":76561198045233127,"connected_time":1773000000000,"state":"active","ping":42}]},{"server_id":19,"name":"Uncletopia | San Francisco | 3 | Stopwatch Beta","name_short":"sfo-3","host":"sfo-1.us.uncletopia.com","port":27035,"enabled":true,"region":"us-west","cc":"us","latitude":37.77397,"longitude":-122.4313,"reserved":0,"last_update":"0001-01-01T00:00:00Z","name_a2s":"Uncletopia | San Francisco | 3 | Stopwatch Beta","protocol":17,"map":"pl_borneo","folder":"tf","game":"Team Fortress","app_id":440,"player_count":0,"max_players":24,"Bots":0,"server_type":"Dedicated","server_os":"Linux","password":true,"vac":true,"version":"7757534","steam_id":85568392924742824,"keywords":["nocrits","nodmgspread","payload","uncletopia"],"game_id":440,"stv_port":27036,"stv_name":"Uncletopia | San Francisco | 3 | Stopwatch Beta | STV","players":null},{"server_id":20,"name":"Uncletopia | San Francisco | 4 | Community","name_short":"sfo-4","host":"sfo-1.us.uncletopia.com","port":27045,"enabled":true,"region":"us-west","cc":"us","latitude":37.77397,"longitude":-122.4313,"reserved":0,"last_update":"0001-01-01T00:00:00Z","name_a2s":"Uncletopia | San Francisco | 4 | Community","protocol":17,"map":"workshop/koth_slaughter_rc1.ugc1712845210","folder":"tf","game":"Team Fortress","app_id":440,"player_count":24,"max_players":24,"Bots":0,"server_type":"Dedicated","server_os":"Linux","password":true,"vac":true,"version":"7757534","steam_id":85568392924742826,"keywords":["cp","nocrits","nodmgspread","uncletopia"],"game_id":440,"stv_port":27046,"stv_name":"Uncletopia | San Francisco | 4 | Community | STV","players":[{"user_id":552,"name":"Jon Snuh","steam_id":76561198075298635,"connected_time":283000000000,"state":"active","ping":102},{"user_id":524,"name":"Kevin","steam_id":76561198060597356,"connected_time":2312000000000,"state":"active","ping":90},{"user_id":555,"name":"times table","steam_id":76561198341452558,"connected_time":83000000000,"state":"spawning","ping":204},{"user_id":557,"name":"Nuk3","steam_id":76561198798608026,"connected_time":34000000000,"state":"spawning","ping":162},{"user_id":548,"name":"bobletoob","steam_id":76561199184464900,"connected_time":404000000000,"state":"active","ping":71},{"user_id":411,"name":"deadpixel","steam_id":76561198150249843,"connected_time":9754000000000,"state":"active","ping":96},{"user_id":549,"name":"Nestad","steam_id":76561198077436359,"connected_time":401000000000,"state":"active","ping":78},{"user_id":553,"name":"jeffus13","steam_id":76561199347238848,"connected_time":244000000000,"state":"active","ping":74},{"user_id":447,"name":"BurR","steam_id":76561198055431367,"connected_time":8006000000000,"state":"active","ping":117},{"user_id":550,"name":"snow","steam_id":76561198018184698,"connected_time":374000000000,"state":"active","ping":114},{"user_id":521,"name":"SpecterQuilava","steam_id":76561198262959060,"connected_time":2410000000000,"state":"active","ping":84},{"user_id":510,"name":"Lots0","steam_id":76561198043143145,"connected_time":3071000000000,"state":"active","ping":100},{"user_id":543,"name":"Major_Pippy","steam_id":76561198004482878,"connected_time":1155000000000,"state":"active","ping":70},{"user_id":505,"name":"Avem","steam_id":76561198058763710,"connected_time":4098000000000,"state":"active","ping":40},{"user_id":528,"name":"mah301s","steam_id":76561197982584561,"connected_time":2236000000000,"state":"active","ping":114},{"user_id":556,"name":"turn around","steam_id":76561198046526036,"connected_time":73000000000,"state":"active","ping":59},{"user_id":532,"name":"–º—è. 99","steam_id":76561197986163434,"connected_time":2203000000000,"state":"active","ping":129},{"user_id":526,"name":"Gocean","steam_id":76561198195088503,"connected_time":2301000000000,"state":"active","ping":61},{"user_id":554,"name":"R5-D4","steam_id":76561198025196439,"connected_time":229000000000,"state":"active","ping":74},{"user_id":448,"name":"ButterNutz","steam_id":76561198122404516,"connected_time":7965000000000,"state":"active","ping":89},{"user_id":529,"name":"Pugdoot","steam_id":76561198070557467,"connected_time":2230000000000,"state":"active","ping":124},{"user_id":540,"name":"Jake","steam_id":76561198031911373,"connected_time":1621000000000,"state":"active","ping":70},{"user_id":539,"name":"N!Tr0","steam_id":76561198256024843,"connected_time":1742000000000,"state":"active","ping":71},{"user_id":323,"name":"Phil Collins","steam_id":76561198068868644,"connected_time":15985000000000,"state":"active","ping":72}]},{"server_id":141,"name":"Uncletopia | Sydney | 1 | All Maps","name_short":"syd-1","host":"syd-1.au.uncletopia.com","port":27015,"enabled":true,"region":"au","cc":"au","latitude":-33.865143,"longitude":151.2099,"reserved":0,"last_update":"0001-01-01T00:00:00Z","name_a2s":"Uncletopia | Sydney | 1 | All Maps","protocol":17,"map":"pl_badwater","folder":"tf","game":"Team Fortress","app_id":440,"player_count":24,"max_players":24,"Bots":0,"server_type":"Dedicated","server_os":"Linux","password":true,"vac":true,"version":"7757534","steam_id":85568392924470001,"keywords":["nocrits","nodmgspread","payload","uncletopia"],"game_id":440,"stv_port":27016,"stv_name":"Uncletopia | Sydney | 1 | All Maps | STV","players":[{"user_id":219,"name":"seiran","steam_id":76561198880907232,"connected_time":3939000000000,"state":"active","ping":100},{"user_id":277,"name":"Pompadouraus","steam_id":76561198327530525,"connected_time":1103000000000,"state":"active","ping":78},{"user_id":282,"name":"Owlenstein‚Ñ¢","steam_id":76561198093983826,"connected_time":585000000000,"state":"active","ping":125},{"user_id":262,"name":"Blondie","steam_id":76561198046977058,"connected_time":2219000000000,"state":"active","ping":66},{"user_id":220,"name":"Legend27","steam_id":76561199475312777,"connected_time":3913000000000,"state":"active","ping":59},{"user_id":280,"name":"Ganome Chilled","steam_id":76561198064898965,"connected_time":849000000000,"state":"active","ping":87},{"user_id":267,"name":"Charm","steam_id":76561198028891054,"connected_time":1908000000000,"state":"active","ping":59},{"user_id":261,"name":"Livid","steam_id":76561198060024585,"connected_time":2301000000000,"state":"active","ping":33},{"user_id":278,"name":"floppinv2","steam_id":76561198213566569,"connected_time":1099000000000,"state":"active","ping":98},{"user_id":243,"name":"schrivel","steam_id":76561198129577552,"connected_time":2976000000000,"state":"active","ping":51},{"user_id":284,"name":"Circumcision survivor","steam_id":76561198103271896,"connected_time":561000000000,"state":"active","ping":68},{"user_id":269,"name":"CrazyGlobe","steam_id":76561198992451299,"connected_time":1806000000000,"state":"active","ping":52},{"user_id":288,"name":"Warren","steam_id":76561198120350917,"connected_time":277000000000,"state":"active","ping":39},{"user_id":214,"name":"bread.  üî™","steam_id":76561199102895674,"connected_time":4471000000000,"state":"active","ping":80},{"user_id":276,"name":"Glockenspe (She/Her)","steam_id":76561199184115241,"connected_time":1115000000000,"state":"active","ping":52},{"user_id":268,"name":"oldbie","steam_id":76561198053297711,"connected_time":1857000000000,"state":"active","ping":78},{"user_id":235,"name":"Gamma","steam_id":76561198281131757,"connected_time":3570000000000,"state":"active","ping":65},{"user_id":275,"name":"Chrisy","steam_id":76561198092382473,"connected_time":1186000000000,"state":"active","ping":84},{"user_id":210,"name":"modus","steam_id":76561198025099660,"connected_time":4801000000000,"state":"active","ping":32},{"user_id":281,"name":"SamK #AnnexTF2","steam_id":76561198149051619,"connected_time":817000000000,"state":"active","ping":61},{"user_id":270,"name":"Lmaogaming","steam_id":76561199447499386,"connected_time":1795000000000,"state":"active","ping":177},{"user_id":271,"name":"Jumzie","steam_id":76561197999511090,"connected_time":1785000000000,"state":"active","ping":56},{"user_id":285,"name":"Rat Pope","steam_id":76561199059450243,"connected_time":555000000000,"state":"active","ping":51},{"user_id":286,"name":"hive","steam_id":76561199099744527,"connected_time":527000000000,"state":"active","ping":47}]},{"server_id":123,"name":"Uncletopia | Sydney | 2 | All Maps","name_short":"syd-2","host":"syd-1.au.uncletopia.com","port":27025,"enabled":true,"region":"au","cc":"au","latitude":-33.865143,"longitude":151.2099,"reserved":0,"last_update":"0001-01-01T00:00:00Z","name_a2s":"Uncletopia | Sydney | 2 | All Maps","protocol":17,"map":"koth_viaduct","folder":"tf","game":"Team Fortress","app_id":440,"player_count":0,"max_players":24,"Bots":0,"server_type":"Dedicated","server_os":"Linux","password":true,"vac":true,"version":"7757534","steam_id":85568392924470002,"keywords":["cp","nocrits","nodmgspread","uncletopia"],"game_id":440,"stv_port":27026,"stv_name":"Uncletopia | Sydney | 2 | All Maps | STV","players":null},{"server_id":395,"name":"Uncletopia | Sydney | 3 | All Maps","name_short":"syd-3","host":"syd-1.au.uncletopia.com","port":27035,"enabled":true,"region":"au","cc":"au","latitude":-33.865143,"longitude":151.2099,"reserved":0,"last_update":"0001-01-01T00:00:00Z","name_a2s":"Uncletopia | Sydney | 3 | All Maps","protocol":17,"map":"pl_pier","folder":"tf","game":"Team Fortress","app_id":440,"player_count":24,"max_players":24,"Bots":0,"server_type":"Dedicated","server_os":"Linux","password":true,"vac":true,"version":"7757534","steam_id":85568392925194467,"keywords":["nocrits","nodmgspread","payload","uncletopia"],"game_id":440,"stv_port":27036,"stv_name":"Uncletopia | Sydney | 3 | All Maps | STV","players":[{"user_id":90,"name":"jack","steam_id":76561199442140704,"connected_time":1554000000000,"state":"active","ping":64},{"user_id":92,"name":"Phat Thot","steam_id":76561198048497307,"connected_time":822000000000,"state":"active","ping":41},{"user_id":99,"name":"DKC","steam_id":76561198313578155,"connected_time":547000000000,"state":"active","ping":30},{"user_id":82,"name":"uncle nephew junior","steam_id":76561198930683342,"connected_time":2131000000000,"state":"active","ping":62},{"user_id":100,"name":"Jex","steam_id":76561198296071105,"connected_time":514000000000,"state":"active","ping":47},{"user_id":42,"name":"Soldier main in need of medic","steam_id":76561198153397177,"connected_time":3977000000000,"state":"active","ping":50},{"user_id":94,"name":"nurf","steam_id":76561198019391327,"connected_time":796000000000,"state":"active","ping":80},{"user_id":44,"name":"Mike Davis","steam_id":76561199009189725,"connected_time":3912000000000,"state":"active","ping":66},{"user_id":35,"name":"xX_sexhaver_Xx(real)","steam_id":76561199205171109,"connected_time":4301000000000,"state":"active","ping":63},{"user_id":76,"name":"Cv76","steam_id":76561198817942619,"connected_time":2623000000000,"state":"active","ping":38},{"user_id":84,"name":"Ultimate Spaghet","steam_id":76561198880336399,"connected_time":1756000000000,"state":"active","ping":56},{"user_id":95,"name":"abcdef","steam_id":76561198083700749,"connected_time":688000000000,"state":"active","ping":40},{"user_id":75,"name":"DragRiper","steam_id":76561198050917553,"connected_time":2702000000000,"state":"active","ping":59},{"user_id":103,"name":"BookStick","steam_id":76561198355308266,"connected_time":114000000000,"state":"active","ping":74},{"user_id":77,"name":"NollReed","steam_id":76561198098501571,"connected_time":2623000000000,"state":"active","ping":76},{"user_id":102,"name":"clare","steam_id":76561199153466891,"connected_time":358000000000,"state":"active","ping":85},{"user_id":30,"name":"Dupiter","steam_id":76561198108820767,"connected_time":4554000000000,"state":"active","ping":56},{"user_id":57,"name":"Beehive","steam_id":76561199436707447,"connected_time":3198000000000,"state":"active","ping":58},{"user_id":85,"name":"WaltuhWire","steam_id":76561199474360724,"connected_time":1686000000000,"state":"active","ping":166},{"user_id":83,"name":"thrax","steam_id":76561197992385270,"connected_time":2050000000000,"state":"active","ping":42},{"user_id":97,"name":"rearranging furniture","steam_id":76561198179045463,"connected_time":668000000000,"state":"active","ping":52},{"user_id":64,"name":"Jdn","steam_id":76561198293079232,"connected_time":2954000000000,"state":"active","ping":62},{"user_id":81,"name":"Hally","steam_id":76561198045236233,"connected_time":2234000000000,"state":"active","ping":45},{"user_id":98,"name":"ljpaters","steam_id":76561198094354484,"connected_time":591000000000,"state":"active","ping":69}]},{"server_id":396,"name":"Uncletopia | Sydney | 4 | All Maps","name_short":"syd-4","host":"syd-1.au.uncletopia.com","port":27045,"enabled":true,"region":"au","cc":"au","latitude":-33.865143,"longitude":151.2099,"reserved":0,"last_update":"0001-01-01T00:00:00Z","name_a2s":"Uncletopia | Sydney | 4 | All Maps","protocol":17,"map":"pl_frontier_final","folder":"tf","game":"Team Fortress","app_id":440,"player_count":0,"max_players":24,"Bots":0,"server_type":"Dedicated","server_os":"Linux","password":true,"vac":true,"version":"7757534","steam_id":85568392925397958,"keywords":["nocrits","nodmgspread","payload","uncletopia"],"game_id":440,"stv_port":27046,"stv_name":"Uncletopia | Sydney | 4 | All Maps | STV","players":null},{"server_id":58,"name":"Uncletopia | Sydney | 5 | Stopwatch Beta","name_short":"syd-5","host":"syd-1.au.uncletopia.com","port":27055,"enabled":true,"region":"au","cc":"au","latitude":-33.865143,"longitude":151.2099,"reserved":0,"last_update":"0001-01-01T00:00:00Z","name_a2s":"Uncletopia | Sydney | 5 | Stopwatch Beta","protocol":17,"map":"cp_sunshine","folder":"tf","game":"Team Fortress","app_id":440,"player_count":0,"max_players":24,"Bots":0,"server_type":"Dedicated","server_os":"Linux","password":true,"vac":true,"version":"7757534","steam_id":85568392925397959,"keywords":["cp","nocrits","nodmgspread","uncletopia"],"game_id":440,"stv_port":27056,"stv_name":"Uncletopia | Sydney | 5 | Stopwatch Beta | STV","players":null},{"server_id":59,"name":"Uncletopia | Sydney | 6 | Community","name_short":"syd-6","host":"syd-1.au.uncletopia.com","port":27065,"enabled":true,"region":"au","cc":"au","latitude":-33.865143,"longitude":151.2099,"reserved":0,"last_update":"0001-01-01T00:00:00Z","name_a2s":"Uncletopia | Sydney | 6 | Community","protocol":17,"map":"workshop/pl_divulgence_b4b.ugc2884808746","folder":"tf","game":"Team Fortress","app_id":440,"player_count":0,"max_players":24,"Bots":0,"server_type":"Dedicated","server_os":"Linux","password":true,"vac":true,"version":"7757534","steam_id":85568392925397960,"keywords":["nocrits","nodmgspread","payload","uncletopia"],"game_id":440,"stv_port":27066,"stv_name":"Uncletopia | Sydney | 6 | Community | STV","players":null},{"server_id":49,"name":"Uncletopia | Warsaw | 1 | All Maps","name_short":"waw-1","host":"waw-1.pl.uncletopia.com","port":27015,"enabled":true,"region":"eu","cc":"pl","latitude":52.2297,"longitude":21.017532,"reserved":0,"last_update":"0001-01-01T00:00:00Z","name_a2s":"","protocol":0,"map":"","folder":"","game":"","app_id":0,"player_count":0,"max_players":0,"Bots":0,"server_type":"","server_os":"","password":false,"vac":false,"version":"","steam_id":0,"keywords":null,"game_id":0,"stv_port":0,"stv_name":"","players":null},{"server_id":50,"name":"Uncletopia | Warsaw | 2 | All Maps","name_short":"waw-2","host":"waw-1.pl.uncletopia.com","port":27025,"enabled":true,"region":"eu","cc":"pl","latitude":52.2297,"longitude":21.017532,"reserved":0,"last_update":"0001-01-01T00:00:00Z","name_a2s":"Uncletopia | Warsaw | 2 | All Maps","protocol":17,"map":"cp_mountainlab","folder":"tf","game":"Team Fortress","app_id":440,"player_count":0,"max_players":24,"Bots":0,"server_type":"Dedicated","server_os":"Linux","password":true,"vac":true,"version":"7757534","steam_id":85568392925397851,"keywords":["cp","nocrits","nodmgspread","uncletopia"],"game_id":440,"stv_port":27026,"stv_name":"Uncletopia | Warsaw | 2 | All Maps | STV","players":null},{"server_id":51,"name":"Uncletopia | Warsaw | 3 | All Maps","name_short":"waw-3","host":"waw-1.pl.uncletopia.com","port":27035,"enabled":true,"region":"eu","cc":"pl","latitude":52.2297,"longitude":21.017532,"reserved":0,"last_update":"0001-01-01T00:00:00Z","name_a2s":"Uncletopia | Warsaw | 3 | All Maps","protocol":17,"map":"pl_swiftwater_final1","folder":"tf","game":"Team Fortress","app_id":440,"player_count":0,"max_players":24,"Bots":0,"server_type":"Dedicated","server_os":"Linux","password":true,"vac":true,"version":"7757534","steam_id":85568392925397852,"keywords":["nocrits","nodmgspread","payload","uncletopia"],"game_id":440,"stv_port":27036,"stv_name":"Uncletopia | Warsaw | 3 | All Maps | STV","players":null},{"server_id":52,"name":"Uncletopia | Warsaw | 4 | All Maps","name_short":"waw-4","host":"waw-1.pl.uncletopia.com","port":27045,"enabled":true,"region":"eu","cc":"pl","latitude":52.2297,"longitude":21.017532,"reserved":0,"last_update":"0001-01-01T00:00:00Z","name_a2s":"Uncletopia | Warsaw | 4 | All Maps","protocol":17,"map":"pl_pier","folder":"tf","game":"Team Fortress","app_id":440,"player_count":0,"max_players":24,"Bots":0,"server_type":"Dedicated","server_os":"Linux","password":true,"vac":true,"version":"7757534","steam_id":85568392925397853,"keywords":["nocrits","nodmgspread","payload","uncletopia"],"game_id":440,"stv_port":27046,"stv_name":"Uncletopia | Warsaw | 4 | All Maps | STV","players":null},{"server_id":53,"name":"Uncletopia | Warsaw | 5 | Stopwatch Beta","name_short":"waw-5","host":"waw-1.pl.uncletopia.com","port":27055,"enabled":true,"region":"eu","cc":"pl","latitude":52.2297,"longitude":21.017532,"reserved":0,"last_update":"0001-01-01T00:00:00Z","name_a2s":"Uncletopia | Warsaw | 5 | Stopwatch Beta","protocol":17,"map":"workshop/koth_bagel_rc6.ugc2514036946","folder":"tf","game":"Team Fortress","app_id":440,"player_count":0,"max_players":24,"Bots":0,"server_type":"Dedicated","server_os":"Linux","password":true,"vac":true,"version":"7757534","steam_id":85568392925397854,"keywords":["cp","nocrits","nodmgspread","uncletopia"],"game_id":440,"stv_port":27056,"stv_name":"Uncletopia | Warsaw | 5 | Stopwatch Beta | STV","players":null},{"server_id":54,"name":"Uncletopia | Warsaw | 6 | Community","name_short":"waw-6","host":"waw-1.pl.uncletopia.com","port":27065,"enabled":true,"region":"eu","cc":"pl","latitude":52.2297,"longitude":21.017532,"reserved":0,"last_update":"0001-01-01T00:00:00Z","name_a2s":"Uncletopia | Warsaw | 6 | Community","protocol":17,"map":"workshop/pl_divulgence_b4b.ugc2884808746","folder":"tf","game":"Team Fortress","app_id":440,"player_count":0,"max_players":24,"Bots":0,"server_type":"Dedicated","server_os":"Linux","password":true,"vac":true,"version":"7757534","steam_id":85568392925397856,"keywords":["nocrits","nodmgspread","payload","uncletopia"],"game_id":440,"stv_port":27066,"stv_name":"Uncletopia | Warsaw | 6 | Community | STV","players":null}]}