{"status":true,"message":"","result":[{"server_id":9,"name":"Uncletopia | Atlanta | 1 | All Maps","name_short":"atl-1","host":"atl-1.us.uncletopia.com","port":27015,"enabled":true,"region":"us-east","cc":"us","latitude":33.753746,"longitude":-84.38633,"reserved":0,"last_update":"0001-01-01T00:00:00Z","name_a2s":"Uncletopia | Atlanta | 1 | All Maps","protocol":17,"map":"koth_lakeside_final","folder":"tf","game":"Team Fortress","app_id":440,"player_count":0,"max_players":24,"Bots":0,"server_type":"Dedicated","server_os":"Linux","password":true,"vac":true,"version":"7757534","steam_id":85568392924469982,"keywords":["cp","nocrits","nodmgspread","uncletopia"],"game_id":440,"stv_port":27016,"stv_name":"Uncletopia | Atlanta | 1 | All Maps | STV","players":null},{"server_id":400,"name":"Uncletopia | Atlanta | 3 | Community","name_short":"atl-3","host":"atl-1.us.uncletopia.com","port":27035,"enabled":true,"region":"us-east","cc":"us","latitude":33.753746,"longitude":-84.38633,"reserved":0,"last_update":"0001-01-01T00:00:00Z","name_a2s":"Uncletopia | Atlanta | 3 | Community","protocol":17,"map":"workshop/koth_bagel_rc5.ugc2514036946","folder":"tf","game":"Team Fortress","app_id":440,"player_count":5,"max_players":24,"Bots":0,"server_type":"Dedicated","server_os":"Linux","password":true,"vac":true,"version":"7757534","steam_id":85568392924515187,"keywords":["cp","nocrits","nodmgspread","uncletopia"],"game_id":440,"stv_port":27036,"stv_name":"Uncletopia | Atlanta | 3 | Community | STV","players":[{"user_id":309,"name":"Riptide","steam_id":76561198164930435,"connected_time":1780000000000,"state":"active","ping":55},{"user_id":312,"name":"secondaltac","steam_id":76561199350678958,"connected_time":1561000000000,"state":"active","ping":62},{"user_id":314,"name":"[TSG] Turner's Chocolate Milk","steam_id":76561198058963288,"connected_time":1033000000000,"state":"active","ping":67},{"user_id":319,"name":"JMSB1000","steam_id":76561199056198955,"connected_time":45000000000,"state":"active","ping":167},{"user_id":302,"name":"fuckterry","steam_id":76561198271957738,"connected_time":2600000000000,"state":"active","ping":59}]},{"server_id":401,"name":"Uncletopia | Atlanta | 4 | No Payload","name_short":"atl-4","host":"atl-1.us.uncletopia.com","port":27045,"enabled":true,"region":"us-east","cc":"us","latitude":33.753746,"longitude":-84.38633,"reserved":0,"last_update":"0001-01-01T00:00:00Z","name_a2s":"","protocol":0,"map":"","folder":"","game":"","app_id":0,"player_count":0,"max_players":0,"Bots":0,"server_type":"","server_os":"","password":false,"vac":false,"version":"","steam_id":0,"keywords":null,"game_id":0,"stv_port":0,"stv_name":"","players":null},{"server_id":2,"name":"Uncletopia | Chicago | 1 | All Maps","name_short":"chi-1","host":"chi-1.us.uncletopia.com","port":27015,"enabled":true,"region":"us-central","cc":"us","latitude":41.881832,"longitude":-87.62318,"reserved":0,"last_update":"0001-01-01T00:00:00Z","name_a2s":"Uncletopia | Chicago | 1 | All Maps","protocol":17,"map":"pl_borneo","folder":"tf","game":"Team Fortress","app_id":440,"player_count":24,"max_players":24,"Bots":0,"server_type":"Dedicated","server_os":"Linux","password":true,"vac":true,"version":"7757534","steam_id":85568392924469984,"keywords":["nocrits","nodmgspread","payload","uncletopia"],"game_id":440,"stv_port":27016,"stv_name":"Uncletopia | Chicago | 1 | All Maps | STV","players":[{"user_id":309,"name":"Michaelpc1","steam_id":76561198088365519,"connected_time":3925000000000,"state":"active","ping":80},{"user_id":334,"name":"Gheeotine","steam_id":76561198010181698,"connected_time":1543000000000,"state":"active","ping":91},{"user_id":335,"name":"leumas","steam_id":76561198240408540,"connected_time":1505000000000,"state":"active","ping":77},{"user_id":333,"name":"NUt","steam_id":76561198031007966,"connected_time":1562000000000,"state":"active","ping":67},{"user_id":336,"name":"Coffee with a Stranger","steam_id":76561198307422313,"connected_time":1481000000000,"state":"active","ping":70},{"user_id":337,"name":"Serene Salamander","steam_id":76561198001094770,"connected_time":1477000000000,"state":"active","ping":112},{"user_id":326,"name":"Duncan Idaho","steam_id":76561197988963861,"connected_time":2224000000000,"state":"active","ping":71},{"user_id":338,"name":"mritea","steam_id":76561198872799796,"connected_time":1463000000000,"state":"active","ping":107},{"user_id":305,"name":"On The Bright Side...","steam_id":76561198168785883,"connected_time":4118000000000,"state":"active","ping":45},{"user_id":339,"name":"M1C4A3L","steam_id":76561198009980085,"connected_time":1423000000000,"state":"active","ping":91},{"user_id":340,"name":"Doinnoid","steam_id":76561198262276139,"connected_time":1411000000000,"state":"active","ping":76},{"user_id":341,"name":"Cherry Juice","steam_id":76561198366570108,"connected_time":1405000000000,"state":"active","ping":60},{"user_id":344,"name":"gaylittlemouse","steam_id":76561198819562111,"connected_time":706000000000,"state":"active","ping":66},{"user_id":311,"name":"Hugo","steam_id":76561198045581609,"connected_time":3398000000000,"state":"active","ping":60},{"user_id":297,"name":"Swedish Crowbar","steam_id":76561199105488936,"connected_time":5263000000000,"state":"active","ping":152},{"user_id":314,"name":"the deadliest pyroshark","steam_id":76561198374227766,"connected_time":2968000000000,"state":"active","ping":69},{"user_id":346,"name":"Bee","steam_id":76561198074681324,"connected_time":390000000000,"state":"active","ping":62},{"user_id":331,"name":"Idiot on his Keyboard","steam_id":76561198217662787,"connected_time":1632000000000,"state":"active","ping":106},{"user_id":347,"name":"Johnny Lawrence #JohnnyMaxxing","steam_id":76561199367141671,"connected_time":54000000000,"state":"active","ping":61},{"user_id":345,"name":"stop","steam_id":76561198268686419,"connected_time":411000000000,"state":"active","ping":68},{"user_id":281,"name":"Rornir","steam_id":76561198081829615,"connected_time":6858000000000,"state":"active","ping":37},{"user_id":296,"name":"Mixomin","steam_id":76561198295061570,"connected_time":5369000000000,"state":"active","ping":59},{"user_id":332,"name":"Pygmalion","steam_id":76561198069670119,"connected_time":1632000000000,"state":"active","ping":74},{"user_id":306,"name":"Hell's Reindeer","steam_id":76561198065310364,"connected_time":4118000000000,"state":"active","ping":54}]},{"server_id":106,"name":"Uncletopia | Chicago | 2 | All Maps","name_short":"chi-2","host":"chi-1.us.uncletopia.com","port":27025,"enabled":true,"region":"us-central","cc":"us","latitude":41.881832,"longitude":-87.62318,"reserved":0,"last_update":"0001-01-01T00:00:00Z","name_a2s":"Uncletopia | Chicago | 2 | All Maps","protocol":17,"map":"koth_lakeside_final","folder":"tf","game":"Team Fortress","app_id":440,"player_count":24,"max_players":24,"Bots":0,"server_type":"Dedicated","server_os":"Linux","password":true,"vac":true,"version":"7757534","steam_id":85568392924469985,"keywords":["cp","nocrits","nodmgspread","uncletopia"],"game_id":440,"stv_port":27026,"stv_name":"Uncletopia | Chicago | 2 | All Maps | STV","players":[{"user_id":13,"name":"Nolan (Femboy)","steam_id":76561198082534795,"connected_time":1359000000000,"state":"active","ping":60},{"user_id":46,"name":"StormRage","steam_id":76561199435079308,"connected_time":132000000000,"state":"active","ping":141},{"user_id":11,"name":"The Rambler","steam_id":76561198109648603,"connected_time":2739000000000,"state":"active","ping":77},{"user_id":14,"name":"Will Buddha","steam_id":76561198397037834,"connected_time":1243000000000,"state":"active","ping":65},{"user_id":15,"name":"WEEN | :0","steam_id":76561198073607799,"connected_time":1045000000000,"state":"active","ping":161},{"user_id":38,"name":"Geloman","steam_id":76561198005501322,"connected_time":245000000000,"state":"active","ping":74},{"user_id":24,"name":"Reloadstudios","steam_id":76561198064775507,"connected_time":648000000000,"state":"active","ping":84},{"user_id":25,"name":"rkp!","steam_id":76561199053070819,"connected_time":601000000000,"state":"active","ping":50},{"user_id":27,"name":"krueger","steam_id":76561198268654031,"connected_time":501000000000,"state":"active","ping":45},{"user_id":28,"name":"Violet42","steam_id":76561198072927887,"connected_time":501000000000,"state":"active","ping":63},{"user_id":29,"name":"Bart Harley Jarvis","steam_id":76561199215811448,"connected_time":493000000000,"state":"active","ping":76},{"user_id":31,"name":"StupidSexyFlanders","steam_id":76561198029760463,"connected_time":465000000000,"state":"active","ping":67},{"user_id":32,"name":"Pyro Main(Not a furry)","steam_id":76561199178575029,"connected_time":442000000000,"state":"active","ping":92},{"user_id":33,"name":"Vibey","steam_id":76561198342873474,"connected_time":420000000000,"state":"active","ping":85},{"user_id":35,"name":"Uncle Winston","steam_id":76561197993302109,"connected_time":389000000000,"state":"active","ping":60},{"user_id":36,"name":"Scared Duck","steam_id":76561198081348409,"connected_time":303000000000,"state":"active","ping":62},{"user_id":39,"name":"☩☩☩","steam_id":76561198176618461,"connected_time":225000000000,"state":"active","ping":69},{"user_id":40,"name":"Rear Admiral Crunch","steam_id":76561198020007558,"connected_time":202000000000,"state":"active","ping":60},{"user_id":48,"name":"Family Guy","steam_id":76561198104679689,"connected_time":16000000000,"state":"active","ping":107},{"user_id":42,"name":"U.G playz","steam_id":76561198289247190,"connected_time":172000000000,"state":"active","ping":73},{"user_id":43,"name":"thebestman982","steam_id":76561199001698710,"connected_time":171000000000,"state":"active","ping":97},{"user_id":44,"name":"Chaotic Rushu","steam_id":76561198170054407,"connected_time":165000000000,"state":"active","ping":84},{"user_id":45,"name":"Mineboi98","steam_id":76561199076830259,"connected_time":149000000000,"state":"active","ping":83},{"user_id":47,"name":"DIZ","steam_id":76561199065119525,"connected_time":130000000000,"state":"active","ping":97}]},{"server_id":402,"name":"Uncletopia | Chicago | 3 | All Maps","name_short":"chi-3","host":"chi-1.us.uncletopia.com","port":27035,"enabled":true,"region":"us-central","cc":"us","latitude":41.881832,"longitude":-87.62318,"reserved":0,"last_update":"0001-01-01T00:00:00Z","name_a2s":"Uncletopia | Chicago | 3 | All Maps","protocol":17,"map":"koth_lakeside_final","folder":"tf","game":"Team Fortress","app_id":440,"player_count":0,"max_players":24,"Bots":0,"server_type":"Dedicated","server_os":"Linux","password":true,"vac":true,"version":"7757534","steam_id":85568392924515191,"keywords":["cp","nocrits","nodmgspread","uncletopia"],"game_id":440,"stv_port":27036,"stv_name":"Uncletopia | Chicago | 3 | All Maps | STV","players":null},{"server_id":403,"name":"Uncletopia | Chicago | 4 | All Maps","name_short":"chi-4","host":"chi-1.us.uncletopia.com","port":27045,"enabled":true,"region":"us-central","cc":"us","latitude":41.881832,"longitude":-87.62318,"reserved":0,"last_update":"0001-01-01T00:00:00Z","name_a2s":"Uncletopia | Chicago | 4 | All Maps","protocol":17,"map":"pl_badwater","folder":"tf","game":"Team Fortress","app_id":440,"player_count":0,"max_players":24,"Bots":0,"server_type":"Dedicated","server_os":"Linux","password":true,"vac":true,"version":"7757534","steam_id":85568392924515193,"keywords":["nocrits","nodmgspread","payload","uncletopia"],"game_id":440,"stv_port":27046,"stv_name":"Uncletopia | Chicago | 4 | All Maps | STV","players":null},{"server_id":36,"name":"Uncletopia | Chicago | 5 | All Maps","name_short":"chi-5","host":"chi-2.us.uncletopia.com","port":27015,"enabled":true,"region":"us-central","cc":"us","latitude":41.881832,"longitude":-87.62318,"reserved":0,"last_update":"0001-01-01T00:00:00Z","name_a2s":"Uncletopia | Chicago | 5 | All Maps","protocol":17,"map":"cp_steel","folder":"tf","game":"Team Fortress","app_id":440,"player_count":22,"max_players":24,"Bots":0,"server_type":"Dedicated","server_os":"Linux","password":true,"vac":true,"version":"7757534","steam_id":85568392924866362,"keywords":["cp","nocrits","nodmgspread","uncletopia"],"game_id":440,"stv_port":27016,"stv_name":"Uncletopia | Chicago | 5 | All Maps | STV","players":[{"user_id":145,"name":"ic","steam_id":76561198009288860,"connected_time":1134000000000,"state":"active","ping":61},{"user_id":144,"name":"Ceiling Man","steam_id":76561198003959902,"connected_time":1234000000000,"state":"active","ping":56},{"user_id":146,"name":"drinkos","steam_id":76561198261556166,"connected_time":1073000000000,"state":"active","ping":32},{"user_id":120,"name":"scrumpyknight tf2","steam_id":76561199165355017,"connected_time":3241000000000,"state":"active","ping":230},{"user_id":116,"name":"Abbashea","steam_id":76561199182136969,"connected_time":3703000000000,"state":"active","ping":86},{"user_id":147,"name":"JennaShinx","steam_id":76561198074773762,"connected_time":1062000000000,"state":"active","ping":62},{"user_id":131,"name":"BearAteMahoney","steam_id":76561198020439356,"connected_time":2594000000000,"state":"active","ping":68},{"user_id":114,"name":"moodi catgirl","steam_id":76561198124028045,"connected_time":3835000000000,"state":"active","ping":115},{"user_id":149,"name":"VixianUwU","steam_id":76561198948815060,"connected_time":1023000000000,"state":"active","ping":88},{"user_id":154,"name":"Essentially_Someone","steam_id":76561199435588199,"connected_time":271000000000,"state":"active","ping":85},{"user_id":153,"name":"Huntish","steam_id":76561198199129267,"connected_time":769000000000,"state":"active","ping":91},{"user_id":139,"name":"lana_del_Rei.com","steam_id":76561198172447621,"connected_time":1906000000000,"state":"active","ping":93},{"user_id":113,"name":"lord setch","steam_id":76561198252328518,"connected_time":4009000000000,"state":"active","ping":90},{"user_id":101,"name":"Gimrex","steam_id":76561198137232326,"connected_time":4755000000000,"state":"active","ping":89},{"user_id":124,"name":"nalezinik","steam_id":76561198030026119,"connected_time":3073000000000,"state":"active","ping":60},{"user_id":133,"name":"ShadowVincent","steam_id":76561198950588763,"connected_time":2551000000000,"state":"active","ping":155},{"user_id":151,"name":"Pancetta's vore window","steam_id":76561198428086758,"connected_time":986000000000,"state":"active","ping":80},{"user_id":130,"name":"mars (she/they)","steam_id":76561198127459772,"connected_time":2696000000000,"state":"active","ping":65},{"user_id":143,"name":"A Gas Salesman!","steam_id":76561198081877626,"connected_time":1381000000000,"state":"active","ping":68},{"user_id":127,"name":"wire-guided","steam_id":76561198055407168,"connected_time":2914000000000,"state":"active","ping":79},{"user_id":152,"name":"Satori Komeiji","steam_id":76561198158211423,"connected_time":967000000000,"state":"active","ping":101},{"user_id":134,"name":"ItsTanleyCrunch","steam_id":76561198037915942,"connected_time":2398000000000,"state":"active","ping":77}]},{"server_id":37,"name":"Uncletopia | Chicago | 6 | All Maps","name_short":"chi-6","host":"chi-2.us.uncletopia.com","port":27025,"enabled":true,"region":"us-central","cc":"us","latitude":41.881832,"longitude":-87.62318,"reserved":0,"last_update":"0001-01-01T00:00:00Z","name_a2s":"Uncletopia | Chicago | 6 | All Maps","protocol":17,"map":"koth_cascade","folder":"tf","game":"Team Fortress","app_id":440,"player_count":0,"max_players":24,"Bots":0,"server_type":"Dedicated","server_os":"Linux","password":true,"vac":true,"version":"7757534","steam_id":85568392924866363,"keywords":["cp","nocrits","nodmgspread","uncletopia"],"game_id":440,"stv_port":27026,"stv_name":"Uncletopia | Chicago | 6 | All Maps | STV","players":null},{"server_id":38,"name":"Uncletopia | Chicago | 7 | Stopwatch Beta","name_short":"chi-7","host":"chi-2.us.uncletopia.com","port":27035,"enabled":true,"region":"us-central","cc":"us","latitude":41.881832,"longitude":-87.62318,"reserved":0,"last_update":"0001-01-01T00:00:00Z","name_a2s":"Uncletopia | Chicago | 7 | Stopwatch Beta","protocol":17,"map":"pl_upward","folder":"tf","game":"Team Fortress","app_id":440,"player_count":0,"max_players":24,"Bots":0,"server_type":"Dedicated","server_os":"Linux","password":true,"vac":true,"version":"7757534","steam_id":85568392924866364,"keywords":["nocrits","nodmgspread","payload","uncletopia"],"game_id":440,"stv_port":27036,"stv_name":"Uncletopia | Chicago | 7 | Stopwatch Beta | STV","players":null},{"server_id":39,"name":"Uncletopia | Chicago | 8 | Community","name_short":"chi-8","host":"chi-2.us.uncletopia.com","port":27045,"enabled":true,"region":"us-central","cc":"us","latitude":41.881832,"longitude":-87.62318,"reserved":0,"last_update":"0001-01-01T00:00:00Z","name_a2s":"Uncletopia | Chicago | 8 | Community","protocol":17,"map":"pl_barnblitz","folder":"tf","game":"Team Fortress","app_id":440,"player_count":1,"max_players":24,"Bots":0,"server_type":"Dedicated","server_os":"Linux","password":true,"vac":true,"version":"7757534","steam_id":85568392924866365,"keywords":["nocrits","nodmgspread","payload","uncletopia"],"game_id":440,"stv_port":27046,"stv_name":"Uncletopia | Chicago | 8 | Community | STV","players":[{"user_id":3,"name":"sono","steam_id":76561198826878914,"connected_time":110000000000,"state":"active","ping":77}]},{"server_id":8,"name":"Uncletopia | Dallas | 1 | All Maps","name_short":"dal-1","host":"dal-1.us.uncletopia.com","port":27015,"enabled":true,"region":"us-central","cc":"us","latitude":32.779167,"longitude":-96.80889,"reserved":0,"last_update":"0001-01-01T00:00:00Z","name_a2s":"Uncletopia | Dallas | 1 | All Maps","protocol":17,"map":"pl_swiftwater_final1","folder":"tf","game":"Team Fortress","app_id":440,"player_count":24,"max_players":24,"Bots":0,"server_type":"Dedicated","server_os":"Linux","password":true,"vac":true,"version":"7757534","steam_id":85568392924469986,"keywords":["nocrits","nodmgspread","payload","uncletopia"],"game_id":440,"stv_port":27016,"stv_name":"Uncletopia | Dallas | 1 | All Maps | STV","players":[{"user_id":261,"name":"Mr.Cheerio","steam_id":76561198449907767,"connected_time":623000000000,"state":"active","ping":94},{"user_id":256,"name":"Mr Beast chris","steam_id":76561199179240694,"connected_time":681000000000,"state":"active","ping":71},{"user_id":262,"name":"Shark Sandwich","steam_id":76561198025007938,"connected_time":620000000000,"state":"active","ping":106},{"user_id":190,"name":"endo","steam_id":76561197995204381,"connected_time":4903000000000,"state":"active","ping":75},{"user_id":249,"name":"Platinum","steam_id":76561198052463484,"connected_time":1328000000000,"state":"active","ping":97},{"user_id":239,"name":"Saulen","steam_id":76561198150726407,"connected_time":1810000000000,"state":"active","ping":62},{"user_id":219,"name":"citrus","steam_id":76561198294606679,"connected_time":2938000000000,"state":"active","ping":91},{"user_id":264,"name":"Tyler\u0026Fingers","steam_id":76561198085154485,"connected_time":246000000000,"state":"active","ping":93},{"user_id":240,"name":"Wayside","steam_id":76561198999627870,"connected_time":1741000000000,"state":"active","ping":72},{"user_id":269,"name":"b㋛Mb jλCK","steam_id":76561197990279891,"connected_time":46000000000,"state":"active","ping":191},{"user_id":216,"name":"no vc no c","steam_id":76561197989503095,"connected_time":3190000000000,"state":"active","ping":175},{"user_id":221,"name":"Sambarino","steam_id":76561198297223309,"connected_time":2882000000000,"state":"active","ping":90},{"user_id":259,"name":"Knightly Knight","steam_id":76561198399569659,"connected_time":655000000000,"state":"active","ping":57},{"user_id":246,"name":"Bali","steam_id":76561198038693845,"connected_time":1474000000000,"state":"active","ping":115},{"user_id":263,"name":"Bunny Hop","steam_id":76561199009743936,"connected_time":617000000000,"state":"active","ping":90},{"user_id":255,"name":"MerlinTheWizard","steam_id":76561198171472393,"connected_time":994000000000,"state":"active","ping":79},{"user_id":233,"name":"Public Library Gamer","steam_id":76561198066405611,"connected_time":2234000000000,"state":"active","ping":115},{"user_id":250,"name":"cheeks","steam_id":76561197993371179,"connected_time":1303000000000,"state":"active","ping":70},{"user_id":217,"name":"SGT Disoriented","steam_id":76561198058177958,"connected_time":3139000000000,"state":"active","ping":61},{"user_id":267,"name":"mineblast99","steam_id":76561199065648954,"connected_time":218000000000,"state":"active","ping":86},{"user_id":210,"name":"Enron Hubbard","steam_id":76561198012951411,"connected_time":3472000000000,"state":"active","ping":83},{"user_id":268,"name":"Jetmeme Sam","steam_id":76561198093994707,"connected_time":201000000000,"state":"active","ping":45},{"user_id":205,"name":"bird","steam_id":76561199144340440,"connected_time":3702000000000,"state":"active","ping":60},{"user_id":252,"name":"Motorolª","steam_id":76561198358119669,"connected_time":1241000000000,"state":"active","ping":134}]},{"server_id":108,"name":"Uncletopia | Dallas | 2 | All Maps","name_short":"dal-2","host":"dal-1.us.uncletopia.com","port":27025,"enabled":true,"region":"us-central","cc":"us","latitude":32.779167,"longitude":-96.80889,"reserved":0,"last_update":"0001-01-01T00:00:00Z","name_a2s":"Uncletopia | Dallas | 2 | All Maps","protocol":17,"map":"cp_steel","folder":"tf","game":"Team Fortress","app_id":440,"player_count":18,"max_players":24,"Bots":0,"server_type":"Dedicated","server_os":"Linux","password":true,"vac":true,"version":"7757534","steam_id":85568392924469988,"keywords":["cp","nocrits","nodmgspread","uncletopia"],"game_id":440,"stv_port":27026,"stv_name":"Uncletopia | Dallas | 2 | All Maps | STV","players":[{"user_id":124,"name":"poompis","steam_id":76561198160850933,"connected_time":53000000000,"state":"active","ping":92},{"user_id":116,"name":"ian","steam_id":76561198119616750,"connected_time":1079000000000,"state":"active","ping":97},{"user_id":107,"name":"primordialheath","steam_id":76561199386942638,"connected_time":1599000000000,"state":"active","ping":168},{"user_id":125,"name":"Olivia \u003c3","steam_id":76561199153914747,"connected_time":46000000000,"state":"active","ping":89},{"user_id":114,"name":"Squid121","steam_id":76561198038832034,"connected_time":1243000000000,"state":"active","ping":102},{"user_id":126,"name":"offensive rick and morty memes","steam_id":76561198367019006,"connected_time":33000000000,"state":"active","ping":95},{"user_id":117,"name":"Lil' Dunky","steam_id":76561198163572748,"connected_time":1076000000000,"state":"active","ping":91},{"user_id":92,"name":"☂Bliffenstimmers☂","steam_id":76561198059984896,"connected_time":2806000000000,"state":"active","ping":55},{"user_id":127,"name":"jade","steam_id":76561198055611029,"connected_time":13000000000,"state":"active","ping":58},{"user_id":128,"name":"Iris","steam_id":76561198065037378,"connected_time":0,"state":"spawning","ping":32},{"user_id":49,"name":"Brokayo","steam_id":76561198053802723,"connected_time":6054000000000,"state":"active","ping":80},{"user_id":100,"name":"Muse","steam_id":76561198177715869,"connected_time":1945000000000,"state":"active","ping":56},{"user_id":121,"name":"jori","steam_id":76561199094011458,"connected_time":520000000000,"state":"active","ping":68},{"user_id":118,"name":"thundermuffin","steam_id":76561198067770965,"connected_time":1051000000000,"state":"active","ping":76},{"user_id":113,"name":"Panda","steam_id":76561198412875289,"connected_time":1550000000000,"state":"active","ping":105},{"user_id":122,"name":"Amish Supremacist","steam_id":76561198396181197,"connected_time":493000000000,"state":"active","ping":75},{"user_id":105,"name":"what","steam_id":76561198307788364,"connected_time":1642000000000,"state":"active","ping":89},{"user_id":85,"name":"Jack Celliers","steam_id":76561198060983357,"connected_time":3650000000000,"state":"active","ping":45}]},{"server_id":5,"name":"Uncletopia | Frankfurt | 1 | All Maps","name_short":"frk-1","host":"frk-1.de.uncletopia.com","port":27015,"enabled":true,"region":"eu","cc":"de","latitude":50.110924,"longitude":8.682127,"reserved":0,"last_update":"0001-01-01T00:00:00Z","name_a2s":"Uncletopia | Frankfurt | 1 | All Maps","protocol":17,"map":"pl_pier","folder":"tf","game":"Team Fortress","app_id":440,"player_count":24,"max_players":24,"Bots":0,"server_type":"Dedicated","server_os":"Linux","password":true,"vac":true,"version":"7757534","steam_id":85568392924469989,"keywords":["nocrits","nodmgspread","payload","uncletopia"],"game_id":440,"stv_port":27016,"stv_name":"Uncletopia | Frankfurt | 1 | All Maps | STV","players":[{"user_id":368,"name":"PAN","steam_id":76561198118671779,"connected_time":886000000000,"state":"active","ping":56},{"user_id":349,"name":"MoistMomMauler","steam_id":76561198069359049,"connected_time":3129000000000,"state":"active","ping":76},{"user_id":375,"name":"manKe","steam_id":76561198008564860,"connected_time":531000000000,"state":"active","ping":59},{"user_id":254,"name":"luma","steam_id":76561198081649669,"connected_time":9911000000000,"state":"active","ping":62},{"user_id":363,"name":"Magiccomplex","steam_id":76561199203555188,"connected_time":1772000000000,"state":"active","ping":46},{"user_id":364,"name":"Bumblebee","steam_id":76561198033551105,"connected_time":1649000000000,"state":"active","ping":58},{"user_id":370,"name":"Daniele Antox","steam_id":76561198323879930,"connected_time":871000000000,"state":"active","ping":57},{"user_id":360,"name":"twitch.tv/jerma985","steam_id":76561198381106289,"connected_time":2132000000000,"state":"active","ping":74},{"user_id":353,"name":"bob","steam_id":76561198309295580,"connected_time":3058000000000,"state":"active","ping":48},{"user_id":373,"name":"Leszy","steam_id":76561198372172135,"connected_time":663000000000,"state":"active","ping":63},{"user_id":328,"name":"KittyKate ❤","steam_id":76561198116340817,"connected_time":3919000000000,"state":"active","ping":60},{"user_id":341,"name":"Soerlssoelssöen","steam_id":76561197993060585,"connected_time":3272000000000,"state":"active","ping":74},{"user_id":290,"name":"Suetolog","steam_id":76561199053090212,"connected_time":8021000000000,"state":"active","ping":56},{"user_id":362,"name":"FyreWolf","steam_id":76561198346145411,"connected_time":1873000000000,"state":"active","ping":64},{"user_id":339,"name":"Bonjour","steam_id":76561198186063665,"connected_time":3283000000000,"state":"active","ping":75},{"user_id":336,"name":"Oceanic | tuesday maybe","steam_id":76561197979741827,"connected_time":3576000000000,"state":"active","ping":69},{"user_id":338,"name":"Bloedmann","steam_id":76561197980006255,"connected_time":3285000000000,"state":"active","ping":42},{"user_id":365,"name":"Carl","steam_id":76561198045638738,"connected_time":1349000000000,"state":"active","ping":76},{"user_id":350,"name":"john fortress","steam_id":76561198013237629,"connected_time":3124000000000,"state":"active","ping":95},{"user_id":355,"name":"NotFionn","steam_id":76561198890525176,"connected_time":3019000000000,"state":"active","ping":97},{"user_id":323,"name":"AleXandriX","steam_id":76561198035203950,"connected_time":5154000000000,"state":"active","ping":60},{"user_id":367,"name":"deVychu","steam_id":76561198078032019,"connected_time":1010000000000,"state":"active","ping":82},{"user_id":354,"name":"HeroldBaum","steam_id":76561198063420715,"connected_time":3040000000000,"state":"active","ping":45},{"user_id":378,"name":"Bonca","steam_id":76561198137503531,"connected_time":412000000000,"state":"active","ping":83}]},{"server_id":110,"name":"Uncletopia | Frankfurt | 2 | All Maps","name_short":"frk-2","host":"frk-1.de.uncletopia.com","port":27025,"enabled":true,"region":"eu","cc":"de","latitude":50.110924,"longitude":8.682127,"reserved":0,"last_update":"0001-01-01T00:00:00Z","name_a2s":"Uncletopia | Frankfurt | 2 | All Maps","protocol":17,"map":"cp_process_final","folder":"tf","game":"Team Fortress","app_id":440,"player_count":24,"max_players":24,"Bots":0,"server_type":"Dedicated","server_os":"Linux","password":true,"vac":true,"version":"7757534","steam_id":85568392924469990,"keywords":["cp","nocrits","nodmgspread","uncletopia"],"game_id":440,"stv_port":27026,"stv_name":"Uncletopia | Frankfurt | 2 | All Maps | STV","players":[{"user_id":71,"name":"htraB","steam_id":76561198043122677,"connected_time":1712000000000,"state":"active","ping":59},{"user_id":78,"name":"Quinton Heckroth","steam_id":76561197979780972,"connected_time":1384000000000,"state":"active","ping":52},{"user_id":34,"name":"Mr.Schnittlauch","steam_id":76561198295868113,"connected_time":3009000000000,"state":"active","ping":57},{"user_id":94,"name":"Aximus","steam_id":76561198024575710,"connected_time":713000000000,"state":"active","ping":70},{"user_id":85,"name":"cuz","steam_id":76561198283606917,"connected_time":1079000000000,"state":"active","ping":59},{"user_id":80,"name":"wasto-/-™","steam_id":76561198102888038,"connected_time":1331000000000,"state":"active","ping":54},{"user_id":95,"name":"TJ1212","steam_id":76561199013575313,"connected_time":647000000000,"state":"active","ping":78},{"user_id":99,"name":"Mad Cat Kivima","steam_id":76561198028959678,"connected_time":464000000000,"state":"active","ping":100},{"user_id":98,"name":"✪ m_br3","steam_id":76561198044981990,"connected_time":488000000000,"state":"active","ping":75},{"user_id":96,"name":"Grumtsior","steam_id":76561198043563111,"connected_time":644000000000,"state":"active","ping":72},{"user_id":74,"name":"v0rt3x","steam_id":76561198034695233,"connected_time":1646000000000,"state":"active","ping":63},{"user_id":101,"name":"Joe","steam_id":76561198061717026,"connected_time":235000000000,"state":"active","ping":60},{"user_id":102,"name":"Brinier","steam_id":76561199012604288,"connected_time":173000000000,"state":"active","ping":57},{"user_id":67,"name":"Udinese Dion","steam_id":76561198067931573,"connected_time":1930000000000,"state":"active","ping":44},{"user_id":77,"name":"WHUSSKEY","steam_id":76561198137827441,"connected_time":1522000000000,"state":"active","ping":70},{"user_id":87,"name":"hourglass","steam_id":76561198166613799,"connected_time":1043000000000,"state":"active","ping":82},{"user_id":57,"name":"Florua","steam_id":76561198182297846,"connected_time":2110000000000,"state":"active","ping":57},{"user_id":100,"name":"LightBulbGlue #SaveTF2","steam_id":76561198329573529,"connected_time":452000000000,"state":"active","ping":169},{"user_id":81,"name":"etc","steam_id":76561197998394797,"connected_time":1217000000000,"state":"active","ping":60},{"user_id":90,"name":"UnusualBrit","steam_id":76561198255679838,"connected_time":985000000000,"state":"active","ping":75},{"user_id":93,"name":"ALARM","steam_id":76561198120686521,"connected_time":946000000000,"state":"active","ping":61},{"user_id":75,"name":"Hegyi tahó F2P","steam_id":76561199219150356,"connected_time":1618000000000,"state":"active","ping":78},{"user_id":92,"name":"Silent Person","steam_id":76561198107763537,"connected_time":962000000000,"state":"active","ping":70},{"user_id":68,"name":"Kitten","steam_id":76561198019027657,"connected_time":1920000000000,"state":"active","ping":73}]},{"server_id":308,"name":"Uncletopia | Frankfurt | 3 | All Maps","name_short":"frk-3","host":"frk-1.de.uncletopia.com","port":27035,"enabled":true,"region":"eu","cc":"de","latitude":50.110924,"longitude":8.682127,"reserved":0,"last_update":"0001-01-01T00:00:00Z","name_a2s":"Uncletopia | Frankfurt | 3 | All Maps","protocol":17,"map":"pl_barnblitz","folder":"tf","game":"Team Fortress","app_id":440,"player_count":24,"max_players":24,"Bots":0,"server_type":"Dedicated","server_os":"Linux","password":true,"vac":true,"version":"7757534","steam_id":85568392924504274,"keywords":["nocrits","nodmgspread","payload","uncletopia"],"game_id":440,"stv_port":27036,"stv_name":"Uncletopia | Frankfurt | 3 | All Maps | STV","players":[{"user_id":534,"name":"eatmysword_","steam_id":76561199063665709,"connected_time":385000000000,"state":"active","ping":101},{"user_id":536,"name":"Germanium_Ge","steam_id":76561198130561775,"connected_time":369000000000,"state":"active","ping":64},{"user_id":522,"name":"Boki","steam_id":76561198044553351,"connected_time":813000000000,"state":"active","ping":75},{"user_id":512,"name":"randompixel","steam_id":76561198003941207,"connected_time":1874000000000,"state":"active","ping":76},{"user_id":492,"name":"Nostradamus","steam_id":76561198349792686,"connected_time":2557000000000,"state":"active","ping":66},{"user_id":529,"name":"Magirby","steam_id":76561198818777390,"connected_time":575000000000,"state":"active","ping":123},{"user_id":511,"name":"Bobo","steam_id":76561198052308399,"connected_time":1887000000000,"state":"active","ping":56},{"user_id":530,"name":"zelatina","steam_id":76561198325357751,"connected_time":531000000000,"state":"active","ping":91},{"user_id":537,"name":"guiseppe","steam_id":76561198046129681,"connected_time":280000000000,"state":"active","ping":93},{"user_id":538,"name":"daisyjue1000","steam_id":76561199244612761,"connected_time":228000000000,"state":"active","ping":78},{"user_id":525,"name":"Eisik","steam_id":76561199061086990,"connected_time":775000000000,"state":"active","ping":90},{"user_id":527,"name":"Good Ol' Frank","steam_id":76561198118490202,"connected_time":745000000000,"state":"active","ping":62},{"user_id":535,"name":"Doctor Sex","steam_id":76561198206515505,"connected_time":375000000000,"state":"active","ping":70},{"user_id":486,"name":"BlinkedUp","steam_id":76561198249985618,"connected_time":2807000000000,"state":"active","ping":55},{"user_id":541,"name":"kawaii+","steam_id":76561198005769065,"connected_time":108000000000,"state":"active","ping":76},{"user_id":506,"name":"Sgreff","steam_id":76561198036304365,"connected_time":2132000000000,"state":"active","ping":60},{"user_id":507,"name":"сергей (sir gay)","steam_id":76561198808819694,"connected_time":2121000000000,"state":"active","ping":47},{"user_id":528,"name":"ricky pee pee","steam_id":76561198152620745,"connected_time":643000000000,"state":"active","ping":71},{"user_id":476,"name":"Doriian","steam_id":76561198071438810,"connected_time":3099000000000,"state":"active","ping":75},{"user_id":539,"name":"Vitun Jonne","steam_id":76561198401737380,"connected_time":226000000000,"state":"active","ping":60},{"user_id":540,"name":"Levin","steam_id":76561198106530561,"connected_time":225000000000,"state":"active","ping":75},{"user_id":504,"name":"Monsteh","steam_id":76561198325898181,"connected_time":2259000000000,"state":"active","ping":75},{"user_id":518,"name":"Radiodemon","steam_id":76561199069447476,"connected_time":1334000000000,"state":"active","ping":77},{"user_id":520,"name":"LemonLeCitron","steam_id":76561198215545267,"connected_time":830000000000,"state":"active","ping":74}]},{"server_id":309,"name":"Uncletopia | Frankfurt | 4 | All Maps","name_short":"frk-4","host":"frk-1.de.uncletopia.com","port":27045,"enabled":true,"region":"eu","cc":"de","latitude":50.110924,"longitude":8.682127,"reserved":0,"last_update":"0001-01-01T00:00:00Z","name_a2s":"Uncletopia | Frankfurt | 4 | All Maps","protocol":17,"map":"koth_lakeside_final","folder":"tf","game":"Team Fortress","app_id":440,"player_count":0,"max_players":24,"Bots":0,"server_type":"Dedicated","server_os":"Linux","password":true,"vac":true,"version":"7757534","steam_id":85568392924504275,"keywords":["cp","nocrits","nodmgspread","uncletopia"],"game_id":440,"stv_port":27046,"stv_name":"Uncletopia | Frankfurt | 4 | All Maps | STV","players":null},{"server_id":310,"name":"Uncletopia | Frankfurt | 5 | All Maps","name_short":"frk-5","host":"frk-1.de.uncletopia.com","port":27055,"enabled":true,"region":"eu","cc":"de","latitude":50.110924,"longitude":8.682127,"reserved":0,"last_update":"0001-01-01T00:00:00Z","name_a2s":"Uncletopia | Frankfurt | 5 | All Maps","protocol":17,"map":"pl_barnblitz","folder":"tf","game":"Team Fortress","app_id":440,"player_count":24,"max_players":24,"Bots":0,"server_type":"Dedicated","server_os":"Linux","password":true,"vac":true,"version":"7757534","steam_id":85568392924504277,"keywords":["nocrits","nodmgspread","payload","uncletopia"],"game_id":440,"stv_port":27056,"stv_name":"Uncletopia | Frankfurt | 5 | All Maps | STV","players":[{"user_id":171,"name":"M1rkus","steam_id":76561198171215447,"connected_time":1601000000000,"state":"active","ping":65},{"user_id":105,"name":"Spoody #JustPassing","steam_id":76561198031523769,"connected_time":6912000000000,"state":"active","ping":44},{"user_id":156,"name":"Insain Bolt!","steam_id":76561198025687726,"connected_time":3007000000000,"state":"active","ping":68},{"user_id":181,"name":"goktwoxd","steam_id":76561198065114415,"connected_time":131000000000,"state":"active","ping":70},{"user_id":177,"name":"glyph","steam_id":76561197980736364,"connected_time":459000000000,"state":"active","ping":75},{"user_id":127,"name":"963 frequency of gods","steam_id":76561199088506542,"connected_time":5744000000000,"state":"active","ping":45},{"user_id":173,"name":"Rune","steam_id":76561198012822726,"connected_time":1581000000000,"state":"active","ping":93},{"user_id":166,"name":"DelT","steam_id":76561198204007537,"connected_time":2098000000000,"state":"active","ping":49},{"user_id":178,"name":"DaddyVonEvil","steam_id":76561198079610355,"connected_time":453000000000,"state":"active","ping":73},{"user_id":155,"name":"Mishaswy","steam_id":76561198156848144,"connected_time":3015000000000,"state":"active","ping":100},{"user_id":107,"name":"Volterion #SaveTf2","steam_id":76561198293088484,"connected_time":6793000000000,"state":"active","ping":64},{"user_id":180,"name":"r/sonofelicenellafece","steam_id":76561198262231733,"connected_time":236000000000,"state":"active","ping":74},{"user_id":158,"name":"ахмат сила дон","steam_id":76561199433913089,"connected_time":2986000000000,"state":"active","ping":74},{"user_id":176,"name":"ךלש אמא","steam_id":76561199467013380,"connected_time":1501000000000,"state":"active","ping":108},{"user_id":179,"name":"typicalcrimson","steam_id":76561198295439747,"connected_time":448000000000,"state":"active","ping":69},{"user_id":161,"name":"deez","steam_id":76561198831476915,"connected_time":2959000000000,"state":"active","ping":70},{"user_id":149,"name":"M4R1O","steam_id":76561198050528464,"connected_time":4597000000000,"state":"active","ping":62},{"user_id":150,"name":"dirty","steam_id":76561197995572935,"connected_time":4246000000000,"state":"active","ping":82},{"user_id":160,"name":"TON DARON","steam_id":76561198141841396,"connected_time":2971000000000,"state":"active","ping":86},{"user_id":111,"name":"Penis Contortionist","steam_id":76561198073663784,"connected_time":6747000000000,"state":"active","ping":51},{"user_id":170,"name":"Transphobic Knight II","steam_id":76561199233111139,"connected_time":1786000000000,"state":"active","ping":56},{"user_id":114,"name":"Arcader","steam_id":76561198109860110,"connected_time":6711000000000,"state":"active","ping":70},{"user_id":153,"name":"GMsU | Rebikas","steam_id":76561198077053764,"connected_time":3687000000000,"state":"active","ping":48},{"user_id":145,"name":"ChaosMaster","steam_id":76561198360983155,"connected_time":4856000000000,"state":"active","ping":76}]},{"server_id":311,"name":"Uncletopia | Frankfurt | 6 | All Maps","name_short":"frk-6","host":"frk-1.de.uncletopia.com","port":27065,"enabled":true,"region":"eu","cc":"de","latitude":50.110924,"longitude":8.682127,"reserved":0,"last_update":"0001-01-01T00:00:00Z","name_a2s":"Uncletopia | Frankfurt | 6 | All Maps","protocol":17,"map":"pl_pier","folder":"tf","game":"Team Fortress","app_id":440,"player_count":23,"max_players":24,"Bots":0,"server_type":"Dedicated","server_os":"Linux","password":true,"vac":true,"version":"7757534","steam_id":85568392924504278,"keywords":["nocrits","nodmgspread","payload","uncletopia"],"game_id":440,"stv_port":27066,"stv_name":"Uncletopia | Frankfurt | 6 | All Maps | STV","players":[{"user_id":179,"name":"Bat in a thousand","steam_id":76561198320506848,"connected_time":122000000000,"state":"active","ping":54},{"user_id":172,"name":"pansexual","steam_id":76561198047778351,"connected_time":401000000000,"state":"active","ping":59},{"user_id":181,"name":"WolfmanCZ","steam_id":76561199157141414,"connected_time":14000000000,"state":"spawning","ping":73},{"user_id":139,"name":"Arcweld","steam_id":76561198816060720,"connected_time":1807000000000,"state":"active","ping":78},{"user_id":150,"name":"Michał","steam_id":76561198320346362,"connected_time":1577000000000,"state":"active","ping":55},{"user_id":171,"name":"Reiyo","steam_id":76561198155092485,"connected_time":572000000000,"state":"active","ping":47},{"user_id":127,"name":"Shovelhalfrusty","steam_id":76561198346447513,"connected_time":3972000000000,"state":"active","ping":85},{"user_id":145,"name":"Kizerain","steam_id":76561198058400427,"connected_time":1624000000000,"state":"active","ping":49},{"user_id":161,"name":"GuyWithoutAPie","steam_id":76561198054512149,"connected_time":1177000000000,"state":"active","ping":60},{"user_id":173,"name":"Kamanie","steam_id":76561198135448255,"connected_time":400000000000,"state":"active","ping":57},{"user_id":157,"name":"Speibsackerl","steam_id":76561198058135257,"connected_time":1321000000000,"state":"active","ping":72},{"user_id":178,"name":"Bell","steam_id":76561199454586928,"connected_time":180000000000,"state":"active","ping":143},{"user_id":93,"name":"medicinal man","steam_id":76561198202668788,"connected_time":6055000000000,"state":"active","ping":61},{"user_id":100,"name":"Devi","steam_id":76561199231577666,"connected_time":5532000000000,"state":"active","ping":108},{"user_id":156,"name":"Gryoss","steam_id":76561197999837111,"connected_time":1426000000000,"state":"active","ping":103},{"user_id":176,"name":"Lewylow","steam_id":76561198005425686,"connected_time":376000000000,"state":"active","ping":89},{"user_id":52,"name":"Fishpower5","steam_id":76561198194742647,"connected_time":8440000000000,"state":"active","ping":69},{"user_id":177,"name":"!confused","steam_id":76561198012231208,"connected_time":324000000000,"state":"active","ping":51},{"user_id":148,"name":"Vanya","steam_id":76561198882051599,"connected_time":1599000000000,"state":"active","ping":64},{"user_id":149,"name":"nik","steam_id":76561198210482280,"connected_time":1583000000000,"state":"active","ping":60},{"user_id":162,"name":"Zikkurat","steam_id":76561199057176784,"connected_time":1174000000000,"state":"active","ping":106},{"user_id":152,"name":"holykyckling","steam_id":76561198040661615,"connected_time":1543000000000,"state":"active","ping":75},{"user_id":180,"name":"DrauconeTMDS","steam_id":76561198083510257,"connected_time":80000000000,"state":"active","ping":45}]},{"server_id":23,"name":"Uncletopia | Frankfurt | 7 | Stopwatch Beta","name_short":"frk-7","host":"frk-1.de.uncletopia.com","port":27075,"enabled":true,"region":"eu","cc":"de","latitude":50.110924,"longitude":8.682127,"reserved":0,"last_update":"0001-01-01T00:00:00Z","name_a2s":"Uncletopia | Frankfurt | 7 | Stopwatch Beta","protocol":17,"map":"workshop/cp_reckoner_rc6.ugc674719999","folder":"tf","game":"Team Fortress","app_id":440,"player_count":24,"max_players":24,"Bots":0,"server_type":"Dedicated","server_os":"Linux","password":true,"vac":true,"version":"7757534","steam_id":85568392924742827,"keywords":["cp","nocrits","nodmgspread","uncletopia"],"game_id":440,"stv_port":27076,"stv_name":"Uncletopia | Frankfurt | 7 | Stopwatch Beta | STV","players":[{"user_id":103,"name":"Sanctified","steam_id":76561198057092208,"connected_time":113000000000,"state":"active","ping":60},{"user_id":19,"name":"StarFins","steam_id":76561199026540529,"connected_time":5827000000000,"state":"active","ping":60},{"user_id":79,"name":"troglodyke","steam_id":76561199400809482,"connected_time":1857000000000,"state":"active","ping":57},{"user_id":104,"name":"kolbi","steam_id":76561198006251776,"connected_time":76000000000,"state":"active","ping":73},{"user_id":62,"name":"maid to skate","steam_id":76561198059782462,"connected_time":3318000000000,"state":"active","ping":54},{"user_id":29,"name":"vehicular manslaughter","steam_id":76561199042470246,"connected_time":4586000000000,"state":"active","ping":51},{"user_id":30,"name":"illiterate sword user","steam_id":76561198189686075,"connected_time":4568000000000,"state":"active","ping":60},{"user_id":88,"name":"Eliminaattori","steam_id":76561197996681411,"connected_time":924000000000,"state":"active","ping":58},{"user_id":95,"name":"dust","steam_id":76561198293557665,"connected_time":459000000000,"state":"active","ping":104},{"user_id":92,"name":"no. 1 lucki fan","steam_id":76561198022382969,"connected_time":644000000000,"state":"active","ping":76},{"user_id":75,"name":"Miton","steam_id":76561197970323209,"connected_time":2039000000000,"state":"active","ping":75},{"user_id":97,"name":"Trash Man","steam_id":76561198874518834,"connected_time":429000000000,"state":"active","ping":190},{"user_id":85,"name":"Mr.Man","steam_id":76561199175688390,"connected_time":1435000000000,"state":"active","ping":74},{"user_id":41,"name":"jge","steam_id":76561198123186387,"connected_time":3933000000000,"state":"active","ping":57},{"user_id":86,"name":"ddchdrn","steam_id":76561198024358566,"connected_time":1333000000000,"state":"active","ping":61},{"user_id":77,"name":"the joy of recycling","steam_id":76561198415564349,"connected_time":1938000000000,"state":"active","ping":61},{"user_id":74,"name":"guru guru","steam_id":76561199186080291,"connected_time":2198000000000,"state":"active","ping":75},{"user_id":96,"name":"Terra","steam_id":76561198074482461,"connected_time":448000000000,"state":"active","ping":130},{"user_id":69,"name":"e36 1.8","steam_id":76561198134203031,"connected_time":2910000000000,"state":"active","ping":67},{"user_id":100,"name":"rosepinkyfuzz","steam_id":76561198018546334,"connected_time":232000000000,"state":"active","ping":60},{"user_id":98,"name":"Phillip Pfeizer","steam_id":76561198242635094,"connected_time":424000000000,"state":"active","ping":66},{"user_id":94,"name":"goblin","steam_id":76561199010825303,"connected_time":542000000000,"state":"active","ping":69},{"user_id":93,"name":"43291842381","steam_id":76561198038160325,"connected_time":629000000000,"state":"active","ping":64},{"user_id":59,"name":"daev","steam_id":76561198060060998,"connected_time":3424000000000,"state":"active","ping":74}]},{"server_id":24,"name":"Uncletopia | Frankfurt | 8 | Community","name_short":"frk-8","host":"frk-1.de.uncletopia.com","port":27085,"enabled":true,"region":"eu","cc":"de","latitude":50.110924,"longitude":8.682127,"reserved":0,"last_update":"0001-01-01T00:00:00Z","name_a2s":"Uncletopia | Frankfurt | 8 | Community","protocol":17,"map":"workshop/pl_divulgence_b4b.ugc2884808746","folder":"tf","game":"Team Fortress","app_id":440,"player_count":0,"max_players":24,"Bots":0,"server_type":"Dedicated","server_os":"Linux","password":true,"vac":true,"version":"7757534","steam_id":85568392924742828,"keywords":["nocrits","nodmgspread","payload","uncletopia"],"game_id":440,"stv_port":27086,"stv_name":"Uncletopia | Frankfurt | 8 | Community | STV","players":null},{"server_id":202,"name":"Uncletopia | Hong Kong | 1 | All Maps","name_short":"hgk-1","host":"hgk-1.hk.uncletopia.com","port":27015,"enabled":true,"region":"asia","cc":"hk","latitude":22.302711,"longitude":114.177216,"reserved":0,"last_update":"0001-01-01T00:00:00Z","name_a2s":"Uncletopia | Hong Kong | 1 | All Maps","protocol":17,"map":"koth_cascade","folder":"tf","game":"Team Fortress","app_id":440,"player_count":0,"max_players":24,"Bots":0,"server_type":"Dedicated","server_os":"Linux","password":true,"vac":true,"version":"7757534","steam_id":85568392924494504,"keywords":["cp","nocrits","nodmgspread","uncletopia"],"game_id":440,"stv_port":27016,"stv_name":"Uncletopia | Hong Kong | 1 | All Maps | STV","players":null},{"server_id":1,"name":"Uncletopia | Los Angeles | 1 | All Maps","name_short":"lax-1","host":"lax-1.us.uncletopia.com","port":27015,"enabled":true,"region":"us-west","cc":"us","latitude":33.94279,"longitude":-118.41004,"reserved":0,"last_update":"0001-01-01T00:00:00Z","name_a2s":"Uncletopia | Los Angeles | 1 | All Maps","protocol":17,"map":"pl_barnblitz","folder":"tf","game":"Team Fortress","app_id":440,"player_count":2,"max_players":24,"Bots":0,"server_type":"Dedicated","server_os":"Linux","password":true,"vac":true,"version":"7757534","steam_id":85568392924469991,"keywords":["nocrits","nodmgspread","payload","uncletopia"],"game_id":440,"stv_port":27016,"stv_name":"Uncletopia | Los Angeles | 1 | All Maps | STV","players":[{"user_id":4,"name":"Nibotshooter","steam_id":76561199284825579,"connected_time":980000000000,"state":"active","ping":76},{"user_id":5,"name":"Mus1cb0x","steam_id":76561199236531704,"connected_time":170000000000,"state":"active","ping":221}]},{"server_id":112,"name":"Uncletopia | Los Angeles | 2 | All Maps","name_short":"lax-2","host":"lax-1.us.uncletopia.com","port":27025,"enabled":true,"region":"us-west","cc":"us","latitude":33.94279,"longitude":-118.41004,"reserved":0,"last_update":"0001-01-01T00:00:00Z","name_a2s":"Uncletopia | Los Angeles | 2 | All Maps","protocol":17,"map":"koth_cascade","folder":"tf","game":"Team Fortress","app_id":440,"player_count":0,"max_players":24,"Bots":0,"server_type":"Dedicated","server_os":"Linux","password":true,"vac":true,"version":"7757534","steam_id":85568392924469992,"keywords":["cp","nocrits","nodmgspread","uncletopia"],"game_id":440,"stv_port":27026,"stv_name":"Uncletopia | Los Angeles | 2 | All Maps | STV","players":null},{"server_id":324,"name":"Uncletopia | Los Angeles | 3 | All Maps","name_short":"lax-3","host":"lax-1.us.uncletopia.com","port":27035,"enabled":true,"region":"us-west","cc":"us","latitude":33.94279,"longitude":-118.41004,"reserved":0,"last_update":"0001-01-01T00:00:00Z","name_a2s":"Uncletopia | Los Angeles | 3 | All Maps","protocol":17,"map":"pl_pier","folder":"tf","game":"Team Fortress","app_id":440,"player_count":0,"max_players":24,"Bots":0,"server_type":"Dedicated","server_os":"Linux","password":true,"vac":true,"version":"7757534","steam_id":85568392924510198,"keywords":["nocrits","nodmgspread","payload","uncletopia"],"game_id":440,"stv_port":27036,"stv_name":"Uncletopia | Los Angeles | 3 | All Maps | STV","players":null},{"server_id":25,"name":"Uncletopia | Los Angeles | 4 | Stopwatch Beta","name_short":"lax-4","host":"lax-1.us.uncletopia.com","port":27045,"enabled":true,"region":"us-west","cc":"us","latitude":33.94279,"longitude":-118.41004,"reserved":0,"last_update":"0001-01-01T00:00:00Z","name_a2s":"Uncletopia | Los Angeles | 4 | Stopwatch Beta","protocol":17,"map":"pl_frontier_final","folder":"tf","game":"Team Fortress","app_id":440,"player_count":0,"max_players":24,"Bots":0,"server_type":"Dedicated","server_os":"Linux","password":true,"vac":true,"version":"7757534","steam_id":85568392924510199,"keywords":["nocrits","nodmgspread","payload","uncletopia"],"game_id":440,"stv_port":27046,"stv_name":"Uncletopia | Los Angeles | 4 | Stopwatch Beta | STV","players":null},{"server_id":11,"name":"Uncletopia | London | 1 | All Maps","name_short":"lon-1","host":"lon-1.uk.uncletopia.com","port":27015,"enabled":true,"region":"eu","cc":"gb","latitude":51.509865,"longitude":-0.118092,"reserved":0,"last_update":"0001-01-01T00:00:00Z","name_a2s":"Uncletopia | London | 1 | All Maps","protocol":17,"map":"pl_thundermountain","folder":"tf","game":"Team Fortress","app_id":440,"player_count":24,"max_players":24,"Bots":0,"server_type":"Dedicated","server_os":"Linux","password":true,"vac":true,"version":"7757534","steam_id":85568392924367362,"keywords":["nocrits","nodmgspread","payload","uncletopia"],"game_id":440,"stv_port":27016,"stv_name":"Uncletopia | London | 1 | All Maps | STV","players":[{"user_id":350,"name":"[O\u0026O]YaboiDucki","steam_id":76561198195976589,"connected_time":1611000000000,"state":"active","ping":72},{"user_id":349,"name":"SaltyCupcakes","steam_id":76561198256386417,"connected_time":1845000000000,"state":"active","ping":41},{"user_id":193,"name":"Numroth","steam_id":76561198001100167,"connected_time":10762000000000,"state":"active","ping":78},{"user_id":364,"name":"Nesster","steam_id":76561198071688242,"connected_time":13000000000,"state":"spawning","ping":163},{"user_id":332,"name":"ghenios","steam_id":76561198030011207,"connected_time":2811000000000,"state":"active","ping":96},{"user_id":354,"name":"hello kitty gaming","steam_id":76561197972008326,"connected_time":1354000000000,"state":"active","ping":74},{"user_id":361,"name":"astra","steam_id":76561198042980579,"connected_time":338000000000,"state":"active","ping":63},{"user_id":319,"name":"SparkZ","steam_id":76561198314637812,"connected_time":3063000000000,"state":"active","ping":81},{"user_id":358,"name":"firetwomp69","steam_id":76561199136321623,"connected_time":667000000000,"state":"active","ping":105},{"user_id":362,"name":"Minimi","steam_id":76561198873850443,"connected_time":257000000000,"state":"active","ping":42},{"user_id":346,"name":"Alexandre","steam_id":76561198121784446,"connected_time":2264000000000,"state":"active","ping":38},{"user_id":359,"name":"raime","steam_id":76561198024903775,"connected_time":640000000000,"state":"active","ping":95},{"user_id":343,"name":"ivanmixo","steam_id":76561198160213989,"connected_time":2575000000000,"state":"active","ping":57},{"user_id":325,"name":"Makeebs","steam_id":76561198212830441,"connected_time":2989000000000,"state":"active","ping":61},{"user_id":306,"name":"CalicoCat12","steam_id":76561198081933130,"connected_time":3736000000000,"state":"active","ping":58},{"user_id":341,"name":"mishka.*","steam_id":76561198040003628,"connected_time":2652000000000,"state":"active","ping":87},{"user_id":355,"name":"Miczu555PL","steam_id":76561198058500895,"connected_time":1345000000000,"state":"active","ping":71},{"user_id":365,"name":"Dr. Cox","steam_id":76561198246629218,"connected_time":3000000000,"state":"spawning","ping":117},{"user_id":347,"name":"Calmedy","steam_id":76561198295310457,"connected_time":2197000000000,"state":"active","ping":50},{"user_id":321,"name":"nynon","steam_id":76561197998432126,"connected_time":3057000000000,"state":"active","ping":92},{"user_id":363,"name":"subway vergil","steam_id":76561199110064166,"connected_time":106000000000,"state":"active","ping":64},{"user_id":345,"name":"Scootz","steam_id":76561198018491455,"connected_time":2337000000000,"state":"active","ping":51},{"user_id":348,"name":"facing difficulties","steam_id":76561198037237664,"connected_time":2036000000000,"state":"active","ping":71},{"user_id":311,"name":"garbage mikuknight","steam_id":76561198361819054,"connected_time":3373000000000,"state":"active","ping":103}]},{"server_id":114,"name":"Uncletopia | London | 2 | All Maps","name_short":"lon-2","host":"lon-1.uk.uncletopia.com","port":27025,"enabled":true,"region":"eu","cc":"gb","latitude":51.509865,"longitude":-0.118092,"reserved":0,"last_update":"0001-01-01T00:00:00Z","name_a2s":"Uncletopia | London | 2 | All Maps","protocol":17,"map":"pl_hoodoo_final","folder":"tf","game":"Team Fortress","app_id":440,"player_count":24,"max_players":24,"Bots":0,"server_type":"Dedicated","server_os":"Linux","password":true,"vac":true,"version":"7757534","steam_id":85568392924470941,"keywords":["nocrits","nodmgspread","payload","uncletopia"],"game_id":440,"stv_port":27026,"stv_name":"Uncletopia | London | 2 | All Maps | STV","players":[{"user_id":313,"name":"Thalgorock","steam_id":76561198195315022,"connected_time":2993000000000,"state":"active","ping":69},{"user_id":409,"name":"Bounter","steam_id":76561198072614188,"connected_time":1500000000000,"state":"active","ping":70},{"user_id":292,"name":"Johnny Cockroach","steam_id":76561198049648277,"connected_time":4322000000000,"state":"active","ping":199},{"user_id":420,"name":"Mozza","steam_id":76561198035915570,"connected_time":1288000000000,"state":"active","ping":77},{"user_id":433,"name":"Bob Sacamano","steam_id":76561198085610701,"connected_time":1045000000000,"state":"active","ping":108},{"user_id":406,"name":"Kenny Savage","steam_id":76561199049383900,"connected_time":1533000000000,"state":"active","ping":79},{"user_id":297,"name":"Frazzle","steam_id":76561198262577951,"connected_time":3659000000000,"state":"active","ping":67},{"user_id":401,"name":"bum","steam_id":76561198060105180,"connected_time":1592000000000,"state":"active","ping":61},{"user_id":407,"name":"Jack","steam_id":76561198079575891,"connected_time":1532000000000,"state":"active","ping":45},{"user_id":330,"name":"Dag!","steam_id":76561198030147941,"connected_time":2436000000000,"state":"active","ping":69},{"user_id":302,"name":"Wardruna96","steam_id":76561199057083828,"connected_time":3442000000000,"state":"active","ping":75},{"user_id":369,"name":"Adopted?","steam_id":76561198118667043,"connected_time":1944000000000,"state":"active","ping":54},{"user_id":300,"name":"The Deadly Doughnut","steam_id":76561198079049349,"connected_time":3554000000000,"state":"active","ping":53},{"user_id":289,"name":"After8","steam_id":76561198090750865,"connected_time":4344000000000,"state":"active","ping":75},{"user_id":260,"name":"jona3838","steam_id":76561199097658195,"connected_time":6608000000000,"state":"active","ping":97},{"user_id":328,"name":"i am bread","steam_id":76561199180277321,"connected_time":2618000000000,"state":"active","ping":65},{"user_id":423,"name":"Lucker","steam_id":76561198079469430,"connected_time":1243000000000,"state":"active","ping":63},{"user_id":412,"name":"Kaishakunin","steam_id":76561198028123874,"connected_time":1456000000000,"state":"active","ping":97},{"user_id":426,"name":"GardenFungus","steam_id":76561198054894337,"connected_time":1220000000000,"state":"active","ping":30},{"user_id":308,"name":"DrExplosive","steam_id":76561198063678579,"connected_time":3070000000000,"state":"active","ping":52},{"user_id":467,"name":"poliakov.noam","steam_id":76561199259322961,"connected_time":36000000000,"state":"spawning","ping":99},{"user_id":402,"name":"nky","steam_id":76561198086229832,"connected_time":1587000000000,"state":"active","ping":84},{"user_id":270,"name":"EdSuedi","steam_id":76561199387956486,"connected_time":6378000000000,"state":"active","ping":62},{"user_id":403,"name":"gosi","steam_id":76561198084111532,"connected_time":1586000000000,"state":"active","ping":70}]},{"server_id":320,"name":"Uncletopia | London | 3 | All Maps","name_short":"lon-3","host":"lon-1.uk.uncletopia.com","port":27035,"enabled":true,"region":"eu","cc":"gb","latitude":51.509865,"longitude":-0.118092,"reserved":0,"last_update":"0001-01-01T00:00:00Z","name_a2s":"Uncletopia | London | 3 | All Maps","protocol":17,"map":"koth_sawmill","folder":"tf","game":"Team Fortress","app_id":440,"player_count":24,"max_players":24,"Bots":0,"server_type":"Dedicated","server_os":"Linux","password":true,"vac":true,"version":"7757534","steam_id":85568392924510192,"keywords":["cp","nocrits","nodmgspread","uncletopia"],"game_id":440,"stv_port":27036,"stv_name":"Uncletopia | London | 3 | All Maps | STV","players":[{"user_id":589,"name":"Spybork","steam_id":76561198176855029,"connected_time":113000000000,"state":"active","ping":56},{"user_id":581,"name":"G/3","steam_id":76561198234844188,"connected_time":393000000000,"state":"active","ping":60},{"user_id":523,"name":"Lyra","steam_id":76561198043601838,"connected_time":4434000000000,"state":"active","ping":60},{"user_id":575,"name":"Vikep'S","steam_id":76561199002274689,"connected_time":749000000000,"state":"active","ping":90},{"user_id":582,"name":"Shimass","steam_id":76561198867546842,"connected_time":319000000000,"state":"active","ping":73},{"user_id":593,"name":"Michael","steam_id":76561198003146906,"connected_time":91000000000,"state":"active","ping":45},{"user_id":553,"name":"Poodle","steam_id":76561198015483504,"connected_time":2012000000000,"state":"active","ping":87},{"user_id":564,"name":"\u003eSix in swedish + y","steam_id":76561198372971096,"connected_time":1495000000000,"state":"active","ping":74},{"user_id":590,"name":"Autumnsky","steam_id":76561198055161203,"connected_time":111000000000,"state":"active","ping":60},{"user_id":588,"name":"The Orgazoid","steam_id":76561198188642265,"connected_time":186000000000,"state":"active","ping":85},{"user_id":557,"name":"ketoky frychiken","steam_id":76561198190583242,"connected_time":1801000000000,"state":"active","ping":76},{"user_id":591,"name":"deere","steam_id":76561198282535525,"connected_time":107000000000,"state":"active","ping":30},{"user_id":565,"name":"d00bie","steam_id":76561198025295218,"connected_time":1494000000000,"state":"active","ping":71},{"user_id":566,"name":"average f2p","steam_id":76561199136308055,"connected_time":1431000000000,"state":"active","ping":56},{"user_id":585,"name":"Woa","steam_id":76561198345683201,"connected_time":211000000000,"state":"active","ping":55},{"user_id":197,"name":"gamerweed5","steam_id":76561198087651151,"connected_time":27733000000000,"state":"active","ping":39},{"user_id":592,"name":"eduardo","steam_id":76561198014491925,"connected_time":106000000000,"state":"active","ping":842},{"user_id":558,"name":"Panda","steam_id":76561198176342325,"connected_time":1801000000000,"state":"active","ping":95},{"user_id":571,"name":"Dispenser","steam_id":76561199383851079,"connected_time":1270000000000,"state":"active","ping":72},{"user_id":567,"name":"Crab","steam_id":76561198269167544,"connected_time":1404000000000,"state":"active","ping":99},{"user_id":577,"name":"PGAndy","steam_id":76561199218070297,"connected_time":590000000000,"state":"active","ping":98},{"user_id":573,"name":"Qwerty","steam_id":76561198023525894,"connected_time":1069000000000,"state":"active","ping":86},{"user_id":594,"name":"102ping","steam_id":76561199000963772,"connected_time":37000000000,"state":"active","ping":62},{"user_id":569,"name":"danger noodle 2","steam_id":76561198328702538,"connected_time":1386000000000,"state":"active","ping":109}]},{"server_id":321,"name":"Uncletopia | London | 4 | All Maps","name_short":"lon-4","host":"lon-1.uk.uncletopia.com","port":27045,"enabled":true,"region":"eu","cc":"gb","latitude":51.509865,"longitude":-0.118092,"reserved":0,"last_update":"0001-01-01T00:00:00Z","name_a2s":"Uncletopia | London | 4 | All Maps","protocol":17,"map":"pl_swiftwater_final1","folder":"tf","game":"Team Fortress","app_id":440,"player_count":24,"max_players":24,"Bots":0,"server_type":"Dedicated","server_os":"Linux","password":true,"vac":true,"version":"7757534","steam_id":85568392924510193,"keywords":["nocrits","nodmgspread","payload","uncletopia"],"game_id":440,"stv_port":27046,"stv_name":"Uncletopia | London | 4 | All Maps | STV","players":[{"user_id":188,"name":"Looie","steam_id":76561198089823540,"connected_time":967000000000,"state":"active","ping":57},{"user_id":193,"name":"Kipi","steam_id":76561198283549506,"connected_time":830000000000,"state":"active","ping":63},{"user_id":189,"name":"HarrryBoBo","steam_id":76561198088089324,"connected_time":944000000000,"state":"active","ping":62},{"user_id":217,"name":"Tomura Shigaraki","steam_id":76561198127465110,"connected_time":85000000000,"state":"active","ping":75},{"user_id":180,"name":"KFC Enjoyer","steam_id":76561198840259819,"connected_time":1657000000000,"state":"active","ping":53},{"user_id":191,"name":"super nintendo chalmers","steam_id":76561199049633351,"connected_time":917000000000,"state":"active","ping":81},{"user_id":192,"name":"Weenie Hut Jr's","steam_id":76561198050515739,"connected_time":896000000000,"state":"active","ping":45},{"user_id":194,"name":"noire","steam_id":76561198426604784,"connected_time":803000000000,"state":"active","ping":40},{"user_id":195,"name":"F","steam_id":76561199149462792,"connected_time":758000000000,"state":"active","ping":61},{"user_id":125,"name":"Suspicious Cabin","steam_id":76561198083261198,"connected_time":6172000000000,"state":"active","ping":58},{"user_id":215,"name":"Welder","steam_id":76561198355300561,"connected_time":150000000000,"state":"active","ping":70},{"user_id":198,"name":"thebananabomb00","steam_id":76561198296409283,"connected_time":655000000000,"state":"active","ping":92},{"user_id":216,"name":"giorno giovanna","steam_id":76561198993161087,"connected_time":93000000000,"state":"active","ping":46},{"user_id":200,"name":"The Pestilence","steam_id":76561199081252282,"connected_time":621000000000,"state":"active","ping":166},{"user_id":201,"name":"Mariachi Dave","steam_id":76561198074274900,"connected_time":619000000000,"state":"active","ping":42},{"user_id":135,"name":"pebbles","steam_id":76561198884449271,"connected_time":5756000000000,"state":"active","ping":71},{"user_id":218,"name":"rigel_","steam_id":76561198148640847,"connected_time":47000000000,"state":"active","ping":75},{"user_id":214,"name":"OutOfDucks","steam_id":76561198166376227,"connected_time":203000000000,"state":"active","ping":58},{"user_id":205,"name":"MathiasCZR01","steam_id":76561197991711202,"connected_time":521000000000,"state":"active","ping":86},{"user_id":212,"name":"NeonNewt","steam_id":76561198066699212,"connected_time":458000000000,"state":"active","ping":55},{"user_id":213,"name":"Kahvi","steam_id":76561198723244199,"connected_time":257000000000,"state":"active","ping":78},{"user_id":208,"name":"ShadowWasUhOh","steam_id":76561198400361935,"connected_time":487000000000,"state":"active","ping":142},{"user_id":209,"name":"sayaka","steam_id":76561198183933494,"connected_time":481000000000,"state":"active","ping":70},{"user_id":211,"name":"ralkinas","steam_id":76561199057608130,"connected_time":475000000000,"state":"active","ping":91}]},{"server_id":21,"name":"Uncletopia | London | 5 | All Maps","name_short":"lon-5","host":"lon-1.uk.uncletopia.com","port":27055,"enabled":true,"region":"eu","cc":"gb","latitude":51.509865,"longitude":-0.118092,"reserved":0,"last_update":"0001-01-01T00:00:00Z","name_a2s":"Uncletopia | London | 5 | All Maps","protocol":17,"map":"pl_barnblitz","folder":"tf","game":"Team Fortress","app_id":440,"player_count":1,"max_players":24,"Bots":0,"server_type":"Dedicated","server_os":"Linux","password":true,"vac":true,"version":"7757534","steam_id":85568392924742829,"keywords":["nocrits","nodmgspread","payload","uncletopia"],"game_id":440,"stv_port":27056,"stv_name":"Uncletopia | London | 5 | All Maps | STV","players":[{"user_id":15,"name":"ran is running","steam_id":76561199443185667,"connected_time":75000000000,"state":"active","ping":126}]},{"server_id":22,"name":"Uncletopia | London | 6 | All Maps","name_short":"lon-6","host":"lon-1.uk.uncletopia.com","port":27065,"enabled":true,"region":"eu","cc":"gb","latitude":51.509865,"longitude":-0.118092,"reserved":0,"last_update":"0001-01-01T00:00:00Z","name_a2s":"Uncletopia | London | 6 | All Maps","protocol":17,"map":"pl_pier","folder":"tf","game":"Team Fortress","app_id":440,"player_count":0,"max_players":24,"Bots":0,"server_type":"Dedicated","server_os":"Linux","password":true,"vac":true,"version":"7757534","steam_id":85568392924742830,"keywords":["nocrits","nodmgspread","payload","uncletopia"],"game_id":440,"stv_port":27066,"stv_name":"Uncletopia | London | 6 | All Maps | STV","players":null},{"server_id":40,"name":"Uncletopia | London | 7 | No Payload","name_short":"lon-7","host":"lon-1.uk.uncletopia.com","port":27075,"enabled":true,"region":"eu","cc":"gb","latitude":51.509865,"longitude":-0.118092,"reserved":0,"last_update":"0001-01-01T00:00:00Z","name_a2s":"Uncletopia | London | 7 | No Payload","protocol":17,"map":"koth_badlands","folder":"tf","game":"Team Fortress","app_id":440,"player_count":0,"max_players":24,"Bots":0,"server_type":"Dedicated","server_os":"Linux","password":true,"vac":true,"version":"7757534","steam_id":85568392924964314,"keywords":["cp","nocrits","nodmgspread","uncletopia"],"game_id":440,"stv_port":27076,"stv_name":"Uncletopia | London | 7 | No Payload | STV","players":null},{"server_id":41,"name":"Uncletopia | London | 8 | Community","name_short":"lon-8","host":"lon-1.uk.uncletopia.com","port":27085,"enabled":true,"region":"eu","cc":"gb","latitude":51.509865,"longitude":-0.118092,"reserved":0,"last_update":"0001-01-01T00:00:00Z","name_a2s":"Uncletopia | London | 8 | Community","protocol":17,"map":"workshop/pl_eruption_b9a.ugc2807898013","folder":"tf","game":"Team Fortress","app_id":440,"player_count":0,"max_players":24,"Bots":0,"server_type":"Dedicated","server_os":"Linux","password":true,"vac":true,"version":"7757534","steam_id":85568392924964315,"keywords":["nocrits","nodmgspread","payload","uncletopia"],"game_id":440,"stv_port":27086,"stv_name":"Uncletopia | London | 8 | Community | STV","players":null},{"server_id":300,"name":"Uncletopia | Montréal | 1 | All Maps","name_short":"mtl-1","host":"mtl-1.ca.uncletopia.com","port":27015,"enabled":true,"region":"us-east","cc":"ca","latitude":45.50889,"longitude":-73.56167,"reserved":0,"last_update":"0001-01-01T00:00:00Z","name_a2s":"Uncletopia | Montréal | 1 | All Maps","protocol":17,"map":"pl_snowycoast","folder":"tf","game":"Team Fortress","app_id":440,"player_count":0,"max_players":24,"Bots":0,"server_type":"Dedicated","server_os":"Linux","password":true,"vac":true,"version":"7757534","steam_id":85568392924500087,"keywords":["nocrits","nodmgspread","payload","uncletopia"],"game_id":440,"stv_port":27016,"stv_name":"Uncletopia | Montréal | 1 | All Maps | STV","players":null},{"server_id":301,"name":"Uncletopia | Montréal | 2 | All Maps","name_short":"mtl-2","host":"mtl-1.ca.uncletopia.com","port":27025,"enabled":true,"region":"us-east","cc":"ca","latitude":45.50889,"longitude":-73.56167,"reserved":0,"last_update":"0001-01-01T00:00:00Z","name_a2s":"Uncletopia | Montréal | 2 | All Maps","protocol":17,"map":"pl_snowycoast","folder":"tf","game":"Team Fortress","app_id":440,"player_count":0,"max_players":24,"Bots":0,"server_type":"Dedicated","server_os":"Linux","password":true,"vac":true,"version":"7757534","steam_id":85568392924500088,"keywords":["nocrits","nodmgspread","payload","uncletopia"],"game_id":440,"stv_port":27026,"stv_name":"Uncletopia | Montréal | 2 | All Maps | STV","players":null},{"server_id":302,"name":"Uncletopia | Montréal | 3 | All Maps","name_short":"mtl-3","host":"mtl-1.ca.uncletopia.com","port":27035,"enabled":true,"region":"us-east","cc":"ca","latitude":45.50889,"longitude":-73.56167,"reserved":0,"last_update":"0001-01-01T00:00:00Z","name_a2s":"Uncletopia | Montréal | 3 | All Maps","protocol":17,"map":"cp_dustbowl","folder":"tf","game":"Team Fortress","app_id":440,"player_count":0,"max_players":24,"Bots":0,"server_type":"Dedicated","server_os":"Linux","password":true,"vac":true,"version":"7757534","steam_id":85568392924500089,"keywords":["cp","nocrits","nodmgspread","uncletopia"],"game_id":440,"stv_port":27036,"stv_name":"Uncletopia | Montréal | 3 | All Maps | STV","players":null},{"server_id":303,"name":"Uncletopia | Montréal | 4 | No Payload","name_short":"mtl-4","host":"mtl-1.ca.uncletopia.com","port":27045,"enabled":true,"region":"us-east","cc":"ca","latitude":45.50889,"longitude":-73.56167,"reserved":0,"last_update":"0001-01-01T00:00:00Z","name_a2s":"Uncletopia | Montréal | 4 | No Payload","protocol":17,"map":"pl_borneo","folder":"tf","game":"Team Fortress","app_id":440,"player_count":0,"max_players":24,"Bots":0,"server_type":"Dedicated","server_os":"Linux","password":true,"vac":true,"version":"7757534","steam_id":85568392924500090,"keywords":["nocrits","nodmgspread","payload","uncletopia"],"game_id":440,"stv_port":27046,"stv_name":"Uncletopia | Montréal | 4 | No Payload | STV","players":null},{"server_id":13,"name":"Uncletopia | New York City | 1 | All Maps","name_short":"nyc-1","host":"nyc-1.us.uncletopia.com","port":27015,"enabled":true,"region":"us-east","cc":"us","latitude":40.73061,"longitude":-73.93524,"reserved":0,"last_update":"0001-01-01T00:00:00Z","name_a2s":"Uncletopia | New York City | 1 | All Maps","protocol":17,"map":"koth_highpass","folder":"tf","game":"Team Fortress","app_id":440,"player_count":2,"max_players":24,"Bots":0,"server_type":"Dedicated","server_os":"Linux","password":true,"vac":true,"version":"7757534","steam_id":85568392924469993,"keywords":["cp","nocrits","nodmgspread","uncletopia"],"game_id":440,"stv_port":27016,"stv_name":"Uncletopia | New York City | 1 | All Maps | STV","players":[{"user_id":9,"name":"Fanged_Finality","steam_id":76561198065020842,"connected_time":104000000000,"state":"active","ping":101},{"user_id":10,"name":"JaeWoods","steam_id":76561199467132709,"connected_time":54000000000,"state":"active","ping":73}]},{"server_id":14,"name":"Uncletopia | New York City | 2 | All Maps","name_short":"nyc-2","host":"nyc-1.us.uncletopia.com","port":27025,"enabled":true,"region":"us-east","cc":"us","latitude":40.73061,"longitude":-73.93524,"reserved":0,"last_update":"0001-01-01T00:00:00Z","name_a2s":"Uncletopia | New York City | 2 | All Maps","protocol":17,"map":"koth_lakeside_final","folder":"tf","game":"Team Fortress","app_id":440,"player_count":0,"max_players":24,"Bots":0,"server_type":"Dedicated","server_os":"Linux","password":true,"vac":true,"version":"7757534","steam_id":85568392924469994,"keywords":["cp","nocrits","nodmgspread","uncletopia"],"game_id":440,"stv_port":27026,"stv_name":"Uncletopia | New York City | 2 | All Maps | STV","players":null},{"server_id":15,"name":"Uncletopia | New York City | 3 | Stopwatch Beta","name_short":"nyc-3","host":"nyc-1.us.uncletopia.com","port":27035,"enabled":true,"region":"us-east","cc":"us","latitude":40.73061,"longitude":-73.93524,"reserved":0,"last_update":"0001-01-01T00:00:00Z","name_a2s":"Uncletopia | New York City | 3 | Stopwatch Beta","protocol":17,"map":"cp_mountainlab","folder":"tf","game":"Team Fortress","app_id":440,"player_count":0,"max_players":24,"Bots":0,"server_type":"Dedicated","server_os":"Linux","password":true,"vac":true,"version":"7757534","steam_id":85568392924742820,"keywords":["cp","nocrits","nodmgspread","uncletopia"],"game_id":440,"stv_port":27036,"stv_name":"Uncletopia | New York City | 3 | Stopwatch Beta | STV","players":null},{"server_id":16,"name":"Uncletopia | New York City | 4 | Community","name_short":"nyc-4","host":"nyc-1.us.uncletopia.com","port":27045,"enabled":true,"region":"us-east","cc":"us","latitude":40.73061,"longitude":-73.93524,"reserved":0,"last_update":"0001-01-01T00:00:00Z","name_a2s":"Uncletopia | New York City | 4 | Community","protocol":17,"map":"pl_borneo","folder":"tf","game":"Team Fortress","app_id":440,"player_count":0,"max_players":24,"Bots":0,"server_type":"Dedicated","server_os":"Linux","password":true,"vac":true,"version":"7757534","steam_id":85568392924742821,"keywords":["nocrits","nodmgspread","payload","uncletopia"],"game_id":440,"stv_port":27046,"stv_name":"Uncletopia | New York City | 4 | Community | STV","players":null},{"server_id":142,"name":"Uncletopia | São Paulo | 1 | All Maps","name_short":"sao-1","host":"sao-1.br.uncletopia.com","port":27015,"enabled":true,"region":"sa","cc":"br","latitude":-23.533773,"longitude":-46.62529,"reserved":0,"last_update":"0001-01-01T00:00:00Z","name_a2s":"Uncletopia | São Paulo | 1 | All Maps","protocol":17,"map":"pl_badwater","folder":"tf","game":"Team Fortress","app_id":440,"player_count":0,"max_players":24,"Bots":0,"server_type":"Dedicated","server_os":"Linux","password":true,"vac":true,"version":"7757534","steam_id":85568392924469996,"keywords":["nocrits","nodmgspread","payload","uncletopia"],"game_id":440,"stv_port":27016,"stv_name":"Uncletopia | São Paulo | 1 | All Maps | STV","players":null},{"server_id":143,"name":"Uncletopia | São Paulo | 2 | All Maps","name_short":"sao-2","host":"sao-2.br.uncletopia.com","port":27015,"enabled":true,"region":"sa","cc":"br","latitude":-23.533773,"longitude":-46.62529,"reserved":0,"last_update":"0001-01-01T00:00:00Z","name_a2s":"Uncletopia | São Paulo | 2 | All Maps","protocol":17,"map":"koth_viaduct","folder":"tf","game":"Team Fortress","app_id":440,"player_count":0,"max_players":24,"Bots":0,"server_type":"Dedicated","server_os":"Linux","password":true,"vac":true,"version":"7757534","steam_id":85568392924485349,"keywords":["cp","nocrits","nodmgspread","uncletopia"],"game_id":440,"stv_port":27016,"stv_name":"Uncletopia | São Paulo | 2 | All Maps | STV","players":null},{"server_id":7,"name":"Uncletopia | Seattle | 1 | All Maps","name_short":"sea-1","host":"sea-1.us.uncletopia.com","port":27015,"enabled":true,"region":"us-west","cc":"us","latitude":47.608013,"longitude":-122.33517,"reserved":0,"last_update":"0001-01-01T00:00:00Z","name_a2s":"Uncletopia | Seattle | 1 | All Maps","protocol":17,"map":"pl_pier","folder":"tf","game":"Team Fortress","app_id":440,"player_count":2,"max_players":24,"Bots":0,"server_type":"Dedicated","server_os":"Linux","password":true,"vac":true,"version":"7757534","steam_id":85568392924469997,"keywords":["nocrits","nodmgspread","payload","uncletopia"],"game_id":440,"stv_port":27016,"stv_name":"Uncletopia | Seattle | 1 | All Maps | STV","players":[{"user_id":11,"name":"bronk","steam_id":76561198181109553,"connected_time":28000000000,"state":"spawning","ping":48},{"user_id":9,"name":"Turts","steam_id":76561197998448097,"connected_time":642000000000,"state":"active","ping":60}]},{"server_id":119,"name":"Uncletopia | Seattle | 2 | All Maps","name_short":"sea-2","host":"sea-1.us.uncletopia.com","port":27025,"enabled":true,"region":"us-west","cc":"us","latitude":47.608013,"longitude":-122.33517,"reserved":0,"last_update":"0001-01-01T00:00:00Z","name_a2s":"Uncletopia | Seattle | 2 | All Maps","protocol":17,"map":"cp_process_final","folder":"tf","game":"Team Fortress","app_id":440,"player_count":19,"max_players":24,"Bots":0,"server_type":"Dedicated","server_os":"Linux","password":true,"vac":true,"version":"7757534","steam_id":85568392924469998,"keywords":["cp","nocrits","nodmgspread","uncletopia"],"game_id":440,"stv_port":27026,"stv_name":"Uncletopia | Seattle | 2 | All Maps | STV","players":[{"user_id":229,"name":"Tom","steam_id":76561198070630154,"connected_time":2085000000000,"state":"active","ping":72},{"user_id":204,"name":"corbenis","steam_id":76561199012442511,"connected_time":3684000000000,"state":"active","ping":82},{"user_id":237,"name":"Fractured_Mango","steam_id":76561199013113268,"connected_time":892000000000,"state":"active","ping":99},{"user_id":196,"name":"CUM MAN","steam_id":76561198046852298,"connected_time":5310000000000,"state":"active","ping":126},{"user_id":220,"name":"ethanol","steam_id":76561198252600202,"connected_time":2819000000000,"state":"active","ping":90},{"user_id":149,"name":"Bnuby","steam_id":76561198117708658,"connected_time":9381000000000,"state":"active","ping":57},{"user_id":183,"name":"ThatLazyM8","steam_id":76561198802747832,"connected_time":6616000000000,"state":"active","ping":45},{"user_id":240,"name":"Oomitch","steam_id":76561198071702759,"connected_time":341000000000,"state":"active","ping":41},{"user_id":239,"name":"squish","steam_id":76561198097657352,"connected_time":462000000000,"state":"active","ping":85},{"user_id":226,"name":"Blitzy","steam_id":76561198149472890,"connected_time":2372000000000,"state":"active","ping":60},{"user_id":236,"name":"Tazzz","steam_id":76561198280897107,"connected_time":1091000000000,"state":"active","ping":37},{"user_id":176,"name":"Stranger Danger","steam_id":76561198115242460,"connected_time":6921000000000,"state":"active","ping":53},{"user_id":241,"name":"my monitor is off","steam_id":76561198074499537,"connected_time":317000000000,"state":"active","ping":75},{"user_id":242,"name":"〣dust〣 -she/her-","steam_id":76561198045218909,"connected_time":183000000000,"state":"active","ping":37},{"user_id":197,"name":"getting railed to Oingo Boingo","steam_id":76561198797611732,"connected_time":4880000000000,"state":"active","ping":60},{"user_id":212,"name":"Slippery","steam_id":76561199469441947,"connected_time":3211000000000,"state":"active","ping":113},{"user_id":243,"name":"Cheeki","steam_id":76561198024375176,"connected_time":135000000000,"state":"active","ping":102},{"user_id":238,"name":"BPplays","steam_id":76561198254680007,"connected_time":592000000000,"state":"active","ping":63},{"user_id":209,"name":"em","steam_id":76561198000208873,"connected_time":3520000000000,"state":"active","ping":54}]},{"server_id":406,"name":"Uncletopia | Seattle | 3 | Stopwatch Beta","name_short":"sea-3","host":"sea-1.us.uncletopia.com","port":27035,"enabled":true,"region":"us-west","cc":"us","latitude":47.608013,"longitude":-122.33517,"reserved":0,"last_update":"0001-01-01T00:00:00Z","name_a2s":"Uncletopia | Seattle | 3 | Stopwatch Beta","protocol":17,"map":"pl_barnblitz","folder":"tf","game":"Team Fortress","app_id":440,"player_count":0,"max_players":24,"Bots":0,"server_type":"Dedicated","server_os":"Linux","password":true,"vac":true,"version":"7757534","steam_id":85568392924515217,"keywords":["nocrits","nodmgspread","payload","uncletopia"],"game_id":440,"stv_port":27036,"stv_name":"Uncletopia | Seattle | 3 | Stopwatch Beta | STV","players":null},{"server_id":17,"name":"Uncletopia | San Francisco | 1 | All Maps","name_short":"sfo-1","host":"sfo-1.us.uncletopia.com","port":27015,"enabled":true,"region":"us-west","cc":"us","latitude":37.77397,"longitude":-122.4313,"reserved":0,"last_update":"0001-01-01T00:00:00Z","name_a2s":"Uncletopia | San Francisco | 1 | All Maps","protocol":17,"map":"pl_upward","folder":"tf","game":"Team Fortress","app_id":440,"player_count":0,"max_players":24,"Bots":0,"server_type":"Dedicated","server_os":"Linux","password":true,"vac":true,"version":"7757534","steam_id":85568392924469999,"keywords":["nocrits","nodmgspread","payload","uncletopia"],"game_id":440,"stv_port":27016,"stv_name":"Uncletopia | San Francisco | 1 | All Maps | STV","players":null},{"server_id":18,"name":"Uncletopia | San Francisco | 2 | All Maps","name_short":"sfo-2","host":"sfo-1.us.uncletopia.com","port":27025,"enabled":true,"region":"us-west","cc":"us","latitude":37.77397,"longitude":-122.4313,"reserved":0,"last_update":"0001-01-01T00:00:00Z","name_a2s":"Uncletopia | San Francisco | 2 | All Maps","protocol":17,"map":"cp_snakewater_final1","folder":"tf","game":"Team Fortress","app_id":440,"player_count":0,"max_players":24,"Bots":0,"server_type":"Dedicated","server_os":"Linux","password":true,"vac":true,"version":"7757534","steam_id":85568392924470000,"keywords":["cp","nocrits","nodmgspread","uncletopia"],"game_id":440,"stv_port":27026,"stv_name":"Uncletopia | San Francisco | 2 | All Maps | STV","players":null},{"server_id":19,"name":"Uncletopia | San Francisco | 3 | Stopwatch Beta","name_short":"sfo-3","host":"sfo-1.us.uncletopia.com","port":27035,"enabled":true,"region":"us-west","cc":"us","latitude":37.77397,"longitude":-122.4313,"reserved":0,"last_update":"0001-01-01T00:00:00Z","name_a2s":"Uncletopia | San Francisco | 3 | Stopwatch Beta","protocol":17,"map":"pl_borneo","folder":"tf","game":"Team Fortress","app_id":440,"player_count":0,"max_players":24,"Bots":0,"server_type":"Dedicated","server_os":"Linux","password":true,"vac":true,"version":"7757534","steam_id":85568392924742824,"keywords":["nocrits","nodmgspread","payload","uncletopia"],"game_id":440,"stv_port":27036,"stv_name":"Uncletopia | San Francisco | 3 | Stopwatch Beta | STV","players":null},{"server_id":20,"name":"Uncletopia | San Francisco | 4 | Community","name_short":"sfo-4","host":"sfo-1.us.uncletopia.com","port":27045,"enabled":true,"region":"us-west","cc":"us","latitude":37.77397,"longitude":-122.4313,"reserved":0,"last_update":"0001-01-01T00:00:00Z","name_a2s":"Uncletopia | San Francisco | 4 | Community","protocol":17,"map":"koth_highpass","folder":"tf","game":"Team Fortress","app_id":440,"player_count":0,"max_players":24,"Bots":0,"server_type":"Dedicated","server_os":"Linux","password":true,"vac":true,"version":"7757534","steam_id":85568392924742826,"keywords":["cp","nocrits","nodmgspread","uncletopia"],"game_id":440,"stv_port":27046,"stv_name":"Uncletopia | San Francisco | 4 | Community | STV","players":null},{"server_id":141,"name":"Uncletopia | Sydney | 1 | All Maps","name_short":"syd-1","host":"syd-1.au.uncletopia.com","port":27015,"enabled":true,"region":"au","cc":"au","latitude":-33.865143,"longitude":151.2099,"reserved":0,"last_update":"0001-01-01T00:00:00Z","name_a2s":"Uncletopia | Sydney | 1 | All Maps","protocol":17,"map":"cp_snakewater_final1","folder":"tf","game":"Team Fortress","app_id":440,"player_count":0,"max_players":24,"Bots":0,"server_type":"Dedicated","server_os":"Linux","password":true,"vac":true,"version":"7757534","steam_id":85568392924470001,"keywords":["cp","nocrits","nodmgspread","uncletopia"],"game_id":440,"stv_port":27016,"stv_name":"Uncletopia | Sydney | 1 | All Maps | STV","players":null},{"server_id":123,"name":"Uncletopia | Sydney | 2 | All Maps","name_short":"syd-2","host":"syd-1.au.uncletopia.com","port":27025,"enabled":true,"region":"au","cc":"au","latitude":-33.865143,"longitude":151.2099,"reserved":0,"last_update":"0001-01-01T00:00:00Z","name_a2s":"Uncletopia | Sydney | 2 | All Maps","protocol":17,"map":"cp_altitude","folder":"tf","game":"Team Fortress","app_id":440,"player_count":0,"max_players":24,"Bots":0,"server_type":"Dedicated","server_os":"Linux","password":true,"vac":true,"version":"7757534","steam_id":85568392924470002,"keywords":["cp","nocrits","nodmgspread","uncletopia"],"game_id":440,"stv_port":27026,"stv_name":"Uncletopia | Sydney | 2 | All Maps | STV","players":null},{"server_id":395,"name":"Uncletopia | Sydney | 3 | All Maps","name_short":"syd-3","host":"syd-1.au.uncletopia.com","port":27035,"enabled":true,"region":"au","cc":"au","latitude":-33.865143,"longitude":151.2099,"reserved":0,"last_update":"0001-01-01T00:00:00Z","name_a2s":"Uncletopia | Sydney | 3 | All Maps","protocol":17,"map":"koth_lakeside_final","folder":"tf","game":"Team Fortress","app_id":440,"player_count":0,"max_players":24,"Bots":0,"server_type":"Dedicated","server_os":"Linux","password":true,"vac":true,"version":"7757534","steam_id":85568392925194467,"keywords":["cp","nocrits","nodmgspread","uncletopia"],"game_id":440,"stv_port":27036,"stv_name":"Uncletopia | Sydney | 3 | All Maps | STV","players":null},{"server_id":396,"name":"Uncletopia | Sydney | 4 | All Maps","name_short":"syd-4","host":"syd-1.au.uncletopia.com","port":27045,"enabled":true,"region":"au","cc":"au","latitude":-33.865143,"longitude":151.2099,"reserved":0,"last_update":"0001-01-01T00:00:00Z","name_a2s":"Uncletopia | Sydney | 4 | All Maps","protocol":17,"map":"koth_viaduct","folder":"tf","game":"Team Fortress","app_id":440,"player_count":0,"max_players":24,"Bots":0,"server_type":"Dedicated","server_os":"Linux","password":true,"vac":true,"version":"7757534","steam_id":85568392925397958,"keywords":["cp","nocrits","nodmgspread","uncletopia"],"game_id":440,"stv_port":27046,"stv_name":"Uncletopia | Sydney | 4 | All Maps | STV","players":null},{"server_id":58,"name":"Uncletopia | Sydney | 5 | Stopwatch Beta","name_short":"syd-5","host":"syd-1.au.uncletopia.com","port":27055,"enabled":true,"region":"au","cc":"au","latitude":-33.865143,"longitude":151.2099,"reserved":0,"last_update":"0001-01-01T00:00:00Z","name_a2s":"Uncletopia | Sydney | 5 | Stopwatch Beta","protocol":17,"map":"koth_highpass","folder":"tf","game":"Team Fortress","app_id":440,"player_count":0,"max_players":24,"Bots":0,"server_type":"Dedicated","server_os":"Linux","password":true,"vac":true,"version":"7757534","steam_id":85568392925397959,"keywords":["cp","nocrits","nodmgspread","uncletopia"],"game_id":440,"stv_port":27056,"stv_name":"Uncletopia | Sydney | 5 | Stopwatch Beta | STV","players":null},{"server_id":59,"name":"Uncletopia | Sydney | 6 | Community","name_short":"syd-6","host":"syd-1.au.uncletopia.com","port":27065,"enabled":true,"region":"au","cc":"au","latitude":-33.865143,"longitude":151.2099,"reserved":0,"last_update":"0001-01-01T00:00:00Z","name_a2s":"Uncletopia | Sydney | 6 | Community","protocol":17,"map":"workshop/pl_highwood_b13.ugc1769496557","folder":"tf","game":"Team Fortress","app_id":440,"player_count":0,"max_players":24,"Bots":0,"server_type":"Dedicated","server_os":"Linux","password":true,"vac":true,"version":"7757534","steam_id":85568392925397960,"keywords":["nocrits","nodmgspread","payload","uncletopia"],"game_id":440,"stv_port":27066,"stv_name":"Uncletopia | Sydney | 6 | Community | STV","players":null},{"server_id":49,"name":"Uncletopia | Warsaw | 1 | All Maps","name_short":"waw-1","host":"waw-1.pl.uncletopia.com","port":27015,"enabled":true,"region":"eu","cc":"pl","latitude":52.2297,"longitude":21.017532,"reserved":0,"last_update":"0001-01-01T00:00:00Z","name_a2s":"","protocol":0,"map":"","folder":"","game":"","app_id":0,"player_count":0,"max_players":0,"Bots":0,"server_type":"","server_os":"","password":false,"vac":false,"version":"","steam_id":0,"keywords":null,"game_id":0,"stv_port":0,"stv_name":"","players":null},{"server_id":50,"name":"Uncletopia | Warsaw | 2 | All Maps","name_short":"waw-2","host":"waw-1.pl.uncletopia.com","port":27025,"enabled":true,"region":"eu","cc":"pl","latitude":52.2297,"longitude":21.017532,"reserved":0,"last_update":"0001-01-01T00:00:00Z","name_a2s":"Uncletopia | Warsaw | 2 | All Maps","protocol":17,"map":"pl_badwater","folder":"tf","game":"Team Fortress","app_id":440,"player_count":23,"max_players":24,"Bots":0,"server_type":"Dedicated","server_os":"Linux","password":true,"vac":true,"version":"7757534","steam_id":85568392925397851,"keywords":["nocrits","nodmgspread","payload","uncletopia"],"game_id":440,"stv_port":27026,"stv_name":"Uncletopia | Warsaw | 2 | All Maps | STV","players":[{"user_id":46,"name":"Guru","steam_id":76561198093853069,"connected_time":8613000000000,"state":"active","ping":74},{"user_id":158,"name":"i always miss","steam_id":76561199379233899,"connected_time":2054000000000,"state":"active","ping":100},{"user_id":155,"name":"LOBZIK","steam_id":76561198114830120,"connected_time":2156000000000,"state":"active","ping":48},{"user_id":168,"name":"0xDEADBEEF","steam_id":76561199075416111,"connected_time":1490000000000,"state":"active","ping":93},{"user_id":142,"name":"kora59213","steam_id":76561198842833850,"connected_time":2470000000000,"state":"active","ping":86},{"user_id":130,"name":"Jay.k","steam_id":76561198079387590,"connected_time":3228000000000,"state":"active","ping":90},{"user_id":170,"name":"VioBeeyo ♥","steam_id":76561198066258544,"connected_time":1353000000000,"state":"active","ping":70},{"user_id":124,"name":"BΣNZOIC","steam_id":76561198875665995,"connected_time":3569000000000,"state":"active","ping":91},{"user_id":182,"name":"NojusKojos","steam_id":76561199060478662,"connected_time":758000000000,"state":"active","ping":81},{"user_id":145,"name":"makin' piss","steam_id":76561198052136478,"connected_time":2427000000000,"state":"active","ping":93},{"user_id":154,"name":"minespweper ☆","steam_id":76561199096919345,"connected_time":2178000000000,"state":"active","ping":88},{"user_id":169,"name":"im red","steam_id":76561199087284519,"connected_time":1482000000000,"state":"active","ping":97},{"user_id":181,"name":"Cursed","steam_id":76561198451170227,"connected_time":825000000000,"state":"active","ping":51},{"user_id":188,"name":"Oki (Bon)","steam_id":76561199047748534,"connected_time":17000000000,"state":"spawning","ping":83},{"user_id":178,"name":"Tomfool","steam_id":76561197993256481,"connected_time":941000000000,"state":"active","ping":89},{"user_id":186,"name":"top shelf","steam_id":76561198357894803,"connected_time":208000000000,"state":"active","ping":130},{"user_id":177,"name":"Jesus","steam_id":76561198042593027,"connected_time":1043000000000,"state":"active","ping":109},{"user_id":159,"name":"PLUTO","steam_id":76561198312436128,"connected_time":2005000000000,"state":"active","ping":99},{"user_id":184,"name":"why rum gone","steam_id":76561198158484784,"connected_time":712000000000,"state":"active","ping":41},{"user_id":187,"name":"Blitz","steam_id":76561199046658659,"connected_time":103000000000,"state":"active","ping":132},{"user_id":94,"name":"HeresyMan","steam_id":76561198169154183,"connected_time":5391000000000,"state":"active","ping":54},{"user_id":175,"name":"KurkanzeL","steam_id":76561198061731425,"connected_time":1204000000000,"state":"active","ping":135},{"user_id":185,"name":"69 ME 2NITE","steam_id":76561199124261801,"connected_time":653000000000,"state":"active","ping":97}]},{"server_id":51,"name":"Uncletopia | Warsaw | 3 | All Maps","name_short":"waw-3","host":"waw-1.pl.uncletopia.com","port":27035,"enabled":true,"region":"eu","cc":"pl","latitude":52.2297,"longitude":21.017532,"reserved":0,"last_update":"0001-01-01T00:00:00Z","name_a2s":"Uncletopia | Warsaw | 3 | All Maps","protocol":17,"map":"koth_highpass","folder":"tf","game":"Team Fortress","app_id":440,"player_count":2,"max_players":24,"Bots":0,"server_type":"Dedicated","server_os":"Linux","password":true,"vac":true,"version":"7757534","steam_id":85568392925397852,"keywords":["cp","nocrits","nodmgspread","uncletopia"],"game_id":440,"stv_port":27036,"stv_name":"Uncletopia | Warsaw | 3 | All Maps | STV","players":[{"user_id":13,"name":"lord garmadon gaming","steam_id":76561198271789020,"connected_time":251000000000,"state":"active","ping":45},{"user_id":14,"name":"bad_bartuś_zadymiarz_gaming_69","steam_id":76561199100985350,"connected_time":97000000000,"state":"active","ping":42}]},{"server_id":52,"name":"Uncletopia | Warsaw | 4 | All Maps","name_short":"waw-4","host":"waw-1.pl.uncletopia.com","port":27045,"enabled":true,"region":"eu","cc":"pl","latitude":52.2297,"longitude":21.017532,"reserved":0,"last_update":"0001-01-01T00:00:00Z","name_a2s":"Uncletopia | Warsaw | 4 | All Maps","protocol":17,"map":"pl_snowycoast","folder":"tf","game":"Team Fortress","app_id":440,"player_count":0,"max_players":24,"Bots":0,"server_type":"Dedicated","server_os":"Linux","password":true,"vac":true,"version":"7757534","steam_id":85568392925397853,"keywords":["nocrits","nodmgspread","payload","uncletopia"],"game_id":440,"stv_port":27046,"stv_name":"Uncletopia | Warsaw | 4 | All Maps | STV","players":null},{"server_id":53,"name":"Uncletopia | Warsaw | 5 | Stopwatch Beta","name_short":"waw-5","host":"waw-1.pl.uncletopia.com","port":27055,"enabled":true,"region":"eu","cc":"pl","latitude":52.2297,"longitude":21.017532,"reserved":0,"last_update":"0001-01-01T00:00:00Z","name_a2s":"Uncletopia | Warsaw | 5 | Stopwatch Beta","protocol":17,"map":"pl_barnblitz","folder":"tf","game":"Team Fortress","app_id":440,"player_count":0,"max_players":24,"Bots":0,"server_type":"Dedicated","server_os":"Linux","password":true,"vac":true,"version":"7757534","steam_id":85568392925397854,"keywords":["nocrits","nodmgspread","payload","uncletopia"],"game_id":440,"stv_port":27056,"stv_name":"Uncletopia | Warsaw | 5 | Stopwatch Beta | STV","players":null},{"server_id":54,"name":"Uncletopia | Warsaw | 6 | Community","name_short":"waw-6","host":"waw-1.pl.uncletopia.com","port":27065,"enabled":true,"region":"eu","cc":"pl","latitude":52.2297,"longitude":21.017532,"reserved":0,"last_update":"0001-01-01T00:00:00Z","name_a2s":"Uncletopia | Warsaw | 6 | Community","protocol":17,"map":"pl_swiftwater_final1","folder":"tf","game":"Team Fortress","app_id":440,"player_count":0,"max_players":24,"Bots":0,"server_type":"Dedicated","server_os":"Linux","password":true,"vac":true,"version":"7757534","steam_id":85568392925397856,"keywords":["nocrits","nodmgspread","payload","uncletopia"],"game_id":440,"stv_port":27066,"stv_name":"Uncletopia | Warsaw | 6 | Community | STV","players":null}]}