{"status":true,"message":"","result":[{"server_id":9,"name":"Uncletopia | Atlanta | 1 | All Maps","name_short":"atl-1","host":"atl-1.us.uncletopia.com","port":27015,"enabled":true,"region":"us-east","cc":"us","latitude":33.753746,"longitude":-84.38633,"reserved":0,"last_update":"0001-01-01T00:00:00Z","name_a2s":"Uncletopia | Atlanta | 1 | All Maps","protocol":17,"map":"pl_borneo","folder":"tf","game":"Team Fortress","app_id":440,"player_count":24,"max_players":24,"Bots":0,"server_type":"Dedicated","server_os":"Linux","password":true,"vac":true,"version":"7723704","steam_id":85568392924469982,"keywords":["nocrits","nodmgspread","payload","uncletopia"],"game_id":440,"stv_port":27016,"stv_name":"Uncletopia | Atlanta | 1 | All Maps | STV","players":[{"user_id":503,"name":"BEAswacks93 (she/her)","steam_id":76561199222250828,"connected_time":155000000000,"state":"active","ping":82},{"user_id":482,"name":"sansa musa","steam_id":76561198163723555,"connected_time":1439000000000,"state":"active","ping":68},{"user_id":465,"name":"bladeefan17","steam_id":76561198239286750,"connected_time":2047000000000,"state":"active","ping":68},{"user_id":484,"name":"♡Alyx♡","steam_id":76561198024303978,"connected_time":1351000000000,"state":"active","ping":62},{"user_id":505,"name":"strategic dier","steam_id":76561197999257178,"connected_time":150000000000,"state":"active","ping":84},{"user_id":461,"name":"ATL1 | J O V A","steam_id":76561198090333536,"connected_time":2293000000000,"state":"active","ping":63},{"user_id":500,"name":"ATL1 | Psionic Present","steam_id":76561198151019322,"connected_time":235000000000,"state":"active","ping":72},{"user_id":438,"name":"SoapKnight","steam_id":76561198993730843,"connected_time":3351000000000,"state":"active","ping":83},{"user_id":452,"name":"joe","steam_id":76561198045781320,"connected_time":2882000000000,"state":"active","ping":63},{"user_id":464,"name":"christmas.jimmy.2014","steam_id":76561199177672325,"connected_time":2211000000000,"state":"active","ping":41},{"user_id":489,"name":"happy man!!! :D!!!!","steam_id":76561198128468316,"connected_time":951000000000,"state":"active","ping":71},{"user_id":462,"name":"ATL1 | p4ka","steam_id":76561198315291317,"connected_time":2291000000000,"state":"active","ping":75},{"user_id":457,"name":"Jin Gulilo","steam_id":76561198065151242,"connected_time":2329000000000,"state":"active","ping":75},{"user_id":492,"name":"Cafe Alpha","steam_id":76561197965022076,"connected_time":797000000000,"state":"active","ping":76},{"user_id":483,"name":"knotsofunny","steam_id":76561198071336304,"connected_time":1358000000000,"state":"active","ping":73},{"user_id":479,"name":"Icaras","steam_id":76561198416724843,"connected_time":1679000000000,"state":"active","ping":130},{"user_id":490,"name":"[txc] milk and cookies","steam_id":76561198127457787,"connected_time":939000000000,"state":"active","ping":79},{"user_id":495,"name":"qawsrtfvguyhjnmik","steam_id":76561198237371386,"connected_time":634000000000,"state":"active","ping":83},{"user_id":453,"name":"Happy","steam_id":76561198987103524,"connected_time":2741000000000,"state":"active","ping":66},{"user_id":448,"name":"Winter the Witchie","steam_id":76561198151971178,"connected_time":3131000000000,"state":"active","ping":77},{"user_id":487,"name":"كندوز","steam_id":76561198326987939,"connected_time":1076000000000,"state":"active","ping":70},{"user_id":491,"name":"Darkdrake","steam_id":76561198107200600,"connected_time":892000000000,"state":"active","ping":60},{"user_id":459,"name":"festive pork trooper","steam_id":76561198150327877,"connected_time":2314000000000,"state":"active","ping":44},{"user_id":497,"name":"Wolfwu - BUFF THE SPEED","steam_id":76561198864421290,"connected_time":364000000000,"state":"active","ping":33}]},{"server_id":400,"name":"Uncletopia | Atlanta | 3 | All Maps","name_short":"atl-3","host":"atl-1.us.uncletopia.com","port":27035,"enabled":true,"region":"us-east","cc":"us","latitude":33.753746,"longitude":-84.38633,"reserved":0,"last_update":"0001-01-01T00:00:00Z","name_a2s":"Uncletopia | Atlanta | 3 | All Maps","protocol":17,"map":"pl_swiftwater_final1","folder":"tf","game":"Team Fortress","app_id":440,"player_count":24,"max_players":24,"Bots":0,"server_type":"Dedicated","server_os":"Linux","password":true,"vac":true,"version":"7723704","steam_id":85568392924515187,"keywords":["nocrits","nodmgspread","payload","uncletopia"],"game_id":440,"stv_port":27036,"stv_name":"Uncletopia | Atlanta | 3 | All Maps | STV","players":[{"user_id":143,"name":"lampin","steam_id":76561197964367078,"connected_time":835000000000,"state":"active","ping":86},{"user_id":155,"name":"creamgravy573","steam_id":76561198093308746,"connected_time":525000000000,"state":"active","ping":76},{"user_id":149,"name":"You Don't Nomi.","steam_id":76561197969137836,"connected_time":746000000000,"state":"active","ping":69},{"user_id":140,"name":"Daksuki","steam_id":76561198084127751,"connected_time":1509000000000,"state":"active","ping":88},{"user_id":144,"name":"C∅RVUS","steam_id":76561198100640019,"connected_time":822000000000,"state":"active","ping":126},{"user_id":145,"name":"crippling fumo addiction","steam_id":76561198115874625,"connected_time":812000000000,"state":"active","ping":63},{"user_id":111,"name":"Lion","steam_id":76561198848879603,"connected_time":4415000000000,"state":"active","ping":65},{"user_id":84,"name":"Grayo","steam_id":76561198059652623,"connected_time":5916000000000,"state":"active","ping":84},{"user_id":105,"name":"ItsRoy","steam_id":76561198119525485,"connected_time":5034000000000,"state":"active","ping":61},{"user_id":112,"name":"tingle shitmouth","steam_id":76561198055109192,"connected_time":4370000000000,"state":"active","ping":91},{"user_id":146,"name":"novu","steam_id":76561198886997024,"connected_time":797000000000,"state":"active","ping":84},{"user_id":142,"name":"Hemiphix","steam_id":76561198329316429,"connected_time":1010000000000,"state":"active","ping":67},{"user_id":147,"name":"al","steam_id":76561198012656468,"connected_time":787000000000,"state":"active","ping":49},{"user_id":157,"name":"what","steam_id":76561198082336619,"connected_time":174000000000,"state":"active","ping":77},{"user_id":148,"name":"ar-ar","steam_id":76561198070549205,"connected_time":784000000000,"state":"active","ping":85},{"user_id":150,"name":"ExperimentalBunny","steam_id":76561198329460312,"connected_time":738000000000,"state":"active","ping":82},{"user_id":151,"name":"denk","steam_id":76561198049702548,"connected_time":735000000000,"state":"active","ping":47},{"user_id":152,"name":"Cogenheimer","steam_id":76561198146321550,"connected_time":734000000000,"state":"active","ping":42},{"user_id":117,"name":"Doing Art Homework","steam_id":76561198288674532,"connected_time":4147000000000,"state":"active","ping":81},{"user_id":153,"name":"Nepeta Gamer","steam_id":76561198964321336,"connected_time":694000000000,"state":"active","ping":59},{"user_id":118,"name":"hoodie (ball eater)","steam_id":76561198354284591,"connected_time":4100000000000,"state":"active","ping":75},{"user_id":158,"name":"2spooky","steam_id":76561198094747637,"connected_time":32000000000,"state":"active","ping":90},{"user_id":126,"name":"Mr.Miyagi","steam_id":76561198146090538,"connected_time":2993000000000,"state":"active","ping":94},{"user_id":131,"name":"A Puppy","steam_id":76561198828184456,"connected_time":2721000000000,"state":"active","ping":56}]},{"server_id":401,"name":"Uncletopia | Atlanta | 4 | No Payload","name_short":"atl-4","host":"atl-1.us.uncletopia.com","port":27045,"enabled":true,"region":"us-east","cc":"us","latitude":33.753746,"longitude":-84.38633,"reserved":0,"last_update":"0001-01-01T00:00:00Z","name_a2s":"Uncletopia | Atlanta | 4 | No Payload","protocol":17,"map":"cp_mossrock","folder":"tf","game":"Team Fortress","app_id":440,"player_count":0,"max_players":24,"Bots":0,"server_type":"Dedicated","server_os":"Linux","password":true,"vac":true,"version":"7723704","steam_id":85568392924515188,"keywords":["cp","nocrits","nodmgspread","uncletopia"],"game_id":440,"stv_port":27046,"stv_name":"Uncletopia | Atlanta | 4 | No Payload | STV","players":null},{"server_id":2,"name":"Uncletopia | Chicago | 1 | All Maps","name_short":"chi-1","host":"chi-1.us.uncletopia.com","port":27015,"enabled":true,"region":"us-central","cc":"us","latitude":41.881832,"longitude":-87.62318,"reserved":0,"last_update":"0001-01-01T00:00:00Z","name_a2s":"Uncletopia | Chicago | 1 | All Maps","protocol":17,"map":"pl_thundermountain","folder":"tf","game":"Team Fortress","app_id":440,"player_count":21,"max_players":24,"Bots":0,"server_type":"Dedicated","server_os":"Linux","password":true,"vac":true,"version":"7723704","steam_id":85568392924469984,"keywords":["nocrits","nodmgspread","payload","uncletopia"],"game_id":440,"stv_port":27016,"stv_name":"Uncletopia | Chicago | 1 | All Maps | STV","players":[{"user_id":517,"name":"Kevin Y.","steam_id":76561198364331423,"connected_time":535000000000,"state":"active","ping":79},{"user_id":469,"name":"Booker","steam_id":76561198065120639,"connected_time":2812000000000,"state":"active","ping":49},{"user_id":509,"name":"TheGhostThatWas","steam_id":76561198055836483,"connected_time":772000000000,"state":"active","ping":60},{"user_id":523,"name":"Starslinger","steam_id":76561198285216510,"connected_time":75000000000,"state":"active","ping":54},{"user_id":376,"name":"Catboy Potemkin","steam_id":76561198078474420,"connected_time":10151000000000,"state":"active","ping":65},{"user_id":449,"name":"Gibby","steam_id":76561199336569123,"connected_time":4666000000000,"state":"active","ping":118},{"user_id":494,"name":"Oddball","steam_id":76561198040440984,"connected_time":1665000000000,"state":"active","ping":70},{"user_id":470,"name":"lambmyth","steam_id":76561199215261209,"connected_time":2809000000000,"state":"active","ping":76},{"user_id":486,"name":"Xuey","steam_id":76561199120960187,"connected_time":1873000000000,"state":"active","ping":54},{"user_id":495,"name":"Le","steam_id":76561198817754233,"connected_time":1597000000000,"state":"active","ping":61},{"user_id":507,"name":"footoftheday","steam_id":76561198052712449,"connected_time":797000000000,"state":"active","ping":71},{"user_id":522,"name":"I'm Only 4 Inches","steam_id":76561198055542546,"connected_time":133000000000,"state":"active","ping":54},{"user_id":500,"name":"pathulhu","steam_id":76561198323941614,"connected_time":1148000000000,"state":"active","ping":68},{"user_id":395,"name":"Ras","steam_id":76561198123546775,"connected_time":8652000000000,"state":"active","ping":64},{"user_id":511,"name":"The mook","steam_id":76561198963551905,"connected_time":738000000000,"state":"active","ping":62},{"user_id":515,"name":"Octo735608","steam_id":76561199088448340,"connected_time":597000000000,"state":"active","ping":55},{"user_id":513,"name":"Dude Named Bob","steam_id":76561198310448093,"connected_time":672000000000,"state":"active","ping":50},{"user_id":487,"name":"randomperson88","steam_id":76561199228822173,"connected_time":1860000000000,"state":"active","ping":59},{"user_id":497,"name":"Cleric.UTC.TF2","steam_id":76561198045887994,"connected_time":1431000000000,"state":"active","ping":48},{"user_id":483,"name":"Jocores","steam_id":76561198142139854,"connected_time":2275000000000,"state":"active","ping":80},{"user_id":475,"name":"TheGuyWho'sHereForNoReason","steam_id":76561198851507736,"connected_time":2765000000000,"state":"active","ping":92}]},{"server_id":106,"name":"Uncletopia | Chicago | 2 | All Maps","name_short":"chi-2","host":"chi-1.us.uncletopia.com","port":27025,"enabled":true,"region":"us-central","cc":"us","latitude":41.881832,"longitude":-87.62318,"reserved":0,"last_update":"0001-01-01T00:00:00Z","name_a2s":"Uncletopia | Chicago | 2 | All Maps","protocol":17,"map":"pl_snowycoast","folder":"tf","game":"Team Fortress","app_id":440,"player_count":24,"max_players":24,"Bots":0,"server_type":"Dedicated","server_os":"Linux","password":true,"vac":true,"version":"7723704","steam_id":85568392924469985,"keywords":["nocrits","nodmgspread","payload","uncletopia"],"game_id":440,"stv_port":27026,"stv_name":"Uncletopia | Chicago | 2 | All Maps | STV","players":[{"user_id":132,"name":"The Super Mario Bros. Movie","steam_id":76561198871692156,"connected_time":1423000000000,"state":"active","ping":97},{"user_id":139,"name":"TH-1","steam_id":76561197993467034,"connected_time":971000000000,"state":"active","ping":51},{"user_id":118,"name":"finn (he/him)","steam_id":76561198257531708,"connected_time":2443000000000,"state":"active","ping":56},{"user_id":58,"name":"FatCuddlyBear","steam_id":76561198133613253,"connected_time":7860000000000,"state":"active","ping":60},{"user_id":105,"name":"PootisPowHAHA","steam_id":76561199023536209,"connected_time":3474000000000,"state":"active","ping":87},{"user_id":125,"name":"Jacck916","steam_id":76561198176874157,"connected_time":2209000000000,"state":"active","ping":114},{"user_id":90,"name":"upside down cat","steam_id":76561198028288349,"connected_time":5265000000000,"state":"active","ping":89},{"user_id":141,"name":"i suffer from ligma","steam_id":76561199158496518,"connected_time":691000000000,"state":"active","ping":75},{"user_id":144,"name":"ham bone","steam_id":76561198351143785,"connected_time":583000000000,"state":"active","ping":65},{"user_id":114,"name":"gnome \"kooky ass mf\" fan","steam_id":76561198148199120,"connected_time":3310000000000,"state":"active","ping":83},{"user_id":30,"name":"No cost too great","steam_id":76561198892462283,"connected_time":8983000000000,"state":"active","ping":58},{"user_id":63,"name":"RaddahRaddah","steam_id":76561198194462829,"connected_time":7433000000000,"state":"active","ping":57},{"user_id":121,"name":"what the fuck is up denny's","steam_id":76561198282764599,"connected_time":2407000000000,"state":"active","ping":46},{"user_id":146,"name":"WhoIsFrosty","steam_id":76561198880588117,"connected_time":433000000000,"state":"active","ping":54},{"user_id":126,"name":"frid","steam_id":76561198005806915,"connected_time":2023000000000,"state":"active","ping":66},{"user_id":142,"name":"Female Gamer","steam_id":76561199366482682,"connected_time":616000000000,"state":"active","ping":99},{"user_id":140,"name":"Qrow","steam_id":76561198355935693,"connected_time":708000000000,"state":"active","ping":52},{"user_id":148,"name":"peachy","steam_id":76561198026664629,"connected_time":318000000000,"state":"active","ping":50},{"user_id":128,"name":"ÜberBurst inVinci","steam_id":76561198044470684,"connected_time":1888000000000,"state":"active","ping":80},{"user_id":143,"name":"ShortenedName","steam_id":76561198079337360,"connected_time":609000000000,"state":"active","ping":88},{"user_id":130,"name":"valtiel","steam_id":76561198165212575,"connected_time":1720000000000,"state":"active","ping":69},{"user_id":145,"name":"w3bd3v","steam_id":76561198077982525,"connected_time":499000000000,"state":"active","ping":74},{"user_id":138,"name":"FULCRUM faded than a ho","steam_id":76561198274959371,"connected_time":1001000000000,"state":"active","ping":70},{"user_id":147,"name":"Takumi Fujiwara","steam_id":76561198146281101,"connected_time":339000000000,"state":"active","ping":74}]},{"server_id":402,"name":"Uncletopia | Chicago | 3 | All Maps","name_short":"chi-3","host":"chi-1.us.uncletopia.com","port":27035,"enabled":true,"region":"us-central","cc":"us","latitude":41.881832,"longitude":-87.62318,"reserved":0,"last_update":"0001-01-01T00:00:00Z","name_a2s":"Uncletopia | Chicago | 3 | All Maps","protocol":17,"map":"pl_pier","folder":"tf","game":"Team Fortress","app_id":440,"player_count":24,"max_players":24,"Bots":0,"server_type":"Dedicated","server_os":"Linux","password":true,"vac":true,"version":"7723704","steam_id":85568392924515191,"keywords":["nocrits","nodmgspread","payload","uncletopia"],"game_id":440,"stv_port":27036,"stv_name":"Uncletopia | Chicago | 3 | All Maps | STV","players":[{"user_id":340,"name":"Fresh","steam_id":76561198068565728,"connected_time":1656000000000,"state":"active","ping":91},{"user_id":367,"name":"crankshaft","steam_id":76561197992798282,"connected_time":791000000000,"state":"active","ping":99},{"user_id":339,"name":"tooth","steam_id":76561197986437643,"connected_time":1696000000000,"state":"active","ping":67},{"user_id":376,"name":"Horus","steam_id":76561198166215370,"connected_time":310000000000,"state":"active","ping":133},{"user_id":366,"name":"ZofoJackson","steam_id":76561197998366861,"connected_time":804000000000,"state":"active","ping":54},{"user_id":369,"name":":03","steam_id":76561198370487545,"connected_time":553000000000,"state":"active","ping":88},{"user_id":323,"name":"NinjaApe","steam_id":76561199228180985,"connected_time":2726000000000,"state":"active","ping":70},{"user_id":332,"name":"4Lukaska","steam_id":76561198083515060,"connected_time":2240000000000,"state":"active","ping":66},{"user_id":324,"name":"Jesus","steam_id":76561198018890911,"connected_time":2646000000000,"state":"active","ping":72},{"user_id":342,"name":"sly1","steam_id":76561198049014977,"connected_time":1629000000000,"state":"active","ping":60},{"user_id":343,"name":"POLICE","steam_id":76561198120757569,"connected_time":1627000000000,"state":"active","ping":59},{"user_id":373,"name":"The Honor Guard","steam_id":76561198237364590,"connected_time":442000000000,"state":"active","ping":81},{"user_id":378,"name":"Johnny Lawrence #JohnnyMaxxing","steam_id":76561199367141671,"connected_time":120000000000,"state":"active","ping":70},{"user_id":370,"name":"Assilio","steam_id":76561198371102414,"connected_time":479000000000,"state":"active","ping":75},{"user_id":336,"name":"MantisTobboggan","steam_id":76561197969447887,"connected_time":1860000000000,"state":"active","ping":139},{"user_id":351,"name":"SheepWithPants","steam_id":76561198169158454,"connected_time":1534000000000,"state":"active","ping":75},{"user_id":318,"name":"Hobocop","steam_id":76561198076321907,"connected_time":3486000000000,"state":"active","ping":76},{"user_id":363,"name":"bee","steam_id":76561198025553902,"connected_time":812000000000,"state":"active","ping":45},{"user_id":272,"name":"Young-OG","steam_id":76561198058800479,"connected_time":7970000000000,"state":"active","ping":88},{"user_id":371,"name":"intermediate bowsman","steam_id":76561198190100027,"connected_time":468000000000,"state":"active","ping":60},{"user_id":359,"name":"2fart","steam_id":76561198130098823,"connected_time":1283000000000,"state":"active","ping":60},{"user_id":368,"name":"GLURRIN","steam_id":76561198315690955,"connected_time":746000000000,"state":"active","ping":56},{"user_id":338,"name":"Ye (I Love Hitler) West","steam_id":76561198068830312,"connected_time":1857000000000,"state":"active","ping":47},{"user_id":326,"name":"☼ champloo","steam_id":76561198074180953,"connected_time":2626000000000,"state":"active","ping":64}]},{"server_id":403,"name":"Uncletopia | Chicago | 4 | All Maps","name_short":"chi-4","host":"chi-1.us.uncletopia.com","port":27045,"enabled":true,"region":"us-central","cc":"us","latitude":41.881832,"longitude":-87.62318,"reserved":0,"last_update":"0001-01-01T00:00:00Z","name_a2s":"Uncletopia | Chicago | 4 | All Maps","protocol":17,"map":"koth_cascade","folder":"tf","game":"Team Fortress","app_id":440,"player_count":2,"max_players":24,"Bots":0,"server_type":"Dedicated","server_os":"Linux","password":true,"vac":true,"version":"7723704","steam_id":85568392924515193,"keywords":["cp","nocrits","nodmgspread","uncletopia"],"game_id":440,"stv_port":27046,"stv_name":"Uncletopia | Chicago | 4 | All Maps | STV","players":[{"user_id":557,"name":"kablong","steam_id":76561199094392047,"connected_time":152000000000,"state":"active","ping":72},{"user_id":558,"name":"cappy_blappy","steam_id":76561198339229316,"connected_time":92000000000,"state":"active","ping":77}]},{"server_id":36,"name":"Uncletopia | Chicago | 5 | All Maps","name_short":"chi-5","host":"chi-2.us.uncletopia.com","port":27015,"enabled":true,"region":"us-central","cc":"us","latitude":41.881832,"longitude":-87.62318,"reserved":0,"last_update":"0001-01-01T00:00:00Z","name_a2s":"Uncletopia | Chicago | 5 | All Maps","protocol":17,"map":"pl_borneo","folder":"tf","game":"Team Fortress","app_id":440,"player_count":24,"max_players":24,"Bots":0,"server_type":"Dedicated","server_os":"Linux","password":true,"vac":true,"version":"7723704","steam_id":85568392924866362,"keywords":["nocrits","nodmgspread","payload","uncletopia"],"game_id":440,"stv_port":27016,"stv_name":"Uncletopia | Chicago | 5 | All Maps | STV","players":[{"user_id":82,"name":"Massive Conquistador","steam_id":76561197961138002,"connected_time":382000000000,"state":"active","ping":74},{"user_id":71,"name":"Kray-Z","steam_id":76561198797699901,"connected_time":1188000000000,"state":"active","ping":81},{"user_id":57,"name":"Cat vs","steam_id":76561198172613013,"connected_time":1876000000000,"state":"active","ping":80},{"user_id":49,"name":"Wug","steam_id":76561198084112264,"connected_time":2151000000000,"state":"active","ping":75},{"user_id":76,"name":"crunchy and spicy wasp snack","steam_id":76561199322728703,"connected_time":861000000000,"state":"active","ping":65},{"user_id":94,"name":"kametro4","steam_id":76561198835430429,"connected_time":100000000000,"state":"active","ping":84},{"user_id":95,"name":"Bad Medic Buddy","steam_id":76561198093222632,"connected_time":93000000000,"state":"active","ping":84},{"user_id":81,"name":"Mr. J","steam_id":76561198101567155,"connected_time":445000000000,"state":"active","ping":65},{"user_id":30,"name":"VellFox","steam_id":76561198057514928,"connected_time":2650000000000,"state":"active","ping":67},{"user_id":83,"name":"Jitters","steam_id":76561198078898336,"connected_time":368000000000,"state":"active","ping":57},{"user_id":97,"name":"canadian birds","steam_id":76561198059466588,"connected_time":67000000000,"state":"active","ping":74},{"user_id":86,"name":"Smuggley","steam_id":76561198078130271,"connected_time":334000000000,"state":"active","ping":75},{"user_id":87,"name":"Glazz","steam_id":76561198093056285,"connected_time":289000000000,"state":"active","ping":80},{"user_id":88,"name":"The_Epic_Conclusion","steam_id":76561198084250179,"connected_time":243000000000,"state":"active","ping":65},{"user_id":70,"name":"deckerhoff!","steam_id":76561198010741410,"connected_time":1239000000000,"state":"active","ping":81},{"user_id":78,"name":"stanky leg doer","steam_id":76561198167299951,"connected_time":852000000000,"state":"active","ping":60},{"user_id":89,"name":"dog-shaped dog","steam_id":76561198286166220,"connected_time":235000000000,"state":"active","ping":66},{"user_id":73,"name":"a_person_159","steam_id":76561199024416326,"connected_time":1014000000000,"state":"active","ping":64},{"user_id":96,"name":"CaucasianShaq","steam_id":76561198351623516,"connected_time":91000000000,"state":"active","ping":85},{"user_id":91,"name":"TheTinyNickel","steam_id":76561199125181471,"connected_time":227000000000,"state":"active","ping":71},{"user_id":98,"name":"BernardBull","steam_id":76561198036138813,"connected_time":61000000000,"state":"active","ping":68},{"user_id":45,"name":"sunev","steam_id":76561198017539604,"connected_time":2239000000000,"state":"active","ping":68},{"user_id":59,"name":"erm i am erm i am erm i am XD","steam_id":76561198102681457,"connected_time":1826000000000,"state":"active","ping":72},{"user_id":93,"name":"Inevitable","steam_id":76561198210050169,"connected_time":206000000000,"state":"active","ping":75}]},{"server_id":37,"name":"Uncletopia | Chicago | 6 | All Maps","name_short":"chi-6","host":"chi-2.us.uncletopia.com","port":27025,"enabled":true,"region":"us-central","cc":"us","latitude":41.881832,"longitude":-87.62318,"reserved":0,"last_update":"0001-01-01T00:00:00Z","name_a2s":"Uncletopia | Chicago | 6 | All Maps","protocol":17,"map":"cp_altitude","folder":"tf","game":"Team Fortress","app_id":440,"player_count":0,"max_players":24,"Bots":0,"server_type":"Dedicated","server_os":"Linux","password":true,"vac":true,"version":"7723704","steam_id":85568392924866363,"keywords":["cp","nocrits","nodmgspread","uncletopia"],"game_id":440,"stv_port":27026,"stv_name":"Uncletopia | Chicago | 6 | All Maps | STV","players":null},{"server_id":38,"name":"Uncletopia | Chicago | 7 | Stopwatch (test)","name_short":"chi-7","host":"chi-2.us.uncletopia.com","port":27035,"enabled":true,"region":"us-central","cc":"us","latitude":41.881832,"longitude":-87.62318,"reserved":0,"last_update":"0001-01-01T00:00:00Z","name_a2s":"Uncletopia | Chicago | 7 | Stopwatch (test)","protocol":17,"map":"workshop/koth_clearcut_b15.ugc2107050255","folder":"tf","game":"Team Fortress","app_id":440,"player_count":0,"max_players":24,"Bots":0,"server_type":"Dedicated","server_os":"Linux","password":true,"vac":true,"version":"7723704","steam_id":85568392924866364,"keywords":["cp","nocrits","nodmgspread","uncletopia"],"game_id":440,"stv_port":27036,"stv_name":"Uncletopia | Chicago | 7 | Stopwatch (test) | STV","players":null},{"server_id":39,"name":"Uncletopia | Chicago | 8 | Community","name_short":"chi-8","host":"chi-2.us.uncletopia.com","port":27045,"enabled":true,"region":"us-central","cc":"us","latitude":41.881832,"longitude":-87.62318,"reserved":0,"last_update":"0001-01-01T00:00:00Z","name_a2s":"Uncletopia | Chicago | 8 | Community","protocol":17,"map":"pl_frontier_final","folder":"tf","game":"Team Fortress","app_id":440,"player_count":0,"max_players":24,"Bots":0,"server_type":"Dedicated","server_os":"Linux","password":true,"vac":true,"version":"7723704","steam_id":85568392924866365,"keywords":["nocrits","nodmgspread","payload","uncletopia"],"game_id":440,"stv_port":27046,"stv_name":"Uncletopia | Chicago | 8 | Community | STV","players":null},{"server_id":8,"name":"Uncletopia | Dallas | 1 | All Maps","name_short":"dal-1","host":"dal-1.us.uncletopia.com","port":27015,"enabled":true,"region":"us-central","cc":"us","latitude":32.779167,"longitude":-96.80889,"reserved":0,"last_update":"0001-01-01T00:00:00Z","name_a2s":"Uncletopia | Dallas | 1 | All Maps","protocol":17,"map":"pl_badwater","folder":"tf","game":"Team Fortress","app_id":440,"player_count":24,"max_players":24,"Bots":0,"server_type":"Dedicated","server_os":"Linux","password":true,"vac":true,"version":"7723704","steam_id":85568392924469986,"keywords":["nocrits","nodmgspread","payload","uncletopia"],"game_id":440,"stv_port":27016,"stv_name":"Uncletopia | Dallas | 1 | All Maps | STV","players":[{"user_id":662,"name":"El Benjador","steam_id":76561198345883103,"connected_time":520000000000,"state":"active","ping":64},{"user_id":661,"name":"Pump","steam_id":76561198085846167,"connected_time":1322000000000,"state":"active","ping":94},{"user_id":600,"name":"Pennis the Menace","steam_id":76561198254878037,"connected_time":6231000000000,"state":"active","ping":94},{"user_id":602,"name":"far1ne","steam_id":76561198418853168,"connected_time":5900000000000,"state":"active","ping":86},{"user_id":641,"name":"hedahman","steam_id":76561198052398134,"connected_time":2673000000000,"state":"active","ping":92},{"user_id":674,"name":"elite level gamer","steam_id":76561198158206236,"connected_time":413000000000,"state":"active","ping":116},{"user_id":665,"name":"DJ Chalice","steam_id":76561197974872458,"connected_time":460000000000,"state":"active","ping":84},{"user_id":590,"name":"bitmappu","steam_id":76561199000786530,"connected_time":6466000000000,"state":"active","ping":65},{"user_id":666,"name":"GRONT","steam_id":76561198040464533,"connected_time":459000000000,"state":"active","ping":65},{"user_id":658,"name":"BrendenMad","steam_id":76561198031250581,"connected_time":1602000000000,"state":"active","ping":61},{"user_id":646,"name":"courtham","steam_id":76561198092023855,"connected_time":2614000000000,"state":"active","ping":81},{"user_id":678,"name":"2cats_2curious","steam_id":76561198027143149,"connected_time":227000000000,"state":"active","ping":60},{"user_id":667,"name":"the12xu","steam_id":76561198197086561,"connected_time":452000000000,"state":"active","ping":89},{"user_id":642,"name":"bingle","steam_id":76561198359413453,"connected_time":2662000000000,"state":"active","ping":94},{"user_id":677,"name":"dohnuts","steam_id":76561198025965230,"connected_time":333000000000,"state":"active","ping":91},{"user_id":669,"name":"citrus","steam_id":76561198294606679,"connected_time":427000000000,"state":"active","ping":92},{"user_id":673,"name":"mr.edderkopper","steam_id":76561198152614478,"connected_time":416000000000,"state":"active","ping":95},{"user_id":608,"name":"B.A.S.E","steam_id":76561198065324447,"connected_time":4570000000000,"state":"active","ping":62},{"user_id":670,"name":"Strangelove","steam_id":76561198353773611,"connected_time":425000000000,"state":"active","ping":99},{"user_id":671,"name":"Chicken Nugget","steam_id":76561198082601232,"connected_time":422000000000,"state":"active","ping":79},{"user_id":648,"name":"Pika","steam_id":76561198068063436,"connected_time":2608000000000,"state":"active","ping":63},{"user_id":676,"name":"SpaceBanana","steam_id":76561198077857315,"connected_time":354000000000,"state":"active","ping":120},{"user_id":675,"name":"DSM-IVCE","steam_id":76561199438515797,"connected_time":394000000000,"state":"active","ping":144},{"user_id":656,"name":"Ellis","steam_id":76561198993634489,"connected_time":1958000000000,"state":"active","ping":79}]},{"server_id":108,"name":"Uncletopia | Dallas | 2 | All Maps","name_short":"dal-2","host":"dal-1.us.uncletopia.com","port":27025,"enabled":true,"region":"us-central","cc":"us","latitude":32.779167,"longitude":-96.80889,"reserved":0,"last_update":"0001-01-01T00:00:00Z","name_a2s":"Uncletopia | Dallas | 2 | All Maps","protocol":17,"map":"pl_wutville_event","folder":"tf","game":"Team Fortress","app_id":440,"player_count":24,"max_players":24,"Bots":0,"server_type":"Dedicated","server_os":"Linux","password":true,"vac":true,"version":"7723704","steam_id":85568392924469988,"keywords":["nocrits","nodmgspread","payload","uncletopia"],"game_id":440,"stv_port":27026,"stv_name":"Uncletopia | Dallas | 2 | All Maps | STV","players":[{"user_id":149,"name":"iku","steam_id":76561198847749278,"connected_time":538000000000,"state":"active","ping":45},{"user_id":144,"name":"[GUT] RiDiK®","steam_id":76561197969756446,"connected_time":1592000000000,"state":"active","ping":74},{"user_id":143,"name":"Dad Rock Deluxe","steam_id":76561198051224819,"connected_time":1624000000000,"state":"active","ping":40},{"user_id":160,"name":"Slavic Pancake","steam_id":76561199319750064,"connected_time":279000000000,"state":"active","ping":100},{"user_id":128,"name":"solveig","steam_id":76561198271713106,"connected_time":2434000000000,"state":"active","ping":92},{"user_id":130,"name":"dodecadron","steam_id":76561198027397222,"connected_time":2399000000000,"state":"active","ping":106},{"user_id":131,"name":"Round King","steam_id":76561198273185290,"connected_time":2397000000000,"state":"active","ping":95},{"user_id":163,"name":"baesth","steam_id":76561198857820304,"connected_time":112000000000,"state":"active","ping":49},{"user_id":154,"name":"mkl","steam_id":76561197986401685,"connected_time":499000000000,"state":"active","ping":66},{"user_id":125,"name":"Lingus Loopus","steam_id":76561198041426868,"connected_time":2702000000000,"state":"active","ping":50},{"user_id":98,"name":"Gundam Guy","steam_id":76561198178453993,"connected_time":4911000000000,"state":"active","ping":77},{"user_id":146,"name":"king shit of fuck mountain","steam_id":76561198044127000,"connected_time":1215000000000,"state":"active","ping":87},{"user_id":133,"name":"hehe :3","steam_id":76561198036901822,"connected_time":2343000000000,"state":"active","ping":55},{"user_id":155,"name":"Just Another Stoned Eevee","steam_id":76561198262852705,"connected_time":462000000000,"state":"active","ping":75},{"user_id":156,"name":"GujaJuice","steam_id":76561199025126191,"connected_time":398000000000,"state":"active","ping":71},{"user_id":164,"name":"Smooby","steam_id":76561198066045106,"connected_time":104000000000,"state":"active","ping":50},{"user_id":145,"name":"ChefTomCruise","steam_id":76561199061334659,"connected_time":1563000000000,"state":"active","ping":79},{"user_id":142,"name":"Marc Antony","steam_id":76561198011366517,"connected_time":1626000000000,"state":"active","ping":73},{"user_id":158,"name":"mysterious stranger","steam_id":76561198020972480,"connected_time":315000000000,"state":"active","ping":66},{"user_id":162,"name":"Moss","steam_id":76561198980149992,"connected_time":233000000000,"state":"active","ping":95},{"user_id":148,"name":"Kuddly Kay","steam_id":76561198353432576,"connected_time":925000000000,"state":"active","ping":129},{"user_id":139,"name":"spot","steam_id":76561198151135298,"connected_time":2062000000000,"state":"active","ping":66},{"user_id":140,"name":"Bagaboned","steam_id":76561198043761335,"connected_time":1978000000000,"state":"active","ping":90},{"user_id":165,"name":"Jarated","steam_id":76561198352187445,"connected_time":101000000000,"state":"active","ping":68}]},{"server_id":5,"name":"Uncletopia | Frankfurt | 1 | All Maps","name_short":"frk-1","host":"frk-1.de.uncletopia.com","port":27015,"enabled":true,"region":"eu","cc":"de","latitude":50.110924,"longitude":8.682127,"reserved":0,"last_update":"0001-01-01T00:00:00Z","name_a2s":"Uncletopia | Frankfurt | 1 | All Maps","protocol":17,"map":"pl_badwater","folder":"tf","game":"Team Fortress","app_id":440,"player_count":23,"max_players":24,"Bots":0,"server_type":"Dedicated","server_os":"Linux","password":true,"vac":true,"version":"7723704","steam_id":85568392924469989,"keywords":["nocrits","nodmgspread","payload","uncletopia"],"game_id":440,"stv_port":27016,"stv_name":"Uncletopia | Frankfurt | 1 | All Maps | STV","players":[{"user_id":633,"name":"ARNOLD SVAGNEIGER","steam_id":76561198382064472,"connected_time":120000000000,"state":"active","ping":67},{"user_id":590,"name":"0","steam_id":76561198267909207,"connected_time":3443000000000,"state":"active","ping":93},{"user_id":580,"name":"nedilya","steam_id":76561198039692077,"connected_time":3797000000000,"state":"active","ping":56},{"user_id":630,"name":"lettuce at 58p","steam_id":76561199401283123,"connected_time":588000000000,"state":"active","ping":56},{"user_id":634,"name":"penis haver","steam_id":76561198230735156,"connected_time":112000000000,"state":"active","ping":56},{"user_id":627,"name":"TucTuc","steam_id":76561198140656686,"connected_time":1200000000000,"state":"active","ping":79},{"user_id":631,"name":"d0gger","steam_id":76561198054902449,"connected_time":519000000000,"state":"active","ping":63},{"user_id":585,"name":"gamer man","steam_id":76561198436817109,"connected_time":3614000000000,"state":"active","ping":69},{"user_id":582,"name":"Proto-arc","steam_id":76561198012776747,"connected_time":3738000000000,"state":"active","ping":60},{"user_id":629,"name":"Neco-arc Astolfo","steam_id":76561198989682540,"connected_time":702000000000,"state":"active","ping":49},{"user_id":591,"name":"Chicanery","steam_id":76561198068213670,"connected_time":3410000000000,"state":"active","ping":52},{"user_id":625,"name":"Bochan","steam_id":76561198229071660,"connected_time":1302000000000,"state":"active","ping":77},{"user_id":615,"name":"schaffi","steam_id":76561198061369274,"connected_time":2220000000000,"state":"active","ping":77},{"user_id":596,"name":"meatsoupcube","steam_id":76561198276802249,"connected_time":3049000000000,"state":"active","ping":63},{"user_id":632,"name":"no more fucks to give","steam_id":76561199129974320,"connected_time":223000000000,"state":"active","ping":52},{"user_id":605,"name":"Vershal Smershal","steam_id":76561198116223995,"connected_time":2868000000000,"state":"active","ping":59},{"user_id":603,"name":"xavier :)","steam_id":76561198076494034,"connected_time":2909000000000,"state":"active","ping":58},{"user_id":628,"name":"Wise Mystical Tree","steam_id":76561198038536824,"connected_time":950000000000,"state":"active","ping":59},{"user_id":606,"name":"senko","steam_id":76561198002990168,"connected_time":2863000000000,"state":"active","ping":55},{"user_id":607,"name":"Bajas","steam_id":76561198179339326,"connected_time":2788000000000,"state":"active","ping":76},{"user_id":626,"name":"Buff Engineer","steam_id":76561199091472451,"connected_time":1216000000000,"state":"active","ping":59},{"user_id":622,"name":"Dr.Disrespect","steam_id":76561198043820228,"connected_time":1424000000000,"state":"active","ping":47}]},{"server_id":110,"name":"Uncletopia | Frankfurt | 2 | All Maps","name_short":"frk-2","host":"frk-1.de.uncletopia.com","port":27025,"enabled":true,"region":"eu","cc":"de","latitude":50.110924,"longitude":8.682127,"reserved":0,"last_update":"0001-01-01T00:00:00Z","name_a2s":"Uncletopia | Frankfurt | 2 | All Maps","protocol":17,"map":"koth_lakeside_final","folder":"tf","game":"Team Fortress","app_id":440,"player_count":1,"max_players":24,"Bots":0,"server_type":"Dedicated","server_os":"Linux","password":true,"vac":true,"version":"7723704","steam_id":85568392924469990,"keywords":["cp","nocrits","nodmgspread","uncletopia"],"game_id":440,"stv_port":27026,"stv_name":"Uncletopia | Frankfurt | 2 | All Maps | STV","players":[{"user_id":840,"name":"Beanos85","steam_id":76561199103337508,"connected_time":5060000000000,"state":"active","ping":164}]},{"server_id":308,"name":"Uncletopia | Frankfurt | 3 | All Maps","name_short":"frk-3","host":"frk-1.de.uncletopia.com","port":27035,"enabled":true,"region":"eu","cc":"de","latitude":50.110924,"longitude":8.682127,"reserved":0,"last_update":"0001-01-01T00:00:00Z","name_a2s":"Uncletopia | Frankfurt | 3 | All Maps","protocol":17,"map":"koth_cascade","folder":"tf","game":"Team Fortress","app_id":440,"player_count":0,"max_players":24,"Bots":0,"server_type":"Dedicated","server_os":"Linux","password":true,"vac":true,"version":"7723704","steam_id":85568392924504274,"keywords":["cp","nocrits","nodmgspread","uncletopia"],"game_id":440,"stv_port":27036,"stv_name":"Uncletopia | Frankfurt | 3 | All Maps | STV","players":null},{"server_id":309,"name":"Uncletopia | Frankfurt | 4 | All Maps","name_short":"frk-4","host":"frk-1.de.uncletopia.com","port":27045,"enabled":true,"region":"eu","cc":"de","latitude":50.110924,"longitude":8.682127,"reserved":0,"last_update":"0001-01-01T00:00:00Z","name_a2s":"Uncletopia | Frankfurt | 4 | All Maps","protocol":17,"map":"koth_lakeside_final","folder":"tf","game":"Team Fortress","app_id":440,"player_count":0,"max_players":24,"Bots":0,"server_type":"Dedicated","server_os":"Linux","password":true,"vac":true,"version":"7723704","steam_id":85568392924504275,"keywords":["cp","nocrits","nodmgspread","uncletopia"],"game_id":440,"stv_port":27046,"stv_name":"Uncletopia | Frankfurt | 4 | All Maps | STV","players":null},{"server_id":310,"name":"Uncletopia | Frankfurt | 5 | All Maps","name_short":"frk-5","host":"frk-1.de.uncletopia.com","port":27055,"enabled":true,"region":"eu","cc":"de","latitude":50.110924,"longitude":8.682127,"reserved":0,"last_update":"0001-01-01T00:00:00Z","name_a2s":"Uncletopia | Frankfurt | 5 | All Maps","protocol":17,"map":"plr_hightower","folder":"tf","game":"Team Fortress","app_id":440,"player_count":0,"max_players":24,"Bots":0,"server_type":"Dedicated","server_os":"Linux","password":true,"vac":true,"version":"7723704","steam_id":85568392924504277,"keywords":["nocrits","nodmgspread","payload","uncletopia"],"game_id":440,"stv_port":27056,"stv_name":"Uncletopia | Frankfurt | 5 | All Maps | STV","players":null},{"server_id":311,"name":"Uncletopia | Frankfurt | 6 | All Maps","name_short":"frk-6","host":"frk-1.de.uncletopia.com","port":27065,"enabled":true,"region":"eu","cc":"de","latitude":50.110924,"longitude":8.682127,"reserved":0,"last_update":"0001-01-01T00:00:00Z","name_a2s":"Uncletopia | Frankfurt | 6 | All Maps","protocol":17,"map":"pl_frontier_final","folder":"tf","game":"Team Fortress","app_id":440,"player_count":0,"max_players":24,"Bots":0,"server_type":"Dedicated","server_os":"Linux","password":true,"vac":true,"version":"7723704","steam_id":85568392924504278,"keywords":["nocrits","nodmgspread","payload","uncletopia"],"game_id":440,"stv_port":27066,"stv_name":"Uncletopia | Frankfurt | 6 | All Maps | STV","players":null},{"server_id":23,"name":"Uncletopia | Frankfurt | 7 | No Payload","name_short":"frk-7","host":"frk-1.de.uncletopia.com","port":27075,"enabled":true,"region":"eu","cc":"de","latitude":50.110924,"longitude":8.682127,"reserved":0,"last_update":"0001-01-01T00:00:00Z","name_a2s":"Uncletopia | Frankfurt | 7 | No Payload","protocol":17,"map":"cp_mountainlab","folder":"tf","game":"Team Fortress","app_id":440,"player_count":0,"max_players":24,"Bots":0,"server_type":"Dedicated","server_os":"Linux","password":true,"vac":true,"version":"7723704","steam_id":85568392924742827,"keywords":["cp","nocrits","nodmgspread","uncletopia"],"game_id":440,"stv_port":27076,"stv_name":"Uncletopia | Frankfurt | 7 | No Payload | STV","players":null},{"server_id":24,"name":"Uncletopia | Frankfurt | 8 | Community","name_short":"frk-8","host":"frk-1.de.uncletopia.com","port":27085,"enabled":true,"region":"eu","cc":"de","latitude":50.110924,"longitude":8.682127,"reserved":0,"last_update":"0001-01-01T00:00:00Z","name_a2s":"Uncletopia | Frankfurt | 8 | Community","protocol":17,"map":"workshop/cp_sulfur_rc2.ugc619869471","folder":"tf","game":"Team Fortress","app_id":440,"player_count":0,"max_players":24,"Bots":0,"server_type":"Dedicated","server_os":"Linux","password":true,"vac":true,"version":"7723704","steam_id":85568392924742828,"keywords":["cp","nocrits","nodmgspread","uncletopia"],"game_id":440,"stv_port":27086,"stv_name":"Uncletopia | Frankfurt | 8 | Community | STV","players":null},{"server_id":202,"name":"Uncletopia | Hong Kong | 1 | All Maps","name_short":"hgk-1","host":"hgk-1.hk.uncletopia.com","port":27015,"enabled":true,"region":"asia","cc":"hk","latitude":22.302711,"longitude":114.177216,"reserved":0,"last_update":"0001-01-01T00:00:00Z","name_a2s":"Uncletopia | Hong Kong | 1 | All Maps","protocol":17,"map":"koth_viaduct","folder":"tf","game":"Team Fortress","app_id":440,"player_count":0,"max_players":24,"Bots":0,"server_type":"Dedicated","server_os":"Linux","password":true,"vac":true,"version":"7723704","steam_id":85568392924494504,"keywords":["cp","nocrits","nodmgspread","uncletopia"],"game_id":440,"stv_port":27016,"stv_name":"Uncletopia | Hong Kong | 1 | All Maps | STV","players":null},{"server_id":1,"name":"Uncletopia | Los Angeles | 1 | All Maps","name_short":"lax-1","host":"lax-1.us.uncletopia.com","port":27015,"enabled":true,"region":"us-west","cc":"us","latitude":33.94279,"longitude":-118.41004,"reserved":0,"last_update":"0001-01-01T00:00:00Z","name_a2s":"Uncletopia | Los Angeles | 1 | All Maps","protocol":17,"map":"pl_frontier_final","folder":"tf","game":"Team Fortress","app_id":440,"player_count":2,"max_players":24,"Bots":0,"server_type":"Dedicated","server_os":"Linux","password":true,"vac":true,"version":"7723704","steam_id":85568392924469991,"keywords":["nocrits","nodmgspread","payload","uncletopia"],"game_id":440,"stv_port":27016,"stv_name":"Uncletopia | Los Angeles | 1 | All Maps | STV","players":[{"user_id":40,"name":"Almania","steam_id":76561199181963791,"connected_time":753000000000,"state":"active","ping":58},{"user_id":41,"name":"RealNames10","steam_id":76561199077171781,"connected_time":630000000000,"state":"active","ping":42}]},{"server_id":112,"name":"Uncletopia | Los Angeles | 2 | All Maps","name_short":"lax-2","host":"lax-1.us.uncletopia.com","port":27025,"enabled":true,"region":"us-west","cc":"us","latitude":33.94279,"longitude":-118.41004,"reserved":0,"last_update":"0001-01-01T00:00:00Z","name_a2s":"Uncletopia | Los Angeles | 2 | All Maps","protocol":17,"map":"cp_sunshine","folder":"tf","game":"Team Fortress","app_id":440,"player_count":7,"max_players":24,"Bots":0,"server_type":"Dedicated","server_os":"Linux","password":true,"vac":true,"version":"7723704","steam_id":85568392924469992,"keywords":["cp","nocrits","nodmgspread","uncletopia"],"game_id":440,"stv_port":27026,"stv_name":"Uncletopia | Los Angeles | 2 | All Maps | STV","players":[{"user_id":7,"name":"Walter White","steam_id":76561199088715889,"connected_time":973000000000,"state":"active","ping":81},{"user_id":8,"name":"ramato#SaveTf2","steam_id":76561198028703754,"connected_time":920000000000,"state":"active","ping":89},{"user_id":9,"name":"filthycasual","steam_id":76561199138226238,"connected_time":748000000000,"state":"active","ping":74},{"user_id":10,"name":"bookreader","steam_id":76561198978568007,"connected_time":524000000000,"state":"active","ping":95},{"user_id":11,"name":"Iconic","steam_id":76561199030376115,"connected_time":461000000000,"state":"active","ping":229},{"user_id":12,"name":"Timebomb2134","steam_id":76561199065629825,"connected_time":455000000000,"state":"active","ping":58},{"user_id":13,"name":"CrackedSanity","steam_id":76561198279841251,"connected_time":153000000000,"state":"active","ping":47}]},{"server_id":324,"name":"Uncletopia | Los Angeles | 3 | All Maps","name_short":"lax-3","host":"lax-1.us.uncletopia.com","port":27035,"enabled":true,"region":"us-west","cc":"us","latitude":33.94279,"longitude":-118.41004,"reserved":0,"last_update":"0001-01-01T00:00:00Z","name_a2s":"Uncletopia | Los Angeles | 3 | All Maps","protocol":17,"map":"cp_sunshine","folder":"tf","game":"Team Fortress","app_id":440,"player_count":24,"max_players":24,"Bots":0,"server_type":"Dedicated","server_os":"Linux","password":true,"vac":true,"version":"7723704","steam_id":85568392924510198,"keywords":["cp","nocrits","nodmgspread","uncletopia"],"game_id":440,"stv_port":27036,"stv_name":"Uncletopia | Los Angeles | 3 | All Maps | STV","players":[{"user_id":44,"name":"CSharp","steam_id":76561199185191710,"connected_time":2800000000000,"state":"active","ping":102},{"user_id":71,"name":"Dingoid","steam_id":76561198065665995,"connected_time":1127000000000,"state":"active","ping":84},{"user_id":84,"name":"mañ","steam_id":76561199179477466,"connected_time":777000000000,"state":"active","ping":47},{"user_id":77,"name":"-2 for our insulin","steam_id":76561199006886644,"connected_time":924000000000,"state":"active","ping":75},{"user_id":58,"name":"Chef","steam_id":76561198037041957,"connected_time":1455000000000,"state":"active","ping":47},{"user_id":88,"name":"Root","steam_id":76561198922763623,"connected_time":315000000000,"state":"active","ping":51},{"user_id":61,"name":"Octobella Enthusiast","steam_id":76561198199266047,"connected_time":1385000000000,"state":"active","ping":93},{"user_id":90,"name":"Life is Pain I Hate","steam_id":76561198184565718,"connected_time":173000000000,"state":"active","ping":79},{"user_id":56,"name":"Tmiracle","steam_id":76561198052375275,"connected_time":2030000000000,"state":"active","ping":40},{"user_id":64,"name":"CaptainShrimp","steam_id":76561198838116818,"connected_time":1320000000000,"state":"active","ping":105},{"user_id":37,"name":"ReformedOrthodoxRabbiBillClinto","steam_id":76561198401455467,"connected_time":3252000000000,"state":"active","ping":61},{"user_id":46,"name":"Kav","steam_id":76561198331562055,"connected_time":2665000000000,"state":"active","ping":123},{"user_id":78,"name":"K2f","steam_id":76561198049600563,"connected_time":870000000000,"state":"active","ping":54},{"user_id":85,"name":"Napoleon Bird","steam_id":76561198208813855,"connected_time":681000000000,"state":"active","ping":121},{"user_id":67,"name":"IntoTheIndie","steam_id":76561199042274078,"connected_time":1240000000000,"state":"active","ping":116},{"user_id":86,"name":"jungus","steam_id":76561198129862008,"connected_time":635000000000,"state":"active","ping":49},{"user_id":28,"name":"timmybiscuit","steam_id":76561199232877274,"connected_time":3498000000000,"state":"active","ping":108},{"user_id":75,"name":"Just-Some-Menace","steam_id":76561198152324397,"connected_time":1057000000000,"state":"active","ping":143},{"user_id":79,"name":"D-BOI The Scientist","steam_id":76561198875402129,"connected_time":849000000000,"state":"active","ping":60},{"user_id":89,"name":"river","steam_id":76561198043828927,"connected_time":269000000000,"state":"active","ping":106},{"user_id":73,"name":"stitchu27","steam_id":76561199087081376,"connected_time":1094000000000,"state":"active","ping":119},{"user_id":34,"name":"walrooos ✿","steam_id":76561198024521839,"connected_time":3439000000000,"state":"active","ping":54},{"user_id":92,"name":"June","steam_id":76561198141803658,"connected_time":2000000000,"state":"spawning","ping":40},{"user_id":81,"name":"Huntpk","steam_id":76561198340591674,"connected_time":823000000000,"state":"active","ping":97}]},{"server_id":25,"name":"Uncletopia | Los Angeles | 4 | No Payload","name_short":"lax-4","host":"lax-1.us.uncletopia.com","port":27045,"enabled":true,"region":"us-west","cc":"us","latitude":33.94279,"longitude":-118.41004,"reserved":0,"last_update":"0001-01-01T00:00:00Z","name_a2s":"Uncletopia | Los Angeles | 4 | No Payload","protocol":17,"map":"cp_mountainlab","folder":"tf","game":"Team Fortress","app_id":440,"player_count":0,"max_players":24,"Bots":0,"server_type":"Dedicated","server_os":"Linux","password":true,"vac":true,"version":"7723704","steam_id":85568392924510199,"keywords":["cp","nocrits","nodmgspread","uncletopia"],"game_id":440,"stv_port":27046,"stv_name":"Uncletopia | Los Angeles | 4 | No Payload | STV","players":null},{"server_id":11,"name":"Uncletopia | London | 1 | All Maps","name_short":"lon-1","host":"lon-1.uk.uncletopia.com","port":27015,"enabled":true,"region":"eu","cc":"gb","latitude":51.509865,"longitude":-0.118092,"reserved":0,"last_update":"0001-01-01T00:00:00Z","name_a2s":"Uncletopia | London | 1 | All Maps","protocol":17,"map":"koth_lakeside_final","folder":"tf","game":"Team Fortress","app_id":440,"player_count":7,"max_players":24,"Bots":0,"server_type":"Dedicated","server_os":"Linux","password":true,"vac":true,"version":"7723704","steam_id":85568392924367362,"keywords":["cp","nocrits","nodmgspread","uncletopia"],"game_id":440,"stv_port":27016,"stv_name":"Uncletopia | London | 1 | All Maps | STV","players":[{"user_id":602,"name":"tobiisweak","steam_id":76561199433982589,"connected_time":181000000000,"state":"active","ping":50},{"user_id":605,"name":"banzai","steam_id":76561198169318384,"connected_time":21000000000,"state":"spawning","ping":54},{"user_id":603,"name":"heavy sings (real)","steam_id":76561199023804405,"connected_time":169000000000,"state":"active","ping":63},{"user_id":604,"name":"Cutcleaner","steam_id":76561199000925667,"connected_time":164000000000,"state":"active","ping":114},{"user_id":606,"name":"MagusCubed","steam_id":76561198083973944,"connected_time":16000000000,"state":"active","ping":38},{"user_id":560,"name":"Steen","steam_id":76561198122992510,"connected_time":4636000000000,"state":"active","ping":42},{"user_id":593,"name":"murderfucker","steam_id":76561198038753296,"connected_time":1374000000000,"state":"active","ping":75}]},{"server_id":114,"name":"Uncletopia | London | 2 | All Maps","name_short":"lon-2","host":"lon-1.uk.uncletopia.com","port":27025,"enabled":true,"region":"eu","cc":"gb","latitude":51.509865,"longitude":-0.118092,"reserved":0,"last_update":"0001-01-01T00:00:00Z","name_a2s":"Uncletopia | London | 2 | All Maps","protocol":17,"map":"pl_snowycoast","folder":"tf","game":"Team Fortress","app_id":440,"player_count":24,"max_players":24,"Bots":0,"server_type":"Dedicated","server_os":"Linux","password":true,"vac":true,"version":"7723704","steam_id":85568392924470941,"keywords":["nocrits","nodmgspread","payload","uncletopia"],"game_id":440,"stv_port":27026,"stv_name":"Uncletopia | London | 2 | All Maps | STV","players":[{"user_id":298,"name":"Gety0","steam_id":76561198044387185,"connected_time":2413000000000,"state":"active","ping":80},{"user_id":327,"name":"engie?","steam_id":76561198331852832,"connected_time":321000000000,"state":"active","ping":67},{"user_id":330,"name":"mercedes ben","steam_id":76561198000147423,"connected_time":173000000000,"state":"active","ping":41},{"user_id":286,"name":"nox","steam_id":76561198287360892,"connected_time":3386000000000,"state":"active","ping":71},{"user_id":331,"name":"internet gnome","steam_id":76561198035392601,"connected_time":156000000000,"state":"active","ping":76},{"user_id":307,"name":"random_player691","steam_id":76561199209946306,"connected_time":1811000000000,"state":"active","ping":52},{"user_id":328,"name":"D'JoeLaDeprime","steam_id":76561198375894043,"connected_time":211000000000,"state":"active","ping":63},{"user_id":324,"name":"Toaster1337","steam_id":76561198103706881,"connected_time":651000000000,"state":"active","ping":62},{"user_id":310,"name":"Seail_M","steam_id":76561198002405605,"connected_time":1657000000000,"state":"active","ping":61},{"user_id":332,"name":"business man","steam_id":76561198048250715,"connected_time":155000000000,"state":"active","ping":61},{"user_id":323,"name":"saus","steam_id":76561198114729364,"connected_time":768000000000,"state":"active","ping":60},{"user_id":294,"name":"Weeb","steam_id":76561198297928869,"connected_time":2726000000000,"state":"active","ping":43},{"user_id":313,"name":"yee","steam_id":76561199232322781,"connected_time":1417000000000,"state":"active","ping":63},{"user_id":246,"name":"Samus","steam_id":76561198045943019,"connected_time":5785000000000,"state":"active","ping":57},{"user_id":304,"name":"Arscin","steam_id":76561198262193529,"connected_time":2196000000000,"state":"active","ping":48},{"user_id":329,"name":"CreakyOhio","steam_id":76561198052555711,"connected_time":201000000000,"state":"active","ping":139},{"user_id":326,"name":"Uncle Lame","steam_id":76561198089003514,"connected_time":549000000000,"state":"active","ping":59},{"user_id":237,"name":"waffle toaster","steam_id":76561198799089628,"connected_time":6113000000000,"state":"active","ping":37},{"user_id":333,"name":"stankboxers #savetf2","steam_id":76561198058609582,"connected_time":146000000000,"state":"active","ping":122},{"user_id":247,"name":"TurboTabs","steam_id":76561198009785131,"connected_time":5774000000000,"state":"active","ping":56},{"user_id":145,"name":"zero","steam_id":76561198055365234,"connected_time":12446000000000,"state":"active","ping":80},{"user_id":334,"name":"Werty Loler","steam_id":76561198079838256,"connected_time":144000000000,"state":"active","ping":106},{"user_id":336,"name":"chrissymas","steam_id":76561198096547662,"connected_time":81000000000,"state":"active","ping":50},{"user_id":325,"name":"vuggie","steam_id":76561198042227249,"connected_time":619000000000,"state":"active","ping":44}]},{"server_id":320,"name":"Uncletopia | London | 3 | All Maps","name_short":"lon-3","host":"lon-1.uk.uncletopia.com","port":27035,"enabled":true,"region":"eu","cc":"gb","latitude":51.509865,"longitude":-0.118092,"reserved":0,"last_update":"0001-01-01T00:00:00Z","name_a2s":"Uncletopia | London | 3 | All Maps","protocol":17,"map":"cp_dustbowl","folder":"tf","game":"Team Fortress","app_id":440,"player_count":0,"max_players":24,"Bots":0,"server_type":"Dedicated","server_os":"Linux","password":true,"vac":true,"version":"7723704","steam_id":85568392924510192,"keywords":["cp","nocrits","nodmgspread","uncletopia"],"game_id":440,"stv_port":27036,"stv_name":"Uncletopia | London | 3 | All Maps | STV","players":null},{"server_id":321,"name":"Uncletopia | London | 4 | All Maps","name_short":"lon-4","host":"lon-1.uk.uncletopia.com","port":27045,"enabled":true,"region":"eu","cc":"gb","latitude":51.509865,"longitude":-0.118092,"reserved":0,"last_update":"0001-01-01T00:00:00Z","name_a2s":"Uncletopia | London | 4 | All Maps","protocol":17,"map":"koth_cascade","folder":"tf","game":"Team Fortress","app_id":440,"player_count":0,"max_players":24,"Bots":0,"server_type":"Dedicated","server_os":"Linux","password":true,"vac":true,"version":"7723704","steam_id":85568392924510193,"keywords":["cp","nocrits","nodmgspread","uncletopia"],"game_id":440,"stv_port":27046,"stv_name":"Uncletopia | London | 4 | All Maps | STV","players":null},{"server_id":21,"name":"Uncletopia | London | 5 | All Maps","name_short":"lon-5","host":"lon-1.uk.uncletopia.com","port":27055,"enabled":true,"region":"eu","cc":"gb","latitude":51.509865,"longitude":-0.118092,"reserved":0,"last_update":"0001-01-01T00:00:00Z","name_a2s":"Uncletopia | London | 5 | All Maps","protocol":17,"map":"koth_lakeside_final","folder":"tf","game":"Team Fortress","app_id":440,"player_count":0,"max_players":24,"Bots":0,"server_type":"Dedicated","server_os":"Linux","password":true,"vac":true,"version":"7723704","steam_id":85568392924742829,"keywords":["cp","nocrits","nodmgspread","uncletopia"],"game_id":440,"stv_port":27056,"stv_name":"Uncletopia | London | 5 | All Maps | STV","players":null},{"server_id":22,"name":"Uncletopia | London | 6 | All Maps","name_short":"lon-6","host":"lon-1.uk.uncletopia.com","port":27065,"enabled":true,"region":"eu","cc":"gb","latitude":51.509865,"longitude":-0.118092,"reserved":0,"last_update":"0001-01-01T00:00:00Z","name_a2s":"Uncletopia | London | 6 | All Maps","protocol":17,"map":"cp_dustbowl","folder":"tf","game":"Team Fortress","app_id":440,"player_count":0,"max_players":24,"Bots":0,"server_type":"Dedicated","server_os":"Linux","password":true,"vac":true,"version":"7723704","steam_id":85568392924742830,"keywords":["cp","nocrits","nodmgspread","uncletopia"],"game_id":440,"stv_port":27066,"stv_name":"Uncletopia | London | 6 | All Maps | STV","players":null},{"server_id":40,"name":"Uncletopia | London | 7 | No Payload","name_short":"lon-7","host":"lon-1.uk.uncletopia.com","port":27075,"enabled":true,"region":"eu","cc":"gb","latitude":51.509865,"longitude":-0.118092,"reserved":0,"last_update":"0001-01-01T00:00:00Z","name_a2s":"Uncletopia | London | 7 | No Payload","protocol":17,"map":"koth_cascade","folder":"tf","game":"Team Fortress","app_id":440,"player_count":0,"max_players":24,"Bots":0,"server_type":"Dedicated","server_os":"Linux","password":true,"vac":true,"version":"7723704","steam_id":85568392924964314,"keywords":["cp","nocrits","nodmgspread","uncletopia"],"game_id":440,"stv_port":27076,"stv_name":"Uncletopia | London | 7 | No Payload | STV","players":null},{"server_id":41,"name":"Uncletopia | London | 8 | Community","name_short":"lon-8","host":"lon-1.uk.uncletopia.com","port":27085,"enabled":true,"region":"eu","cc":"gb","latitude":51.509865,"longitude":-0.118092,"reserved":0,"last_update":"0001-01-01T00:00:00Z","name_a2s":"Uncletopia | London | 8 | Community","protocol":17,"map":"workshop/koth_ramjam_v2_b2.ugc2865676487","folder":"tf","game":"Team Fortress","app_id":440,"player_count":0,"max_players":24,"Bots":0,"server_type":"Dedicated","server_os":"Linux","password":true,"vac":true,"version":"7723704","steam_id":85568392924964315,"keywords":["cp","nocrits","nodmgspread","uncletopia"],"game_id":440,"stv_port":27086,"stv_name":"Uncletopia | London | 8 | Community | STV","players":null},{"server_id":300,"name":"Uncletopia | Montréal | 1 | All Maps","name_short":"mtl-1","host":"mtl-1.ca.uncletopia.com","port":27015,"enabled":true,"region":"us-east","cc":"ca","latitude":45.50889,"longitude":-73.56167,"reserved":0,"last_update":"0001-01-01T00:00:00Z","name_a2s":"Uncletopia | Montréal | 1 | All Maps","protocol":17,"map":"cp_snakewater_final1","folder":"tf","game":"Team Fortress","app_id":440,"player_count":0,"max_players":24,"Bots":0,"server_type":"Dedicated","server_os":"Linux","password":true,"vac":true,"version":"7723704","steam_id":85568392924500087,"keywords":["cp","nocrits","nodmgspread","uncletopia"],"game_id":440,"stv_port":27016,"stv_name":"Uncletopia | Montréal | 1 | All Maps | STV","players":null},{"server_id":301,"name":"Uncletopia | Montréal | 2 | All Maps","name_short":"mtl-2","host":"mtl-1.ca.uncletopia.com","port":27025,"enabled":true,"region":"us-east","cc":"ca","latitude":45.50889,"longitude":-73.56167,"reserved":0,"last_update":"0001-01-01T00:00:00Z","name_a2s":"Uncletopia | Montréal | 2 | All Maps","protocol":17,"map":"cp_sunshine","folder":"tf","game":"Team Fortress","app_id":440,"player_count":0,"max_players":24,"Bots":0,"server_type":"Dedicated","server_os":"Linux","password":true,"vac":true,"version":"7723704","steam_id":85568392924500088,"keywords":["cp","nocrits","nodmgspread","uncletopia"],"game_id":440,"stv_port":27026,"stv_name":"Uncletopia | Montréal | 2 | All Maps | STV","players":null},{"server_id":302,"name":"Uncletopia | Montréal | 3 | All Maps","name_short":"mtl-3","host":"mtl-1.ca.uncletopia.com","port":27035,"enabled":true,"region":"us-east","cc":"ca","latitude":45.50889,"longitude":-73.56167,"reserved":0,"last_update":"0001-01-01T00:00:00Z","name_a2s":"Uncletopia | Montréal | 3 | All Maps","protocol":17,"map":"cp_dustbowl","folder":"tf","game":"Team Fortress","app_id":440,"player_count":0,"max_players":24,"Bots":0,"server_type":"Dedicated","server_os":"Linux","password":true,"vac":true,"version":"7723704","steam_id":85568392924500089,"keywords":["cp","nocrits","nodmgspread","uncletopia"],"game_id":440,"stv_port":27036,"stv_name":"Uncletopia | Montréal | 3 | All Maps | STV","players":null},{"server_id":303,"name":"Uncletopia | Montréal | 4 | No Payload","name_short":"mtl-4","host":"mtl-1.ca.uncletopia.com","port":27045,"enabled":true,"region":"us-east","cc":"ca","latitude":45.50889,"longitude":-73.56167,"reserved":0,"last_update":"0001-01-01T00:00:00Z","name_a2s":"Uncletopia | Montréal | 4 | No Payload","protocol":17,"map":"koth_nucleus","folder":"tf","game":"Team Fortress","app_id":440,"player_count":0,"max_players":24,"Bots":0,"server_type":"Dedicated","server_os":"Linux","password":true,"vac":true,"version":"7723704","steam_id":85568392924500090,"keywords":["cp","nocrits","nodmgspread","uncletopia"],"game_id":440,"stv_port":27046,"stv_name":"Uncletopia | Montréal | 4 | No Payload | STV","players":null},{"server_id":13,"name":"Uncletopia | New York City | 1 | All Maps","name_short":"nyc-1","host":"nyc-1.us.uncletopia.com","port":27015,"enabled":true,"region":"us-east","cc":"us","latitude":40.73061,"longitude":-73.93524,"reserved":0,"last_update":"0001-01-01T00:00:00Z","name_a2s":"Uncletopia | New York City | 1 | All Maps","protocol":17,"map":"pl_pier","folder":"tf","game":"Team Fortress","app_id":440,"player_count":24,"max_players":24,"Bots":0,"server_type":"Dedicated","server_os":"Linux","password":true,"vac":true,"version":"7723704","steam_id":85568392924469993,"keywords":["nocrits","nodmgspread","payload","uncletopia"],"game_id":440,"stv_port":27016,"stv_name":"Uncletopia | New York City | 1 | All Maps | STV","players":[{"user_id":457,"name":"Friendship was Magic","steam_id":76561199030797149,"connected_time":2974000000000,"state":"active","ping":83},{"user_id":488,"name":"kairOs.fk","steam_id":76561197972421260,"connected_time":800000000000,"state":"active","ping":46},{"user_id":412,"name":"Ether","steam_id":76561198054806528,"connected_time":4683000000000,"state":"active","ping":50},{"user_id":461,"name":"Pickleologest 2.0","steam_id":76561198125108090,"connected_time":2579000000000,"state":"active","ping":90},{"user_id":491,"name":"McMahonism","steam_id":76561198066138208,"connected_time":566000000000,"state":"active","ping":45},{"user_id":495,"name":"christmas","steam_id":76561198042320010,"connected_time":156000000000,"state":"active","ping":72},{"user_id":377,"name":"Crimmas","steam_id":76561198129326627,"connected_time":7024000000000,"state":"active","ping":65},{"user_id":494,"name":"ö¿rö  ù π (NGï○á x 21","steam_id":76561198069589278,"connected_time":169000000000,"state":"active","ping":105},{"user_id":492,"name":"Rex","steam_id":76561198138365053,"connected_time":455000000000,"state":"active","ping":124},{"user_id":433,"name":"BeerPowder","steam_id":76561198058129400,"connected_time":4080000000000,"state":"active","ping":47},{"user_id":472,"name":"he suckin on my rick til i mort","steam_id":76561198310711692,"connected_time":1612000000000,"state":"active","ping":168},{"user_id":468,"name":"gametard","steam_id":76561198152581241,"connected_time":1768000000000,"state":"active","ping":46},{"user_id":489,"name":"Pomegranate88","steam_id":76561198056385456,"connected_time":786000000000,"state":"active","ping":57},{"user_id":483,"name":"Nosferatu","steam_id":76561198048205270,"connected_time":984000000000,"state":"active","ping":64},{"user_id":476,"name":"Fabmilan","steam_id":76561198054487300,"connected_time":1302000000000,"state":"active","ping":174},{"user_id":448,"name":"Mastervandeisel","steam_id":76561198906089530,"connected_time":3354000000000,"state":"active","ping":97},{"user_id":479,"name":"thundermuffin","steam_id":76561198067770965,"connected_time":1230000000000,"state":"active","ping":60},{"user_id":481,"name":"RICE A RONI JABRONI","steam_id":76561198251653444,"connected_time":1198000000000,"state":"active","ping":60},{"user_id":496,"name":"swan","steam_id":76561198012569200,"connected_time":43000000000,"state":"active","ping":54},{"user_id":475,"name":"Cheshireycat","steam_id":76561198067204908,"connected_time":1392000000000,"state":"active","ping":120},{"user_id":427,"name":"really hot pocket","steam_id":76561198239297686,"connected_time":4199000000000,"state":"active","ping":76},{"user_id":406,"name":"shadysessions","steam_id":76561198032464781,"connected_time":5296000000000,"state":"active","ping":63},{"user_id":485,"name":"Gustavo Fring","steam_id":76561198132807405,"connected_time":818000000000,"state":"active","ping":91},{"user_id":478,"name":"Fish Fisherman","steam_id":76561198018656022,"connected_time":1280000000000,"state":"active","ping":50}]},{"server_id":14,"name":"Uncletopia | New York City | 2 | All Maps","name_short":"nyc-2","host":"nyc-1.us.uncletopia.com","port":27025,"enabled":true,"region":"us-east","cc":"us","latitude":40.73061,"longitude":-73.93524,"reserved":0,"last_update":"0001-01-01T00:00:00Z","name_a2s":"Uncletopia | New York City | 2 | All Maps","protocol":17,"map":"plr_hightower","folder":"tf","game":"Team Fortress","app_id":440,"player_count":22,"max_players":24,"Bots":0,"server_type":"Dedicated","server_os":"Linux","password":true,"vac":true,"version":"7723704","steam_id":85568392924469994,"keywords":["nocrits","nodmgspread","payload","uncletopia"],"game_id":440,"stv_port":27026,"stv_name":"Uncletopia | New York City | 2 | All Maps | STV","players":[{"user_id":231,"name":"Hey Kid","steam_id":76561198087089023,"connected_time":731000000000,"state":"active","ping":66},{"user_id":218,"name":"LobsterPot","steam_id":76561198072225973,"connected_time":1235000000000,"state":"active","ping":45},{"user_id":226,"name":"PalChumFriend","steam_id":76561198049550699,"connected_time":815000000000,"state":"active","ping":107},{"user_id":122,"name":"Dispenser fucker","steam_id":76561198400438007,"connected_time":5689000000000,"state":"active","ping":76},{"user_id":220,"name":"PinkLemonade","steam_id":76561198799286228,"connected_time":921000000000,"state":"active","ping":55},{"user_id":238,"name":"Ripley","steam_id":76561198080766916,"connected_time":18000000000,"state":"spawning","ping":113},{"user_id":221,"name":"Spirit","steam_id":76561199069322627,"connected_time":874000000000,"state":"active","ping":54},{"user_id":217,"name":"jenny ☆","steam_id":76561198190106735,"connected_time":1281000000000,"state":"active","ping":57},{"user_id":199,"name":"quincydabest1","steam_id":76561199274999129,"connected_time":1925000000000,"state":"active","ping":77},{"user_id":219,"name":"SuperPengas","steam_id":76561198271958398,"connected_time":1137000000000,"state":"active","ping":61},{"user_id":155,"name":"JoCaleb02","steam_id":76561198272389829,"connected_time":4440000000000,"state":"active","ping":61},{"user_id":222,"name":"carrion goat","steam_id":76561198262064871,"connected_time":859000000000,"state":"active","ping":45},{"user_id":213,"name":"Hightower Takes Skill","steam_id":76561198241106268,"connected_time":1416000000000,"state":"active","ping":93},{"user_id":234,"name":"costco food court","steam_id":76561198971838406,"connected_time":513000000000,"state":"active","ping":78},{"user_id":209,"name":"Dispenser (Level 3)","steam_id":76561198316927664,"connected_time":1691000000000,"state":"active","ping":57},{"user_id":236,"name":"sentry turret","steam_id":76561198327057433,"connected_time":67000000000,"state":"active","ping":84},{"user_id":225,"name":"Xavibite","steam_id":76561198209380493,"connected_time":819000000000,"state":"active","ping":43},{"user_id":227,"name":"Ashley?!","steam_id":76561198056152479,"connected_time":808000000000,"state":"active","ping":111},{"user_id":160,"name":"Essentially_Someone","steam_id":76561199435588199,"connected_time":4254000000000,"state":"active","ping":85},{"user_id":228,"name":"hippo mode","steam_id":76561198073455521,"connected_time":803000000000,"state":"active","ping":44},{"user_id":235,"name":"Admiral Angry","steam_id":76561198058199206,"connected_time":92000000000,"state":"active","ping":70},{"user_id":233,"name":"Glitchy stick","steam_id":76561199013429386,"connected_time":561000000000,"state":"active","ping":56}]},{"server_id":15,"name":"Uncletopia | New York City | 3 | All Maps","name_short":"nyc-3","host":"nyc-1.us.uncletopia.com","port":27035,"enabled":true,"region":"us-east","cc":"us","latitude":40.73061,"longitude":-73.93524,"reserved":0,"last_update":"0001-01-01T00:00:00Z","name_a2s":"Uncletopia | New York City | 3 | All Maps","protocol":17,"map":"pl_borneo","folder":"tf","game":"Team Fortress","app_id":440,"player_count":0,"max_players":24,"Bots":0,"server_type":"Dedicated","server_os":"Linux","password":true,"vac":true,"version":"7723704","steam_id":85568392924742820,"keywords":["nocrits","nodmgspread","payload","uncletopia"],"game_id":440,"stv_port":27036,"stv_name":"Uncletopia | New York City | 3 | All Maps | STV","players":null},{"server_id":16,"name":"Uncletopia | New York City | 4 | Community","name_short":"nyc-4","host":"nyc-1.us.uncletopia.com","port":27045,"enabled":true,"region":"us-east","cc":"us","latitude":40.73061,"longitude":-73.93524,"reserved":0,"last_update":"0001-01-01T00:00:00Z","name_a2s":"Uncletopia | New York City | 4 | Community","protocol":17,"map":"workshop/koth_product_final.ugc454272353","folder":"tf","game":"Team Fortress","app_id":440,"player_count":0,"max_players":24,"Bots":0,"server_type":"Dedicated","server_os":"Linux","password":true,"vac":true,"version":"7723704","steam_id":85568392924742821,"keywords":["cp","nocrits","nodmgspread","uncletopia"],"game_id":440,"stv_port":27046,"stv_name":"Uncletopia | New York City | 4 | Community | STV","players":null},{"server_id":142,"name":"Uncletopia | São Paulo | 1 | All Maps","name_short":"sao-1","host":"sao-1.br.uncletopia.com","port":27015,"enabled":true,"region":"sa","cc":"br","latitude":-23.533773,"longitude":-46.62529,"reserved":0,"last_update":"0001-01-01T00:00:00Z","name_a2s":"Uncletopia | São Paulo | 1 | All Maps","protocol":17,"map":"pl_badwater","folder":"tf","game":"Team Fortress","app_id":440,"player_count":24,"max_players":24,"Bots":0,"server_type":"Dedicated","server_os":"Linux","password":true,"vac":true,"version":"7723704","steam_id":85568392924469996,"keywords":["nocrits","nodmgspread","payload","uncletopia"],"game_id":440,"stv_port":27016,"stv_name":"Uncletopia | São Paulo | 1 | All Maps | STV","players":[{"user_id":183,"name":"Pathetic","steam_id":76561198051056987,"connected_time":7684000000000,"state":"active","ping":60},{"user_id":252,"name":"AliCeline","steam_id":76561198207017241,"connected_time":2388000000000,"state":"active","ping":52},{"user_id":41,"name":"Zoom!","steam_id":76561198289562649,"connected_time":17449000000000,"state":"active","ping":46},{"user_id":285,"name":"21st zHeixer @redragon","steam_id":76561198148340376,"connected_time":137000000000,"state":"active","ping":79},{"user_id":274,"name":"RHD BRAZIL [\u003c O \u003e]","steam_id":76561198028190080,"connected_time":690000000000,"state":"active","ping":46},{"user_id":269,"name":"Cara da Old Spice(Old Spice Guy","steam_id":76561198081925177,"connected_time":1037000000000,"state":"active","ping":60},{"user_id":261,"name":"C.","steam_id":76561198067026112,"connected_time":1667000000000,"state":"active","ping":46},{"user_id":262,"name":"[LOBACZAO] detona","steam_id":76561198075848473,"connected_time":1644000000000,"state":"active","ping":47},{"user_id":240,"name":"Julio Cesar","steam_id":76561199416294827,"connected_time":3156000000000,"state":"active","ping":99},{"user_id":223,"name":"$r. Hello There #savetf2","steam_id":76561198874231807,"connected_time":4331000000000,"state":"active","ping":44},{"user_id":272,"name":"Nikodemos0612","steam_id":76561198802374777,"connected_time":774000000000,"state":"active","ping":57},{"user_id":283,"name":"Cley the Engie Main","steam_id":76561198142839368,"connected_time":217000000000,"state":"active","ping":58},{"user_id":273,"name":"searom.meem","steam_id":76561198846631082,"connected_time":741000000000,"state":"active","ping":55},{"user_id":281,"name":"---------------------------jao","steam_id":76561198408082822,"connected_time":230000000000,"state":"active","ping":46},{"user_id":282,"name":"809","steam_id":76561198050492596,"connected_time":225000000000,"state":"active","ping":121},{"user_id":284,"name":"The Milkman","steam_id":76561198258221214,"connected_time":217000000000,"state":"active","ping":160},{"user_id":260,"name":"newdev01","steam_id":76561198267145145,"connected_time":1829000000000,"state":"active","ping":45},{"user_id":267,"name":"ebd_Failnaught","steam_id":76561198108041555,"connected_time":1348000000000,"state":"active","ping":55},{"user_id":213,"name":"rsk1","steam_id":76561198199413370,"connected_time":5492000000000,"state":"active","ping":60},{"user_id":280,"name":"ayumi","steam_id":76561197977365746,"connected_time":351000000000,"state":"active","ping":52},{"user_id":286,"name":"CreamBananaPiez","steam_id":76561198258249033,"connected_time":120000000000,"state":"active","ping":46},{"user_id":255,"name":"dez anos no xadrez","steam_id":76561198846361407,"connected_time":2260000000000,"state":"active","ping":41},{"user_id":220,"name":"terzo","steam_id":76561198044494120,"connected_time":4404000000000,"state":"active","ping":47},{"user_id":279,"name":"rockbye no meu time😴😴","steam_id":76561198414067922,"connected_time":444000000000,"state":"active","ping":45}]},{"server_id":143,"name":"Uncletopia | São Paulo | 2 | All Maps","name_short":"sao-2","host":"sao-2.br.uncletopia.com","port":27015,"enabled":true,"region":"sa","cc":"br","latitude":-23.533773,"longitude":-46.62529,"reserved":0,"last_update":"0001-01-01T00:00:00Z","name_a2s":"Uncletopia | São Paulo | 2 | All Maps","protocol":17,"map":"cp_process_final","folder":"tf","game":"Team Fortress","app_id":440,"player_count":0,"max_players":24,"Bots":0,"server_type":"Dedicated","server_os":"Linux","password":true,"vac":true,"version":"7723704","steam_id":85568392924485349,"keywords":["cp","nocrits","nodmgspread","uncletopia"],"game_id":440,"stv_port":27016,"stv_name":"Uncletopia | São Paulo | 2 | All Maps | STV","players":null},{"server_id":7,"name":"Uncletopia | Seattle | 1 | All Maps","name_short":"sea-1","host":"sea-1.us.uncletopia.com","port":27015,"enabled":true,"region":"us-west","cc":"us","latitude":47.608013,"longitude":-122.33517,"reserved":0,"last_update":"0001-01-01T00:00:00Z","name_a2s":"Uncletopia | Seattle | 1 | All Maps","protocol":17,"map":"pl_upward","folder":"tf","game":"Team Fortress","app_id":440,"player_count":24,"max_players":24,"Bots":0,"server_type":"Dedicated","server_os":"Linux","password":true,"vac":true,"version":"7723704","steam_id":85568392924469997,"keywords":["nocrits","nodmgspread","payload","uncletopia"],"game_id":440,"stv_port":27016,"stv_name":"Uncletopia | Seattle | 1 | All Maps | STV","players":[{"user_id":219,"name":"THE NUT","steam_id":76561198067813626,"connected_time":1744000000000,"state":"active","ping":48},{"user_id":228,"name":"tconnors1976","steam_id":76561198840033336,"connected_time":1232000000000,"state":"active","ping":59},{"user_id":211,"name":"Ducks","steam_id":76561198130038345,"connected_time":2316000000000,"state":"active","ping":50},{"user_id":244,"name":"Grape Juice","steam_id":76561198380337568,"connected_time":104000000000,"state":"active","ping":109},{"user_id":155,"name":"Thezest","steam_id":76561198043895839,"connected_time":7058000000000,"state":"active","ping":37},{"user_id":159,"name":"Sniff","steam_id":76561198010270922,"connected_time":6659000000000,"state":"active","ping":39},{"user_id":245,"name":"Disco Chewbacca","steam_id":76561198004324301,"connected_time":79000000000,"state":"active","ping":49},{"user_id":170,"name":"gabberGirl99","steam_id":76561198131166135,"connected_time":5658000000000,"state":"active","ping":44},{"user_id":217,"name":"lili.winters","steam_id":76561199391478575,"connected_time":1871000000000,"state":"active","ping":63},{"user_id":218,"name":"Fire_box41238","steam_id":76561199185673650,"connected_time":1762000000000,"state":"active","ping":48},{"user_id":188,"name":"=Silver=","steam_id":76561198292307127,"connected_time":3812000000000,"state":"active","ping":68},{"user_id":189,"name":"Erk-Kirk","steam_id":76561198288954914,"connected_time":3154000000000,"state":"active","ping":91},{"user_id":185,"name":"Soto101","steam_id":76561198141538280,"connected_time":4091000000000,"state":"active","ping":105},{"user_id":210,"name":"MegaBron James","steam_id":76561198066091050,"connected_time":2411000000000,"state":"active","ping":51},{"user_id":231,"name":"Lord GabeN","steam_id":76561198140862723,"connected_time":921000000000,"state":"active","ping":110},{"user_id":229,"name":"Afrosho","steam_id":76561199072657965,"connected_time":1132000000000,"state":"active","ping":55},{"user_id":243,"name":"MCman","steam_id":76561198412110305,"connected_time":158000000000,"state":"active","ping":76},{"user_id":236,"name":"help","steam_id":76561198171840525,"connected_time":684000000000,"state":"active","ping":46},{"user_id":246,"name":"daud","steam_id":76561198172714142,"connected_time":30000000000,"state":"active","ping":87},{"user_id":227,"name":"lol","steam_id":76561198026491738,"connected_time":1397000000000,"state":"active","ping":90},{"user_id":242,"name":"SHADOW WIZARD MONEY GANG","steam_id":76561198169755734,"connected_time":205000000000,"state":"active","ping":70},{"user_id":216,"name":"Pistol Freeman","steam_id":76561198026818915,"connected_time":1902000000000,"state":"active","ping":114},{"user_id":247,"name":"comet","steam_id":76561197988366012,"connected_time":14000000000,"state":"active","ping":89},{"user_id":241,"name":"Slay all day!","steam_id":76561198075582076,"connected_time":235000000000,"state":"active","ping":81}]},{"server_id":119,"name":"Uncletopia | Seattle | 2 | All Maps","name_short":"sea-2","host":"sea-1.us.uncletopia.com","port":27025,"enabled":true,"region":"us-west","cc":"us","latitude":47.608013,"longitude":-122.33517,"reserved":0,"last_update":"0001-01-01T00:00:00Z","name_a2s":"Uncletopia | Seattle | 2 | All Maps","protocol":17,"map":"plr_nightfall_final","folder":"tf","game":"Team Fortress","app_id":440,"player_count":22,"max_players":24,"Bots":0,"server_type":"Dedicated","server_os":"Linux","password":true,"vac":true,"version":"7723704","steam_id":85568392924469998,"keywords":["nocrits","nodmgspread","payload","uncletopia"],"game_id":440,"stv_port":27026,"stv_name":"Uncletopia | Seattle | 2 | All Maps | STV","players":[{"user_id":75,"name":"A UsedNom","steam_id":76561198402832756,"connected_time":2374000000000,"state":"active","ping":46},{"user_id":88,"name":"lamadre07","steam_id":76561198067337453,"connected_time":1405000000000,"state":"active","ping":122},{"user_id":104,"name":"GnafS","steam_id":76561199101583864,"connected_time":289000000000,"state":"active","ping":54},{"user_id":87,"name":"Morse","steam_id":76561198039944542,"connected_time":1516000000000,"state":"active","ping":46},{"user_id":96,"name":"VQ","steam_id":76561199070911342,"connected_time":620000000000,"state":"active","ping":79},{"user_id":23,"name":"Dogg wader","steam_id":76561199090314340,"connected_time":5762000000000,"state":"active","ping":55},{"user_id":105,"name":"SciencySquid","steam_id":76561199061223265,"connected_time":133000000000,"state":"active","ping":84},{"user_id":97,"name":"rainbow dash LFT IM","steam_id":76561198421913648,"connected_time":537000000000,"state":"active","ping":46},{"user_id":78,"name":"krootonitron","steam_id":76561198114113037,"connected_time":2300000000000,"state":"active","ping":54},{"user_id":65,"name":"Rowdy Riot","steam_id":76561198037734418,"connected_time":4043000000000,"state":"active","ping":69},{"user_id":79,"name":"PunishedCrab","steam_id":76561198079650017,"connected_time":2287000000000,"state":"active","ping":84},{"user_id":32,"name":"PROFILE NAME","steam_id":76561199438851854,"connected_time":5100000000000,"state":"active","ping":78},{"user_id":98,"name":"Bluedemons","steam_id":76561199212058684,"connected_time":499000000000,"state":"active","ping":78},{"user_id":101,"name":"dust","steam_id":76561198045218909,"connected_time":437000000000,"state":"active","ping":39},{"user_id":86,"name":"Tom","steam_id":76561198070630154,"connected_time":1680000000000,"state":"active","ping":73},{"user_id":82,"name":"DeckofDragons","steam_id":76561198057398213,"connected_time":2205000000000,"state":"active","ping":76},{"user_id":94,"name":"Rude Dog","steam_id":76561197980385816,"connected_time":843000000000,"state":"active","ping":50},{"user_id":68,"name":"cielael","steam_id":76561198043971956,"connected_time":3973000000000,"state":"active","ping":78},{"user_id":85,"name":"Cat Fanada","steam_id":76561198116765135,"connected_time":1722000000000,"state":"active","ping":44},{"user_id":72,"name":"twitch.tv/HelloAnon_","steam_id":76561198109740776,"connected_time":2754000000000,"state":"active","ping":88},{"user_id":102,"name":"Displaced","steam_id":76561197980647751,"connected_time":331000000000,"state":"active","ping":82},{"user_id":47,"name":"Mcfighter2","steam_id":76561198168073956,"connected_time":4597000000000,"state":"active","ping":140}]},{"server_id":17,"name":"Uncletopia | San Francisco | 1 | All Maps","name_short":"sfo-1","host":"sfo-1.us.uncletopia.com","port":27015,"enabled":true,"region":"us-west","cc":"us","latitude":37.77397,"longitude":-122.4313,"reserved":0,"last_update":"0001-01-01T00:00:00Z","name_a2s":"Uncletopia | San Francisco | 1 | All Maps","protocol":17,"map":"koth_viaduct","folder":"tf","game":"Team Fortress","app_id":440,"player_count":0,"max_players":24,"Bots":0,"server_type":"Dedicated","server_os":"Linux","password":true,"vac":true,"version":"7723704","steam_id":85568392924469999,"keywords":["cp","nocrits","nodmgspread","uncletopia"],"game_id":440,"stv_port":27016,"stv_name":"Uncletopia | San Francisco | 1 | All Maps | STV","players":null},{"server_id":18,"name":"Uncletopia | San Francisco | 2 | All Maps","name_short":"sfo-2","host":"sfo-1.us.uncletopia.com","port":27025,"enabled":true,"region":"us-west","cc":"us","latitude":37.77397,"longitude":-122.4313,"reserved":0,"last_update":"0001-01-01T00:00:00Z","name_a2s":"Uncletopia | San Francisco | 2 | All Maps","protocol":17,"map":"cp_dustbowl","folder":"tf","game":"Team Fortress","app_id":440,"player_count":0,"max_players":24,"Bots":0,"server_type":"Dedicated","server_os":"Linux","password":true,"vac":true,"version":"7723704","steam_id":85568392924470000,"keywords":["cp","nocrits","nodmgspread","uncletopia"],"game_id":440,"stv_port":27026,"stv_name":"Uncletopia | San Francisco | 2 | All Maps | STV","players":null},{"server_id":19,"name":"Uncletopia | San Francisco | 3 | No Payload","name_short":"sfo-3","host":"sfo-1.us.uncletopia.com","port":27035,"enabled":true,"region":"us-west","cc":"us","latitude":37.77397,"longitude":-122.4313,"reserved":0,"last_update":"0001-01-01T00:00:00Z","name_a2s":"Uncletopia | San Francisco | 3 | No Payload","protocol":17,"map":"cp_foundry","folder":"tf","game":"Team Fortress","app_id":440,"player_count":0,"max_players":24,"Bots":0,"server_type":"Dedicated","server_os":"Linux","password":true,"vac":true,"version":"7723704","steam_id":85568392924742824,"keywords":["cp","nocrits","nodmgspread","uncletopia"],"game_id":440,"stv_port":27036,"stv_name":"Uncletopia | San Francisco | 3 | No Payload | STV","players":null},{"server_id":20,"name":"Uncletopia | San Francisco | 4 | Community","name_short":"sfo-4","host":"sfo-1.us.uncletopia.com","port":27045,"enabled":true,"region":"us-west","cc":"us","latitude":37.77397,"longitude":-122.4313,"reserved":0,"last_update":"0001-01-01T00:00:00Z","name_a2s":"Uncletopia | San Francisco | 4 | Community","protocol":17,"map":"workshop/koth_ashville_final.ugc2130459942","folder":"tf","game":"Team Fortress","app_id":440,"player_count":23,"max_players":24,"Bots":0,"server_type":"Dedicated","server_os":"Linux","password":true,"vac":true,"version":"7723704","steam_id":85568392924742826,"keywords":["cp","nocrits","nodmgspread","uncletopia"],"game_id":440,"stv_port":27046,"stv_name":"Uncletopia | San Francisco | 4 | Community | STV","players":[{"user_id":295,"name":"Volkan","steam_id":76561198401314312,"connected_time":1511000000000,"state":"active","ping":63},{"user_id":298,"name":"Zombie812 (MattG formerly)","steam_id":76561198197838571,"connected_time":1180000000000,"state":"active","ping":92},{"user_id":310,"name":"eryn 🗺","steam_id":76561198004433070,"connected_time":367000000000,"state":"active","ping":90},{"user_id":288,"name":"gamer_hater","steam_id":76561198973306314,"connected_time":1868000000000,"state":"active","ping":56},{"user_id":239,"name":"aisu","steam_id":76561198043768507,"connected_time":5360000000000,"state":"active","ping":100},{"user_id":301,"name":"Shark Mechanicus","steam_id":76561198032392438,"connected_time":1074000000000,"state":"active","ping":118},{"user_id":306,"name":"Doom","steam_id":76561199093691968,"connected_time":545000000000,"state":"active","ping":50},{"user_id":300,"name":"Alpharius","steam_id":76561198044479864,"connected_time":1115000000000,"state":"active","ping":105},{"user_id":319,"name":"Silverkeys","steam_id":76561197986012496,"connected_time":28000000000,"state":"spawning","ping":204},{"user_id":308,"name":"Sith of Darkness","steam_id":76561198106636597,"connected_time":462000000000,"state":"active","ping":66},{"user_id":312,"name":"blowdie","steam_id":76561198050000610,"connected_time":284000000000,"state":"active","ping":94},{"user_id":249,"name":"Squishybrick","steam_id":76561198029526606,"connected_time":4768000000000,"state":"active","ping":80},{"user_id":259,"name":"hoOmIN","steam_id":76561198334947079,"connected_time":4161000000000,"state":"active","ping":50},{"user_id":302,"name":"The Legendary Bozo the Clown","steam_id":76561198352680209,"connected_time":1067000000000,"state":"active","ping":66},{"user_id":313,"name":"crumbles","steam_id":76561198168707036,"connected_time":264000000000,"state":"active","ping":47},{"user_id":279,"name":"NotAWeeb","steam_id":76561198165530739,"connected_time":3114000000000,"state":"active","ping":57},{"user_id":314,"name":"Bigby","steam_id":76561199056842761,"connected_time":236000000000,"state":"active","ping":52},{"user_id":303,"name":"sock","steam_id":76561199117597830,"connected_time":1037000000000,"state":"active","ping":91},{"user_id":287,"name":"Fajita Master","steam_id":76561198329150962,"connected_time":2003000000000,"state":"active","ping":95},{"user_id":315,"name":"BigButteryCrepes","steam_id":76561199153649549,"connected_time":233000000000,"state":"active","ping":37},{"user_id":316,"name":"Spare(8)Ball","steam_id":76561197982432995,"connected_time":211000000000,"state":"active","ping":57},{"user_id":317,"name":"Toasterduds","steam_id":76561198163477584,"connected_time":193000000000,"state":"active","ping":59},{"user_id":304,"name":"MrVegasAguitar","steam_id":76561198084466946,"connected_time":996000000000,"state":"active","ping":139}]},{"server_id":141,"name":"Uncletopia | Sydney | 1 | All Maps","name_short":"syd-1","host":"syd-1.au.uncletopia.com","port":27015,"enabled":true,"region":"au","cc":"au","latitude":-33.865143,"longitude":151.2099,"reserved":0,"last_update":"0001-01-01T00:00:00Z","name_a2s":"Uncletopia | Sydney | 1 | All Maps","protocol":17,"map":"koth_brazil","folder":"tf","game":"Team Fortress","app_id":440,"player_count":3,"max_players":24,"Bots":0,"server_type":"Dedicated","server_os":"Linux","password":true,"vac":true,"version":"7723704","steam_id":85568392924470001,"keywords":["cp","nocrits","nodmgspread","uncletopia"],"game_id":440,"stv_port":27016,"stv_name":"Uncletopia | Sydney | 1 | All Maps | STV","players":[{"user_id":32,"name":"DIY Miracle","steam_id":76561198046228152,"connected_time":141000000000,"state":"active","ping":54},{"user_id":31,"name":"lofty","steam_id":76561198380588357,"connected_time":444000000000,"state":"active","ping":65},{"user_id":29,"name":"f2p Spy","steam_id":76561198214232616,"connected_time":701000000000,"state":"active","ping":99}]},{"server_id":123,"name":"Uncletopia | Sydney | 2 | All Maps","name_short":"syd-2","host":"syd-1.au.uncletopia.com","port":27025,"enabled":true,"region":"au","cc":"au","latitude":-33.865143,"longitude":151.2099,"reserved":0,"last_update":"0001-01-01T00:00:00Z","name_a2s":"Uncletopia | Sydney | 2 | All Maps","protocol":17,"map":"pl_wutville_event","folder":"tf","game":"Team Fortress","app_id":440,"player_count":0,"max_players":24,"Bots":0,"server_type":"Dedicated","server_os":"Linux","password":true,"vac":true,"version":"7723704","steam_id":85568392924470002,"keywords":["nocrits","nodmgspread","payload","uncletopia"],"game_id":440,"stv_port":27026,"stv_name":"Uncletopia | Sydney | 2 | All Maps | STV","players":null},{"server_id":395,"name":"Uncletopia | Sydney | 3 | All Maps","name_short":"syd-3","host":"syd-1.au.uncletopia.com","port":27035,"enabled":true,"region":"au","cc":"au","latitude":-33.865143,"longitude":151.2099,"reserved":0,"last_update":"0001-01-01T00:00:00Z","name_a2s":"Uncletopia | Sydney | 3 | All Maps","protocol":17,"map":"pl_wutville_event","folder":"tf","game":"Team Fortress","app_id":440,"player_count":0,"max_players":24,"Bots":0,"server_type":"Dedicated","server_os":"Linux","password":true,"vac":true,"version":"7723704","steam_id":85568392925194467,"keywords":["nocrits","nodmgspread","payload","uncletopia"],"game_id":440,"stv_port":27036,"stv_name":"Uncletopia | Sydney | 3 | All Maps | STV","players":null},{"server_id":396,"name":"Uncletopia | Sydney | 4 | All Maps","name_short":"syd-4","host":"syd-1.au.uncletopia.com","port":27045,"enabled":true,"region":"au","cc":"au","latitude":-33.865143,"longitude":151.2099,"reserved":0,"last_update":"0001-01-01T00:00:00Z","name_a2s":"Uncletopia | Sydney | 4 | All Maps","protocol":17,"map":"pl_wutville_event","folder":"tf","game":"Team Fortress","app_id":440,"player_count":0,"max_players":24,"Bots":0,"server_type":"Dedicated","server_os":"Linux","password":true,"vac":true,"version":"7723704","steam_id":85568392925397958,"keywords":["nocrits","nodmgspread","payload","uncletopia"],"game_id":440,"stv_port":27046,"stv_name":"Uncletopia | Sydney | 4 | All Maps | STV","players":null},{"server_id":58,"name":"Uncletopia | Sydney | 5 | No Payload","name_short":"syd-5","host":"syd-1.au.uncletopia.com","port":27055,"enabled":true,"region":"au","cc":"au","latitude":-33.865143,"longitude":151.2099,"reserved":0,"last_update":"0001-01-01T00:00:00Z","name_a2s":"Uncletopia | Sydney | 5 | No Payload","protocol":17,"map":"koth_sawmill","folder":"tf","game":"Team Fortress","app_id":440,"player_count":0,"max_players":24,"Bots":0,"server_type":"Dedicated","server_os":"Linux","password":true,"vac":true,"version":"7723704","steam_id":85568392925397959,"keywords":["cp","nocrits","nodmgspread","uncletopia"],"game_id":440,"stv_port":27056,"stv_name":"Uncletopia | Sydney | 5 | No Payload | STV","players":null},{"server_id":59,"name":"Uncletopia | Sydney | 6 | Community","name_short":"syd-6","host":"syd-1.au.uncletopia.com","port":27065,"enabled":true,"region":"au","cc":"au","latitude":-33.865143,"longitude":151.2099,"reserved":0,"last_update":"0001-01-01T00:00:00Z","name_a2s":"Uncletopia | Sydney | 6 | Community","protocol":17,"map":"workshop/rd_asteroid_redux_rc9.ugc2154902912","folder":"tf","game":"Team Fortress","app_id":440,"player_count":0,"max_players":24,"Bots":0,"server_type":"Dedicated","server_os":"Linux","password":true,"vac":true,"version":"7723704","steam_id":85568392925397960,"keywords":["beta","nocrits","nodmgspread","rd","uncletopia"],"game_id":440,"stv_port":27066,"stv_name":"Uncletopia | Sydney | 6 | Community | STV","players":null},{"server_id":49,"name":"Uncletopia | Warsaw | 1 | All Maps","name_short":"waw-1","host":"waw-1.pl.uncletopia.com","port":27015,"enabled":true,"region":"eu","cc":"pl","latitude":52.2297,"longitude":21.017532,"reserved":0,"last_update":"0001-01-01T00:00:00Z","name_a2s":"Uncletopia | Warsaw | 1 | All Maps","protocol":17,"map":"koth_cascade","folder":"tf","game":"Team Fortress","app_id":440,"player_count":0,"max_players":24,"Bots":0,"server_type":"Dedicated","server_os":"Linux","password":true,"vac":true,"version":"7723704","steam_id":85568392925397850,"keywords":["cp","nocrits","nodmgspread","uncletopia"],"game_id":440,"stv_port":27016,"stv_name":"Uncletopia | Warsaw | 1 | All Maps | STV","players":null},{"server_id":50,"name":"Uncletopia | Warsaw | 2 | All Maps","name_short":"waw-2","host":"waw-1.pl.uncletopia.com","port":27025,"enabled":true,"region":"eu","cc":"pl","latitude":52.2297,"longitude":21.017532,"reserved":0,"last_update":"0001-01-01T00:00:00Z","name_a2s":"Uncletopia | Warsaw | 2 | All Maps","protocol":17,"map":"koth_highpass","folder":"tf","game":"Team Fortress","app_id":440,"player_count":0,"max_players":24,"Bots":0,"server_type":"Dedicated","server_os":"Linux","password":true,"vac":true,"version":"7723704","steam_id":85568392925397851,"keywords":["cp","nocrits","nodmgspread","uncletopia"],"game_id":440,"stv_port":27026,"stv_name":"Uncletopia | Warsaw | 2 | All Maps | STV","players":null},{"server_id":51,"name":"Uncletopia | Warsaw | 3 | All Maps","name_short":"waw-3","host":"waw-1.pl.uncletopia.com","port":27035,"enabled":true,"region":"eu","cc":"pl","latitude":52.2297,"longitude":21.017532,"reserved":0,"last_update":"0001-01-01T00:00:00Z","name_a2s":"Uncletopia | Warsaw | 3 | All Maps","protocol":17,"map":"koth_lakeside_final","folder":"tf","game":"Team Fortress","app_id":440,"player_count":0,"max_players":24,"Bots":0,"server_type":"Dedicated","server_os":"Linux","password":true,"vac":true,"version":"7723704","steam_id":85568392925397852,"keywords":["cp","nocrits","nodmgspread","uncletopia"],"game_id":440,"stv_port":27036,"stv_name":"Uncletopia | Warsaw | 3 | All Maps | STV","players":null},{"server_id":52,"name":"Uncletopia | Warsaw | 4 | All Maps","name_short":"waw-4","host":"waw-1.pl.uncletopia.com","port":27045,"enabled":true,"region":"eu","cc":"pl","latitude":52.2297,"longitude":21.017532,"reserved":0,"last_update":"0001-01-01T00:00:00Z","name_a2s":"Uncletopia | Warsaw | 4 | All Maps","protocol":17,"map":"pl_frontier_final","folder":"tf","game":"Team Fortress","app_id":440,"player_count":0,"max_players":24,"Bots":0,"server_type":"Dedicated","server_os":"Linux","password":true,"vac":true,"version":"7723704","steam_id":85568392925397853,"keywords":["nocrits","nodmgspread","payload","uncletopia"],"game_id":440,"stv_port":27046,"stv_name":"Uncletopia | Warsaw | 4 | All Maps | STV","players":null},{"server_id":53,"name":"Uncletopia | Warsaw | 5 | No Payload","name_short":"waw-5","host":"waw-1.pl.uncletopia.com","port":27055,"enabled":true,"region":"eu","cc":"pl","latitude":52.2297,"longitude":21.017532,"reserved":0,"last_update":"0001-01-01T00:00:00Z","name_a2s":"Uncletopia | Warsaw | 5 | No Payload","protocol":17,"map":"koth_highpass","folder":"tf","game":"Team Fortress","app_id":440,"player_count":0,"max_players":24,"Bots":0,"server_type":"Dedicated","server_os":"Linux","password":true,"vac":true,"version":"7723704","steam_id":85568392925397854,"keywords":["cp","nocrits","nodmgspread","uncletopia"],"game_id":440,"stv_port":27056,"stv_name":"Uncletopia | Warsaw | 5 | No Payload | STV","players":null},{"server_id":54,"name":"Uncletopia | Warsaw | 6 | Community","name_short":"waw-6","host":"waw-1.pl.uncletopia.com","port":27065,"enabled":true,"region":"eu","cc":"pl","latitude":52.2297,"longitude":21.017532,"reserved":0,"last_update":"0001-01-01T00:00:00Z","name_a2s":"Uncletopia | Warsaw | 6 | Community","protocol":17,"map":"workshop/pl_fifthcurve_rc1.ugc648227046","folder":"tf","game":"Team Fortress","app_id":440,"player_count":0,"max_players":24,"Bots":0,"server_type":"Dedicated","server_os":"Linux","password":true,"vac":true,"version":"7723704","steam_id":85568392925397856,"keywords":["nocrits","nodmgspread","payload","uncletopia"],"game_id":440,"stv_port":27066,"stv_name":"Uncletopia | Warsaw | 6 | Community | STV","players":null}]}