{"status":true,"message":"","result":[{"server_id":9,"name":"Uncletopia | Atlanta | 1 | All Maps","name_short":"atl-1","host":"atl-1.us.uncletopia.com","port":27015,"enabled":true,"region":"us-east","cc":"us","latitude":33.753746,"longitude":-84.38633,"reserved":0,"last_update":"0001-01-01T00:00:00Z","name_a2s":"Uncletopia | Atlanta | 1 | All Maps","protocol":17,"map":"koth_suijin","folder":"tf","game":"Team Fortress","app_id":440,"player_count":24,"max_players":24,"Bots":0,"server_type":"Dedicated","server_os":"Linux","password":true,"vac":true,"version":"7695204","steam_id":85568392924469982,"keywords":["cp","nocrits","nodmgspread","uncletopia"],"game_id":440,"stv_port":27016,"stv_name":"Uncletopia | Atlanta | 1 | All Maps | STV","players":[{"user_id":9,"name":"William Wallace","steam_id":76561199343316814,"connected_time":2343000000000,"state":"active","ping":57},{"user_id":28,"name":"phone click","steam_id":76561198133360797,"connected_time":1069000000000,"state":"active","ping":105},{"user_id":13,"name":"ATL1 | on my hunting trip","steam_id":76561198315341646,"connected_time":2262000000000,"state":"active","ping":60},{"user_id":30,"name":"ShankMan","steam_id":76561198050454150,"connected_time":993000000000,"state":"active","ping":39},{"user_id":17,"name":"Jin Gulilo","steam_id":76561198065151242,"connected_time":1606000000000,"state":"active","ping":66},{"user_id":18,"name":"Long Dong Silver","steam_id":76561198331087811,"connected_time":1574000000000,"state":"active","ping":85},{"user_id":35,"name":"Dahrealjerry","steam_id":76561199114254890,"connected_time":776000000000,"state":"active","ping":120},{"user_id":39,"name":"MayaBon","steam_id":76561198797968261,"connected_time":673000000000,"state":"active","ping":108},{"user_id":46,"name":"Mikael_01","steam_id":76561199080253129,"connected_time":237000000000,"state":"active","ping":184},{"user_id":22,"name":"Adán Negro","steam_id":76561198151256410,"connected_time":1355000000000,"state":"active","ping":131},{"user_id":47,"name":"Furi","steam_id":76561198139927408,"connected_time":111000000000,"state":"active","ping":75},{"user_id":53,"name":"vaasa","steam_id":76561198377425033,"connected_time":61000000000,"state":"active","ping":162},{"user_id":33,"name":"Kuyumiester","steam_id":76561198126835302,"connected_time":922000000000,"state":"active","ping":75},{"user_id":41,"name":"Bashirider","steam_id":76561198260522253,"connected_time":459000000000,"state":"active","ping":54},{"user_id":34,"name":"NerdCuddles","steam_id":76561198078915242,"connected_time":800000000000,"state":"active","ping":74},{"user_id":36,"name":"hoboways","steam_id":76561198168035195,"connected_time":767000000000,"state":"active","ping":84},{"user_id":42,"name":"im mean","steam_id":76561199209403512,"connected_time":441000000000,"state":"active","ping":63},{"user_id":38,"name":"Sample","steam_id":76561198001722404,"connected_time":722000000000,"state":"active","ping":77},{"user_id":43,"name":"Heraclea","steam_id":76561197994663846,"connected_time":388000000000,"state":"active","ping":68},{"user_id":44,"name":"StickyWicket","steam_id":76561198000155177,"connected_time":376000000000,"state":"active","ping":61},{"user_id":49,"name":"Daddy","steam_id":76561199380536155,"connected_time":91000000000,"state":"active","ping":74},{"user_id":50,"name":"The Panda Knight","steam_id":76561198150282587,"connected_time":86000000000,"state":"active","ping":92},{"user_id":51,"name":"JustSomeInternetGuy","steam_id":76561199066037843,"connected_time":73000000000,"state":"active","ping":82},{"user_id":52,"name":"BIG LION","steam_id":76561198091880358,"connected_time":64000000000,"state":"active","ping":58}]},{"server_id":400,"name":"Uncletopia | Atlanta | 3 | All Maps","name_short":"atl-3","host":"atl-1.us.uncletopia.com","port":27035,"enabled":true,"region":"us-east","cc":"us","latitude":33.753746,"longitude":-84.38633,"reserved":0,"last_update":"0001-01-01T00:00:00Z","name_a2s":"Uncletopia | Atlanta | 3 | All Maps","protocol":17,"map":"pl_frontier_final","folder":"tf","game":"Team Fortress","app_id":440,"player_count":0,"max_players":24,"Bots":0,"server_type":"Dedicated","server_os":"Linux","password":true,"vac":true,"version":"7695204","steam_id":85568392924515187,"keywords":["nocrits","nodmgspread","payload","uncletopia"],"game_id":440,"stv_port":0,"stv_name":"","players":null},{"server_id":401,"name":"Uncletopia | Atlanta | 4 | No Payload","name_short":"atl-4","host":"atl-1.us.uncletopia.com","port":27045,"enabled":true,"region":"us-east","cc":"us","latitude":33.753746,"longitude":-84.38633,"reserved":0,"last_update":"0001-01-01T00:00:00Z","name_a2s":"Uncletopia | Atlanta | 4 | No Payload","protocol":17,"map":"cp_snakewater_final1","folder":"tf","game":"Team Fortress","app_id":440,"player_count":0,"max_players":24,"Bots":0,"server_type":"Dedicated","server_os":"Linux","password":true,"vac":true,"version":"7695204","steam_id":85568392924515188,"keywords":["cp","nocrits","nodmgspread","uncletopia"],"game_id":440,"stv_port":0,"stv_name":"","players":null},{"server_id":2,"name":"Uncletopia | Chicago | 1 | All Maps","name_short":"chi-1","host":"chi-1.us.uncletopia.com","port":27015,"enabled":true,"region":"us-central","cc":"us","latitude":41.881832,"longitude":-87.62318,"reserved":0,"last_update":"0001-01-01T00:00:00Z","name_a2s":"Uncletopia | Chicago | 1 | All Maps","protocol":17,"map":"pl_frontier_final","folder":"tf","game":"Team Fortress","app_id":440,"player_count":24,"max_players":24,"Bots":0,"server_type":"Dedicated","server_os":"Linux","password":true,"vac":true,"version":"7695204","steam_id":85568392924469984,"keywords":["nocrits","nodmgspread","payload","uncletopia"],"game_id":440,"stv_port":27016,"stv_name":"Uncletopia | Chicago | 1 | All Maps | STV","players":[{"user_id":163,"name":"Lil B (Based God)","steam_id":76561198058485742,"connected_time":5367000000000,"state":"active","ping":57},{"user_id":229,"name":"Scorpie Doodle","steam_id":76561198021845763,"connected_time":754000000000,"state":"active","ping":50},{"user_id":235,"name":"Wangel","steam_id":76561199116413509,"connected_time":252000000000,"state":"active","ping":169},{"user_id":228,"name":"Catbread","steam_id":76561198145023711,"connected_time":957000000000,"state":"active","ping":60},{"user_id":230,"name":"another breloom","steam_id":76561198006938024,"connected_time":745000000000,"state":"active","ping":105},{"user_id":239,"name":"Awesomeguy4444","steam_id":76561198418644913,"connected_time":148000000000,"state":"active","ping":65},{"user_id":205,"name":"bdkaine1","steam_id":76561198133545467,"connected_time":2326000000000,"state":"active","ping":62},{"user_id":192,"name":"Nic","steam_id":76561198333983754,"connected_time":2921000000000,"state":"active","ping":66},{"user_id":224,"name":"graylie","steam_id":76561198108685037,"connected_time":1184000000000,"state":"active","ping":69},{"user_id":234,"name":"lostos","steam_id":76561197983869145,"connected_time":289000000000,"state":"active","ping":128},{"user_id":242,"name":"charm quark","steam_id":76561198098770777,"connected_time":42000000000,"state":"active","ping":121},{"user_id":193,"name":"motorized bar of soap","steam_id":76561198882404753,"connected_time":2918000000000,"state":"active","ping":75},{"user_id":172,"name":"Ziath","steam_id":76561198094009164,"connected_time":4326000000000,"state":"active","ping":61},{"user_id":214,"name":"Zeek","steam_id":76561197987204351,"connected_time":1698000000000,"state":"active","ping":60},{"user_id":243,"name":"von","steam_id":76561199003913101,"connected_time":21000000000,"state":"spawning","ping":64},{"user_id":208,"name":"mrs. business","steam_id":76561198025454291,"connected_time":2074000000000,"state":"active","ping":87},{"user_id":220,"name":"pogb4nny149","steam_id":76561198020534493,"connected_time":1386000000000,"state":"active","ping":67},{"user_id":240,"name":"Little Baby Burrito","steam_id":76561198334459968,"connected_time":84000000000,"state":"active","ping":66},{"user_id":233,"name":"trans gaming troll (she/her)","steam_id":76561198085410622,"connected_time":407000000000,"state":"active","ping":99},{"user_id":223,"name":"TimTam Tom","steam_id":76561198045988062,"connected_time":1210000000000,"state":"active","ping":76},{"user_id":226,"name":"Eternal","steam_id":76561197990721868,"connected_time":1106000000000,"state":"active","ping":87},{"user_id":237,"name":"D_10.Shin","steam_id":76561198209278033,"connected_time":235000000000,"state":"active","ping":129},{"user_id":215,"name":"Quansen","steam_id":76561198151594550,"connected_time":1606000000000,"state":"active","ping":59},{"user_id":227,"name":"fig","steam_id":76561198337045136,"connected_time":1106000000000,"state":"active","ping":77}]},{"server_id":106,"name":"Uncletopia | Chicago | 2 | All Maps","name_short":"chi-2","host":"chi-1.us.uncletopia.com","port":27025,"enabled":true,"region":"us-central","cc":"us","latitude":41.881832,"longitude":-87.62318,"reserved":0,"last_update":"0001-01-01T00:00:00Z","name_a2s":"Uncletopia | Chicago | 2 | All Maps","protocol":17,"map":"cp_steel","folder":"tf","game":"Team Fortress","app_id":440,"player_count":24,"max_players":24,"Bots":0,"server_type":"Dedicated","server_os":"Linux","password":true,"vac":true,"version":"7695204","steam_id":85568392924469985,"keywords":["cp","nocrits","nodmgspread","uncletopia"],"game_id":440,"stv_port":27026,"stv_name":"Uncletopia | Chicago | 2 | All Maps | STV","players":[{"user_id":162,"name":"Serdexx","steam_id":76561198148158005,"connected_time":381000000000,"state":"active","ping":81},{"user_id":147,"name":"Tesla FSD","steam_id":76561199030697193,"connected_time":1873000000000,"state":"active","ping":54},{"user_id":153,"name":"Bill Cosby","steam_id":76561199002106124,"connected_time":1670000000000,"state":"active","ping":111},{"user_id":125,"name":"amagicowl","steam_id":76561199060487814,"connected_time":3972000000000,"state":"active","ping":76},{"user_id":133,"name":"Dude Named Bob","steam_id":76561198310448093,"connected_time":3307000000000,"state":"active","ping":54},{"user_id":148,"name":"Walmart Employee","steam_id":76561198840373909,"connected_time":1871000000000,"state":"active","ping":83},{"user_id":120,"name":"miles","steam_id":76561198006838401,"connected_time":4769000000000,"state":"active","ping":81},{"user_id":30,"name":"joshmamamia","steam_id":76561199099500101,"connected_time":9248000000000,"state":"active","ping":133},{"user_id":89,"name":"santas.secret.sauce","steam_id":76561198042464635,"connected_time":6475000000000,"state":"active","ping":77},{"user_id":157,"name":"id rather you not","steam_id":76561198161824724,"connected_time":1359000000000,"state":"active","ping":81},{"user_id":152,"name":"Rornir","steam_id":76561198081829615,"connected_time":1713000000000,"state":"active","ping":39},{"user_id":144,"name":"Moz","steam_id":76561198027171160,"connected_time":2066000000000,"state":"active","ping":38},{"user_id":164,"name":"A tree","steam_id":76561198309065247,"connected_time":143000000000,"state":"active","ping":61},{"user_id":132,"name":"Chol","steam_id":76561198122054259,"connected_time":3318000000000,"state":"active","ping":71},{"user_id":165,"name":"Fiammetta","steam_id":76561198044183173,"connected_time":107000000000,"state":"active","ping":73},{"user_id":163,"name":"arma 3 mortar gunners","steam_id":76561199088864128,"connected_time":368000000000,"state":"active","ping":134},{"user_id":167,"name":"havarti gaming","steam_id":76561198069895678,"connected_time":57000000000,"state":"active","ping":133},{"user_id":138,"name":"Government Plates","steam_id":76561198140866252,"connected_time":3252000000000,"state":"active","ping":64},{"user_id":149,"name":"santa mommy","steam_id":76561199230929836,"connected_time":1871000000000,"state":"active","ping":101},{"user_id":150,"name":"Drakon","steam_id":76561198078210822,"connected_time":1852000000000,"state":"active","ping":109},{"user_id":141,"name":"ill jill","steam_id":76561198051757010,"connected_time":3046000000000,"state":"active","ping":63},{"user_id":168,"name":"ryce","steam_id":76561198114572309,"connected_time":2000000000,"state":"spawning","ping":83},{"user_id":159,"name":"Geloman","steam_id":76561198005501322,"connected_time":743000000000,"state":"active","ping":82},{"user_id":166,"name":"dust","steam_id":76561198045218909,"connected_time":97000000000,"state":"active","ping":75}]},{"server_id":402,"name":"Uncletopia | Chicago | 3 | All Maps","name_short":"chi-3","host":"chi-1.us.uncletopia.com","port":27035,"enabled":true,"region":"us-central","cc":"us","latitude":41.881832,"longitude":-87.62318,"reserved":0,"last_update":"0001-01-01T00:00:00Z","name_a2s":"Uncletopia | Chicago | 3 | All Maps","protocol":17,"map":"cp_mountainlab","folder":"tf","game":"Team Fortress","app_id":440,"player_count":0,"max_players":24,"Bots":0,"server_type":"Dedicated","server_os":"Linux","password":true,"vac":true,"version":"7695204","steam_id":85568392924515191,"keywords":["cp","nocrits","nodmgspread","uncletopia"],"game_id":440,"stv_port":27036,"stv_name":"Uncletopia | Chicago | 3 | All Maps | STV","players":null},{"server_id":403,"name":"Uncletopia | Chicago | 4 | All Maps","name_short":"chi-4","host":"chi-1.us.uncletopia.com","port":27045,"enabled":true,"region":"us-central","cc":"us","latitude":41.881832,"longitude":-87.62318,"reserved":0,"last_update":"0001-01-01T00:00:00Z","name_a2s":"Uncletopia | Chicago | 4 | All Maps","protocol":17,"map":"koth_highpass","folder":"tf","game":"Team Fortress","app_id":440,"player_count":0,"max_players":24,"Bots":0,"server_type":"Dedicated","server_os":"Linux","password":true,"vac":true,"version":"7695204","steam_id":85568392924515193,"keywords":["cp","nocrits","nodmgspread","uncletopia"],"game_id":440,"stv_port":0,"stv_name":"","players":null},{"server_id":36,"name":"Uncletopia | Chicago | 5 | All Maps","name_short":"chi-5","host":"chi-2.us.uncletopia.com","port":27015,"enabled":true,"region":"us-central","cc":"us","latitude":41.881832,"longitude":-87.62318,"reserved":0,"last_update":"0001-01-01T00:00:00Z","name_a2s":"Uncletopia | Chicago | 5 | All Maps","protocol":17,"map":"ctf_2fort","folder":"tf","game":"Team Fortress","app_id":440,"player_count":24,"max_players":24,"Bots":0,"server_type":"Dedicated","server_os":"Linux","password":true,"vac":true,"version":"7695204","steam_id":85568392924866362,"keywords":["nocrits","nodmgspread","payload","uncletopia"],"game_id":440,"stv_port":27016,"stv_name":"Uncletopia | Chicago | 5 | All Maps | STV","players":[{"user_id":101,"name":"6t26j","steam_id":76561198278282836,"connected_time":2220000000000,"state":"connecting","ping":69},{"user_id":94,"name":"dragon tiddy enjoyer","steam_id":76561198139648165,"connected_time":2933000000000,"state":"connecting","ping":79},{"user_id":120,"name":"A Can of Arizona Green Tea","steam_id":76561198062481133,"connected_time":949000000000,"state":"connecting","ping":86},{"user_id":124,"name":"Zon","steam_id":76561198819789573,"connected_time":561000000000,"state":"connecting","ping":61},{"user_id":122,"name":"passa passa","steam_id":76561199238923581,"connected_time":783000000000,"state":"connecting","ping":143},{"user_id":118,"name":"spaaaaace","steam_id":76561199085974120,"connected_time":1250000000000,"state":"connecting","ping":70},{"user_id":26,"name":"Botkiller Motumba","steam_id":76561198171231053,"connected_time":7047000000000,"state":"connecting","ping":115},{"user_id":39,"name":"AhoyK","steam_id":76561198274742715,"connected_time":6627000000000,"state":"connecting","ping":63},{"user_id":103,"name":"hi","steam_id":76561198809577048,"connected_time":1713000000000,"state":"connecting","ping":125},{"user_id":119,"name":"harry","steam_id":76561198365118514,"connected_time":1123000000000,"state":"connecting","ping":96},{"user_id":121,"name":"Gunkzilla","steam_id":76561198068228415,"connected_time":893000000000,"state":"connecting","ping":73},{"user_id":91,"name":"JimmySquid","steam_id":76561198254242530,"connected_time":3003000000000,"state":"connecting","ping":68},{"user_id":116,"name":"Mr.Bananas","steam_id":76561198065345105,"connected_time":1345000000000,"state":"connecting","ping":117},{"user_id":128,"name":"ThePriceIsRice","steam_id":76561198079069543,"connected_time":12000000000,"state":"connecting","ping":95},{"user_id":100,"name":"Wyd Step Ladder?","steam_id":76561199366482682,"connected_time":2363000000000,"state":"connecting","ping":114},{"user_id":78,"name":"Kritzburgh","steam_id":76561198149466938,"connected_time":3932000000000,"state":"connecting","ping":77},{"user_id":123,"name":"screwball","steam_id":76561198832791521,"connected_time":632000000000,"state":"connecting","ping":86},{"user_id":127,"name":"jimmybones06@yahoo.com","steam_id":76561198229850516,"connected_time":25000000000,"state":"connecting","ping":102},{"user_id":129,"name":"Capt on PC","steam_id":76561198396814154,"connected_time":11000000000,"state":"connecting","ping":106},{"user_id":111,"name":"Aeris","steam_id":76561198287271028,"connected_time":1514000000000,"state":"connecting","ping":57}]},{"server_id":37,"name":"Uncletopia | Chicago | 6 | All Maps","name_short":"chi-6","host":"chi-2.us.uncletopia.com","port":27025,"enabled":true,"region":"us-central","cc":"us","latitude":41.881832,"longitude":-87.62318,"reserved":0,"last_update":"0001-01-01T00:00:00Z","name_a2s":"Uncletopia | Chicago | 6 | All Maps","protocol":17,"map":"cp_snakewater_final1","folder":"tf","game":"Team Fortress","app_id":440,"player_count":0,"max_players":24,"Bots":0,"server_type":"Dedicated","server_os":"Linux","password":true,"vac":true,"version":"7695204","steam_id":85568392924866363,"keywords":["cp","nocrits","nodmgspread","uncletopia"],"game_id":440,"stv_port":0,"stv_name":"","players":null},{"server_id":38,"name":"Uncletopia | Chicago | 7 | No Payload","name_short":"chi-7","host":"chi-2.us.uncletopia.com","port":27035,"enabled":true,"region":"us-central","cc":"us","latitude":41.881832,"longitude":-87.62318,"reserved":0,"last_update":"0001-01-01T00:00:00Z","name_a2s":"Uncletopia | Chicago | 7 | No Payload","protocol":17,"map":"ctf_landfall","folder":"tf","game":"Team Fortress","app_id":440,"player_count":0,"max_players":24,"Bots":0,"server_type":"Dedicated","server_os":"Linux","password":true,"vac":true,"version":"7695204","steam_id":85568392924866364,"keywords":["ctf","nocrits","nodmgspread","uncletopia"],"game_id":440,"stv_port":27036,"stv_name":"Uncletopia | Chicago | 7 | No Payload | STV","players":null},{"server_id":39,"name":"Uncletopia | Chicago | 8 | Community","name_short":"chi-8","host":"chi-2.us.uncletopia.com","port":27045,"enabled":true,"region":"us-central","cc":"us","latitude":41.881832,"longitude":-87.62318,"reserved":0,"last_update":"0001-01-01T00:00:00Z","name_a2s":"Uncletopia | Chicago | 8 | Community","protocol":17,"map":"cp_altitude","folder":"tf","game":"Team Fortress","app_id":440,"player_count":0,"max_players":24,"Bots":0,"server_type":"Dedicated","server_os":"Linux","password":true,"vac":true,"version":"7695204","steam_id":85568392924866365,"keywords":["cp","nocrits","nodmgspread","uncletopia"],"game_id":440,"stv_port":0,"stv_name":"","players":null},{"server_id":8,"name":"Uncletopia | Dallas | 1 | All Maps","name_short":"dal-1","host":"dal-1.us.uncletopia.com","port":27015,"enabled":true,"region":"us-central","cc":"us","latitude":32.779167,"longitude":-96.80889,"reserved":0,"last_update":"0001-01-01T00:00:00Z","name_a2s":"Uncletopia | Dallas | 1 | All Maps","protocol":17,"map":"pl_snowycoast","folder":"tf","game":"Team Fortress","app_id":440,"player_count":0,"max_players":24,"Bots":0,"server_type":"Dedicated","server_os":"Linux","password":true,"vac":true,"version":"7695204","steam_id":85568392924469986,"keywords":["nocrits","nodmgspread","payload","uncletopia"],"game_id":440,"stv_port":0,"stv_name":"","players":null},{"server_id":108,"name":"Uncletopia | Dallas | 2 | All Maps","name_short":"dal-2","host":"dal-1.us.uncletopia.com","port":27025,"enabled":true,"region":"us-central","cc":"us","latitude":32.779167,"longitude":-96.80889,"reserved":0,"last_update":"0001-01-01T00:00:00Z","name_a2s":"Uncletopia | Dallas | 2 | All Maps","protocol":17,"map":"cp_mountainlab","folder":"tf","game":"Team Fortress","app_id":440,"player_count":0,"max_players":24,"Bots":0,"server_type":"Dedicated","server_os":"Linux","password":true,"vac":true,"version":"7695204","steam_id":85568392924469988,"keywords":["cp","nocrits","nodmgspread","uncletopia"],"game_id":440,"stv_port":0,"stv_name":"","players":null},{"server_id":5,"name":"Uncletopia | Frankfurt | 1 | All Maps","name_short":"frk-1","host":"frk-1.de.uncletopia.com","port":27015,"enabled":true,"region":"eu","cc":"de","latitude":50.110924,"longitude":8.682127,"reserved":0,"last_update":"0001-01-01T00:00:00Z","name_a2s":"Uncletopia | Frankfurt | 1 | All Maps","protocol":17,"map":"cp_altitude","folder":"tf","game":"Team Fortress","app_id":440,"player_count":23,"max_players":24,"Bots":0,"server_type":"Dedicated","server_os":"Linux","password":true,"vac":true,"version":"7695204","steam_id":85568392924469989,"keywords":["cp","nocrits","nodmgspread","uncletopia"],"game_id":440,"stv_port":27016,"stv_name":"Uncletopia | Frankfurt | 1 | All Maps | STV","players":[{"user_id":397,"name":"dankerghost","steam_id":76561198838761959,"connected_time":1888000000000,"state":"active","ping":191},{"user_id":408,"name":"Finger","steam_id":76561199111329270,"connected_time":953000000000,"state":"active","ping":114},{"user_id":412,"name":"guc0","steam_id":76561198109952006,"connected_time":662000000000,"state":"active","ping":88},{"user_id":414,"name":"Appelflap64","steam_id":76561198012819017,"connected_time":195000000000,"state":"active","ping":78},{"user_id":380,"name":"breedable","steam_id":76561198010300032,"connected_time":3235000000000,"state":"active","ping":64},{"user_id":415,"name":"M76030","steam_id":76561198046651252,"connected_time":65000000000,"state":"active","ping":46},{"user_id":378,"name":"Miatthew","steam_id":76561198034102895,"connected_time":3342000000000,"state":"active","ping":48},{"user_id":296,"name":"][yoG","steam_id":76561197992271834,"connected_time":9200000000000,"state":"spawning","ping":90},{"user_id":392,"name":"Knösta","steam_id":76561198143422139,"connected_time":2926000000000,"state":"active","ping":92},{"user_id":417,"name":"fogings","steam_id":76561198044165284,"connected_time":44000000000,"state":"active","ping":44},{"user_id":394,"name":"Miiukade","steam_id":76561198089157860,"connected_time":2604000000000,"state":"active","ping":134},{"user_id":419,"name":"TaroPlant","steam_id":76561198122927374,"connected_time":11000000000,"state":"spawning","ping":93},{"user_id":391,"name":"gamer_","steam_id":76561198094125769,"connected_time":2980000000000,"state":"active","ping":74},{"user_id":405,"name":"holykyckling","steam_id":76561198040661615,"connected_time":1500000000000,"state":"active","ping":75},{"user_id":374,"name":"Welder","steam_id":76561198355300561,"connected_time":3932000000000,"state":"active","ping":54},{"user_id":373,"name":"Zateske","steam_id":76561198047446276,"connected_time":4077000000000,"state":"active","ping":53},{"user_id":418,"name":"Slazaa","steam_id":76561197993252446,"connected_time":26000000000,"state":"spawning","ping":71},{"user_id":413,"name":"Bell","steam_id":76561199413517335,"connected_time":398000000000,"state":"active","ping":133},{"user_id":370,"name":"zinzyk","steam_id":76561198128011822,"connected_time":4323000000000,"state":"active","ping":50},{"user_id":411,"name":"the best people","steam_id":76561197988085026,"connected_time":747000000000,"state":"active","ping":60},{"user_id":407,"name":"Infinithil","steam_id":76561198041273639,"connected_time":970000000000,"state":"active","ping":55},{"user_id":357,"name":"\u003e","steam_id":76561198239927434,"connected_time":5141000000000,"state":"active","ping":90},{"user_id":420,"name":"Makeways","steam_id":76561198274466477,"connected_time":10000000000,"state":"spawning","ping":61}]},{"server_id":110,"name":"Uncletopia | Frankfurt | 2 | All Maps","name_short":"frk-2","host":"frk-1.de.uncletopia.com","port":27025,"enabled":true,"region":"eu","cc":"de","latitude":50.110924,"longitude":8.682127,"reserved":0,"last_update":"0001-01-01T00:00:00Z","name_a2s":"Uncletopia | Frankfurt | 2 | All Maps","protocol":17,"map":"pl_upward","folder":"tf","game":"Team Fortress","app_id":440,"player_count":23,"max_players":24,"Bots":0,"server_type":"Dedicated","server_os":"Linux","password":true,"vac":true,"version":"7695204","steam_id":85568392924469990,"keywords":["nocrits","nodmgspread","payload","uncletopia"],"game_id":440,"stv_port":27026,"stv_name":"Uncletopia | Frankfurt | 2 | All Maps | STV","players":[{"user_id":294,"name":"Chiello","steam_id":76561197993989715,"connected_time":2164000000000,"state":"active","ping":48},{"user_id":323,"name":"Hero","steam_id":76561199239997936,"connected_time":924000000000,"state":"active","ping":138},{"user_id":324,"name":"Tao","steam_id":76561198036750896,"connected_time":913000000000,"state":"active","ping":57},{"user_id":322,"name":"alfus","steam_id":76561198071003109,"connected_time":956000000000,"state":"active","ping":58},{"user_id":331,"name":"busgrabb","steam_id":76561198055768465,"connected_time":523000000000,"state":"active","ping":47},{"user_id":289,"name":"the joy of recycling","steam_id":76561198138509827,"connected_time":2376000000000,"state":"active","ping":78},{"user_id":335,"name":"Brick Samson","steam_id":76561198019076104,"connected_time":282000000000,"state":"active","ping":94},{"user_id":293,"name":"htraB","steam_id":76561198043122677,"connected_time":2225000000000,"state":"active","ping":58},{"user_id":325,"name":"jaMie","steam_id":76561198170148783,"connected_time":799000000000,"state":"active","ping":53},{"user_id":334,"name":"supercharger832","steam_id":76561198871408515,"connected_time":317000000000,"state":"active","ping":48},{"user_id":337,"name":"JGV","steam_id":76561198094654971,"connected_time":98000000000,"state":"active","ping":83},{"user_id":336,"name":"WolfmanCZ","steam_id":76561199157141414,"connected_time":108000000000,"state":"active","ping":72},{"user_id":230,"name":"Keelan","steam_id":76561198013665543,"connected_time":6557000000000,"state":"active","ping":68},{"user_id":317,"name":"Tobi","steam_id":76561198114031842,"connected_time":1274000000000,"state":"active","ping":76},{"user_id":321,"name":"freemantel30","steam_id":76561198065669800,"connected_time":965000000000,"state":"active","ping":51},{"user_id":319,"name":"Koele Bonen","steam_id":76561198073326820,"connected_time":971000000000,"state":"active","ping":64},{"user_id":308,"name":"Shlyk","steam_id":76561198333387103,"connected_time":1669000000000,"state":"active","ping":94},{"user_id":320,"name":"joe (real)","steam_id":76561198875409640,"connected_time":971000000000,"state":"active","ping":66},{"user_id":328,"name":"Paultsa","steam_id":76561198040141034,"connected_time":659000000000,"state":"active","ping":81},{"user_id":306,"name":"Carrot Arc","steam_id":76561198164957006,"connected_time":1700000000000,"state":"active","ping":83},{"user_id":338,"name":"Eing","steam_id":76561198253125820,"connected_time":92000000000,"state":"active","ping":94},{"user_id":339,"name":"XDXDXDXDXDXDXDXDXDXDXDXDXDXDXD","steam_id":76561198972671525,"connected_time":85000000000,"state":"active","ping":103},{"user_id":333,"name":"GEP Gun","steam_id":76561197981821003,"connected_time":448000000000,"state":"active","ping":67}]},{"server_id":308,"name":"Uncletopia | Frankfurt | 3 | All Maps","name_short":"frk-3","host":"frk-1.de.uncletopia.com","port":27035,"enabled":true,"region":"eu","cc":"de","latitude":50.110924,"longitude":8.682127,"reserved":0,"last_update":"0001-01-01T00:00:00Z","name_a2s":"Uncletopia | Frankfurt | 3 | All Maps","protocol":17,"map":"koth_highpass","folder":"tf","game":"Team Fortress","app_id":440,"player_count":0,"max_players":24,"Bots":0,"server_type":"Dedicated","server_os":"Linux","password":true,"vac":true,"version":"7695204","steam_id":85568392924504274,"keywords":["cp","nocrits","nodmgspread","uncletopia"],"game_id":440,"stv_port":27036,"stv_name":"Uncletopia | Frankfurt | 3 | All Maps | STV","players":null},{"server_id":309,"name":"Uncletopia | Frankfurt | 4 | All Maps","name_short":"frk-4","host":"frk-1.de.uncletopia.com","port":27045,"enabled":true,"region":"eu","cc":"de","latitude":50.110924,"longitude":8.682127,"reserved":0,"last_update":"0001-01-01T00:00:00Z","name_a2s":"Uncletopia | Frankfurt | 4 | All Maps","protocol":17,"map":"pl_upward","folder":"tf","game":"Team Fortress","app_id":440,"player_count":24,"max_players":24,"Bots":0,"server_type":"Dedicated","server_os":"Linux","password":true,"vac":true,"version":"7695204","steam_id":85568392924504275,"keywords":["nocrits","nodmgspread","payload","uncletopia"],"game_id":440,"stv_port":27046,"stv_name":"Uncletopia | Frankfurt | 4 | All Maps | STV","players":[{"user_id":46,"name":"where is my egg?","steam_id":76561198172542535,"connected_time":3514000000000,"state":"active","ping":88},{"user_id":24,"name":"JEGamer","steam_id":76561198306309465,"connected_time":4777000000000,"state":"active","ping":62},{"user_id":27,"name":"RAPTOR","steam_id":76561198920372520,"connected_time":4702000000000,"state":"active","ping":70},{"user_id":116,"name":"MrWhite","steam_id":76561198929056707,"connected_time":69000000000,"state":"active","ping":90},{"user_id":115,"name":"Digger4money","steam_id":76561199056509858,"connected_time":147000000000,"state":"active","ping":79},{"user_id":89,"name":"HanhiGaming","steam_id":76561198877007477,"connected_time":1277000000000,"state":"active","ping":92},{"user_id":99,"name":"FuckThisI'mOut","steam_id":76561198229777208,"connected_time":1083000000000,"state":"active","ping":65},{"user_id":100,"name":"Ampiong99","steam_id":76561199245197481,"connected_time":941000000000,"state":"active","ping":63},{"user_id":85,"name":"VK2124 :D","steam_id":76561198111130688,"connected_time":1422000000000,"state":"active","ping":51},{"user_id":96,"name":"player","steam_id":76561198054474684,"connected_time":1179000000000,"state":"active","ping":75},{"user_id":98,"name":"rajAs","steam_id":76561198035928111,"connected_time":1150000000000,"state":"active","ping":71},{"user_id":84,"name":"Carry Krypl","steam_id":76561198136938121,"connected_time":1508000000000,"state":"active","ping":47},{"user_id":109,"name":"fénix","steam_id":76561198083199151,"connected_time":529000000000,"state":"active","ping":63},{"user_id":74,"name":"saaa dude","steam_id":76561198320143731,"connected_time":1907000000000,"state":"active","ping":78},{"user_id":75,"name":"SacralDeer","steam_id":76561198870674284,"connected_time":1876000000000,"state":"active","ping":106},{"user_id":104,"name":"My name is Spencer, Di Spencer","steam_id":76561198152697674,"connected_time":760000000000,"state":"active","ping":56},{"user_id":105,"name":"Coffee Chee","steam_id":76561198113568207,"connected_time":671000000000,"state":"active","ping":116},{"user_id":114,"name":"Crisps","steam_id":76561198088973774,"connected_time":158000000000,"state":"active","ping":47},{"user_id":106,"name":"Mass","steam_id":76561198432195204,"connected_time":667000000000,"state":"active","ping":56},{"user_id":112,"name":"Enforcer02","steam_id":76561197966045944,"connected_time":192000000000,"state":"active","ping":51},{"user_id":82,"name":"Solid","steam_id":76561198357049292,"connected_time":1546000000000,"state":"active","ping":86},{"user_id":73,"name":"Pats","steam_id":76561198418538887,"connected_time":1929000000000,"state":"active","ping":98},{"user_id":102,"name":"ӋԼן.maS","steam_id":76561198114953928,"connected_time":785000000000,"state":"active","ping":65},{"user_id":97,"name":"miro罪","steam_id":76561198196357213,"connected_time":1175000000000,"state":"active","ping":89}]},{"server_id":310,"name":"Uncletopia | Frankfurt | 5 | All Maps","name_short":"frk-5","host":"frk-1.de.uncletopia.com","port":27055,"enabled":true,"region":"eu","cc":"de","latitude":50.110924,"longitude":8.682127,"reserved":0,"last_update":"0001-01-01T00:00:00Z","name_a2s":"Uncletopia | Frankfurt | 5 | All Maps","protocol":17,"map":"koth_highpass","folder":"tf","game":"Team Fortress","app_id":440,"player_count":0,"max_players":24,"Bots":0,"server_type":"Dedicated","server_os":"Linux","password":true,"vac":true,"version":"7695204","steam_id":85568392924504277,"keywords":["cp","nocrits","nodmgspread","uncletopia"],"game_id":440,"stv_port":27056,"stv_name":"Uncletopia | Frankfurt | 5 | All Maps | STV","players":null},{"server_id":311,"name":"Uncletopia | Frankfurt | 6 | All Maps","name_short":"frk-6","host":"frk-1.de.uncletopia.com","port":27065,"enabled":true,"region":"eu","cc":"de","latitude":50.110924,"longitude":8.682127,"reserved":0,"last_update":"0001-01-01T00:00:00Z","name_a2s":"Uncletopia | Frankfurt | 6 | All Maps","protocol":17,"map":"cp_snakewater_final1","folder":"tf","game":"Team Fortress","app_id":440,"player_count":24,"max_players":24,"Bots":0,"server_type":"Dedicated","server_os":"Linux","password":true,"vac":true,"version":"7695204","steam_id":85568392924504278,"keywords":["cp","nocrits","nodmgspread","uncletopia"],"game_id":440,"stv_port":27066,"stv_name":"Uncletopia | Frankfurt | 6 | All Maps | STV","players":[{"user_id":297,"name":"the worst polish person","steam_id":76561199433578516,"connected_time":754000000000,"state":"active","ping":85},{"user_id":302,"name":"Pronton","steam_id":76561198082502910,"connected_time":652000000000,"state":"active","ping":70},{"user_id":293,"name":"bebul","steam_id":76561198140281896,"connected_time":924000000000,"state":"active","ping":68},{"user_id":263,"name":"Bones","steam_id":76561198065081225,"connected_time":3831000000000,"state":"active","ping":55},{"user_id":266,"name":"magnus","steam_id":76561198045570936,"connected_time":3430000000000,"state":"active","ping":82},{"user_id":200,"name":"Noob_with_source","steam_id":76561198870362103,"connected_time":7468000000000,"state":"active","ping":60},{"user_id":303,"name":"Käros","steam_id":76561198119239238,"connected_time":637000000000,"state":"active","ping":65},{"user_id":248,"name":"Average polish citizen","steam_id":76561198062107879,"connected_time":4850000000000,"state":"active","ping":86},{"user_id":310,"name":"lad48","steam_id":76561198162146134,"connected_time":193000000000,"state":"active","ping":104},{"user_id":249,"name":"Mancomb Seepgood","steam_id":76561197974116369,"connected_time":4791000000000,"state":"active","ping":63},{"user_id":285,"name":"ZAZA expert","steam_id":76561198369335263,"connected_time":1904000000000,"state":"active","ping":45},{"user_id":294,"name":"Rin-Nakaret","steam_id":76561197971051188,"connected_time":906000000000,"state":"active","ping":73},{"user_id":296,"name":"steve","steam_id":76561198076135756,"connected_time":783000000000,"state":"active","ping":56},{"user_id":312,"name":"Trannies are pedos","steam_id":76561198855789100,"connected_time":185000000000,"state":"active","ping":103},{"user_id":291,"name":"Crow","steam_id":76561198904910888,"connected_time":1193000000000,"state":"active","ping":136},{"user_id":309,"name":"Ghibley","steam_id":76561199037099624,"connected_time":206000000000,"state":"active","ping":66},{"user_id":236,"name":"Tides","steam_id":76561198257383813,"connected_time":5259000000000,"state":"active","ping":54},{"user_id":271,"name":"MagicTITIKAKA","steam_id":76561198129509548,"connected_time":3209000000000,"state":"active","ping":117},{"user_id":284,"name":"๖乡Ðe·SexyLion乡","steam_id":76561198123539320,"connected_time":1965000000000,"state":"active","ping":111},{"user_id":311,"name":"Spede Pasane","steam_id":76561198807233328,"connected_time":189000000000,"state":"active","ping":61},{"user_id":239,"name":"def","steam_id":76561198857396812,"connected_time":5190000000000,"state":"active","ping":50},{"user_id":252,"name":"tempLimit","steam_id":76561199158363470,"connected_time":4686000000000,"state":"active","ping":77},{"user_id":314,"name":"Dolcelatte","steam_id":76561198038501770,"connected_time":131000000000,"state":"active","ping":58},{"user_id":301,"name":"JP3","steam_id":76561197970963576,"connected_time":712000000000,"state":"active","ping":58}]},{"server_id":23,"name":"Uncletopia | Frankfurt | 7 | No Payload","name_short":"frk-7","host":"frk-1.de.uncletopia.com","port":27075,"enabled":true,"region":"eu","cc":"de","latitude":50.110924,"longitude":8.682127,"reserved":0,"last_update":"0001-01-01T00:00:00Z","name_a2s":"Uncletopia | Frankfurt | 7 | No Payload","protocol":17,"map":"cp_altitude","folder":"tf","game":"Team Fortress","app_id":440,"player_count":0,"max_players":24,"Bots":0,"server_type":"Dedicated","server_os":"Linux","password":true,"vac":true,"version":"7695204","steam_id":85568392924742827,"keywords":["cp","nocrits","nodmgspread","uncletopia"],"game_id":440,"stv_port":27076,"stv_name":"Uncletopia | Frankfurt | 7 | No Payload | STV","players":null},{"server_id":24,"name":"Uncletopia | Frankfurt | 8 | Community","name_short":"frk-8","host":"frk-1.de.uncletopia.com","port":27085,"enabled":true,"region":"eu","cc":"de","latitude":50.110924,"longitude":8.682127,"reserved":0,"last_update":"0001-01-01T00:00:00Z","name_a2s":"Uncletopia | Frankfurt | 8 | Community","protocol":17,"map":"workshop/koth_ashville_final.ugc2130459942","folder":"tf","game":"Team Fortress","app_id":440,"player_count":0,"max_players":24,"Bots":0,"server_type":"Dedicated","server_os":"Linux","password":true,"vac":true,"version":"7695204","steam_id":85568392924742828,"keywords":["cp","nocrits","nodmgspread","uncletopia"],"game_id":440,"stv_port":27086,"stv_name":"Uncletopia | Frankfurt | 8 | Community | STV","players":null},{"server_id":202,"name":"Uncletopia | Hong Kong | 1 | All Maps","name_short":"hgk-1","host":"hgk-1.hk.uncletopia.com","port":27015,"enabled":true,"region":"asia","cc":"hk","latitude":22.302711,"longitude":114.177216,"reserved":0,"last_update":"0001-01-01T00:00:00Z","name_a2s":"Uncletopia | Hong Kong | 1 | All Maps","protocol":17,"map":"pl_borneo","folder":"tf","game":"Team Fortress","app_id":440,"player_count":0,"max_players":24,"Bots":0,"server_type":"Dedicated","server_os":"Linux","password":true,"vac":true,"version":"7695204","steam_id":85568392924494504,"keywords":["nocrits","nodmgspread","payload","uncletopia"],"game_id":440,"stv_port":27016,"stv_name":"Uncletopia | Hong Kong | 1 | All Maps | STV","players":null},{"server_id":1,"name":"Uncletopia | Los Angeles | 1 | All Maps","name_short":"lax-1","host":"lax-1.us.uncletopia.com","port":27015,"enabled":true,"region":"us-west","cc":"us","latitude":33.94279,"longitude":-118.41004,"reserved":0,"last_update":"0001-01-01T00:00:00Z","name_a2s":"Uncletopia | Los Angeles | 1 | All Maps","protocol":17,"map":"cp_sunshine","folder":"tf","game":"Team Fortress","app_id":440,"player_count":0,"max_players":24,"Bots":0,"server_type":"Dedicated","server_os":"Linux","password":true,"vac":true,"version":"7695204","steam_id":85568392924469991,"keywords":["cp","nocrits","nodmgspread","uncletopia"],"game_id":440,"stv_port":0,"stv_name":"","players":null},{"server_id":112,"name":"Uncletopia | Los Angeles | 2 | All Maps","name_short":"lax-2","host":"lax-1.us.uncletopia.com","port":27025,"enabled":true,"region":"us-west","cc":"us","latitude":33.94279,"longitude":-118.41004,"reserved":0,"last_update":"0001-01-01T00:00:00Z","name_a2s":"Uncletopia | Los Angeles | 2 | All Maps","protocol":17,"map":"cp_dustbowl","folder":"tf","game":"Team Fortress","app_id":440,"player_count":0,"max_players":24,"Bots":0,"server_type":"Dedicated","server_os":"Linux","password":true,"vac":true,"version":"7695204","steam_id":85568392924469992,"keywords":["cp","nocrits","nodmgspread","uncletopia"],"game_id":440,"stv_port":0,"stv_name":"","players":null},{"server_id":324,"name":"Uncletopia | Los Angeles | 3 | All Maps","name_short":"lax-3","host":"lax-1.us.uncletopia.com","port":27035,"enabled":true,"region":"us-west","cc":"us","latitude":33.94279,"longitude":-118.41004,"reserved":0,"last_update":"0001-01-01T00:00:00Z","name_a2s":"Uncletopia | Los Angeles | 3 | All Maps","protocol":17,"map":"cp_mountainlab","folder":"tf","game":"Team Fortress","app_id":440,"player_count":0,"max_players":24,"Bots":0,"server_type":"Dedicated","server_os":"Linux","password":true,"vac":true,"version":"7695204","steam_id":85568392924510198,"keywords":["cp","nocrits","nodmgspread","uncletopia"],"game_id":440,"stv_port":0,"stv_name":"","players":null},{"server_id":25,"name":"Uncletopia | Los Angeles | 4 | No Payload","name_short":"lax-4","host":"lax-1.us.uncletopia.com","port":27045,"enabled":true,"region":"us-west","cc":"us","latitude":33.94279,"longitude":-118.41004,"reserved":0,"last_update":"0001-01-01T00:00:00Z","name_a2s":"Uncletopia | Los Angeles | 4 | No Payload","protocol":17,"map":"pl_barnblitz","folder":"tf","game":"Team Fortress","app_id":440,"player_count":0,"max_players":24,"Bots":0,"server_type":"Dedicated","server_os":"Linux","password":true,"vac":true,"version":"7695204","steam_id":85568392924510199,"keywords":["nocrits","nodmgspread","payload","uncletopia"],"game_id":440,"stv_port":0,"stv_name":"","players":null},{"server_id":11,"name":"Uncletopia | London | 1 | All Maps","name_short":"lon-1","host":"lon-1.uk.uncletopia.com","port":27015,"enabled":true,"region":"eu","cc":"gb","latitude":51.509865,"longitude":-0.118092,"reserved":0,"last_update":"0001-01-01T00:00:00Z","name_a2s":"Uncletopia | London | 1 | All Maps","protocol":17,"map":"plr_hightower","folder":"tf","game":"Team Fortress","app_id":440,"player_count":23,"max_players":24,"Bots":0,"server_type":"Dedicated","server_os":"Linux","password":true,"vac":true,"version":"7695204","steam_id":85568392924367362,"keywords":["nocrits","nodmgspread","payload","uncletopia"],"game_id":440,"stv_port":27016,"stv_name":"Uncletopia | London | 1 | All Maps | STV","players":[{"user_id":168,"name":"ChesseKnight","steam_id":76561198102476339,"connected_time":653000000000,"state":"active","ping":86},{"user_id":186,"name":"insomnia","steam_id":76561198067253421,"connected_time":114000000000,"state":"active","ping":101},{"user_id":160,"name":"cant do that in overwatch","steam_id":76561198203486600,"connected_time":1625000000000,"state":"active","ping":42},{"user_id":138,"name":"festive jones","steam_id":76561198073975078,"connected_time":2918000000000,"state":"active","ping":47},{"user_id":76,"name":"gamerweed5","steam_id":76561198087651151,"connected_time":6112000000000,"state":"active","ping":43},{"user_id":182,"name":"Axord","steam_id":76561199289652176,"connected_time":354000000000,"state":"active","ping":53},{"user_id":157,"name":"tzlil","steam_id":76561198399916290,"connected_time":1794000000000,"state":"active","ping":193},{"user_id":163,"name":"MAKENTAKEN","steam_id":76561199127359587,"connected_time":1046000000000,"state":"active","ping":100},{"user_id":145,"name":"Jela331","steam_id":76561198112625107,"connected_time":2394000000000,"state":"active","ping":75},{"user_id":154,"name":"Boldozofuriozo","steam_id":76561198088667146,"connected_time":2089000000000,"state":"active","ping":69},{"user_id":176,"name":"some edgy nickname","steam_id":76561198040241299,"connected_time":566000000000,"state":"active","ping":83},{"user_id":164,"name":"Command","steam_id":76561198339873745,"connected_time":994000000000,"state":"active","ping":75},{"user_id":181,"name":"Mopo","steam_id":76561198068929700,"connected_time":375000000000,"state":"active","ping":76},{"user_id":147,"name":"BiasedAcorn","steam_id":76561198970772881,"connected_time":2355000000000,"state":"active","ping":48},{"user_id":151,"name":"ТЯЖЕЛЫЕ ИГРЫ","steam_id":76561198413545609,"connected_time":2210000000000,"state":"active","ping":52},{"user_id":109,"name":"justin_ (f2p)","steam_id":76561198839843428,"connected_time":4816000000000,"state":"active","ping":120},{"user_id":178,"name":"Soph","steam_id":76561198131688853,"connected_time":482000000000,"state":"active","ping":52},{"user_id":133,"name":"boat","steam_id":76561198044915818,"connected_time":3590000000000,"state":"active","ping":81},{"user_id":184,"name":"dongus","steam_id":76561198042774930,"connected_time":209000000000,"state":"active","ping":65},{"user_id":165,"name":"Breadcrab","steam_id":76561198015924039,"connected_time":778000000000,"state":"active","ping":46},{"user_id":185,"name":"tobiisweak","steam_id":76561199433982589,"connected_time":198000000000,"state":"active","ping":58},{"user_id":159,"name":"Davidoff","steam_id":76561199099163283,"connected_time":1737000000000,"state":"active","ping":82},{"user_id":174,"name":"'Tis but a scratch","steam_id":76561198118517671,"connected_time":617000000000,"state":"active","ping":122}]},{"server_id":114,"name":"Uncletopia | London | 2 | All Maps","name_short":"lon-2","host":"lon-1.uk.uncletopia.com","port":27025,"enabled":true,"region":"eu","cc":"gb","latitude":51.509865,"longitude":-0.118092,"reserved":0,"last_update":"0001-01-01T00:00:00Z","name_a2s":"Uncletopia | London | 2 | All Maps","protocol":17,"map":"koth_highpass","folder":"tf","game":"Team Fortress","app_id":440,"player_count":0,"max_players":24,"Bots":0,"server_type":"Dedicated","server_os":"Linux","password":true,"vac":true,"version":"7695204","steam_id":85568392924470941,"keywords":["cp","nocrits","nodmgspread","uncletopia"],"game_id":440,"stv_port":27026,"stv_name":"Uncletopia | London | 2 | All Maps | STV","players":null},{"server_id":320,"name":"Uncletopia | London | 3 | All Maps","name_short":"lon-3","host":"lon-1.uk.uncletopia.com","port":27035,"enabled":true,"region":"eu","cc":"gb","latitude":51.509865,"longitude":-0.118092,"reserved":0,"last_update":"0001-01-01T00:00:00Z","name_a2s":"Uncletopia | London | 3 | All Maps","protocol":17,"map":"pl_barnblitz","folder":"tf","game":"Team Fortress","app_id":440,"player_count":24,"max_players":24,"Bots":0,"server_type":"Dedicated","server_os":"Linux","password":true,"vac":true,"version":"7695204","steam_id":85568392924510192,"keywords":["nocrits","nodmgspread","payload","uncletopia"],"game_id":440,"stv_port":27036,"stv_name":"Uncletopia | London | 3 | All Maps | STV","players":[{"user_id":577,"name":"7hero","steam_id":76561198118829945,"connected_time":2300000000000,"state":"active","ping":106},{"user_id":593,"name":"Talking Table","steam_id":76561198170592539,"connected_time":469000000000,"state":"active","ping":119},{"user_id":594,"name":"After8","steam_id":76561198090750865,"connected_time":433000000000,"state":"active","ping":76},{"user_id":608,"name":"NALA","steam_id":76561198039806469,"connected_time":143000000000,"state":"active","ping":76},{"user_id":581,"name":"\"Dominus.\"","steam_id":76561199065917088,"connected_time":1736000000000,"state":"active","ping":65},{"user_id":598,"name":"window gaming","steam_id":76561198867998992,"connected_time":395000000000,"state":"active","ping":81},{"user_id":579,"name":"brtaba","steam_id":76561198796334790,"connected_time":1988000000000,"state":"active","ping":67},{"user_id":595,"name":"TheNerdman","steam_id":76561198097576111,"connected_time":433000000000,"state":"active","ping":61},{"user_id":551,"name":"Coyote29","steam_id":76561198344502070,"connected_time":4310000000000,"state":"active","ping":91},{"user_id":573,"name":"pryate","steam_id":76561198135960359,"connected_time":2686000000000,"state":"active","ping":43},{"user_id":596,"name":"sex slapper","steam_id":76561198078625819,"connected_time":427000000000,"state":"active","ping":36},{"user_id":602,"name":"deri100","steam_id":76561198397588574,"connected_time":354000000000,"state":"active","ping":80},{"user_id":597,"name":"Jonssoni","steam_id":76561199090813022,"connected_time":425000000000,"state":"active","ping":107},{"user_id":582,"name":"BELADIT","steam_id":76561198011911501,"connected_time":1716000000000,"state":"active","ping":82},{"user_id":600,"name":"Patrick Ratrick","steam_id":76561198086190783,"connected_time":377000000000,"state":"active","ping":45},{"user_id":587,"name":"Gothouk","steam_id":76561198084629668,"connected_time":1068000000000,"state":"active","ping":146},{"user_id":601,"name":"goofy goober","steam_id":76561198013237629,"connected_time":368000000000,"state":"active","ping":92},{"user_id":609,"name":"psychogoat101","steam_id":76561198156146805,"connected_time":133000000000,"state":"active","ping":43},{"user_id":604,"name":"mud","steam_id":76561198141497461,"connected_time":349000000000,"state":"active","ping":70},{"user_id":583,"name":"Bajas","steam_id":76561198179339326,"connected_time":1567000000000,"state":"active","ping":80},{"user_id":584,"name":"p1dgeon シ","steam_id":76561199109713313,"connected_time":1453000000000,"state":"active","ping":49},{"user_id":589,"name":"you (DK)","steam_id":76561198061472971,"connected_time":973000000000,"state":"active","ping":60},{"user_id":605,"name":"Joe12000","steam_id":76561198160817969,"connected_time":345000000000,"state":"active","ping":74},{"user_id":606,"name":"MJW","steam_id":76561198280051723,"connected_time":336000000000,"state":"active","ping":59}]},{"server_id":321,"name":"Uncletopia | London | 4 | All Maps","name_short":"lon-4","host":"lon-1.uk.uncletopia.com","port":27045,"enabled":true,"region":"eu","cc":"gb","latitude":51.509865,"longitude":-0.118092,"reserved":0,"last_update":"0001-01-01T00:00:00Z","name_a2s":"Uncletopia | London | 4 | All Maps","protocol":17,"map":"pl_badwater","folder":"tf","game":"Team Fortress","app_id":440,"player_count":24,"max_players":24,"Bots":0,"server_type":"Dedicated","server_os":"Linux","password":true,"vac":true,"version":"7695204","steam_id":85568392924510193,"keywords":["nocrits","nodmgspread","payload","uncletopia"],"game_id":440,"stv_port":27046,"stv_name":"Uncletopia | London | 4 | All Maps | STV","players":[{"user_id":106,"name":"Mi PRO | FIH","steam_id":76561199023108666,"connected_time":4000000000,"state":"spawning","ping":118},{"user_id":78,"name":"john fluidmasterballwasher doe","steam_id":76561199006462039,"connected_time":1448000000000,"state":"active","ping":70},{"user_id":63,"name":"Hoks","steam_id":76561198126442242,"connected_time":2252000000000,"state":"active","ping":126},{"user_id":73,"name":"PasiPiru","steam_id":76561198013325816,"connected_time":1614000000000,"state":"active","ping":113},{"user_id":74,"name":"olsaan","steam_id":76561198045216309,"connected_time":1612000000000,"state":"active","ping":45},{"user_id":94,"name":"TeamFortressTV OutAimed","steam_id":76561198154406495,"connected_time":858000000000,"state":"active","ping":45},{"user_id":102,"name":"Haggabah,WhoPliesTheUmbralPath","steam_id":76561198846984399,"connected_time":59000000000,"state":"spawning","ping":91},{"user_id":88,"name":"Areck2","steam_id":76561199041737814,"connected_time":1040000000000,"state":"active","ping":41},{"user_id":81,"name":"Insanitybomb","steam_id":76561198048707708,"connected_time":1237000000000,"state":"active","ping":53},{"user_id":80,"name":"Clitorina","steam_id":76561198077570815,"connected_time":1245000000000,"state":"active","ping":35},{"user_id":100,"name":"Chill Spirit","steam_id":76561198845001725,"connected_time":331000000000,"state":"active","ping":58},{"user_id":76,"name":"PinheadLarry","steam_id":76561198119513111,"connected_time":1581000000000,"state":"active","ping":55},{"user_id":82,"name":"zak","steam_id":76561197998895428,"connected_time":1228000000000,"state":"active","ping":64},{"user_id":98,"name":"DrauconeTMDS","steam_id":76561198083510257,"connected_time":508000000000,"state":"active","ping":45},{"user_id":101,"name":"Frazzles","steam_id":76561199228009586,"connected_time":78000000000,"state":"active","ping":52},{"user_id":103,"name":"Ramzi","steam_id":76561198124445500,"connected_time":58000000000,"state":"active","ping":113},{"user_id":83,"name":"Нечуй-Левицький","steam_id":76561198870926865,"connected_time":1225000000000,"state":"active","ping":47},{"user_id":99,"name":"Tuxedo Terrorist","steam_id":76561199015038728,"connected_time":489000000000,"state":"active","ping":57},{"user_id":105,"name":"C0d3s","steam_id":76561198093907544,"connected_time":21000000000,"state":"spawning","ping":150},{"user_id":58,"name":"Bounter","steam_id":76561198072614188,"connected_time":2584000000000,"state":"active","ping":76},{"user_id":61,"name":"Nomad994","steam_id":76561198051908201,"connected_time":2446000000000,"state":"active","ping":91},{"user_id":104,"name":"Michael","steam_id":76561198003146906,"connected_time":58000000000,"state":"active","ping":45},{"user_id":86,"name":"The 4th Doctor","steam_id":76561198191516706,"connected_time":1172000000000,"state":"active","ping":70},{"user_id":97,"name":"spillr-.-","steam_id":76561198031330889,"connected_time":802000000000,"state":"active","ping":66}]},{"server_id":21,"name":"Uncletopia | London | 5 | All Maps","name_short":"lon-5","host":"lon-1.uk.uncletopia.com","port":27055,"enabled":true,"region":"eu","cc":"gb","latitude":51.509865,"longitude":-0.118092,"reserved":0,"last_update":"0001-01-01T00:00:00Z","name_a2s":"Uncletopia | London | 5 | All Maps","protocol":17,"map":"koth_cascade","folder":"tf","game":"Team Fortress","app_id":440,"player_count":0,"max_players":24,"Bots":0,"server_type":"Dedicated","server_os":"Linux","password":true,"vac":true,"version":"7695204","steam_id":85568392924742829,"keywords":["cp","nocrits","nodmgspread","uncletopia"],"game_id":440,"stv_port":0,"stv_name":"","players":null},{"server_id":22,"name":"Uncletopia | London | 6 | All Maps","name_short":"lon-6","host":"lon-1.uk.uncletopia.com","port":27065,"enabled":true,"region":"eu","cc":"gb","latitude":51.509865,"longitude":-0.118092,"reserved":0,"last_update":"0001-01-01T00:00:00Z","name_a2s":"Uncletopia | London | 6 | All Maps","protocol":17,"map":"pl_pier","folder":"tf","game":"Team Fortress","app_id":440,"player_count":0,"max_players":24,"Bots":0,"server_type":"Dedicated","server_os":"Linux","password":true,"vac":true,"version":"7695204","steam_id":85568392924742830,"keywords":["nocrits","nodmgspread","payload","uncletopia"],"game_id":440,"stv_port":0,"stv_name":"","players":null},{"server_id":40,"name":"Uncletopia | London | 7 | No Payload","name_short":"lon-7","host":"lon-1.uk.uncletopia.com","port":27075,"enabled":true,"region":"eu","cc":"gb","latitude":51.509865,"longitude":-0.118092,"reserved":0,"last_update":"0001-01-01T00:00:00Z","name_a2s":"Uncletopia | London | 7 | No Payload","protocol":17,"map":"plr_hightower","folder":"tf","game":"Team Fortress","app_id":440,"player_count":0,"max_players":24,"Bots":0,"server_type":"Dedicated","server_os":"Linux","password":true,"vac":true,"version":"7695204","steam_id":85568392924964314,"keywords":["nocrits","nodmgspread","payload","uncletopia"],"game_id":440,"stv_port":27076,"stv_name":"Uncletopia | London | 7 | No Payload | STV","players":null},{"server_id":41,"name":"Uncletopia | London | 8 | Community","name_short":"lon-8","host":"lon-1.uk.uncletopia.com","port":27085,"enabled":true,"region":"eu","cc":"gb","latitude":51.509865,"longitude":-0.118092,"reserved":0,"last_update":"0001-01-01T00:00:00Z","name_a2s":"Uncletopia | London | 8 | Community","protocol":17,"map":"cp_dustbowl","folder":"tf","game":"Team Fortress","app_id":440,"player_count":0,"max_players":24,"Bots":0,"server_type":"Dedicated","server_os":"Linux","password":true,"vac":true,"version":"7695204","steam_id":85568392924964315,"keywords":["cp","nocrits","nodmgspread","uncletopia"],"game_id":440,"stv_port":0,"stv_name":"","players":null},{"server_id":300,"name":"Uncletopia | Montréal | 1 | All Maps","name_short":"mtl-1","host":"mtl-1.ca.uncletopia.com","port":27015,"enabled":true,"region":"us-east","cc":"ca","latitude":45.50889,"longitude":-73.56167,"reserved":0,"last_update":"0001-01-01T00:00:00Z","name_a2s":"Uncletopia | Montréal | 1 | All Maps","protocol":17,"map":"koth_cascade","folder":"tf","game":"Team Fortress","app_id":440,"player_count":0,"max_players":24,"Bots":0,"server_type":"Dedicated","server_os":"Linux","password":true,"vac":true,"version":"7695204","steam_id":85568392924500087,"keywords":["cp","nocrits","nodmgspread","uncletopia"],"game_id":440,"stv_port":27016,"stv_name":"Uncletopia | Montréal | 1 | All Maps | STV","players":null},{"server_id":301,"name":"Uncletopia | Montréal | 2 | All Maps","name_short":"mtl-2","host":"mtl-1.ca.uncletopia.com","port":27025,"enabled":true,"region":"us-east","cc":"ca","latitude":45.50889,"longitude":-73.56167,"reserved":0,"last_update":"0001-01-01T00:00:00Z","name_a2s":"Uncletopia | Montréal | 2 | All Maps","protocol":17,"map":"pl_snowycoast","folder":"tf","game":"Team Fortress","app_id":440,"player_count":0,"max_players":24,"Bots":0,"server_type":"Dedicated","server_os":"Linux","password":true,"vac":true,"version":"7695204","steam_id":85568392924500088,"keywords":["nocrits","nodmgspread","payload","uncletopia"],"game_id":440,"stv_port":0,"stv_name":"","players":null},{"server_id":302,"name":"Uncletopia | Montréal | 3 | All Maps","name_short":"mtl-3","host":"mtl-1.ca.uncletopia.com","port":27035,"enabled":true,"region":"us-east","cc":"ca","latitude":45.50889,"longitude":-73.56167,"reserved":0,"last_update":"0001-01-01T00:00:00Z","name_a2s":"Uncletopia | Montréal | 3 | All Maps","protocol":17,"map":"koth_viaduct","folder":"tf","game":"Team Fortress","app_id":440,"player_count":0,"max_players":24,"Bots":0,"server_type":"Dedicated","server_os":"Linux","password":true,"vac":true,"version":"7695204","steam_id":85568392924500089,"keywords":["cp","nocrits","nodmgspread","uncletopia"],"game_id":440,"stv_port":0,"stv_name":"","players":null},{"server_id":303,"name":"Uncletopia | Montréal | 4 | No Payload","name_short":"mtl-4","host":"mtl-1.ca.uncletopia.com","port":27045,"enabled":true,"region":"us-east","cc":"ca","latitude":45.50889,"longitude":-73.56167,"reserved":0,"last_update":"0001-01-01T00:00:00Z","name_a2s":"Uncletopia | Montréal | 4 | No Payload","protocol":17,"map":"cp_dustbowl","folder":"tf","game":"Team Fortress","app_id":440,"player_count":0,"max_players":24,"Bots":0,"server_type":"Dedicated","server_os":"Linux","password":true,"vac":true,"version":"7695204","steam_id":85568392924500090,"keywords":["cp","nocrits","nodmgspread","uncletopia"],"game_id":440,"stv_port":0,"stv_name":"","players":null},{"server_id":13,"name":"Uncletopia | New York City | 1 | All Maps","name_short":"nyc-1","host":"nyc-1.us.uncletopia.com","port":27015,"enabled":true,"region":"us-east","cc":"us","latitude":40.73061,"longitude":-73.93524,"reserved":0,"last_update":"0001-01-01T00:00:00Z","name_a2s":"Uncletopia | New York City | 1 | All Maps","protocol":17,"map":"koth_lakeside_final","folder":"tf","game":"Team Fortress","app_id":440,"player_count":0,"max_players":24,"Bots":0,"server_type":"Dedicated","server_os":"Linux","password":true,"vac":true,"version":"7695204","steam_id":85568392924469993,"keywords":["cp","nocrits","nodmgspread","uncletopia"],"game_id":440,"stv_port":27016,"stv_name":"Uncletopia | New York City | 1 | All Maps | STV","players":null},{"server_id":14,"name":"Uncletopia | New York City | 2 | All Maps","name_short":"nyc-2","host":"nyc-1.us.uncletopia.com","port":27025,"enabled":true,"region":"us-east","cc":"us","latitude":40.73061,"longitude":-73.93524,"reserved":0,"last_update":"0001-01-01T00:00:00Z","name_a2s":"Uncletopia | New York City | 2 | All Maps","protocol":17,"map":"pl_borneo","folder":"tf","game":"Team Fortress","app_id":440,"player_count":0,"max_players":24,"Bots":0,"server_type":"Dedicated","server_os":"Linux","password":true,"vac":true,"version":"7695204","steam_id":85568392924469994,"keywords":["nocrits","nodmgspread","payload","uncletopia"],"game_id":440,"stv_port":0,"stv_name":"","players":null},{"server_id":15,"name":"Uncletopia | New York City | 3 | All Maps","name_short":"nyc-3","host":"nyc-1.us.uncletopia.com","port":27035,"enabled":true,"region":"us-east","cc":"us","latitude":40.73061,"longitude":-73.93524,"reserved":0,"last_update":"0001-01-01T00:00:00Z","name_a2s":"Uncletopia | New York City | 3 | All Maps","protocol":17,"map":"pl_swiftwater_final1","folder":"tf","game":"Team Fortress","app_id":440,"player_count":0,"max_players":24,"Bots":0,"server_type":"Dedicated","server_os":"Linux","password":true,"vac":true,"version":"7695204","steam_id":85568392924742820,"keywords":["nocrits","nodmgspread","payload","uncletopia"],"game_id":440,"stv_port":27036,"stv_name":"Uncletopia | New York City | 3 | All Maps | STV","players":null},{"server_id":16,"name":"Uncletopia | New York City | 4 | Community","name_short":"nyc-4","host":"nyc-1.us.uncletopia.com","port":27045,"enabled":true,"region":"us-east","cc":"us","latitude":40.73061,"longitude":-73.93524,"reserved":0,"last_update":"0001-01-01T00:00:00Z","name_a2s":"Uncletopia | New York City | 4 | Community","protocol":17,"map":"workshop/rd_asteroid_redux_rc9.ugc2154902912","folder":"tf","game":"Team Fortress","app_id":440,"player_count":0,"max_players":24,"Bots":0,"server_type":"Dedicated","server_os":"Linux","password":true,"vac":true,"version":"7695204","steam_id":85568392924742821,"keywords":["beta","nocrits","nodmgspread","rd","uncletopia"],"game_id":440,"stv_port":27046,"stv_name":"Uncletopia | New York City | 4 | Community | STV","players":null},{"server_id":142,"name":"Uncletopia | São Paulo | 1 | All Maps","name_short":"sao-1","host":"sao-1.br.uncletopia.com","port":27015,"enabled":true,"region":"sa","cc":"br","latitude":-23.533773,"longitude":-46.62529,"reserved":0,"last_update":"0001-01-01T00:00:00Z","name_a2s":"Uncletopia | São Paulo | 1 | All Maps","protocol":17,"map":"koth_viaduct","folder":"tf","game":"Team Fortress","app_id":440,"player_count":0,"max_players":24,"Bots":0,"server_type":"Dedicated","server_os":"Linux","password":true,"vac":true,"version":"7695204","steam_id":85568392924469996,"keywords":["cp","nocrits","nodmgspread","uncletopia"],"game_id":440,"stv_port":27016,"stv_name":"Uncletopia | São Paulo | 1 | All Maps | STV","players":null},{"server_id":143,"name":"Uncletopia | São Paulo | 2 | All Maps","name_short":"sao-2","host":"sao-2.br.uncletopia.com","port":27015,"enabled":true,"region":"sa","cc":"br","latitude":-23.533773,"longitude":-46.62529,"reserved":0,"last_update":"0001-01-01T00:00:00Z","name_a2s":"Uncletopia | São Paulo | 2 | All Maps","protocol":17,"map":"pl_borneo","folder":"tf","game":"Team Fortress","app_id":440,"player_count":13,"max_players":24,"Bots":0,"server_type":"Dedicated","server_os":"Linux","password":true,"vac":true,"version":"7695204","steam_id":85568392924485349,"keywords":["nocrits","nodmgspread","payload","uncletopia"],"game_id":440,"stv_port":27016,"stv_name":"Uncletopia | São Paulo | 2 | All Maps | STV","players":[{"user_id":61,"name":"patrickisonfire","steam_id":76561198011468607,"connected_time":126000000000,"state":"active","ping":74},{"user_id":45,"name":"pastel","steam_id":76561198259174193,"connected_time":1472000000000,"state":"active","ping":28},{"user_id":46,"name":"algumber","steam_id":76561199429426012,"connected_time":1390000000000,"state":"active","ping":82},{"user_id":60,"name":"Vic Rattlehead","steam_id":76561199232899925,"connected_time":189000000000,"state":"active","ping":54},{"user_id":55,"name":"lovuno","steam_id":76561198973281094,"connected_time":779000000000,"state":"active","ping":41},{"user_id":32,"name":"G. Pretendedor","steam_id":76561198145966888,"connected_time":2226000000000,"state":"active","ping":62},{"user_id":28,"name":"terrible gamer™","steam_id":76561198895061602,"connected_time":2638000000000,"state":"active","ping":109},{"user_id":47,"name":"Papyrus Gamer","steam_id":76561199029727506,"connected_time":1284000000000,"state":"active","ping":90},{"user_id":49,"name":"lol#recominion","steam_id":76561199157058940,"connected_time":1167000000000,"state":"active","ping":106},{"user_id":50,"name":"Ms.Raposa","steam_id":76561198807448244,"connected_time":1047000000000,"state":"active","ping":102},{"user_id":52,"name":"yrk","steam_id":76561198332577325,"connected_time":867000000000,"state":"active","ping":43},{"user_id":57,"name":"Novum","steam_id":76561198863734507,"connected_time":514000000000,"state":"active","ping":63},{"user_id":58,"name":"kozza","steam_id":76561197980887931,"connected_time":417000000000,"state":"active","ping":62}]},{"server_id":7,"name":"Uncletopia | Seattle | 1 | All Maps","name_short":"sea-1","host":"sea-1.us.uncletopia.com","port":27015,"enabled":true,"region":"us-west","cc":"us","latitude":47.608013,"longitude":-122.33517,"reserved":0,"last_update":"0001-01-01T00:00:00Z","name_a2s":"Uncletopia | Seattle | 1 | All Maps","protocol":17,"map":"koth_viaduct","folder":"tf","game":"Team Fortress","app_id":440,"player_count":0,"max_players":24,"Bots":0,"server_type":"Dedicated","server_os":"Linux","password":true,"vac":true,"version":"7695204","steam_id":85568392924469997,"keywords":["cp","nocrits","nodmgspread","uncletopia"],"game_id":440,"stv_port":27016,"stv_name":"Uncletopia | Seattle | 1 | All Maps | STV","players":null},{"server_id":119,"name":"Uncletopia | Seattle | 2 | All Maps","name_short":"sea-2","host":"sea-1.us.uncletopia.com","port":27025,"enabled":true,"region":"us-west","cc":"us","latitude":47.608013,"longitude":-122.33517,"reserved":0,"last_update":"0001-01-01T00:00:00Z","name_a2s":"Uncletopia | Seattle | 2 | All Maps","protocol":17,"map":"koth_lakeside_final","folder":"tf","game":"Team Fortress","app_id":440,"player_count":0,"max_players":24,"Bots":0,"server_type":"Dedicated","server_os":"Linux","password":true,"vac":true,"version":"7695204","steam_id":85568392924469998,"keywords":["cp","nocrits","nodmgspread","uncletopia"],"game_id":440,"stv_port":0,"stv_name":"","players":null},{"server_id":17,"name":"Uncletopia | San Francisco | 1 | All Maps","name_short":"sfo-1","host":"sfo-1.us.uncletopia.com","port":27015,"enabled":true,"region":"us-west","cc":"us","latitude":37.77397,"longitude":-122.4313,"reserved":0,"last_update":"0001-01-01T00:00:00Z","name_a2s":"Uncletopia | San Francisco | 1 | All Maps","protocol":17,"map":"cp_sunshine","folder":"tf","game":"Team Fortress","app_id":440,"player_count":0,"max_players":24,"Bots":0,"server_type":"Dedicated","server_os":"Linux","password":true,"vac":true,"version":"7695204","steam_id":85568392924469999,"keywords":["cp","nocrits","nodmgspread","uncletopia"],"game_id":440,"stv_port":0,"stv_name":"","players":null},{"server_id":18,"name":"Uncletopia | San Francisco | 2 | All Maps","name_short":"sfo-2","host":"sfo-1.us.uncletopia.com","port":27025,"enabled":true,"region":"us-west","cc":"us","latitude":37.77397,"longitude":-122.4313,"reserved":0,"last_update":"0001-01-01T00:00:00Z","name_a2s":"Uncletopia | San Francisco | 2 | All Maps","protocol":17,"map":"pl_badwater","folder":"tf","game":"Team Fortress","app_id":440,"player_count":0,"max_players":24,"Bots":0,"server_type":"Dedicated","server_os":"Linux","password":true,"vac":true,"version":"7695204","steam_id":85568392924470000,"keywords":["nocrits","nodmgspread","payload","uncletopia"],"game_id":440,"stv_port":0,"stv_name":"","players":null},{"server_id":19,"name":"Uncletopia | San Francisco | 3 | No Payload","name_short":"sfo-3","host":"sfo-1.us.uncletopia.com","port":27035,"enabled":true,"region":"us-west","cc":"us","latitude":37.77397,"longitude":-122.4313,"reserved":0,"last_update":"0001-01-01T00:00:00Z","name_a2s":"Uncletopia | San Francisco | 3 | No Payload","protocol":17,"map":"cp_snakewater_final1","folder":"tf","game":"Team Fortress","app_id":440,"player_count":0,"max_players":24,"Bots":0,"server_type":"Dedicated","server_os":"Linux","password":true,"vac":true,"version":"7695204","steam_id":85568392924742824,"keywords":["cp","nocrits","nodmgspread","uncletopia"],"game_id":440,"stv_port":0,"stv_name":"","players":null},{"server_id":20,"name":"Uncletopia | San Francisco | 4 | Community","name_short":"sfo-4","host":"sfo-1.us.uncletopia.com","port":27045,"enabled":true,"region":"us-west","cc":"us","latitude":37.77397,"longitude":-122.4313,"reserved":0,"last_update":"0001-01-01T00:00:00Z","name_a2s":"Uncletopia | San Francisco | 4 | Community","protocol":17,"map":"koth_highpass","folder":"tf","game":"Team Fortress","app_id":440,"player_count":0,"max_players":24,"Bots":0,"server_type":"Dedicated","server_os":"Linux","password":true,"vac":true,"version":"7695204","steam_id":85568392924742826,"keywords":["cp","nocrits","nodmgspread","uncletopia"],"game_id":440,"stv_port":0,"stv_name":"","players":null},{"server_id":141,"name":"Uncletopia | Sydney | 1 | All Maps","name_short":"syd-1","host":"syd-1.au.uncletopia.com","port":27015,"enabled":true,"region":"au","cc":"au","latitude":-33.865143,"longitude":151.2099,"reserved":0,"last_update":"0001-01-01T00:00:00Z","name_a2s":"Uncletopia | Sydney | 1 | All Maps","protocol":17,"map":"pl_pier","folder":"tf","game":"Team Fortress","app_id":440,"player_count":0,"max_players":24,"Bots":0,"server_type":"Dedicated","server_os":"Linux","password":true,"vac":true,"version":"7695204","steam_id":85568392924470001,"keywords":["nocrits","nodmgspread","payload","uncletopia"],"game_id":440,"stv_port":27016,"stv_name":"Uncletopia | Sydney | 1 | All Maps | STV","players":null},{"server_id":123,"name":"Uncletopia | Sydney | 2 | All Maps","name_short":"syd-2","host":"syd-1.au.uncletopia.com","port":27025,"enabled":true,"region":"au","cc":"au","latitude":-33.865143,"longitude":151.2099,"reserved":0,"last_update":"0001-01-01T00:00:00Z","name_a2s":"Uncletopia | Sydney | 2 | All Maps","protocol":17,"map":"koth_cascade","folder":"tf","game":"Team Fortress","app_id":440,"player_count":0,"max_players":24,"Bots":0,"server_type":"Dedicated","server_os":"Linux","password":true,"vac":true,"version":"7695204","steam_id":85568392924470002,"keywords":["cp","nocrits","nodmgspread","uncletopia"],"game_id":440,"stv_port":27026,"stv_name":"Uncletopia | Sydney | 2 | All Maps | STV","players":null},{"server_id":395,"name":"Uncletopia | Sydney | 3 | All Maps","name_short":"syd-3","host":"syd-1.au.uncletopia.com","port":27035,"enabled":true,"region":"au","cc":"au","latitude":-33.865143,"longitude":151.2099,"reserved":0,"last_update":"0001-01-01T00:00:00Z","name_a2s":"Uncletopia | Sydney | 3 | All Maps","protocol":17,"map":"cp_sunshine","folder":"tf","game":"Team Fortress","app_id":440,"player_count":0,"max_players":24,"Bots":0,"server_type":"Dedicated","server_os":"Linux","password":true,"vac":true,"version":"7695204","steam_id":85568392925194467,"keywords":["cp","nocrits","nodmgspread","uncletopia"],"game_id":440,"stv_port":27036,"stv_name":"Uncletopia | Sydney | 3 | All Maps | STV","players":null},{"server_id":396,"name":"Uncletopia | Sydney | 4 | All Maps","name_short":"syd-4","host":"syd-1.au.uncletopia.com","port":27045,"enabled":true,"region":"au","cc":"au","latitude":-33.865143,"longitude":151.2099,"reserved":0,"last_update":"0001-01-01T00:00:00Z","name_a2s":"Uncletopia | Sydney | 4 | All Maps","protocol":17,"map":"cp_snakewater_final1","folder":"tf","game":"Team Fortress","app_id":440,"player_count":0,"max_players":24,"Bots":0,"server_type":"Dedicated","server_os":"Linux","password":true,"vac":true,"version":"7695204","steam_id":85568392925397958,"keywords":["cp","nocrits","nodmgspread","uncletopia"],"game_id":440,"stv_port":27046,"stv_name":"Uncletopia | Sydney | 4 | All Maps | STV","players":null},{"server_id":58,"name":"Uncletopia | Sydney | 5 | No Payload","name_short":"syd-5","host":"syd-1.au.uncletopia.com","port":27055,"enabled":true,"region":"au","cc":"au","latitude":-33.865143,"longitude":151.2099,"reserved":0,"last_update":"0001-01-01T00:00:00Z","name_a2s":"Uncletopia | Sydney | 5 | No Payload","protocol":17,"map":"koth_sawmill","folder":"tf","game":"Team Fortress","app_id":440,"player_count":0,"max_players":24,"Bots":0,"server_type":"Dedicated","server_os":"Linux","password":true,"vac":true,"version":"7695204","steam_id":85568392925397959,"keywords":["cp","nocrits","nodmgspread","uncletopia"],"game_id":440,"stv_port":27056,"stv_name":"Uncletopia | Sydney | 5 | No Payload | STV","players":null},{"server_id":59,"name":"Uncletopia | Sydney | 6 | Community","name_short":"syd-6","host":"syd-1.au.uncletopia.com","port":27065,"enabled":true,"region":"au","cc":"au","latitude":-33.865143,"longitude":151.2099,"reserved":0,"last_update":"0001-01-01T00:00:00Z","name_a2s":"Uncletopia | Sydney | 6 | Community","protocol":17,"map":"workshop/koth_ashville_final.ugc2130459942","folder":"tf","game":"Team Fortress","app_id":440,"player_count":0,"max_players":24,"Bots":0,"server_type":"Dedicated","server_os":"Linux","password":true,"vac":true,"version":"7695204","steam_id":85568392925397960,"keywords":["cp","nocrits","nodmgspread","uncletopia"],"game_id":440,"stv_port":27066,"stv_name":"Uncletopia | Sydney | 6 | Community | STV","players":null},{"server_id":49,"name":"Uncletopia | Warsaw | 1 | All Maps","name_short":"waw-1","host":"waw-1.pl.uncletopia.com","port":27015,"enabled":true,"region":"eu","cc":"pl","latitude":52.2297,"longitude":21.017532,"reserved":0,"last_update":"0001-01-01T00:00:00Z","name_a2s":"Uncletopia | Warsaw | 1 | All Maps","protocol":17,"map":"koth_lakeside_final","folder":"tf","game":"Team Fortress","app_id":440,"player_count":0,"max_players":24,"Bots":0,"server_type":"Dedicated","server_os":"Linux","password":true,"vac":true,"version":"7695204","steam_id":85568392925397850,"keywords":["cp","nocrits","nodmgspread","uncletopia"],"game_id":440,"stv_port":27016,"stv_name":"Uncletopia | Warsaw | 1 | All Maps | STV","players":null},{"server_id":50,"name":"Uncletopia | Warsaw | 2 | All Maps","name_short":"waw-2","host":"waw-1.pl.uncletopia.com","port":27025,"enabled":true,"region":"eu","cc":"pl","latitude":52.2297,"longitude":21.017532,"reserved":0,"last_update":"0001-01-01T00:00:00Z","name_a2s":"Uncletopia | Warsaw | 2 | All Maps","protocol":17,"map":"cp_snakewater_final1","folder":"tf","game":"Team Fortress","app_id":440,"player_count":0,"max_players":24,"Bots":0,"server_type":"Dedicated","server_os":"Linux","password":true,"vac":true,"version":"7695204","steam_id":85568392925397851,"keywords":["cp","nocrits","nodmgspread","uncletopia"],"game_id":440,"stv_port":0,"stv_name":"","players":null},{"server_id":51,"name":"Uncletopia | Warsaw | 3 | All Maps","name_short":"waw-3","host":"waw-1.pl.uncletopia.com","port":27035,"enabled":true,"region":"eu","cc":"pl","latitude":52.2297,"longitude":21.017532,"reserved":0,"last_update":"0001-01-01T00:00:00Z","name_a2s":"Uncletopia | Warsaw | 3 | All Maps","protocol":17,"map":"koth_lakeside_final","folder":"tf","game":"Team Fortress","app_id":440,"player_count":0,"max_players":24,"Bots":0,"server_type":"Dedicated","server_os":"Linux","password":true,"vac":true,"version":"7695204","steam_id":85568392925397852,"keywords":["cp","nocrits","nodmgspread","uncletopia"],"game_id":440,"stv_port":27036,"stv_name":"Uncletopia | Warsaw | 3 | All Maps | STV","players":null},{"server_id":52,"name":"Uncletopia | Warsaw | 4 | All Maps","name_short":"waw-4","host":"waw-1.pl.uncletopia.com","port":27045,"enabled":true,"region":"eu","cc":"pl","latitude":52.2297,"longitude":21.017532,"reserved":0,"last_update":"0001-01-01T00:00:00Z","name_a2s":"Uncletopia | Warsaw | 4 | All Maps","protocol":17,"map":"cp_process_final","folder":"tf","game":"Team Fortress","app_id":440,"player_count":0,"max_players":24,"Bots":0,"server_type":"Dedicated","server_os":"Linux","password":true,"vac":true,"version":"7695204","steam_id":85568392925397853,"keywords":["cp","nocrits","nodmgspread","uncletopia"],"game_id":440,"stv_port":27046,"stv_name":"Uncletopia | Warsaw | 4 | All Maps | STV","players":null},{"server_id":53,"name":"Uncletopia | Warsaw | 5 | No Payload","name_short":"waw-5","host":"waw-1.pl.uncletopia.com","port":27055,"enabled":true,"region":"eu","cc":"pl","latitude":52.2297,"longitude":21.017532,"reserved":0,"last_update":"0001-01-01T00:00:00Z","name_a2s":"Uncletopia | Warsaw | 5 | No Payload","protocol":17,"map":"koth_king","folder":"tf","game":"Team Fortress","app_id":440,"player_count":0,"max_players":24,"Bots":0,"server_type":"Dedicated","server_os":"Linux","password":true,"vac":true,"version":"7695204","steam_id":85568392925397854,"keywords":["cp","nocrits","nodmgspread","uncletopia"],"game_id":440,"stv_port":27056,"stv_name":"Uncletopia | Warsaw | 5 | No Payload | STV","players":null},{"server_id":54,"name":"Uncletopia | Warsaw | 6 | Community","name_short":"waw-6","host":"waw-1.pl.uncletopia.com","port":27065,"enabled":true,"region":"eu","cc":"pl","latitude":52.2297,"longitude":21.017532,"reserved":0,"last_update":"0001-01-01T00:00:00Z","name_a2s":"Uncletopia | Warsaw | 6 | Community","protocol":17,"map":"workshop/koth_ashville_final.ugc2130459942","folder":"tf","game":"Team Fortress","app_id":440,"player_count":0,"max_players":24,"Bots":0,"server_type":"Dedicated","server_os":"Linux","password":true,"vac":true,"version":"7695204","steam_id":85568392925397856,"keywords":["cp","nocrits","nodmgspread","uncletopia"],"game_id":440,"stv_port":27066,"stv_name":"Uncletopia | Warsaw | 6 | Community | STV","players":null}]}