{"status":true,"message":"","result":[{"server_id":2,"name":"Uncletopia | Chicago | 1 | All Maps","name_short":"chi-1","host":"chi-1.us.uncletopia.com","port":27015,"enabled":true,"region":"us-central","cc":"us","latitude":41.881832,"longitude":-87.62318,"reserved":0,"last_update":"0001-01-01T00:00:00Z","name_a2s":"Uncletopia | Chicago | 1 | All Maps","protocol":17,"map":"pl_badwater","folder":"tf","game":"Team Fortress","app_id":440,"player_count":24,"max_players":24,"Bots":0,"server_type":"Dedicated","server_os":"Linux","password":true,"vac":true,"version":"7961495","steam_id":85568392924469984,"keywords":["nocrits","nodmgspread","payload","uncletopia"],"game_id":440,"stv_port":27016,"stv_name":"Uncletopia | Chicago | 1 | All Maps | STV","players":[{"user_id":583,"name":"Undertime Slopper","steam_id":76561198396789061,"connected_time":6885000000000,"state":"active","ping":90},{"user_id":639,"name":"Flubby","steam_id":76561198069171252,"connected_time":2532000000000,"state":"active","ping":59},{"user_id":637,"name":"Rec","steam_id":76561198022813906,"connected_time":2974000000000,"state":"active","ping":57},{"user_id":654,"name":"Cdesmondd","steam_id":76561198072774462,"connected_time":447000000000,"state":"active","ping":60},{"user_id":627,"name":"Green Mario","steam_id":76561198922644496,"connected_time":3439000000000,"state":"active","ping":90},{"user_id":623,"name":"Harpua","steam_id":76561197988020228,"connected_time":3790000000000,"state":"active","ping":74},{"user_id":636,"name":"Crab Rangoon","steam_id":76561198059310510,"connected_time":3115000000000,"state":"active","ping":60},{"user_id":644,"name":"popfulmail","steam_id":76561198865971290,"connected_time":1682000000000,"state":"active","ping":86},{"user_id":651,"name":"leumas","steam_id":76561198240408540,"connected_time":627000000000,"state":"active","ping":79},{"user_id":607,"name":"Hob-Goblin Jim The IV","steam_id":76561199046650666,"connected_time":4330000000000,"state":"active","ping":58},{"user_id":652,"name":"Fredrick","steam_id":76561197981419964,"connected_time":616000000000,"state":"active","ping":66},{"user_id":649,"name":"Draconic Ballad","steam_id":76561198027191515,"connected_time":649000000000,"state":"active","ping":55},{"user_id":550,"name":"blob","steam_id":76561198122375328,"connected_time":9285000000000,"state":"active","ping":54},{"user_id":638,"name":"Ursus Ludius","steam_id":76561198025470722,"connected_time":2734000000000,"state":"active","ping":67},{"user_id":653,"name":"Retro","steam_id":76561198414744723,"connected_time":555000000000,"state":"active","ping":66},{"user_id":568,"name":"Spy Gaming","steam_id":76561198453295613,"connected_time":8151000000000,"state":"active","ping":112},{"user_id":614,"name":"Jerk Tryhard (roleplay)","steam_id":76561199470538309,"connected_time":4227000000000,"state":"active","ping":57},{"user_id":615,"name":"guy who loves eating cigarettes","steam_id":76561198094495920,"connected_time":4227000000000,"state":"active","ping":32},{"user_id":648,"name":"22moo","steam_id":76561199075331630,"connected_time":656000000000,"state":"active","ping":71},{"user_id":646,"name":"GotYourNose","steam_id":76561198803527852,"connected_time":1217000000000,"state":"active","ping":68},{"user_id":601,"name":"hollowlilies","steam_id":76561198075315443,"connected_time":5424000000000,"state":"active","ping":83},{"user_id":656,"name":"DogsRNice","steam_id":76561198211490864,"connected_time":275000000000,"state":"active","ping":76},{"user_id":602,"name":"Murchant","steam_id":76561198087744946,"connected_time":5175000000000,"state":"active","ping":68},{"user_id":620,"name":"Astoriae!","steam_id":76561199090168858,"connected_time":4029000000000,"state":"active","ping":67}]},{"server_id":106,"name":"Uncletopia | Chicago | 2 | All Maps","name_short":"chi-2","host":"chi-1.us.uncletopia.com","port":27025,"enabled":true,"region":"us-central","cc":"us","latitude":41.881832,"longitude":-87.62318,"reserved":0,"last_update":"0001-01-01T00:00:00Z","name_a2s":"Uncletopia | Chicago | 2 | All Maps","protocol":17,"map":"koth_lakeside_final","folder":"tf","game":"Team Fortress","app_id":440,"player_count":24,"max_players":24,"Bots":0,"server_type":"Dedicated","server_os":"Linux","password":true,"vac":true,"version":"7961495","steam_id":85568392924469985,"keywords":["cp","nocrits","nodmgspread","uncletopia"],"game_id":440,"stv_port":27026,"stv_name":"Uncletopia | Chicago | 2 | All Maps | STV","players":[{"user_id":325,"name":"Prod. By WARCHI3F","steam_id":76561198871224298,"connected_time":5213000000000,"state":"active","ping":69},{"user_id":309,"name":"Nite","steam_id":76561199014777092,"connected_time":6586000000000,"state":"active","ping":58},{"user_id":368,"name":"crankshaft","steam_id":76561197992798282,"connected_time":2010000000000,"state":"active","ping":99},{"user_id":363,"name":"Warlord Sprinkle","steam_id":76561198359709367,"connected_time":2158000000000,"state":"active","ping":83},{"user_id":358,"name":"fLock","steam_id":76561198091578187,"connected_time":2430000000000,"state":"active","ping":72},{"user_id":366,"name":"ATL1 | SparkStorm","steam_id":76561198095817025,"connected_time":2064000000000,"state":"active","ping":45},{"user_id":370,"name":"LtSalte","steam_id":76561198004721081,"connected_time":1952000000000,"state":"active","ping":82},{"user_id":330,"name":"daemon","steam_id":76561198001541433,"connected_time":4797000000000,"state":"active","ping":58},{"user_id":365,"name":"TheKyleB","steam_id":76561198202515104,"connected_time":2072000000000,"state":"active","ping":43},{"user_id":280,"name":"Mavrick","steam_id":76561198039678150,"connected_time":9605000000000,"state":"active","ping":59},{"user_id":343,"name":"D(b) Hell","steam_id":76561198067869016,"connected_time":3634000000000,"state":"active","ping":44},{"user_id":374,"name":"Krissy","steam_id":76561197960848174,"connected_time":667000000000,"state":"active","ping":67},{"user_id":373,"name":"hej","steam_id":76561197996366940,"connected_time":691000000000,"state":"active","ping":60},{"user_id":371,"name":"Swedish Crowbar","steam_id":76561199105488936,"connected_time":1816000000000,"state":"active","ping":151},{"user_id":352,"name":"Sebi","steam_id":76561198182090858,"connected_time":3028000000000,"state":"active","ping":53},{"user_id":364,"name":"TheOneZoot (Def Not on TTV)","steam_id":76561198121944243,"connected_time":2126000000000,"state":"active","ping":80},{"user_id":375,"name":"[„èà] Britsilov","steam_id":76561199170203468,"connected_time":446000000000,"state":"active","ping":74},{"user_id":369,"name":"sneed","steam_id":76561198118010424,"connected_time":1996000000000,"state":"active","ping":100},{"user_id":338,"name":"Swash","steam_id":76561197969421355,"connected_time":4118000000000,"state":"active","ping":74},{"user_id":290,"name":"Christmas Ham","steam_id":76561198119601623,"connected_time":7917000000000,"state":"active","ping":148},{"user_id":310,"name":"Word To Your Mothership","steam_id":76561198034329138,"connected_time":6542000000000,"state":"active","ping":102},{"user_id":311,"name":"Fredfredfood","steam_id":76561198072824802,"connected_time":6528000000000,"state":"active","ping":55},{"user_id":360,"name":"Rornir","steam_id":76561198081829615,"connected_time":2412000000000,"state":"active","ping":44},{"user_id":248,"name":"Lia_Rein","steam_id":76561198151569597,"connected_time":12134000000000,"state":"active","ping":140}]},{"server_id":402,"name":"Uncletopia | Chicago | 3 | All Maps","name_short":"chi-3","host":"chi-1.us.uncletopia.com","port":27035,"enabled":true,"region":"us-central","cc":"us","latitude":41.881832,"longitude":-87.62318,"reserved":0,"last_update":"0001-01-01T00:00:00Z","name_a2s":"Uncletopia | Chicago | 3 | All Maps","protocol":17,"map":"pl_upward","folder":"tf","game":"Team Fortress","app_id":440,"player_count":24,"max_players":24,"Bots":0,"server_type":"Dedicated","server_os":"Linux","password":true,"vac":true,"version":"7961495","steam_id":85568392924515191,"keywords":["nocrits","nodmgspread","payload","uncletopia"],"game_id":440,"stv_port":27036,"stv_name":"Uncletopia | Chicago | 3 | All Maps | STV","players":[{"user_id":412,"name":"SlopperTopper","steam_id":76561198079481387,"connected_time":67000000000,"state":"active","ping":61},{"user_id":364,"name":"Rockcrusher","steam_id":76561199012666353,"connected_time":3577000000000,"state":"active","ping":59},{"user_id":401,"name":"2ndWhiterunGuard","steam_id":76561198105382714,"connected_time":646000000000,"state":"spawning","ping":63},{"user_id":413,"name":"metal fingers","steam_id":76561198823526581,"connected_time":52000000000,"state":"active","ping":97},{"user_id":402,"name":"pieftwc","steam_id":76561198844080556,"connected_time":642000000000,"state":"active","ping":87},{"user_id":345,"name":"bearly","steam_id":76561198094077510,"connected_time":5420000000000,"state":"active","ping":54},{"user_id":415,"name":"Another Neko Weeb","steam_id":76561198051785884,"connected_time":14000000000,"state":"active","ping":254},{"user_id":376,"name":"Rx Auntie","steam_id":76561198051618393,"connected_time":1971000000000,"state":"active","ping":61},{"user_id":414,"name":"Ninjasupahman","steam_id":76561198083284498,"connected_time":52000000000,"state":"active","ping":58},{"user_id":324,"name":"5mech","steam_id":76561198979167520,"connected_time":6711000000000,"state":"active","ping":58},{"user_id":400,"name":"Pat4laifu","steam_id":76561198133618292,"connected_time":673000000000,"state":"active","ping":59},{"user_id":404,"name":"Jazzly","steam_id":76561198239346318,"connected_time":467000000000,"state":"active","ping":74},{"user_id":381,"name":"Nyle","steam_id":76561198045652639,"connected_time":1730000000000,"state":"active","ping":134},{"user_id":403,"name":"Mr. Tickle","steam_id":76561198126684647,"connected_time":640000000000,"state":"active","ping":56},{"user_id":405,"name":"PissMaster^5","steam_id":76561198959576385,"connected_time":431000000000,"state":"active","ping":97},{"user_id":408,"name":"Argo","steam_id":76561198353725622,"connected_time":132000000000,"state":"active","ping":80},{"user_id":393,"name":"Tazee","steam_id":76561198121023233,"connected_time":997000000000,"state":"active","ping":57},{"user_id":409,"name":"Scut","steam_id":76561198973734291,"connected_time":85000000000,"state":"active","ping":98},{"user_id":374,"name":"D","steam_id":76561198292908619,"connected_time":2837000000000,"state":"active","ping":66},{"user_id":410,"name":"Doppelg√§nger","steam_id":76561198036730436,"connected_time":85000000000,"state":"active","ping":106},{"user_id":386,"name":"YesMargaret","steam_id":76561198127971751,"connected_time":1238000000000,"state":"active","ping":56},{"user_id":389,"name":"stevert99","steam_id":76561198116762032,"connected_time":1186000000000,"state":"active","ping":73},{"user_id":377,"name":"aphexjh","steam_id":76561197985854658,"connected_time":1971000000000,"state":"active","ping":59},{"user_id":411,"name":"Willem Dafoe","steam_id":76561198037453253,"connected_time":85000000000,"state":"active","ping":56}]},{"server_id":403,"name":"Uncletopia | Chicago | 4 | All Maps","name_short":"chi-4","host":"chi-1.us.uncletopia.com","port":27045,"enabled":true,"region":"us-central","cc":"us","latitude":41.881832,"longitude":-87.62318,"reserved":0,"last_update":"0001-01-01T00:00:00Z","name_a2s":"Uncletopia | Chicago | 4 | All Maps","protocol":17,"map":"plr_hightower","folder":"tf","game":"Team Fortress","app_id":440,"player_count":24,"max_players":24,"Bots":0,"server_type":"Dedicated","server_os":"Linux","password":true,"vac":true,"version":"7961495","steam_id":85568392924515193,"keywords":["nocrits","nodmgspread","payload","uncletopia"],"game_id":440,"stv_port":27046,"stv_name":"Uncletopia | Chicago | 4 | All Maps | STV","players":[{"user_id":186,"name":"all toasters toast toast","steam_id":76561198140846580,"connected_time":2976000000000,"state":"active","ping":60},{"user_id":209,"name":"jodie.blend","steam_id":76561198140701807,"connected_time":1140000000000,"state":"active","ping":62},{"user_id":207,"name":"robertseinfeld","steam_id":76561198826799375,"connected_time":1282000000000,"state":"active","ping":79},{"user_id":149,"name":"Ejaculation Zach","steam_id":76561198203765200,"connected_time":5862000000000,"state":"active","ping":57},{"user_id":198,"name":"v8o1","steam_id":76561198127599257,"connected_time":1368000000000,"state":"active","ping":88},{"user_id":189,"name":"crunchy obama","steam_id":76561198044485217,"connected_time":2900000000000,"state":"active","ping":112},{"user_id":212,"name":"Shame","steam_id":76561198100490994,"connected_time":1006000000000,"state":"active","ping":73},{"user_id":204,"name":"xXConManABQXx","steam_id":76561198875469297,"connected_time":1333000000000,"state":"active","ping":65},{"user_id":183,"name":"FieryRainbowDog","steam_id":76561199047810065,"connected_time":3199000000000,"state":"active","ping":66},{"user_id":216,"name":"Emily50AE","steam_id":76561198088619665,"connected_time":359000000000,"state":"active","ping":73},{"user_id":211,"name":"atlewis1","steam_id":76561198195871703,"connected_time":1069000000000,"state":"active","ping":75},{"user_id":221,"name":"Kirby.exe","steam_id":76561198242714582,"connected_time":95000000000,"state":"active","ping":74},{"user_id":190,"name":"^w^","steam_id":76561198400058665,"connected_time":2838000000000,"state":"active","ping":67},{"user_id":197,"name":"Nobody","steam_id":76561198085808754,"connected_time":1392000000000,"state":"active","ping":88},{"user_id":191,"name":"aiming with drawing tablet","steam_id":76561198397662124,"connected_time":2761000000000,"state":"active","ping":85},{"user_id":118,"name":"Shadoe","steam_id":76561198218577281,"connected_time":9286000000000,"state":"active","ping":47},{"user_id":171,"name":"ryan55510","steam_id":76561198054750052,"connected_time":4595000000000,"state":"active","ping":168},{"user_id":206,"name":"StealthyZeroTwo","steam_id":76561198942692649,"connected_time":1322000000000,"state":"active","ping":78},{"user_id":194,"name":"Mury","steam_id":76561198069743049,"connected_time":2315000000000,"state":"active","ping":94},{"user_id":144,"name":"ApertureCity","steam_id":76561198004153607,"connected_time":6499000000000,"state":"active","ping":80},{"user_id":199,"name":"Super‚Ñ¢ Classic Edition","steam_id":76561198171655735,"connected_time":1367000000000,"state":"active","ping":83},{"user_id":219,"name":"He Angy","steam_id":76561198347050941,"connected_time":241000000000,"state":"active","ping":62},{"user_id":99,"name":"the lizard that monitors","steam_id":76561198092135570,"connected_time":10742000000000,"state":"active","ping":70},{"user_id":220,"name":"Franklin M. Hooverville","steam_id":76561198245109084,"connected_time":235000000000,"state":"active","ping":80}]},{"server_id":36,"name":"Uncletopia | Chicago | 5 | All Maps","name_short":"chi-5","host":"chi-2.us.uncletopia.com","port":27015,"enabled":true,"region":"us-central","cc":"us","latitude":41.881832,"longitude":-87.62318,"reserved":0,"last_update":"0001-01-01T00:00:00Z","name_a2s":"Uncletopia | Chicago | 5 | All Maps","protocol":17,"map":"pl_upward","folder":"tf","game":"Team Fortress","app_id":440,"player_count":25,"max_players":24,"Bots":0,"server_type":"Dedicated","server_os":"Linux","password":true,"vac":true,"version":"7961495","steam_id":85568392924866362,"keywords":["nocrits","nodmgspread","payload","uncletopia"],"game_id":440,"stv_port":27016,"stv_name":"Uncletopia | Chicago | 5 | All Maps | STV","players":[{"user_id":370,"name":"Chevlanae","steam_id":76561198038180603,"connected_time":1412000000000,"state":"active","ping":61},{"user_id":371,"name":"|WS| Don't_Taze_Me_Bro","steam_id":76561198043289495,"connected_time":1256000000000,"state":"active","ping":74},{"user_id":381,"name":"We Go Crazy","steam_id":76561198209641359,"connected_time":817000000000,"state":"active","ping":61},{"user_id":363,"name":"GreekGoat_Coffee","steam_id":76561198129331088,"connected_time":1673000000000,"state":"active","ping":45},{"user_id":303,"name":"Theory-LOL","steam_id":76561198116419931,"connected_time":6024000000000,"state":"active","ping":113},{"user_id":379,"name":"aflyingmouse","steam_id":76561198058134934,"connected_time":944000000000,"state":"active","ping":127},{"user_id":382,"name":"Giant tf2 heavy","steam_id":76561198847085833,"connected_time":816000000000,"state":"active","ping":113},{"user_id":392,"name":"FiddyFoMike","steam_id":76561198057072581,"connected_time":35000000000,"state":"active","ping":96},{"user_id":395,"name":"ShellBug","steam_id":76561198144187527,"connected_time":22000000000,"state":"active","ping":70},{"user_id":380,"name":"Riandox","steam_id":76561198130577326,"connected_time":830000000000,"state":"active","ping":60},{"user_id":375,"name":"VelocityCubeR","steam_id":76561198044351011,"connected_time":1179000000000,"state":"active","ping":47},{"user_id":384,"name":"peebs","steam_id":76561198261319753,"connected_time":777000000000,"state":"active","ping":72},{"user_id":389,"name":"toastman","steam_id":76561198207073088,"connected_time":347000000000,"state":"active","ping":73},{"user_id":388,"name":"Kzjytsugn","steam_id":76561198130241974,"connected_time":524000000000,"state":"active","ping":77},{"user_id":394,"name":"Small Boobs","steam_id":76561198045230921,"connected_time":31000000000,"state":"active","ping":59},{"user_id":390,"name":"Dan","steam_id":76561198205054883,"connected_time":199000000000,"state":"active","ping":109},{"user_id":396,"name":"Kerbal01","steam_id":76561198080296298,"connected_time":15000000000,"state":"active","ping":89},{"user_id":391,"name":"SaucySandwichKid","steam_id":76561199372590934,"connected_time":71000000000,"state":"active","ping":83},{"user_id":359,"name":"SwagRoxas","steam_id":76561198109759891,"connected_time":2085000000000,"state":"active","ping":59},{"user_id":360,"name":"weewa","steam_id":76561198064876090,"connected_time":2067000000000,"state":"active","ping":74},{"user_id":273,"name":"Synergy","steam_id":76561198098630198,"connected_time":7738000000000,"state":"active","ping":90},{"user_id":362,"name":"Captain Bug","steam_id":76561198137763878,"connected_time":2020000000000,"state":"active","ping":88},{"user_id":397,"name":"schteewpid rat","steam_id":76561199262600666,"connected_time":5000000000,"state":"spawning","ping":76},{"user_id":332,"name":"Motreir","steam_id":76561198151717946,"connected_time":3906000000000,"state":"active","ping":84},{"user_id":367,"name":"buckydargon","steam_id":76561197991480502,"connected_time":1483000000000,"state":"active","ping":98}]},{"server_id":37,"name":"Uncletopia | Chicago | 6 | All Maps","name_short":"chi-6","host":"chi-2.us.uncletopia.com","port":27025,"enabled":true,"region":"us-central","cc":"us","latitude":41.881832,"longitude":-87.62318,"reserved":0,"last_update":"0001-01-01T00:00:00Z","name_a2s":"Uncletopia | Chicago | 6 | All Maps","protocol":17,"map":"pl_badwater","folder":"tf","game":"Team Fortress","app_id":440,"player_count":24,"max_players":24,"Bots":0,"server_type":"Dedicated","server_os":"Linux","password":true,"vac":true,"version":"7961495","steam_id":85568392924866363,"keywords":["nocrits","nodmgspread","payload","uncletopia"],"game_id":440,"stv_port":27026,"stv_name":"Uncletopia | Chicago | 6 | All Maps | STV","players":[{"user_id":135,"name":"Smooth, Refreshing Bleach‚Ñ¢","steam_id":76561197981060504,"connected_time":3878000000000,"state":"active","ping":48},{"user_id":166,"name":"[GUT] RiDiK¬Æ","steam_id":76561197969756446,"connected_time":1604000000000,"state":"active","ping":57},{"user_id":155,"name":"Sasu","steam_id":76561198893447505,"connected_time":2543000000000,"state":"active","ping":75},{"user_id":146,"name":"GruntRule","steam_id":76561198039987143,"connected_time":3354000000000,"state":"active","ping":85},{"user_id":183,"name":"In the balls","steam_id":76561198215006068,"connected_time":656000000000,"state":"active","ping":58},{"user_id":144,"name":"scapegoat","steam_id":76561198188722751,"connected_time":3528000000000,"state":"active","ping":93},{"user_id":149,"name":"GrogTheWise","steam_id":76561198390249308,"connected_time":2800000000000,"state":"active","ping":92},{"user_id":172,"name":"Artic_Ryuu","steam_id":76561198182194918,"connected_time":1060000000000,"state":"active","ping":89},{"user_id":150,"name":"Shirt","steam_id":76561198082386564,"connected_time":2715000000000,"state":"active","ping":52},{"user_id":184,"name":"MALWARE9000","steam_id":76561198065238093,"connected_time":427000000000,"state":"active","ping":88},{"user_id":181,"name":"gusty","steam_id":76561198048359020,"connected_time":683000000000,"state":"active","ping":133},{"user_id":178,"name":"Skyroamers_boy","steam_id":76561198063917781,"connected_time":722000000000,"state":"active","ping":98},{"user_id":182,"name":"Neophyte","steam_id":76561198027183394,"connected_time":682000000000,"state":"active","ping":126},{"user_id":158,"name":"westward (was/were)","steam_id":76561198805512350,"connected_time":2482000000000,"state":"active","ping":114},{"user_id":132,"name":"Yep","steam_id":76561198041437251,"connected_time":3888000000000,"state":"active","ping":77},{"user_id":120,"name":"J.G. Klaus","steam_id":76561198001111196,"connected_time":4981000000000,"state":"active","ping":52},{"user_id":175,"name":"smooth brain","steam_id":76561198049253541,"connected_time":1027000000000,"state":"active","ping":64},{"user_id":125,"name":"thebeast","steam_id":76561198255963049,"connected_time":4503000000000,"state":"active","ping":113},{"user_id":171,"name":"Marlboro Man Lenny","steam_id":76561198183943137,"connected_time":1225000000000,"state":"active","ping":69},{"user_id":161,"name":"bulbasaur890","steam_id":76561198093443639,"connected_time":2461000000000,"state":"active","ping":76},{"user_id":168,"name":"single mother of 24/24 ctf_2for","steam_id":76561198034096805,"connected_time":1543000000000,"state":"active","ping":75},{"user_id":176,"name":"munch","steam_id":76561198820480684,"connected_time":1021000000000,"state":"active","ping":58},{"user_id":140,"name":"Rappitor","steam_id":76561198105613110,"connected_time":3811000000000,"state":"active","ping":70},{"user_id":179,"name":"Tax evader","steam_id":76561199062081467,"connected_time":722000000000,"state":"active","ping":78}]},{"server_id":38,"name":"Uncletopia | Chicago | 7 | Stopwatch Beta","name_short":"chi-7","host":"chi-2.us.uncletopia.com","port":27035,"enabled":true,"region":"us-central","cc":"us","latitude":41.881832,"longitude":-87.62318,"reserved":0,"last_update":"0001-01-01T00:00:00Z","name_a2s":"Uncletopia | Chicago | 7 | Stopwatch Beta","protocol":17,"map":"workshop/pl_barnblitz_pro7.ugc582280235","folder":"tf","game":"Team Fortress","app_id":440,"player_count":0,"max_players":24,"Bots":0,"server_type":"Dedicated","server_os":"Linux","password":true,"vac":true,"version":"7961495","steam_id":85568392924866364,"keywords":["nocrits","nodmgspread","payload","uncletopia"],"game_id":440,"stv_port":27036,"stv_name":"Uncletopia | Chicago | 7 | Stopwatch Beta | STV","players":null},{"server_id":39,"name":"Uncletopia | Chicago | 8 | Community","name_short":"chi-8","host":"chi-2.us.uncletopia.com","port":27045,"enabled":true,"region":"us-central","cc":"us","latitude":41.881832,"longitude":-87.62318,"reserved":0,"last_update":"0001-01-01T00:00:00Z","name_a2s":"Uncletopia | Chicago | 8 | Community","protocol":17,"map":"workshop/pl_badwater_pro_v12.ugc2142942074","folder":"tf","game":"Team Fortress","app_id":440,"player_count":22,"max_players":24,"Bots":0,"server_type":"Dedicated","server_os":"Linux","password":true,"vac":true,"version":"7961495","steam_id":85568392924866365,"keywords":["nocrits","nodmgspread","payload","uncletopia"],"game_id":440,"stv_port":27046,"stv_name":"Uncletopia | Chicago | 8 | Community | STV","players":[{"user_id":200,"name":"BlackheartKyurem","steam_id":76561198088842813,"connected_time":1399000000000,"state":"active","ping":81},{"user_id":204,"name":"Runny Eggs","steam_id":76561198006785882,"connected_time":1304000000000,"state":"active","ping":70},{"user_id":179,"name":"King","steam_id":76561198039763676,"connected_time":2709000000000,"state":"active","ping":76},{"user_id":214,"name":"K—îliŒ∑ ‚òÑ‚òÑ‚òÑ","steam_id":76561198025495912,"connected_time":578000000000,"state":"active","ping":57},{"user_id":175,"name":"Real Azure #SaveTF2","steam_id":76561198095912284,"connected_time":2929000000000,"state":"active","ping":98},{"user_id":150,"name":"QuakAtack","steam_id":76561198870770157,"connected_time":3737000000000,"state":"active","ping":71},{"user_id":205,"name":"Jonesy","steam_id":76561197972504789,"connected_time":1216000000000,"state":"active","ping":90},{"user_id":215,"name":"Sam","steam_id":76561197991129901,"connected_time":562000000000,"state":"active","ping":63},{"user_id":208,"name":"2Kawaii2Die","steam_id":76561197978670111,"connected_time":888000000000,"state":"active","ping":72},{"user_id":180,"name":"Plutaya","steam_id":76561198054538385,"connected_time":2704000000000,"state":"active","ping":65},{"user_id":197,"name":"AncientMecha","steam_id":76561197984921885,"connected_time":1558000000000,"state":"active","ping":73},{"user_id":138,"name":"workin for snapple","steam_id":76561198013732450,"connected_time":4665000000000,"state":"active","ping":51},{"user_id":213,"name":"EmeraldCola","steam_id":76561198066663687,"connected_time":675000000000,"state":"active","ping":65},{"user_id":216,"name":"FROYO Ding Dong","steam_id":76561198379421700,"connected_time":86000000000,"state":"active","ping":71},{"user_id":195,"name":"Just washed","steam_id":76561199030160932,"connected_time":1609000000000,"state":"active","ping":82},{"user_id":159,"name":"Tankless Water Heater","steam_id":76561198014574925,"connected_time":3511000000000,"state":"active","ping":70},{"user_id":136,"name":"jolo","steam_id":76561198042831480,"connected_time":4721000000000,"state":"active","ping":69},{"user_id":191,"name":"Shush","steam_id":76561198123902813,"connected_time":1767000000000,"state":"active","ping":104},{"user_id":183,"name":"Lv3 Kobold Shadow Sorcerer","steam_id":76561198042068995,"connected_time":2626000000000,"state":"active","ping":82},{"user_id":177,"name":"firefish","steam_id":76561199135656474,"connected_time":2854000000000,"state":"active","ping":88},{"user_id":162,"name":"hoOmIN","steam_id":76561198334947079,"connected_time":3410000000000,"state":"active","ping":89},{"user_id":198,"name":"RICE A RONI JABRONI","steam_id":76561198251653444,"connected_time":1557000000000,"state":"active","ping":86}]},{"server_id":8,"name":"Uncletopia | Dallas | 1 | All Maps","name_short":"dal-1","host":"dal-1.us.uncletopia.com","port":27015,"enabled":true,"region":"us-central","cc":"us","latitude":32.779167,"longitude":-96.80889,"reserved":0,"last_update":"0001-01-01T00:00:00Z","name_a2s":"Uncletopia | Dallas | 1 | All Maps","protocol":17,"map":"pl_snowycoast","folder":"tf","game":"Team Fortress","app_id":440,"player_count":24,"max_players":24,"Bots":0,"server_type":"Dedicated","server_os":"Linux","password":true,"vac":true,"version":"7961495","steam_id":85568392924469986,"keywords":["nocrits","nodmgspread","payload","uncletopia"],"game_id":440,"stv_port":27016,"stv_name":"Uncletopia | Dallas | 1 | All Maps | STV","players":[{"user_id":293,"name":"TheGFG","steam_id":76561198166150556,"connected_time":1025000000000,"state":"active","ping":62},{"user_id":304,"name":"Shrederatershan","steam_id":76561199211707598,"connected_time":259000000000,"state":"active","ping":85},{"user_id":202,"name":"Streetcleaner","steam_id":76561199160439080,"connected_time":8356000000000,"state":"active","ping":70},{"user_id":288,"name":"schmuck","steam_id":76561198143789773,"connected_time":1559000000000,"state":"active","ping":49},{"user_id":298,"name":"PlugFromBehind","steam_id":76561198143283800,"connected_time":976000000000,"state":"active","ping":55},{"user_id":291,"name":"IlTrashPanda","steam_id":76561198447864095,"connected_time":1151000000000,"state":"active","ping":58},{"user_id":285,"name":"fleepore (:","steam_id":76561199238295034,"connected_time":1817000000000,"state":"active","ping":70},{"user_id":274,"name":"Slopshit","steam_id":76561199105238226,"connected_time":2492000000000,"state":"active","ping":75},{"user_id":258,"name":"Jules Winnfield","steam_id":76561198993424820,"connected_time":3313000000000,"state":"active","ping":48},{"user_id":282,"name":"Withur","steam_id":76561199076191608,"connected_time":2095000000000,"state":"active","ping":76},{"user_id":262,"name":"pinglefingle","steam_id":76561198216580197,"connected_time":3008000000000,"state":"active","ping":58},{"user_id":254,"name":"Grumby","steam_id":76561198149175262,"connected_time":3698000000000,"state":"active","ping":58},{"user_id":289,"name":"BlueStar","steam_id":76561198214317468,"connected_time":1489000000000,"state":"active","ping":68},{"user_id":286,"name":"Pornelius Hubert","steam_id":76561198186128723,"connected_time":1813000000000,"state":"active","ping":51},{"user_id":237,"name":"Bobwafflemanjr","steam_id":76561198271769725,"connected_time":5558000000000,"state":"active","ping":69},{"user_id":300,"name":"tobrehto","steam_id":76561198097544038,"connected_time":749000000000,"state":"active","ping":72},{"user_id":301,"name":"Rob","steam_id":76561199187786660,"connected_time":737000000000,"state":"active","ping":54},{"user_id":223,"name":"Trashgaming","steam_id":76561199184268442,"connected_time":6636000000000,"state":"active","ping":115},{"user_id":295,"name":"ducky","steam_id":76561198007764271,"connected_time":988000000000,"state":"active","ping":55},{"user_id":302,"name":"OneLess","steam_id":76561198150870338,"connected_time":364000000000,"state":"active","ping":81},{"user_id":290,"name":"lasky","steam_id":76561198017030029,"connected_time":1409000000000,"state":"active","ping":90},{"user_id":213,"name":"eish","steam_id":76561198089463603,"connected_time":7865000000000,"state":"active","ping":138},{"user_id":296,"name":"Komada337","steam_id":76561198153971124,"connected_time":987000000000,"state":"active","ping":75},{"user_id":297,"name":"noellehound (she/her)","steam_id":76561198108844158,"connected_time":987000000000,"state":"active","ping":71}]},{"server_id":108,"name":"Uncletopia | Dallas | 2 | All Maps","name_short":"dal-2","host":"dal-1.us.uncletopia.com","port":27025,"enabled":true,"region":"us-central","cc":"us","latitude":32.779167,"longitude":-96.80889,"reserved":0,"last_update":"0001-01-01T00:00:00Z","name_a2s":"Uncletopia | Dallas | 2 | All Maps","protocol":17,"map":"cp_process_final","folder":"tf","game":"Team Fortress","app_id":440,"player_count":24,"max_players":24,"Bots":0,"server_type":"Dedicated","server_os":"Linux","password":true,"vac":true,"version":"7961495","steam_id":85568392924469988,"keywords":["cp","nocrits","nodmgspread","uncletopia"],"game_id":440,"stv_port":27026,"stv_name":"Uncletopia | Dallas | 2 | All Maps | STV","players":[{"user_id":429,"name":"SAD MOSCOVIA","steam_id":76561198101081520,"connected_time":103000000000,"state":"active","ping":118},{"user_id":398,"name":"dog","steam_id":76561198263873491,"connected_time":3379000000000,"state":"active","ping":59},{"user_id":425,"name":"BigMommaGart","steam_id":76561198280306683,"connected_time":602000000000,"state":"active","ping":57},{"user_id":415,"name":"Holp","steam_id":76561199019186848,"connected_time":1810000000000,"state":"active","ping":87},{"user_id":427,"name":"The Horselords and Animal Gods","steam_id":76561197975094050,"connected_time":213000000000,"state":"active","ping":92},{"user_id":428,"name":"·¥ø·¥∫·¥≥ G Ä…™·¥ç·¥†…™ ô·¥ás","steam_id":76561198065621941,"connected_time":119000000000,"state":"active","ping":94},{"user_id":374,"name":"Femboy drywall enthusiast","steam_id":76561198864841966,"connected_time":4971000000000,"state":"active","ping":100},{"user_id":404,"name":"Manic","steam_id":76561198128149670,"connected_time":2859000000000,"state":"active","ping":48},{"user_id":421,"name":"Sax","steam_id":76561198055425123,"connected_time":1572000000000,"state":"active","ping":119},{"user_id":375,"name":"Necronoxide","steam_id":76561197997856321,"connected_time":4965000000000,"state":"active","ping":93},{"user_id":411,"name":"artichoke","steam_id":76561198980994364,"connected_time":2055000000000,"state":"active","ping":99},{"user_id":423,"name":"Rafl","steam_id":76561198055222756,"connected_time":1363000000000,"state":"active","ping":46},{"user_id":355,"name":"cozy","steam_id":76561199044037628,"connected_time":6249000000000,"state":"active","ping":90},{"user_id":405,"name":"HeavyMettleDick","steam_id":76561198001925087,"connected_time":2859000000000,"state":"active","ping":92},{"user_id":417,"name":"Soda","steam_id":76561198219209367,"connected_time":1798000000000,"state":"active","ping":64},{"user_id":426,"name":"noel","steam_id":76561198128280883,"connected_time":598000000000,"state":"active","ping":107},{"user_id":406,"name":"TechnoBear2099","steam_id":76561198238863596,"connected_time":2748000000000,"state":"active","ping":49},{"user_id":280,"name":"Underscorn","steam_id":76561198374209415,"connected_time":11220000000000,"state":"active","ping":60},{"user_id":418,"name":"CopperBox","steam_id":76561198068217248,"connected_time":1766000000000,"state":"active","ping":73},{"user_id":363,"name":"DMM","steam_id":76561198065426171,"connected_time":6086000000000,"state":"active","ping":54},{"user_id":420,"name":"OffAndSphere","steam_id":76561199062555733,"connected_time":1643000000000,"state":"active","ping":45},{"user_id":371,"name":"johnnybaseballgame83@yahoo.com","steam_id":76561198070542000,"connected_time":5255000000000,"state":"active","ping":72},{"user_id":384,"name":"Irritated Duck","steam_id":76561198247792076,"connected_time":4533000000000,"state":"active","ping":150},{"user_id":390,"name":"hforce11","steam_id":76561198087647130,"connected_time":3955000000000,"state":"active","ping":61}]},{"server_id":5,"name":"Uncletopia | Frankfurt | 1 | All Maps","name_short":"frk-1","host":"frk-1.de.uncletopia.com","port":27015,"enabled":true,"region":"eu","cc":"de","latitude":50.110924,"longitude":8.682127,"reserved":0,"last_update":"0001-01-01T00:00:00Z","name_a2s":"Uncletopia | Frankfurt | 1 | All Maps","protocol":17,"map":"cp_dustbowl","folder":"tf","game":"Team Fortress","app_id":440,"player_count":24,"max_players":24,"Bots":0,"server_type":"Dedicated","server_os":"Linux","password":true,"vac":true,"version":"7961495","steam_id":85568392924469989,"keywords":["cp","nocrits","nodmgspread","uncletopia"],"game_id":440,"stv_port":27016,"stv_name":"Uncletopia | Frankfurt | 1 | All Maps | STV","players":[{"user_id":716,"name":"i want to kill myself","steam_id":76561198242482338,"connected_time":2479000000000,"state":"active","ping":69},{"user_id":705,"name":"Francium Swallower","steam_id":76561199480414924,"connected_time":2746000000000,"state":"active","ping":71},{"user_id":746,"name":"Gugu","steam_id":76561198161822358,"connected_time":4000000000,"state":"spawning","ping":54},{"user_id":713,"name":"Fiurius","steam_id":76561198151910950,"connected_time":2562000000000,"state":"active","ping":64},{"user_id":694,"name":"Your local Elma person","steam_id":76561198032359132,"connected_time":3625000000000,"state":"active","ping":60},{"user_id":725,"name":"MaxThoo","steam_id":76561198167904353,"connected_time":2198000000000,"state":"active","ping":83},{"user_id":742,"name":"Helusion","steam_id":76561198207207269,"connected_time":734000000000,"state":"active","ping":60},{"user_id":741,"name":"Wat","steam_id":76561198142762914,"connected_time":985000000000,"state":"active","ping":56},{"user_id":731,"name":"Marabosha","steam_id":76561198137599173,"connected_time":1502000000000,"state":"active","ping":117},{"user_id":738,"name":"Puppy","steam_id":76561198284766141,"connected_time":1330000000000,"state":"active","ping":48},{"user_id":727,"name":"AgentKerbal","steam_id":76561198146360194,"connected_time":1967000000000,"state":"active","ping":69},{"user_id":667,"name":"Mach","steam_id":76561198952487564,"connected_time":6180000000000,"state":"active","ping":170},{"user_id":632,"name":"s a i","steam_id":76561197970379754,"connected_time":7933000000000,"state":"active","ping":56},{"user_id":687,"name":"Happy Little Accidents","steam_id":76561198153810367,"connected_time":4594000000000,"state":"active","ping":61},{"user_id":745,"name":"Pryncypa≈Ç","steam_id":76561198058057224,"connected_time":412000000000,"state":"active","ping":59},{"user_id":732,"name":"Mar","steam_id":76561198127633424,"connected_time":1486000000000,"state":"active","ping":90},{"user_id":743,"name":"Penis Contortionist","steam_id":76561198073663784,"connected_time":717000000000,"state":"active","ping":53},{"user_id":740,"name":"Bobo","steam_id":76561198052308399,"connected_time":1298000000000,"state":"active","ping":57},{"user_id":736,"name":"Rigby","steam_id":76561198021552128,"connected_time":1432000000000,"state":"active","ping":105},{"user_id":737,"name":"Benny","steam_id":76561198056128703,"connected_time":1431000000000,"state":"active","ping":71},{"user_id":679,"name":"The Lady","steam_id":76561198029895809,"connected_time":5217000000000,"state":"active","ping":78},{"user_id":666,"name":"ehehehehehhe","steam_id":76561198044502435,"connected_time":6314000000000,"state":"active","ping":84},{"user_id":722,"name":"Syd","steam_id":76561198020515027,"connected_time":2408000000000,"state":"active","ping":69},{"user_id":715,"name":"Stage 5 Autism","steam_id":76561198370485227,"connected_time":2547000000000,"state":"active","ping":85}]},{"server_id":110,"name":"Uncletopia | Frankfurt | 2 | All Maps","name_short":"frk-2","host":"frk-1.de.uncletopia.com","port":27025,"enabled":true,"region":"eu","cc":"de","latitude":50.110924,"longitude":8.682127,"reserved":0,"last_update":"0001-01-01T00:00:00Z","name_a2s":"Uncletopia | Frankfurt | 2 | All Maps","protocol":17,"map":"pl_pier","folder":"tf","game":"Team Fortress","app_id":440,"player_count":24,"max_players":24,"Bots":0,"server_type":"Dedicated","server_os":"Linux","password":true,"vac":true,"version":"7961495","steam_id":85568392924469990,"keywords":["nocrits","nodmgspread","payload","uncletopia"],"game_id":440,"stv_port":27026,"stv_name":"Uncletopia | Frankfurt | 2 | All Maps | STV","players":[{"user_id":613,"name":"pizzaschnoesel","steam_id":76561198143534694,"connected_time":755000000000,"state":"active","ping":67},{"user_id":594,"name":"Klifton","steam_id":76561198803743443,"connected_time":2034000000000,"state":"active","ping":75},{"user_id":625,"name":"Wafflesky","steam_id":76561198109973821,"connected_time":178000000000,"state":"active","ping":65},{"user_id":605,"name":"Andale","steam_id":76561198326236983,"connected_time":1505000000000,"state":"active","ping":62},{"user_id":619,"name":"Gunvald","steam_id":76561198020195322,"connected_time":255000000000,"state":"active","ping":90},{"user_id":610,"name":"Chucko Kokos","steam_id":76561198112553005,"connected_time":1123000000000,"state":"active","ping":67},{"user_id":607,"name":"Salih","steam_id":76561198287934839,"connected_time":1482000000000,"state":"active","ping":60},{"user_id":620,"name":"jonathan","steam_id":76561198076107263,"connected_time":253000000000,"state":"active","ping":52},{"user_id":618,"name":"machan","steam_id":76561198826754095,"connected_time":388000000000,"state":"active","ping":82},{"user_id":627,"name":"86","steam_id":76561199084186097,"connected_time":147000000000,"state":"active","ping":59},{"user_id":621,"name":"ralph62x","steam_id":76561198865294231,"connected_time":247000000000,"state":"active","ping":66},{"user_id":599,"name":"Rengii76","steam_id":76561198869802076,"connected_time":1811000000000,"state":"active","ping":78},{"user_id":592,"name":"-gunripp0r^be / Obelix^","steam_id":76561197999306879,"connected_time":2172000000000,"state":"active","ping":105},{"user_id":611,"name":"Infinite Byakugan","steam_id":76561198841884465,"connected_time":1118000000000,"state":"active","ping":64},{"user_id":615,"name":"Begel #StraightPride","steam_id":76561198880844362,"connected_time":666000000000,"state":"active","ping":74},{"user_id":593,"name":"The Funnytaker","steam_id":76561198049457308,"connected_time":2156000000000,"state":"active","ping":63},{"user_id":596,"name":"D√•vid","steam_id":76561198184135755,"connected_time":1973000000000,"state":"active","ping":58},{"user_id":616,"name":"_Starlight_","steam_id":76561197993885738,"connected_time":590000000000,"state":"active","ping":77},{"user_id":560,"name":"ddec45","steam_id":76561198153175196,"connected_time":4021000000000,"state":"active","ping":85},{"user_id":597,"name":"kilo","steam_id":76561198015641339,"connected_time":1906000000000,"state":"active","ping":76},{"user_id":604,"name":"unmute me plz TwT","steam_id":76561198134378108,"connected_time":1556000000000,"state":"active","ping":84},{"user_id":624,"name":"BloodFuel","steam_id":76561198146340825,"connected_time":215000000000,"state":"active","ping":120},{"user_id":518,"name":"domek brexit geezerüá¨üáß","steam_id":76561198048447632,"connected_time":6667000000000,"state":"active","ping":60},{"user_id":626,"name":"Boris Bepis","steam_id":76561198256852059,"connected_time":175000000000,"state":"active","ping":96}]},{"server_id":308,"name":"Uncletopia | Frankfurt | 3 | All Maps","name_short":"frk-3","host":"frk-1.de.uncletopia.com","port":27035,"enabled":true,"region":"eu","cc":"de","latitude":50.110924,"longitude":8.682127,"reserved":0,"last_update":"0001-01-01T00:00:00Z","name_a2s":"Uncletopia | Frankfurt | 3 | All Maps","protocol":17,"map":"pl_frontier_final","folder":"tf","game":"Team Fortress","app_id":440,"player_count":24,"max_players":24,"Bots":0,"server_type":"Dedicated","server_os":"Linux","password":true,"vac":true,"version":"7961495","steam_id":85568392924504274,"keywords":["nocrits","nodmgspread","payload","uncletopia"],"game_id":440,"stv_port":27036,"stv_name":"Uncletopia | Frankfurt | 3 | All Maps | STV","players":[{"user_id":460,"name":"sunshine","steam_id":76561198084597975,"connected_time":8878000000000,"state":"active","ping":49},{"user_id":544,"name":"Poggito","steam_id":76561198838001276,"connected_time":3545000000000,"state":"active","ping":52},{"user_id":568,"name":"Gryoss","steam_id":76561197999837111,"connected_time":2000000000000,"state":"active","ping":100},{"user_id":583,"name":"grrokr","steam_id":76561199003462804,"connected_time":1392000000000,"state":"active","ping":84},{"user_id":561,"name":"xavier","steam_id":76561198076494034,"connected_time":2507000000000,"state":"active","ping":58},{"user_id":593,"name":"A Cruel Joke","steam_id":76561199227367233,"connected_time":71000000000,"state":"spawning","ping":83},{"user_id":592,"name":"Mi Manchi","steam_id":76561198171573129,"connected_time":136000000000,"state":"active","ping":60},{"user_id":533,"name":"tallen","steam_id":76561198061708595,"connected_time":4116000000000,"state":"active","ping":78},{"user_id":487,"name":"BELADIT","steam_id":76561198011911501,"connected_time":7071000000000,"state":"active","ping":74},{"user_id":573,"name":"Asmodeus","steam_id":76561198283156425,"connected_time":1794000000000,"state":"active","ping":65},{"user_id":582,"name":"mangoface","steam_id":76561199028760996,"connected_time":1516000000000,"state":"active","ping":71},{"user_id":575,"name":"rozen","steam_id":76561198119167317,"connected_time":1760000000000,"state":"active","ping":60},{"user_id":580,"name":"Max Power","steam_id":76561198019269089,"connected_time":1600000000000,"state":"active","ping":54},{"user_id":562,"name":"Master Of Noob","steam_id":76561198217926783,"connected_time":2503000000000,"state":"active","ping":70},{"user_id":589,"name":"omnibombulator","steam_id":76561198025858897,"connected_time":661000000000,"state":"active","ping":61},{"user_id":554,"name":"Gen","steam_id":76561198021775885,"connected_time":2800000000000,"state":"active","ping":47},{"user_id":590,"name":"R@DIO","steam_id":76561197995533046,"connected_time":469000000000,"state":"active","ping":76},{"user_id":543,"name":"Twitch.tv/frostsnail","steam_id":76561197989859175,"connected_time":3602000000000,"state":"active","ping":66},{"user_id":577,"name":"\u003e\u003c\u003e","steam_id":76561198190225954,"connected_time":1732000000000,"state":"active","ping":81},{"user_id":569,"name":"Pan Pan","steam_id":76561199074670515,"connected_time":1978000000000,"state":"active","ping":96},{"user_id":552,"name":"Yangus","steam_id":76561198147796010,"connected_time":2939000000000,"state":"active","ping":80},{"user_id":560,"name":"t0ast","steam_id":76561198141722573,"connected_time":2519000000000,"state":"active","ping":56},{"user_id":587,"name":"MrKampfCookie","steam_id":76561198085490175,"connected_time":892000000000,"state":"active","ping":44},{"user_id":588,"name":"wouris","steam_id":76561198876188003,"connected_time":891000000000,"state":"active","ping":56}]},{"server_id":309,"name":"Uncletopia | Frankfurt | 4 | All Maps","name_short":"frk-4","host":"frk-1.de.uncletopia.com","port":27045,"enabled":true,"region":"eu","cc":"de","latitude":50.110924,"longitude":8.682127,"reserved":0,"last_update":"0001-01-01T00:00:00Z","name_a2s":"Uncletopia | Frankfurt | 4 | All Maps","protocol":17,"map":"cp_sunshine","folder":"tf","game":"Team Fortress","app_id":440,"player_count":0,"max_players":24,"Bots":0,"server_type":"Dedicated","server_os":"Linux","password":true,"vac":true,"version":"7961495","steam_id":85568392924504275,"keywords":["cp","nocrits","nodmgspread","uncletopia"],"game_id":440,"stv_port":27046,"stv_name":"Uncletopia | Frankfurt | 4 | All Maps | STV","players":null},{"server_id":310,"name":"Uncletopia | Frankfurt | 5 | All Maps","name_short":"frk-5","host":"frk-1.de.uncletopia.com","port":27055,"enabled":true,"region":"eu","cc":"de","latitude":50.110924,"longitude":8.682127,"reserved":0,"last_update":"0001-01-01T00:00:00Z","name_a2s":"Uncletopia | Frankfurt | 5 | All Maps","protocol":17,"map":"cp_dustbowl","folder":"tf","game":"Team Fortress","app_id":440,"player_count":24,"max_players":24,"Bots":0,"server_type":"Dedicated","server_os":"Linux","password":true,"vac":true,"version":"7961495","steam_id":85568392924504277,"keywords":["cp","nocrits","nodmgspread","uncletopia"],"game_id":440,"stv_port":27056,"stv_name":"Uncletopia | Frankfurt | 5 | All Maps | STV","players":[{"user_id":415,"name":"mister squibward","steam_id":76561198718760200,"connected_time":2481000000000,"state":"active","ping":61},{"user_id":403,"name":"equalizer","steam_id":76561198095672945,"connected_time":4171000000000,"state":"active","ping":80},{"user_id":435,"name":"Popop","steam_id":76561198004793795,"connected_time":1514000000000,"state":"active","ping":45},{"user_id":442,"name":"Will","steam_id":76561198117030753,"connected_time":651000000000,"state":"active","ping":73},{"user_id":446,"name":"hazzett","steam_id":76561198171041063,"connected_time":616000000000,"state":"active","ping":97},{"user_id":441,"name":"KNNTX","steam_id":76561198161313074,"connected_time":691000000000,"state":"active","ping":109},{"user_id":383,"name":"COTHuK","steam_id":76561198330633932,"connected_time":6406000000000,"state":"active","ping":74},{"user_id":419,"name":"hipster_doofus","steam_id":76561197970902697,"connected_time":2317000000000,"state":"active","ping":70},{"user_id":445,"name":"Scully","steam_id":76561197977615623,"connected_time":640000000000,"state":"active","ping":68},{"user_id":450,"name":"Star in a pond","steam_id":76561198205501279,"connected_time":591000000000,"state":"active","ping":93},{"user_id":439,"name":"bowchika wowa #SlavaUkraine","steam_id":76561198159564550,"connected_time":996000000000,"state":"active","ping":76},{"user_id":434,"name":"ChPerette üéÆ","steam_id":76561198060004887,"connected_time":1550000000000,"state":"active","ping":45},{"user_id":440,"name":"Asa Mitaka","steam_id":76561198361723475,"connected_time":708000000000,"state":"active","ping":75},{"user_id":447,"name":"Joegish","steam_id":76561198396950825,"connected_time":616000000000,"state":"active","ping":135},{"user_id":392,"name":"FOX","steam_id":76561199118103398,"connected_time":5680000000000,"state":"active","ping":85},{"user_id":448,"name":"twscsvl","steam_id":76561198045304929,"connected_time":615000000000,"state":"active","ping":95},{"user_id":424,"name":"jj","steam_id":76561198079200985,"connected_time":2189000000000,"state":"active","ping":61},{"user_id":425,"name":"Perci","steam_id":76561198097789669,"connected_time":2115000000000,"state":"active","ping":61},{"user_id":379,"name":"flave","steam_id":76561198056372101,"connected_time":7144000000000,"state":"active","ping":73},{"user_id":436,"name":"Piek","steam_id":76561199212421275,"connected_time":1397000000000,"state":"active","ping":54},{"user_id":454,"name":"Shovelhalfrusty","steam_id":76561198346447513,"connected_time":187000000000,"state":"active","ping":69},{"user_id":449,"name":"das1313","steam_id":76561197986900203,"connected_time":609000000000,"state":"active","ping":147},{"user_id":451,"name":"Dave The Sloth","steam_id":76561199135831355,"connected_time":579000000000,"state":"active","ping":64},{"user_id":453,"name":"Fart Barfunkle","steam_id":76561197983286644,"connected_time":456000000000,"state":"active","ping":167}]},{"server_id":311,"name":"Uncletopia | Frankfurt | 6 | All Maps","name_short":"frk-6","host":"frk-1.de.uncletopia.com","port":27065,"enabled":true,"region":"eu","cc":"de","latitude":50.110924,"longitude":8.682127,"reserved":0,"last_update":"0001-01-01T00:00:00Z","name_a2s":"Uncletopia | Frankfurt | 6 | All Maps","protocol":17,"map":"pl_badwater","folder":"tf","game":"Team Fortress","app_id":440,"player_count":25,"max_players":24,"Bots":0,"server_type":"Dedicated","server_os":"Linux","password":true,"vac":true,"version":"7961495","steam_id":85568392924504278,"keywords":["nocrits","nodmgspread","payload","uncletopia"],"game_id":440,"stv_port":27066,"stv_name":"Uncletopia | Frankfurt | 6 | All Maps | STV","players":[{"user_id":583,"name":"reddit","steam_id":76561198059699043,"connected_time":1815000000000,"state":"active","ping":74},{"user_id":607,"name":"Mr.Happy","steam_id":76561198009646650,"connected_time":162000000000,"state":"connecting","ping":0},{"user_id":576,"name":"sogg√§h","steam_id":76561198046694824,"connected_time":2103000000000,"state":"active","ping":52},{"user_id":593,"name":"Clitorina","steam_id":76561198077570815,"connected_time":842000000000,"state":"active","ping":60},{"user_id":443,"name":"Kreos","steam_id":76561198094772516,"connected_time":10896000000000,"state":"active","ping":54},{"user_id":606,"name":"rajAs | Aoeitalia.com","steam_id":76561198035928111,"connected_time":300000000000,"state":"active","ping":82},{"user_id":569,"name":"Dr Pepper online clinic","steam_id":76561198068213670,"connected_time":2708000000000,"state":"active","ping":55},{"user_id":589,"name":"BouncyBear","steam_id":76561198129157178,"connected_time":879000000000,"state":"active","ping":90},{"user_id":588,"name":"[SQ UA] MartianDill","steam_id":76561198405382822,"connected_time":897000000000,"state":"active","ping":78},{"user_id":603,"name":"Rin-Nakaret","steam_id":76561197971051188,"connected_time":577000000000,"state":"active","ping":66},{"user_id":577,"name":"Cosmetic brain","steam_id":76561198055936410,"connected_time":2095000000000,"state":"active","ping":89},{"user_id":596,"name":"Laur","steam_id":76561198201866574,"connected_time":826000000000,"state":"active","ping":80},{"user_id":605,"name":"Alienketchup","steam_id":76561197970585162,"connected_time":313000000000,"state":"active","ping":88},{"user_id":604,"name":"LEGEND FUMO.","steam_id":76561198061033903,"connected_time":405000000000,"state":"active","ping":49},{"user_id":586,"name":"Jara.","steam_id":76561197992207165,"connected_time":1589000000000,"state":"active","ping":99},{"user_id":574,"name":"HwK!","steam_id":76561198287835588,"connected_time":2441000000000,"state":"active","ping":89},{"user_id":608,"name":"n.mob","steam_id":76561198389356439,"connected_time":147000000000,"state":"active","ping":70},{"user_id":568,"name":"Basinox","steam_id":76561198019628384,"connected_time":2783000000000,"state":"active","ping":74},{"user_id":550,"name":"kryhu","steam_id":76561198293327713,"connected_time":4007000000000,"state":"active","ping":64},{"user_id":599,"name":"Yozeb","steam_id":76561198035000345,"connected_time":791000000000,"state":"active","ping":97},{"user_id":600,"name":"El Duderino","steam_id":76561198084404539,"connected_time":781000000000,"state":"active","ping":158},{"user_id":580,"name":"Toofy","steam_id":76561197989727907,"connected_time":2063000000000,"state":"active","ping":55},{"user_id":417,"name":"Ewelinka Zniszczenia","steam_id":76561198307374456,"connected_time":12371000000000,"state":"active","ping":71},{"user_id":601,"name":"calum92","steam_id":76561197992188760,"connected_time":781000000000,"state":"active","ping":82},{"user_id":419,"name":"Kaishakunin","steam_id":76561198028123874,"connected_time":12328000000000,"state":"active","ping":97}]},{"server_id":23,"name":"Uncletopia | Frankfurt | 7 | Stopwatch Beta","name_short":"frk-7","host":"frk-1.de.uncletopia.com","port":27075,"enabled":true,"region":"eu","cc":"de","latitude":50.110924,"longitude":8.682127,"reserved":0,"last_update":"0001-01-01T00:00:00Z","name_a2s":"Uncletopia | Frankfurt | 7 | Stopwatch Beta","protocol":17,"map":"workshop/koth_ashville_final.ugc2130459942","folder":"tf","game":"Team Fortress","app_id":440,"player_count":0,"max_players":24,"Bots":0,"server_type":"Dedicated","server_os":"Linux","password":true,"vac":true,"version":"7961495","steam_id":85568392924742827,"keywords":["cp","nocrits","nodmgspread","uncletopia"],"game_id":440,"stv_port":27076,"stv_name":"Uncletopia | Frankfurt | 7 | Stopwatch Beta | STV","players":null},{"server_id":24,"name":"Uncletopia | Frankfurt | 8 | Community","name_short":"frk-8","host":"frk-1.de.uncletopia.com","port":27085,"enabled":true,"region":"eu","cc":"de","latitude":50.110924,"longitude":8.682127,"reserved":0,"last_update":"0001-01-01T00:00:00Z","name_a2s":"Uncletopia | Frankfurt | 8 | Community","protocol":17,"map":"workshop/pl_vigil_rc9.ugc1266210012","folder":"tf","game":"Team Fortress","app_id":440,"player_count":24,"max_players":24,"Bots":0,"server_type":"Dedicated","server_os":"Linux","password":true,"vac":true,"version":"7961495","steam_id":85568392924742828,"keywords":["nocrits","nodmgspread","payload","uncletopia"],"game_id":440,"stv_port":27086,"stv_name":"Uncletopia | Frankfurt | 8 | Community | STV","players":[{"user_id":155,"name":"Yami","steam_id":76561199480330649,"connected_time":1040000000000,"state":"active","ping":90},{"user_id":151,"name":"Qwerty","steam_id":76561198023525894,"connected_time":1427000000000,"state":"active","ping":80},{"user_id":173,"name":"Juliderkek","steam_id":76561198962270674,"connected_time":115000000000,"state":"active","ping":70},{"user_id":154,"name":"Smilo","steam_id":76561198841481172,"connected_time":1210000000000,"state":"active","ping":105},{"user_id":87,"name":"Baron","steam_id":76561198021901783,"connected_time":4425000000000,"state":"active","ping":65},{"user_id":90,"name":"Horo","steam_id":76561198009504508,"connected_time":4303000000000,"state":"active","ping":68},{"user_id":158,"name":"randompixel","steam_id":76561198003941207,"connected_time":823000000000,"state":"active","ping":69},{"user_id":92,"name":"Teecho","steam_id":76561197995269610,"connected_time":4230000000000,"state":"active","ping":67},{"user_id":157,"name":"bigfathand6","steam_id":76561198972921439,"connected_time":909000000000,"state":"active","ping":126},{"user_id":174,"name":"heal","steam_id":76561198046754534,"connected_time":74000000000,"state":"active","ping":76},{"user_id":159,"name":"Daan77","steam_id":76561198129940468,"connected_time":700000000000,"state":"active","ping":75},{"user_id":114,"name":"Jams","steam_id":76561198118316970,"connected_time":3699000000000,"state":"active","ping":84},{"user_id":162,"name":"R1CO#8624","steam_id":76561198141828284,"connected_time":682000000000,"state":"active","ping":67},{"user_id":161,"name":"CutKan","steam_id":76561198809248662,"connected_time":686000000000,"state":"active","ping":120},{"user_id":131,"name":"Aquastir","steam_id":76561198084021005,"connected_time":2553000000000,"state":"active","ping":166},{"user_id":171,"name":"lazer","steam_id":76561198049983016,"connected_time":383000000000,"state":"active","ping":88},{"user_id":149,"name":"akakez","steam_id":76561198095432821,"connected_time":1590000000000,"state":"active","ping":120},{"user_id":134,"name":"[T]aKer","steam_id":76561198001778013,"connected_time":2402000000000,"state":"active","ping":50},{"user_id":172,"name":"milosz","steam_id":76561198055181466,"connected_time":275000000000,"state":"active","ping":72},{"user_id":123,"name":"kilikia","steam_id":76561198350261670,"connected_time":2956000000000,"state":"active","ping":90},{"user_id":145,"name":"GalacticFantasy","steam_id":76561198072077658,"connected_time":1882000000000,"state":"active","ping":85},{"user_id":169,"name":"Brage","steam_id":76561198111623044,"connected_time":447000000000,"state":"active","ping":86},{"user_id":170,"name":"anni","steam_id":76561198839789101,"connected_time":441000000000,"state":"active","ping":61},{"user_id":111,"name":"aisu","steam_id":76561198043768507,"connected_time":3772000000000,"state":"active","ping":179}]},{"server_id":202,"name":"Uncletopia | Hong Kong | 1 | All Maps","name_short":"hgk-1","host":"hgk-1.hk.uncletopia.com","port":27015,"enabled":true,"region":"asia","cc":"hk","latitude":22.302711,"longitude":114.177216,"reserved":0,"last_update":"0001-01-01T00:00:00Z","name_a2s":"Uncletopia | Hong Kong | 1 | All Maps","protocol":17,"map":"ctf_2fort","folder":"tf","game":"Team Fortress","app_id":440,"player_count":0,"max_players":24,"Bots":0,"server_type":"Dedicated","server_os":"Linux","password":true,"vac":true,"version":"7961495","steam_id":85568392924494504,"keywords":["ctf","nocrits","nodmgspread","uncletopia"],"game_id":440,"stv_port":27016,"stv_name":"Uncletopia | Hong Kong | 1 | All Maps | STV","players":null},{"server_id":1,"name":"Uncletopia | Los Angeles | 1 | All Maps","name_short":"lax-1","host":"lax-1.us.uncletopia.com","port":27015,"enabled":true,"region":"us-west","cc":"us","latitude":33.94279,"longitude":-118.41004,"reserved":0,"last_update":"0001-01-01T00:00:00Z","name_a2s":"Uncletopia | Los Angeles | 1 | All Maps","protocol":17,"map":"pl_upward","folder":"tf","game":"Team Fortress","app_id":440,"player_count":24,"max_players":24,"Bots":0,"server_type":"Dedicated","server_os":"Linux","password":true,"vac":true,"version":"7961495","steam_id":85568392924469991,"keywords":["nocrits","nodmgspread","payload","uncletopia"],"game_id":440,"stv_port":27016,"stv_name":"Uncletopia | Los Angeles | 1 | All Maps | STV","players":[{"user_id":268,"name":"Master Of Whales","steam_id":76561198349104889,"connected_time":116000000000,"state":"active","ping":56},{"user_id":243,"name":"[Industrial] A_HUMBLEBUMBLED","steam_id":76561198064771878,"connected_time":2160000000000,"state":"active","ping":73},{"user_id":258,"name":"riSygneD","steam_id":76561198331618687,"connected_time":649000000000,"state":"active","ping":34},{"user_id":263,"name":"flop","steam_id":76561197989058876,"connected_time":258000000000,"state":"active","ping":63},{"user_id":266,"name":"ScoutBox","steam_id":76561198111539895,"connected_time":170000000000,"state":"active","ping":50},{"user_id":212,"name":"Korn Dawg","steam_id":76561198026941076,"connected_time":3861000000000,"state":"active","ping":59},{"user_id":142,"name":"eggplantgirl‚ô•","steam_id":76561198811515692,"connected_time":8823000000000,"state":"active","ping":45},{"user_id":245,"name":"LennyDaLemon","steam_id":76561198855962735,"connected_time":2048000000000,"state":"active","ping":61},{"user_id":214,"name":"LesserAce","steam_id":76561198153258132,"connected_time":3774000000000,"state":"active","ping":95},{"user_id":221,"name":"Heinz-Harald Frentzen","steam_id":76561199002203593,"connected_time":3606000000000,"state":"active","ping":108},{"user_id":236,"name":"lol","steam_id":76561198026491738,"connected_time":2259000000000,"state":"active","ping":60},{"user_id":237,"name":"Darkspiral","steam_id":76561198080807559,"connected_time":2248000000000,"state":"active","ping":45},{"user_id":256,"name":"walidov","steam_id":76561198079965605,"connected_time":1102000000000,"state":"active","ping":95},{"user_id":260,"name":"scamper","steam_id":76561199093768105,"connected_time":576000000000,"state":"active","ping":82},{"user_id":247,"name":"Kyurem133","steam_id":76561198145647699,"connected_time":1565000000000,"state":"active","ping":65},{"user_id":231,"name":"Cristanc99","steam_id":76561198114715810,"connected_time":2657000000000,"state":"active","ping":74},{"user_id":194,"name":"KayDragon","steam_id":76561198085506604,"connected_time":4620000000000,"state":"active","ping":59},{"user_id":232,"name":"don't get mad","steam_id":76561198064662875,"connected_time":2535000000000,"state":"active","ping":49},{"user_id":255,"name":"Matches_","steam_id":76561198048925904,"connected_time":1124000000000,"state":"active","ping":60},{"user_id":228,"name":"JimmY","steam_id":76561198386339252,"connected_time":3245000000000,"state":"active","ping":84},{"user_id":267,"name":"vvitch","steam_id":76561198279661941,"connected_time":126000000000,"state":"active","ping":45},{"user_id":262,"name":"fool","steam_id":76561198277979851,"connected_time":315000000000,"state":"active","ping":115},{"user_id":244,"name":"el wokismo","steam_id":76561198058617608,"connected_time":2060000000000,"state":"active","ping":53},{"user_id":253,"name":"boobies arc","steam_id":76561198316753540,"connected_time":1233000000000,"state":"active","ping":30}]},{"server_id":112,"name":"Uncletopia | Los Angeles | 2 | All Maps","name_short":"lax-2","host":"lax-1.us.uncletopia.com","port":27025,"enabled":true,"region":"us-west","cc":"us","latitude":33.94279,"longitude":-118.41004,"reserved":0,"last_update":"0001-01-01T00:00:00Z","name_a2s":"Uncletopia | Los Angeles | 2 | All Maps","protocol":17,"map":"pl_badwater","folder":"tf","game":"Team Fortress","app_id":440,"player_count":22,"max_players":24,"Bots":0,"server_type":"Dedicated","server_os":"Linux","password":true,"vac":true,"version":"7961495","steam_id":85568392924469992,"keywords":["nocrits","nodmgspread","payload","uncletopia"],"game_id":440,"stv_port":27026,"stv_name":"Uncletopia | Los Angeles | 2 | All Maps | STV","players":[{"user_id":144,"name":"[El Fail] MR.BadassMCLee","steam_id":76561198043787818,"connected_time":3778000000000,"state":"active","ping":62},{"user_id":150,"name":"Pissing'Runt","steam_id":76561198268078235,"connected_time":3120000000000,"state":"active","ping":91},{"user_id":59,"name":"A UsedNom","steam_id":76561198402832756,"connected_time":9126000000000,"state":"active","ping":43},{"user_id":167,"name":"Headmouth","steam_id":76561198019789855,"connected_time":168000000000,"state":"active","ping":159},{"user_id":169,"name":"jc71777","steam_id":76561199124210364,"connected_time":163000000000,"state":"active","ping":53},{"user_id":160,"name":"RADSOS","steam_id":76561198797870019,"connected_time":2095000000000,"state":"active","ping":131},{"user_id":161,"name":"Mocha Josie","steam_id":76561198066452726,"connected_time":2049000000000,"state":"active","ping":52},{"user_id":172,"name":"drrockso20[MicS]","steam_id":76561198001003987,"connected_time":139000000000,"state":"active","ping":46},{"user_id":173,"name":"Ralph Kramden (Slim Charles)","steam_id":76561197981687895,"connected_time":130000000000,"state":"active","ping":50},{"user_id":137,"name":"Chin, Bruce Lee's Relative","steam_id":76561198240105522,"connected_time":4012000000000,"state":"active","ping":100},{"user_id":166,"name":"Silvermace","steam_id":76561198090696843,"connected_time":1372000000000,"state":"active","ping":44},{"user_id":128,"name":"triph","steam_id":76561198067196509,"connected_time":4926000000000,"state":"active","ping":45},{"user_id":164,"name":"I'm luvin dis here rap game $$$","steam_id":76561199127423378,"connected_time":1554000000000,"state":"active","ping":58},{"user_id":170,"name":"Saddam","steam_id":76561197985725267,"connected_time":162000000000,"state":"active","ping":86},{"user_id":158,"name":"donutdagger","steam_id":76561199203048300,"connected_time":2521000000000,"state":"active","ping":59},{"user_id":152,"name":"Spruce","steam_id":76561198081684676,"connected_time":3103000000000,"state":"active","ping":100},{"user_id":165,"name":"Moomin","steam_id":76561198072726213,"connected_time":1546000000000,"state":"active","ping":49},{"user_id":174,"name":"YungKeet","steam_id":76561198293854963,"connected_time":121000000000,"state":"active","ping":90},{"user_id":168,"name":"SesataPomang","steam_id":76561198145133059,"connected_time":166000000000,"state":"active","ping":92},{"user_id":147,"name":"GuyInBronzeV","steam_id":76561198044922651,"connected_time":3659000000000,"state":"active","ping":72},{"user_id":162,"name":"moe","steam_id":76561198929586245,"connected_time":2047000000000,"state":"active","ping":46},{"user_id":163,"name":"SAVECASEY","steam_id":76561198857896847,"connected_time":1650000000000,"state":"active","ping":43}]},{"server_id":324,"name":"Uncletopia | Los Angeles | 3 | All Maps","name_short":"lax-3","host":"lax-1.us.uncletopia.com","port":27035,"enabled":true,"region":"us-west","cc":"us","latitude":33.94279,"longitude":-118.41004,"reserved":0,"last_update":"0001-01-01T00:00:00Z","name_a2s":"Uncletopia | Los Angeles | 3 | All Maps","protocol":17,"map":"cp_process_final","folder":"tf","game":"Team Fortress","app_id":440,"player_count":0,"max_players":24,"Bots":0,"server_type":"Dedicated","server_os":"Linux","password":true,"vac":true,"version":"7961495","steam_id":85568392924510198,"keywords":["cp","nocrits","nodmgspread","uncletopia"],"game_id":440,"stv_port":27036,"stv_name":"Uncletopia | Los Angeles | 3 | All Maps | STV","players":null},{"server_id":25,"name":"Uncletopia | Los Angeles | 4 | Stopwatch Beta","name_short":"lax-4","host":"lax-1.us.uncletopia.com","port":27045,"enabled":true,"region":"us-west","cc":"us","latitude":33.94279,"longitude":-118.41004,"reserved":0,"last_update":"0001-01-01T00:00:00Z","name_a2s":"Uncletopia | Los Angeles | 4 | Stopwatch Beta","protocol":17,"map":"pl_frontier_final","folder":"tf","game":"Team Fortress","app_id":440,"player_count":0,"max_players":24,"Bots":0,"server_type":"Dedicated","server_os":"Linux","password":true,"vac":true,"version":"7961495","steam_id":85568392924510199,"keywords":["nocrits","nodmgspread","payload","uncletopia"],"game_id":440,"stv_port":27046,"stv_name":"Uncletopia | Los Angeles | 4 | Stopwatch Beta | STV","players":null},{"server_id":11,"name":"Uncletopia | London | 1 | All Maps","name_short":"lon-1","host":"lon-1.uk.uncletopia.com","port":27015,"enabled":true,"region":"eu","cc":"gb","latitude":51.509865,"longitude":-0.118092,"reserved":0,"last_update":"0001-01-01T00:00:00Z","name_a2s":"Uncletopia | London | 1 | All Maps","protocol":17,"map":"pl_upward","folder":"tf","game":"Team Fortress","app_id":440,"player_count":24,"max_players":24,"Bots":0,"server_type":"Dedicated","server_os":"Linux","password":true,"vac":true,"version":"7961495","steam_id":85568392924367362,"keywords":["nocrits","nodmgspread","payload","uncletopia"],"game_id":440,"stv_port":27016,"stv_name":"Uncletopia | London | 1 | All Maps | STV","players":[{"user_id":736,"name":"Emaen","steam_id":76561198093983380,"connected_time":2202000000000,"state":"active","ping":47},{"user_id":743,"name":"Madmoose96","steam_id":76561198081888486,"connected_time":2089000000000,"state":"active","ping":74},{"user_id":726,"name":"BreadAcres","steam_id":76561198098217082,"connected_time":2883000000000,"state":"active","ping":65},{"user_id":727,"name":"DonutellaÓÑÉ","steam_id":76561198193972491,"connected_time":2869000000000,"state":"active","ping":43},{"user_id":754,"name":"BreadBubbles","steam_id":76561198174332826,"connected_time":1145000000000,"state":"active","ping":60},{"user_id":690,"name":"Kahvi","steam_id":76561198723244199,"connected_time":7183000000000,"state":"active","ping":75},{"user_id":751,"name":"snowycoast","steam_id":76561198346638308,"connected_time":1350000000000,"state":"active","ping":58},{"user_id":712,"name":"flying goblin","steam_id":76561199050383942,"connected_time":3902000000000,"state":"active","ping":58},{"user_id":744,"name":"Vivian From Paper Mario","steam_id":76561198077624205,"connected_time":2071000000000,"state":"active","ping":69},{"user_id":749,"name":"all g","steam_id":76561198139729249,"connected_time":1504000000000,"state":"active","ping":97},{"user_id":717,"name":"W","steam_id":76561198273623211,"connected_time":3860000000000,"state":"active","ping":89},{"user_id":709,"name":"sir camara32","steam_id":76561199473344099,"connected_time":3918000000000,"state":"active","ping":76},{"user_id":722,"name":"Croy","steam_id":76561197972552579,"connected_time":3007000000000,"state":"active","ping":44},{"user_id":714,"name":"shooer!","steam_id":76561198110531281,"connected_time":3900000000000,"state":"active","ping":61},{"user_id":703,"name":"Waffle","steam_id":76561198397024973,"connected_time":5545000000000,"state":"active","ping":40},{"user_id":753,"name":"Karahu","steam_id":76561198060426885,"connected_time":1316000000000,"state":"active","ping":86},{"user_id":705,"name":"Tengen","steam_id":76561199356990346,"connected_time":5533000000000,"state":"active","ping":102},{"user_id":755,"name":"Aaron","steam_id":76561197990046953,"connected_time":227000000000,"state":"active","ping":59},{"user_id":721,"name":"beebo","steam_id":76561199120277007,"connected_time":3255000000000,"state":"active","ping":49},{"user_id":750,"name":"rosable ‚òÜ","steam_id":76561199164371592,"connected_time":1499000000000,"state":"active","ping":134},{"user_id":745,"name":"ein'd","steam_id":76561198152162834,"connected_time":2009000000000,"state":"active","ping":90},{"user_id":710,"name":"Fwebbie","steam_id":76561199006875621,"connected_time":3917000000000,"state":"active","ping":52},{"user_id":758,"name":"sora","steam_id":76561198096547662,"connected_time":170000000000,"state":"active","ping":56},{"user_id":735,"name":"Anri Okita's Massive Milkers","steam_id":76561199186352720,"connected_time":2304000000000,"state":"active","ping":64}]},{"server_id":114,"name":"Uncletopia | London | 2 | All Maps","name_short":"lon-2","host":"lon-1.uk.uncletopia.com","port":27025,"enabled":true,"region":"eu","cc":"gb","latitude":51.509865,"longitude":-0.118092,"reserved":0,"last_update":"0001-01-01T00:00:00Z","name_a2s":"Uncletopia | London | 2 | All Maps","protocol":17,"map":"pl_pier","folder":"tf","game":"Team Fortress","app_id":440,"player_count":24,"max_players":24,"Bots":0,"server_type":"Dedicated","server_os":"Linux","password":true,"vac":true,"version":"7961495","steam_id":85568392924470941,"keywords":["nocrits","nodmgspread","payload","uncletopia"],"game_id":440,"stv_port":27026,"stv_name":"Uncletopia | London | 2 | All Maps | STV","players":[{"user_id":819,"name":"Mr_Pulse_","steam_id":76561198095001602,"connected_time":1983000000000,"state":"active","ping":108},{"user_id":801,"name":"www.earnGBP.online","steam_id":76561198005777437,"connected_time":3331000000000,"state":"active","ping":32},{"user_id":769,"name":"Naix","steam_id":76561198053893077,"connected_time":6362000000000,"state":"active","ping":52},{"user_id":833,"name":"sushii","steam_id":76561198297987372,"connected_time":917000000000,"state":"active","ping":53},{"user_id":727,"name":"Mr.O #deletesniper","steam_id":76561198039567498,"connected_time":8628000000000,"state":"active","ping":60},{"user_id":794,"name":"LiterallyRyanGosling","steam_id":76561199017856691,"connected_time":4057000000000,"state":"active","ping":55},{"user_id":838,"name":"8 Ball","steam_id":76561197960988736,"connected_time":391000000000,"state":"active","ping":47},{"user_id":839,"name":"one spliff sesh legend","steam_id":76561198101292843,"connected_time":386000000000,"state":"active","ping":55},{"user_id":842,"name":"Mike Ehrmantraut","steam_id":76561198164783481,"connected_time":272000000000,"state":"active","ping":83},{"user_id":773,"name":"Sixie","steam_id":76561198251675360,"connected_time":5716000000000,"state":"active","ping":54},{"user_id":836,"name":"Wide \u0026 Irish","steam_id":76561198023640858,"connected_time":516000000000,"state":"active","ping":33},{"user_id":834,"name":"A new medic(F2p)","steam_id":76561199388826335,"connected_time":597000000000,"state":"active","ping":134},{"user_id":816,"name":"hunte","steam_id":76561198063483484,"connected_time":2246000000000,"state":"active","ping":82},{"user_id":844,"name":"Haba","steam_id":76561198059653609,"connected_time":68000000000,"state":"active","ping":76},{"user_id":783,"name":"gibb (official)","steam_id":76561198074097655,"connected_time":5063000000000,"state":"active","ping":39},{"user_id":825,"name":"Faustino","steam_id":76561198061771785,"connected_time":1788000000000,"state":"active","ping":85},{"user_id":845,"name":"tompp","steam_id":76561198143529110,"connected_time":68000000000,"state":"active","ping":46},{"user_id":800,"name":"Raulca25","steam_id":76561199068256964,"connected_time":3643000000000,"state":"active","ping":82},{"user_id":812,"name":"TheEventGuy","steam_id":76561197972797744,"connected_time":2981000000000,"state":"active","ping":72},{"user_id":832,"name":"juicy","steam_id":76561198127264835,"connected_time":1268000000000,"state":"active","ping":50},{"user_id":782,"name":"pizzaboob","steam_id":76561198097507847,"connected_time":5469000000000,"state":"active","ping":83},{"user_id":768,"name":"wal","steam_id":76561198066043883,"connected_time":6727000000000,"state":"active","ping":54},{"user_id":795,"name":"C#","steam_id":76561198067204908,"connected_time":3951000000000,"state":"active","ping":57},{"user_id":843,"name":"TeslaVet","steam_id":76561198027201872,"connected_time":264000000000,"state":"active","ping":76}]},{"server_id":320,"name":"Uncletopia | London | 3 | All Maps","name_short":"lon-3","host":"lon-1.uk.uncletopia.com","port":27035,"enabled":true,"region":"eu","cc":"gb","latitude":51.509865,"longitude":-0.118092,"reserved":0,"last_update":"0001-01-01T00:00:00Z","name_a2s":"Uncletopia | London | 3 | All Maps","protocol":17,"map":"pl_snowycoast","folder":"tf","game":"Team Fortress","app_id":440,"player_count":24,"max_players":24,"Bots":0,"server_type":"Dedicated","server_os":"Linux","password":true,"vac":true,"version":"7961495","steam_id":85568392924510192,"keywords":["nocrits","nodmgspread","payload","uncletopia"],"game_id":440,"stv_port":27036,"stv_name":"Uncletopia | London | 3 | All Maps | STV","players":[{"user_id":606,"name":"Foreskin Gamer","steam_id":76561198283106341,"connected_time":4604000000000,"state":"active","ping":58},{"user_id":590,"name":"irritable vowel syndrome","steam_id":76561198117033273,"connected_time":5505000000000,"state":"active","ping":52},{"user_id":653,"name":"ZOOKY","steam_id":76561198028806392,"connected_time":658000000000,"state":"active","ping":46},{"user_id":652,"name":"going bananas","steam_id":76561199480942903,"connected_time":676000000000,"state":"active","ping":74},{"user_id":655,"name":"The Scoundrel","steam_id":76561199244090814,"connected_time":536000000000,"state":"active","ping":44},{"user_id":634,"name":"MaRo","steam_id":76561198992286676,"connected_time":2368000000000,"state":"active","ping":59},{"user_id":650,"name":"D_Ink","steam_id":76561198267716662,"connected_time":1202000000000,"state":"active","ping":41},{"user_id":602,"name":"Woman (Real)","steam_id":76561199151823932,"connected_time":4695000000000,"state":"active","ping":87},{"user_id":607,"name":"sex haver","steam_id":76561198798892497,"connected_time":4518000000000,"state":"active","ping":60},{"user_id":635,"name":"Silly Poo","steam_id":76561198120715831,"connected_time":2349000000000,"state":"active","ping":56},{"user_id":560,"name":"Aroo","steam_id":76561198132601368,"connected_time":7828000000000,"state":"active","ping":78},{"user_id":636,"name":"Baljeet","steam_id":76561198072161070,"connected_time":2346000000000,"state":"active","ping":59},{"user_id":637,"name":"Hot._.Chocopops","steam_id":76561199025668594,"connected_time":2346000000000,"state":"active","ping":82},{"user_id":618,"name":"Golden Boy","steam_id":76561198049072159,"connected_time":3664000000000,"state":"active","ping":60},{"user_id":598,"name":"jawA","steam_id":76561198070341774,"connected_time":4768000000000,"state":"active","ping":89},{"user_id":600,"name":"highest noon","steam_id":76561199103959197,"connected_time":4740000000000,"state":"active","ping":100},{"user_id":656,"name":"fabacher","steam_id":76561198057905272,"connected_time":446000000000,"state":"active","ping":71},{"user_id":622,"name":"Asat","steam_id":76561198862727465,"connected_time":3467000000000,"state":"active","ping":63},{"user_id":624,"name":"BenteBent","steam_id":76561198297920637,"connected_time":3262000000000,"state":"active","ping":42},{"user_id":568,"name":"flamingosaurus","steam_id":76561198051455397,"connected_time":7531000000000,"state":"active","ping":44},{"user_id":619,"name":"Fridge","steam_id":76561198040232834,"connected_time":3662000000000,"state":"active","ping":61},{"user_id":648,"name":"Lukas","steam_id":76561198009118452,"connected_time":1514000000000,"state":"active","ping":69},{"user_id":651,"name":"Squid","steam_id":76561198055443558,"connected_time":787000000000,"state":"active","ping":52},{"user_id":589,"name":"Akkie.","steam_id":76561198017619091,"connected_time":5724000000000,"state":"active","ping":68}]},{"server_id":321,"name":"Uncletopia | London | 4 | All Maps","name_short":"lon-4","host":"lon-1.uk.uncletopia.com","port":27045,"enabled":true,"region":"eu","cc":"gb","latitude":51.509865,"longitude":-0.118092,"reserved":0,"last_update":"0001-01-01T00:00:00Z","name_a2s":"Uncletopia | London | 4 | All Maps","protocol":17,"map":"cp_altitude","folder":"tf","game":"Team Fortress","app_id":440,"player_count":24,"max_players":24,"Bots":0,"server_type":"Dedicated","server_os":"Linux","password":true,"vac":true,"version":"7961495","steam_id":85568392924510193,"keywords":["cp","nocrits","nodmgspread","uncletopia"],"game_id":440,"stv_port":27046,"stv_name":"Uncletopia | London | 4 | All Maps | STV","players":[{"user_id":416,"name":"Djuba","steam_id":76561198142652031,"connected_time":1626000000000,"state":"active","ping":62},{"user_id":428,"name":"mitical uknown","steam_id":76561198844852761,"connected_time":361000000000,"state":"active","ping":73},{"user_id":368,"name":"ht","steam_id":76561198860941690,"connected_time":3910000000000,"state":"active","ping":80},{"user_id":423,"name":"Creamydot","steam_id":76561198102496062,"connected_time":876000000000,"state":"active","ping":58},{"user_id":411,"name":"Waltuh Whitte","steam_id":76561198372798868,"connected_time":1887000000000,"state":"active","ping":175},{"user_id":430,"name":"Crow","steam_id":76561198274977209,"connected_time":333000000000,"state":"active","ping":142},{"user_id":420,"name":"pond","steam_id":76561198214849363,"connected_time":1212000000000,"state":"active","ping":87},{"user_id":425,"name":"Firiak","steam_id":76561198050216930,"connected_time":720000000000,"state":"active","ping":60},{"user_id":367,"name":"cvprian","steam_id":76561198066655971,"connected_time":4095000000000,"state":"active","ping":73},{"user_id":320,"name":"0","steam_id":76561199334880197,"connected_time":6211000000000,"state":"active","ping":51},{"user_id":417,"name":"Micha≈Ç","steam_id":76561198320346362,"connected_time":1409000000000,"state":"active","ping":70},{"user_id":418,"name":"sticks","steam_id":76561198127099299,"connected_time":1278000000000,"state":"active","ping":42},{"user_id":426,"name":"temanator","steam_id":76561198401227053,"connected_time":530000000000,"state":"active","ping":91},{"user_id":422,"name":"Top Geezaaa","steam_id":76561198267857927,"connected_time":961000000000,"state":"active","ping":50},{"user_id":391,"name":"ethan","steam_id":76561198119495513,"connected_time":2708000000000,"state":"active","ping":42},{"user_id":427,"name":"Reflector","steam_id":76561198078999855,"connected_time":398000000000,"state":"active","ping":160},{"user_id":394,"name":"BONA FIDE PISS","steam_id":76561198130020929,"connected_time":2602000000000,"state":"active","ping":36},{"user_id":404,"name":"padillacampos","steam_id":76561198161923970,"connected_time":2112000000000,"state":"active","ping":79},{"user_id":396,"name":"professional nonprofessional","steam_id":76561199200442395,"connected_time":2474000000000,"state":"active","ping":77},{"user_id":381,"name":"MR.PizzaRoles","steam_id":76561199068248901,"connected_time":3091000000000,"state":"active","ping":92},{"user_id":293,"name":"Sexx Co.","steam_id":76561198881000162,"connected_time":7687000000000,"state":"active","ping":154},{"user_id":414,"name":"veto vuyisio","steam_id":76561199101145470,"connected_time":1725000000000,"state":"active","ping":76},{"user_id":415,"name":"ROX","steam_id":76561198272289320,"connected_time":1720000000000,"state":"active","ping":65},{"user_id":337,"name":"Invoker-sama","steam_id":76561198128470403,"connected_time":5286000000000,"state":"active","ping":113}]},{"server_id":21,"name":"Uncletopia | London | 5 | All Maps","name_short":"lon-5","host":"lon-1.uk.uncletopia.com","port":27055,"enabled":true,"region":"eu","cc":"gb","latitude":51.509865,"longitude":-0.118092,"reserved":0,"last_update":"0001-01-01T00:00:00Z","name_a2s":"Uncletopia | London | 5 | All Maps","protocol":17,"map":"pl_barnblitz","folder":"tf","game":"Team Fortress","app_id":440,"player_count":24,"max_players":24,"Bots":0,"server_type":"Dedicated","server_os":"Linux","password":true,"vac":true,"version":"7961495","steam_id":85568392924742829,"keywords":["nocrits","nodmgspread","payload","uncletopia"],"game_id":440,"stv_port":27056,"stv_name":"Uncletopia | London | 5 | All Maps | STV","players":[{"user_id":525,"name":"UltimateSlayer","steam_id":76561198384109309,"connected_time":2426000000000,"state":"active","ping":50},{"user_id":543,"name":"Pork","steam_id":76561198025326678,"connected_time":1043000000000,"state":"active","ping":142},{"user_id":540,"name":"Puss in Boots","steam_id":76561198211599767,"connected_time":1609000000000,"state":"active","ping":51},{"user_id":527,"name":"The F-Word (Femboy)","steam_id":76561198072320671,"connected_time":2290000000000,"state":"active","ping":32},{"user_id":542,"name":"Marquis de Hoto","steam_id":76561198080687708,"connected_time":1126000000000,"state":"active","ping":73},{"user_id":529,"name":"awesome rat","steam_id":76561198252656316,"connected_time":2250000000000,"state":"active","ping":60},{"user_id":460,"name":"t0xic Assh0le","steam_id":76561198999652040,"connected_time":6156000000000,"state":"active","ping":55},{"user_id":548,"name":"i shit, therefore i smell","steam_id":76561198050214002,"connected_time":898000000000,"state":"active","ping":60},{"user_id":549,"name":"Beni ü¶ßüçå","steam_id":76561198011340227,"connected_time":889000000000,"state":"active","ping":61},{"user_id":467,"name":"R3inis","steam_id":76561199030393569,"connected_time":5810000000000,"state":"active","ping":87},{"user_id":551,"name":"Blobbaz","steam_id":76561198031076278,"connected_time":193000000000,"state":"active","ping":54},{"user_id":537,"name":"Charon","steam_id":76561198061714753,"connected_time":1811000000000,"state":"active","ping":75},{"user_id":521,"name":"meatsoupcube","steam_id":76561198276802249,"connected_time":2796000000000,"state":"active","ping":104},{"user_id":538,"name":"Excessive Clownery","steam_id":76561198130404188,"connected_time":1776000000000,"state":"active","ping":56},{"user_id":553,"name":"levnemcev","steam_id":76561198057205970,"connected_time":37000000000,"state":"spawning","ping":102},{"user_id":550,"name":"FatCuddlyBear","steam_id":76561198133613253,"connected_time":735000000000,"state":"active","ping":164},{"user_id":534,"name":"Frag Johnson","steam_id":76561197970114051,"connected_time":2169000000000,"state":"active","ping":45},{"user_id":514,"name":"Cabbch","steam_id":76561198045955679,"connected_time":3028000000000,"state":"active","ping":45},{"user_id":524,"name":"froge","steam_id":76561198304959766,"connected_time":2512000000000,"state":"active","ping":83},{"user_id":552,"name":"Twingo","steam_id":76561198207042812,"connected_time":142000000000,"state":"active","ping":83},{"user_id":536,"name":"mohemmedmokhter2005","steam_id":76561199197650506,"connected_time":2095000000000,"state":"active","ping":106},{"user_id":428,"name":"Personano","steam_id":76561198994355577,"connected_time":8506000000000,"state":"active","ping":54},{"user_id":330,"name":"Ixsus\u003c3","steam_id":76561198094756869,"connected_time":14971000000000,"state":"active","ping":60},{"user_id":547,"name":"The Power","steam_id":76561198060566884,"connected_time":1009000000000,"state":"active","ping":42}]},{"server_id":22,"name":"Uncletopia | London | 6 | All Maps","name_short":"lon-6","host":"lon-1.uk.uncletopia.com","port":27065,"enabled":true,"region":"eu","cc":"gb","latitude":51.509865,"longitude":-0.118092,"reserved":0,"last_update":"0001-01-01T00:00:00Z","name_a2s":"Uncletopia | London | 6 | All Maps","protocol":17,"map":"koth_cascade","folder":"tf","game":"Team Fortress","app_id":440,"player_count":0,"max_players":24,"Bots":0,"server_type":"Dedicated","server_os":"Linux","password":true,"vac":true,"version":"7961495","steam_id":85568392924742830,"keywords":["cp","nocrits","nodmgspread","uncletopia"],"game_id":440,"stv_port":27066,"stv_name":"Uncletopia | London | 6 | All Maps | STV","players":null},{"server_id":40,"name":"Uncletopia | London | 7 | No Payload","name_short":"lon-7","host":"lon-1.uk.uncletopia.com","port":27075,"enabled":true,"region":"eu","cc":"gb","latitude":51.509865,"longitude":-0.118092,"reserved":0,"last_update":"0001-01-01T00:00:00Z","name_a2s":"Uncletopia | London | 7 | No Payload","protocol":17,"map":"koth_viaduct","folder":"tf","game":"Team Fortress","app_id":440,"player_count":24,"max_players":24,"Bots":0,"server_type":"Dedicated","server_os":"Linux","password":true,"vac":true,"version":"7961495","steam_id":85568392924964314,"keywords":["cp","nocrits","nodmgspread","uncletopia"],"game_id":440,"stv_port":27076,"stv_name":"Uncletopia | London | 7 | No Payload | STV","players":[{"user_id":274,"name":"‚àû","steam_id":76561199229436391,"connected_time":726000000000,"state":"active","ping":54},{"user_id":280,"name":"unqertow","steam_id":76561198816086528,"connected_time":192000000000,"state":"active","ping":90},{"user_id":285,"name":"KarterXm","steam_id":76561199388201751,"connected_time":84000000000,"state":"active","ping":59},{"user_id":261,"name":"7oid","steam_id":76561198142074232,"connected_time":1262000000000,"state":"active","ping":104},{"user_id":281,"name":"Stephen","steam_id":76561197989467462,"connected_time":175000000000,"state":"active","ping":144},{"user_id":282,"name":"Aureold","steam_id":76561198109307607,"connected_time":175000000000,"state":"active","ping":38},{"user_id":283,"name":"Obi1Kenobi[UA]","steam_id":76561198021640979,"connected_time":173000000000,"state":"active","ping":107},{"user_id":243,"name":"N","steam_id":76561198257342972,"connected_time":2764000000000,"state":"active","ping":60},{"user_id":230,"name":"bomberman","steam_id":76561199066513442,"connected_time":3544000000000,"state":"active","ping":81},{"user_id":257,"name":"fence_","steam_id":76561198150386379,"connected_time":1371000000000,"state":"active","ping":46},{"user_id":178,"name":"old dumpster","steam_id":76561198251951544,"connected_time":7420000000000,"state":"active","ping":120},{"user_id":122,"name":"dash.","steam_id":76561198084796149,"connected_time":11746000000000,"state":"active","ping":49},{"user_id":254,"name":"Super Amazing Hotdog Batman!:3","steam_id":76561198074168360,"connected_time":1671000000000,"state":"active","ping":53},{"user_id":223,"name":"Colingaffney","steam_id":76561198197984574,"connected_time":4000000000000,"state":"active","ping":66},{"user_id":277,"name":"Yeezuz","steam_id":76561198448209430,"connected_time":285000000000,"state":"active","ping":133},{"user_id":234,"name":"Teathling.ttv","steam_id":76561198061580505,"connected_time":3435000000000,"state":"active","ping":57},{"user_id":252,"name":"the april fool","steam_id":76561198311044984,"connected_time":2054000000000,"state":"active","ping":71},{"user_id":284,"name":"Gomashu","steam_id":76561197966573082,"connected_time":173000000000,"state":"active","ping":138},{"user_id":256,"name":"Outlier","steam_id":76561199093787770,"connected_time":1640000000000,"state":"active","ping":153},{"user_id":265,"name":"yuno appreciator","steam_id":76561198083286511,"connected_time":1217000000000,"state":"active","ping":44},{"user_id":268,"name":"beeb","steam_id":76561198211644077,"connected_time":1112000000000,"state":"active","ping":64},{"user_id":269,"name":"SpaceBoxxer","steam_id":76561198798211513,"connected_time":1071000000000,"state":"active","ping":75},{"user_id":272,"name":"‚òÅ Lou1smeister ‚òÅ","steam_id":76561198004032968,"connected_time":851000000000,"state":"active","ping":68},{"user_id":287,"name":"cinny","steam_id":76561198832112629,"connected_time":21000000000,"state":"active","ping":81}]},{"server_id":41,"name":"Uncletopia | London | 8 | Community","name_short":"lon-8","host":"lon-1.uk.uncletopia.com","port":27085,"enabled":true,"region":"eu","cc":"gb","latitude":51.509865,"longitude":-0.118092,"reserved":0,"last_update":"0001-01-01T00:00:00Z","name_a2s":"Uncletopia | London | 8 | Community","protocol":17,"map":"workshop/koth_ramjam_rc1.ugc459778887","folder":"tf","game":"Team Fortress","app_id":440,"player_count":0,"max_players":24,"Bots":0,"server_type":"Dedicated","server_os":"Linux","password":true,"vac":true,"version":"7961495","steam_id":85568392924964315,"keywords":["cp","nocrits","nodmgspread","uncletopia"],"game_id":440,"stv_port":27086,"stv_name":"Uncletopia | London | 8 | Community | STV","players":null},{"server_id":300,"name":"Uncletopia | Montr√©al | 1 | All Maps","name_short":"mtl-1","host":"mtl-1.ca.uncletopia.com","port":27015,"enabled":true,"region":"us-east","cc":"ca","latitude":45.50889,"longitude":-73.56167,"reserved":0,"last_update":"0001-01-01T00:00:00Z","name_a2s":"Uncletopia | Montr√©al | 1 | All Maps","protocol":17,"map":"pl_barnblitz","folder":"tf","game":"Team Fortress","app_id":440,"player_count":0,"max_players":24,"Bots":0,"server_type":"Dedicated","server_os":"Linux","password":true,"vac":true,"version":"7961495","steam_id":85568392924500087,"keywords":["nocrits","nodmgspread","payload","uncletopia"],"game_id":440,"stv_port":27016,"stv_name":"Uncletopia | Montr√©al | 1 | All Maps | STV","players":null},{"server_id":301,"name":"Uncletopia | Montr√©al | 2 | All Maps","name_short":"mtl-2","host":"mtl-1.ca.uncletopia.com","port":27025,"enabled":true,"region":"us-east","cc":"ca","latitude":45.50889,"longitude":-73.56167,"reserved":0,"last_update":"0001-01-01T00:00:00Z","name_a2s":"Uncletopia | Montr√©al | 2 | All Maps","protocol":17,"map":"koth_viaduct","folder":"tf","game":"Team Fortress","app_id":440,"player_count":0,"max_players":24,"Bots":0,"server_type":"Dedicated","server_os":"Linux","password":true,"vac":true,"version":"7961495","steam_id":85568392924500088,"keywords":["cp","nocrits","nodmgspread","uncletopia"],"game_id":440,"stv_port":27026,"stv_name":"Uncletopia | Montr√©al | 2 | All Maps | STV","players":null},{"server_id":302,"name":"Uncletopia | Montr√©al | 3 | All Maps","name_short":"mtl-3","host":"mtl-1.ca.uncletopia.com","port":27035,"enabled":true,"region":"us-east","cc":"ca","latitude":45.50889,"longitude":-73.56167,"reserved":0,"last_update":"0001-01-01T00:00:00Z","name_a2s":"Uncletopia | Montr√©al | 3 | All Maps","protocol":17,"map":"cp_mountainlab","folder":"tf","game":"Team Fortress","app_id":440,"player_count":0,"max_players":24,"Bots":0,"server_type":"Dedicated","server_os":"Linux","password":true,"vac":true,"version":"7961495","steam_id":85568392924500089,"keywords":["cp","nocrits","nodmgspread","uncletopia"],"game_id":440,"stv_port":27036,"stv_name":"Uncletopia | Montr√©al | 3 | All Maps | STV","players":null},{"server_id":303,"name":"Uncletopia | Montr√©al | 4 | No Payload","name_short":"mtl-4","host":"mtl-1.ca.uncletopia.com","port":27045,"enabled":true,"region":"us-east","cc":"ca","latitude":45.50889,"longitude":-73.56167,"reserved":0,"last_update":"0001-01-01T00:00:00Z","name_a2s":"Uncletopia | Montr√©al | 4 | No Payload","protocol":17,"map":"cp_dustbowl","folder":"tf","game":"Team Fortress","app_id":440,"player_count":24,"max_players":24,"Bots":0,"server_type":"Dedicated","server_os":"Linux","password":true,"vac":true,"version":"7961495","steam_id":85568392924500090,"keywords":["cp","nocrits","nodmgspread","uncletopia"],"game_id":440,"stv_port":27046,"stv_name":"Uncletopia | Montr√©al | 4 | No Payload | STV","players":[{"user_id":50,"name":"violent monkey porn","steam_id":76561199285074344,"connected_time":1919000000000,"state":"active","ping":60},{"user_id":82,"name":"jimmyfnaf172198yay","steam_id":76561198311446636,"connected_time":746000000000,"state":"active","ping":80},{"user_id":52,"name":"Cheesemelt","steam_id":76561198008221847,"connected_time":1622000000000,"state":"active","ping":38},{"user_id":53,"name":"BluCoffee","steam_id":76561198214995967,"connected_time":1621000000000,"state":"active","ping":52},{"user_id":91,"name":"üçÉ The Toker üí®","steam_id":76561198159339442,"connected_time":623000000000,"state":"active","ping":60},{"user_id":66,"name":"Moron","steam_id":76561198290041736,"connected_time":962000000000,"state":"active","ping":67},{"user_id":84,"name":"cynna","steam_id":76561198805633310,"connected_time":707000000000,"state":"active","ping":75},{"user_id":56,"name":"Uncle Majic the Hip Hop Magicia","steam_id":76561198107924303,"connected_time":1440000000000,"state":"active","ping":43},{"user_id":57,"name":"Bubbles","steam_id":76561199009540283,"connected_time":1439000000000,"state":"active","ping":62},{"user_id":92,"name":"Mighty","steam_id":76561198096569755,"connected_time":621000000000,"state":"active","ping":136},{"user_id":94,"name":"Pistol Freeman","steam_id":76561198026818915,"connected_time":534000000000,"state":"active","ping":44},{"user_id":77,"name":"FrostStorm","steam_id":76561198142685151,"connected_time":801000000000,"state":"active","ping":56},{"user_id":18,"name":"Fangirl","steam_id":76561198253710690,"connected_time":4080000000000,"state":"active","ping":75},{"user_id":73,"name":"Bee_Pirate","steam_id":76561199000599111,"connected_time":837000000000,"state":"active","ping":56},{"user_id":65,"name":"Can of Coca-Cola","steam_id":76561198449103812,"connected_time":991000000000,"state":"active","ping":78},{"user_id":95,"name":"MrVegasAguitar","steam_id":76561198084466946,"connected_time":258000000000,"state":"active","ping":92},{"user_id":89,"name":"Lonely Friendless Gamer","steam_id":76561198046728155,"connected_time":648000000000,"state":"active","ping":61},{"user_id":86,"name":"test gamer please ignore","steam_id":76561198007464245,"connected_time":691000000000,"state":"active","ping":77},{"user_id":83,"name":"Nungel","steam_id":76561198272961376,"connected_time":725000000000,"state":"active","ping":104},{"user_id":90,"name":"novu","steam_id":76561198886997024,"connected_time":638000000000,"state":"active","ping":84},{"user_id":96,"name":"Sheev Palpatine","steam_id":76561198252332430,"connected_time":43000000000,"state":"active","ping":93},{"user_id":87,"name":"Bheem","steam_id":76561198170453459,"connected_time":675000000000,"state":"active","ping":112},{"user_id":88,"name":"klaus","steam_id":76561198150394201,"connected_time":667000000000,"state":"active","ping":178},{"user_id":93,"name":"Mrs.Frizzle","steam_id":76561198117157085,"connected_time":617000000000,"state":"active","ping":62}]},{"server_id":13,"name":"Uncletopia | New York City | 1 | All Maps","name_short":"nyc-1","host":"nyc-1.us.uncletopia.com","port":27015,"enabled":true,"region":"us-east","cc":"us","latitude":40.73061,"longitude":-73.93524,"reserved":0,"last_update":"0001-01-01T00:00:00Z","name_a2s":"Uncletopia | New York City | 1 | All Maps","protocol":17,"map":"cp_snakewater_final1","folder":"tf","game":"Team Fortress","app_id":440,"player_count":22,"max_players":24,"Bots":0,"server_type":"Dedicated","server_os":"Linux","password":true,"vac":true,"version":"7961495","steam_id":85568392924469993,"keywords":["cp","nocrits","nodmgspread","uncletopia"],"game_id":440,"stv_port":27016,"stv_name":"Uncletopia | New York City | 1 | All Maps | STV","players":[{"user_id":500,"name":"Meurik","steam_id":76561198078032795,"connected_time":37000000000,"state":"spawning","ping":225},{"user_id":488,"name":"Baron von Whoopsie","steam_id":76561197996691013,"connected_time":895000000000,"state":"active","ping":56},{"user_id":501,"name":"walrus","steam_id":76561198057853319,"connected_time":9000000000,"state":"spawning","ping":49},{"user_id":367,"name":"Monsieur l'INGENIEUR","steam_id":76561198090504334,"connected_time":8246000000000,"state":"active","ping":56},{"user_id":438,"name":"acid","steam_id":76561198055855408,"connected_time":4681000000000,"state":"active","ping":55},{"user_id":435,"name":"Doofenshmirtz Evil Inc.","steam_id":76561198439793697,"connected_time":4748000000000,"state":"active","ping":84},{"user_id":490,"name":"ThatOneBentSpork","steam_id":76561199238184568,"connected_time":784000000000,"state":"active","ping":69},{"user_id":489,"name":"Citron","steam_id":76561198278687374,"connected_time":862000000000,"state":"active","ping":54},{"user_id":486,"name":"drain.pablo.2005","steam_id":76561198303963691,"connected_time":1184000000000,"state":"active","ping":85},{"user_id":470,"name":"Soap","steam_id":76561197994893383,"connected_time":2433000000000,"state":"active","ping":82},{"user_id":492,"name":"Aristotle Voulton","steam_id":76561198100174923,"connected_time":509000000000,"state":"active","ping":70},{"user_id":498,"name":"Usain Bolt","steam_id":76561199491074021,"connected_time":42000000000,"state":"spawning","ping":32},{"user_id":483,"name":"daBigBoss","steam_id":76561198120428029,"connected_time":1557000000000,"state":"active","ping":117},{"user_id":491,"name":"tesagi","steam_id":76561198026664629,"connected_time":657000000000,"state":"active","ping":37},{"user_id":496,"name":"Girl gamer","steam_id":76561198237827742,"connected_time":45000000000,"state":"active","ping":105},{"user_id":495,"name":"Idk","steam_id":76561198971629959,"connected_time":77000000000,"state":"active","ping":138},{"user_id":502,"name":"RDZ","steam_id":76561198203921628,"connected_time":6000000000,"state":"spawning","ping":123},{"user_id":447,"name":"Rock Kickass","steam_id":76561198450510841,"connected_time":3715000000000,"state":"active","ping":128},{"user_id":499,"name":"Kickpuncher","steam_id":76561198121528357,"connected_time":41000000000,"state":"active","ping":77},{"user_id":464,"name":"The Circle rules Your Life","steam_id":76561198072095399,"connected_time":2965000000000,"state":"active","ping":48},{"user_id":401,"name":"LittleFieryOne","steam_id":76561198107463724,"connected_time":7483000000000,"state":"active","ping":71},{"user_id":476,"name":"Parth Makeo","steam_id":76561198002516581,"connected_time":2290000000000,"state":"spawning","ping":22}]},{"server_id":14,"name":"Uncletopia | New York City | 2 | All Maps","name_short":"nyc-2","host":"nyc-1.us.uncletopia.com","port":27025,"enabled":true,"region":"us-east","cc":"us","latitude":40.73061,"longitude":-73.93524,"reserved":0,"last_update":"0001-01-01T00:00:00Z","name_a2s":"Uncletopia | New York City | 2 | All Maps","protocol":17,"map":"pl_snowycoast","folder":"tf","game":"Team Fortress","app_id":440,"player_count":19,"max_players":24,"Bots":0,"server_type":"Dedicated","server_os":"Linux","password":true,"vac":true,"version":"7961495","steam_id":85568392924469994,"keywords":["nocrits","nodmgspread","payload","uncletopia"],"game_id":440,"stv_port":27026,"stv_name":"Uncletopia | New York City | 2 | All Maps | STV","players":[{"user_id":337,"name":"Elliot","steam_id":76561198052843856,"connected_time":4167000000000,"state":"spawning","ping":61},{"user_id":346,"name":"shitcock","steam_id":76561199407965593,"connected_time":3674000000000,"state":"spawning","ping":96},{"user_id":388,"name":"El G√ºey","steam_id":76561197970450546,"connected_time":235000000000,"state":"spawning","ping":120},{"user_id":389,"name":"BooceMaster","steam_id":76561198148520318,"connected_time":223000000000,"state":"spawning","ping":26},{"user_id":386,"name":"IceWallowCome","steam_id":76561198105591549,"connected_time":699000000000,"state":"spawning","ping":67},{"user_id":377,"name":"Carson","steam_id":76561198076771071,"connected_time":1169000000000,"state":"spawning","ping":57},{"user_id":343,"name":"Blanke","steam_id":76561198068912412,"connected_time":3857000000000,"state":"spawning","ping":93},{"user_id":375,"name":"Frank Forearms.","steam_id":76561198225910596,"connected_time":1310000000000,"state":"spawning","ping":72},{"user_id":342,"name":"Doggo","steam_id":76561198179274557,"connected_time":3938000000000,"state":"spawning","ping":129},{"user_id":364,"name":"A Puppy","steam_id":76561198828184456,"connected_time":2371000000000,"state":"spawning","ping":52},{"user_id":392,"name":"Lemony Lilly (She/Her)","steam_id":76561198042479066,"connected_time":13000000000,"state":"spawning","ping":80},{"user_id":344,"name":"œÜCliff RacerœÜ","steam_id":76561198095908193,"connected_time":3857000000000,"state":"spawning","ping":52},{"user_id":390,"name":"JPSS","steam_id":76561199239530493,"connected_time":96000000000,"state":"spawning","ping":59},{"user_id":366,"name":"Squeegi","steam_id":76561198039613161,"connected_time":2362000000000,"state":"spawning","ping":25},{"user_id":381,"name":"Zigadox","steam_id":76561198079813479,"connected_time":932000000000,"state":"spawning","ping":77},{"user_id":391,"name":"Abaddon","steam_id":76561198030992243,"connected_time":62000000000,"state":"spawning","ping":49},{"user_id":354,"name":"yeah right","steam_id":76561198301127098,"connected_time":3585000000000,"state":"spawning","ping":106},{"user_id":340,"name":"reii","steam_id":76561198134442912,"connected_time":4157000000000,"state":"spawning","ping":85},{"user_id":382,"name":"ancientfunland","steam_id":76561199220174291,"connected_time":918000000000,"state":"spawning","ping":47}]},{"server_id":15,"name":"Uncletopia | New York City | 3 | Stopwatch Beta","name_short":"nyc-3","host":"nyc-1.us.uncletopia.com","port":27035,"enabled":true,"region":"us-east","cc":"us","latitude":40.73061,"longitude":-73.93524,"reserved":0,"last_update":"0001-01-01T00:00:00Z","name_a2s":"Uncletopia | New York City | 3 | Stopwatch Beta","protocol":17,"map":"workshop/koth_bagel_rc6.ugc2514036946","folder":"tf","game":"Team Fortress","app_id":440,"player_count":21,"max_players":24,"Bots":0,"server_type":"Dedicated","server_os":"Linux","password":true,"vac":true,"version":"7961495","steam_id":85568392924742820,"keywords":["cp","nocrits","nodmgspread","uncletopia"],"game_id":440,"stv_port":27036,"stv_name":"Uncletopia | New York City | 3 | Stopwatch Beta | STV","players":[{"user_id":272,"name":"jon.cinnamon","steam_id":76561198127316418,"connected_time":366000000000,"state":"active","ping":77},{"user_id":273,"name":"Flap","steam_id":76561198078889633,"connected_time":290000000000,"state":"active","ping":73},{"user_id":261,"name":"[CTC] kooldan","steam_id":76561198136593625,"connected_time":890000000000,"state":"active","ping":85},{"user_id":207,"name":"BLANK3T (They/He) | RGL.gg","steam_id":76561198028875624,"connected_time":5004000000000,"state":"active","ping":119},{"user_id":274,"name":"h","steam_id":76561198202416617,"connected_time":256000000000,"state":"active","ping":84},{"user_id":269,"name":"greygoose","steam_id":76561198418239391,"connected_time":500000000000,"state":"active","ping":102},{"user_id":244,"name":"get scrongled, idiot","steam_id":76561198115874625,"connected_time":1932000000000,"state":"active","ping":97},{"user_id":184,"name":"HÃ∂ÕíÃçÕÖÃ™ÕñÃôiÃ∏ÃâÃçÕÜÃæÕÅÃæ\ufffd","steam_id":76561198056871257,"connected_time":5737000000000,"state":"active","ping":45},{"user_id":243,"name":"Sableye","steam_id":76561198061247147,"connected_time":2269000000000,"state":"active","ping":76},{"user_id":221,"name":"Slob and Sup","steam_id":76561198123441203,"connected_time":4644000000000,"state":"active","ping":72},{"user_id":275,"name":"MrFrost","steam_id":76561198800061541,"connected_time":38000000000,"state":"active","ping":121},{"user_id":262,"name":"Cheralgel","steam_id":76561198250240138,"connected_time":886000000000,"state":"active","ping":75},{"user_id":216,"name":"Prowox","steam_id":76561198032606089,"connected_time":4697000000000,"state":"active","ping":147},{"user_id":228,"name":"MEATBALL","steam_id":76561198028499312,"connected_time":3773000000000,"state":"active","ping":46},{"user_id":264,"name":"nilftb","steam_id":76561198161952186,"connected_time":866000000000,"state":"active","ping":54},{"user_id":245,"name":"The Squid Gamer‚Ñ¢","steam_id":76561198340621517,"connected_time":1925000000000,"state":"active","ping":125},{"user_id":220,"name":"b4rry","steam_id":76561198365887154,"connected_time":4672000000000,"state":"active","ping":59},{"user_id":265,"name":"Pariah","steam_id":76561198300479600,"connected_time":847000000000,"state":"active","ping":45},{"user_id":266,"name":"G-G-G-GAMERSHOT","steam_id":76561198798980951,"connected_time":786000000000,"state":"active","ping":45},{"user_id":174,"name":"rqru","steam_id":76561198856016840,"connected_time":6311000000000,"state":"active","ping":52},{"user_id":252,"name":"MouxeWare","steam_id":76561199339512223,"connected_time":1576000000000,"state":"active","ping":141}]},{"server_id":16,"name":"Uncletopia | New York City | 4 | Community","name_short":"nyc-4","host":"nyc-1.us.uncletopia.com","port":27045,"enabled":true,"region":"us-east","cc":"us","latitude":40.73061,"longitude":-73.93524,"reserved":0,"last_update":"0001-01-01T00:00:00Z","name_a2s":"Uncletopia | New York City | 4 | Community","protocol":17,"map":"workshop/koth_slaughter_rc1.ugc1712845210","folder":"tf","game":"Team Fortress","app_id":440,"player_count":0,"max_players":24,"Bots":0,"server_type":"Dedicated","server_os":"Linux","password":true,"vac":true,"version":"7961495","steam_id":85568392924742821,"keywords":["cp","nocrits","nodmgspread","uncletopia"],"game_id":440,"stv_port":27046,"stv_name":"Uncletopia | New York City | 4 | Community | STV","players":null},{"server_id":142,"name":"Uncletopia | S√£o Paulo | 1 | All Maps","name_short":"sao-1","host":"sao-1.br.uncletopia.com","port":27015,"enabled":true,"region":"sa","cc":"br","latitude":-23.533773,"longitude":-46.62529,"reserved":0,"last_update":"0001-01-01T00:00:00Z","name_a2s":"Uncletopia | S√£o Paulo | 1 | All Maps","protocol":17,"map":"pl_barnblitz","folder":"tf","game":"Team Fortress","app_id":440,"player_count":3,"max_players":24,"Bots":0,"server_type":"Dedicated","server_os":"Linux","password":true,"vac":true,"version":"7961495","steam_id":85568392924469996,"keywords":["nocrits","nodmgspread","payload","uncletopia"],"game_id":440,"stv_port":27016,"stv_name":"Uncletopia | S√£o Paulo | 1 | All Maps | STV","players":[{"user_id":42,"name":"Imageki","steam_id":76561198057888827,"connected_time":1149000000000,"state":"active","ping":71},{"user_id":44,"name":"Darkno","steam_id":76561199219302058,"connected_time":585000000000,"state":"active","ping":77},{"user_id":47,"name":"melissa","steam_id":76561199304706896,"connected_time":380000000000,"state":"active","ping":73}]},{"server_id":143,"name":"Uncletopia | S√£o Paulo | 2 | All Maps","name_short":"sao-2","host":"sao-2.br.uncletopia.com","port":27015,"enabled":true,"region":"sa","cc":"br","latitude":-23.533773,"longitude":-46.62529,"reserved":0,"last_update":"0001-01-01T00:00:00Z","name_a2s":"Uncletopia | S√£o Paulo | 2 | All Maps","protocol":17,"map":"koth_lakeside_final","folder":"tf","game":"Team Fortress","app_id":440,"player_count":1,"max_players":24,"Bots":0,"server_type":"Dedicated","server_os":"Linux","password":true,"vac":true,"version":"7961495","steam_id":85568392924485349,"keywords":["cp","nocrits","nodmgspread","uncletopia"],"game_id":440,"stv_port":27016,"stv_name":"Uncletopia | S√£o Paulo | 2 | All Maps | STV","players":[{"user_id":115,"name":"Frans","steam_id":76561198207928860,"connected_time":28000000000,"state":"active","ping":29}]},{"server_id":7,"name":"Uncletopia | Seattle | 1 | All Maps","name_short":"sea-1","host":"sea-1.us.uncletopia.com","port":27015,"enabled":true,"region":"us-west","cc":"us","latitude":47.608013,"longitude":-122.33517,"reserved":0,"last_update":"0001-01-01T00:00:00Z","name_a2s":"Uncletopia | Seattle | 1 | All Maps","protocol":17,"map":"pl_thundermountain","folder":"tf","game":"Team Fortress","app_id":440,"player_count":24,"max_players":24,"Bots":0,"server_type":"Dedicated","server_os":"Linux","password":true,"vac":true,"version":"7961495","steam_id":85568392924469997,"keywords":["nocrits","nodmgspread","payload","uncletopia"],"game_id":440,"stv_port":27016,"stv_name":"Uncletopia | Seattle | 1 | All Maps | STV","players":[{"user_id":201,"name":"NayrTheMayor","steam_id":76561198853726475,"connected_time":2601000000000,"state":"active","ping":61},{"user_id":219,"name":"purple‚Ñ¢ | they/she","steam_id":76561198057459725,"connected_time":589000000000,"state":"active","ping":51},{"user_id":158,"name":"TheCowledWiz","steam_id":76561198016735868,"connected_time":5403000000000,"state":"active","ping":48},{"user_id":167,"name":"[Bandit]","steam_id":76561197986919852,"connected_time":4886000000000,"state":"active","ping":43},{"user_id":212,"name":"amarok","steam_id":76561198954000327,"connected_time":1005000000000,"state":"active","ping":65},{"user_id":220,"name":"8bitw0rld","steam_id":76561198092788818,"connected_time":435000000000,"state":"active","ping":50},{"user_id":202,"name":"Greskrendtregk","steam_id":76561197969553142,"connected_time":2225000000000,"state":"active","ping":53},{"user_id":213,"name":"NeonBean","steam_id":76561198088335827,"connected_time":989000000000,"state":"active","ping":121},{"user_id":181,"name":"Vincent Van Bro","steam_id":76561197966919802,"connected_time":3685000000000,"state":"active","ping":59},{"user_id":126,"name":"lynks disease no sound","steam_id":76561198043465434,"connected_time":8595000000000,"state":"active","ping":75},{"user_id":154,"name":"Mr. Ravioli","steam_id":76561197996625649,"connected_time":5741000000000,"state":"active","ping":59},{"user_id":157,"name":"april foos day prankster","steam_id":76561198175741741,"connected_time":5488000000000,"state":"active","ping":65},{"user_id":204,"name":"RainboomCrash","steam_id":76561198065612273,"connected_time":1736000000000,"state":"active","ping":50},{"user_id":127,"name":"jayeskae","steam_id":76561198144220801,"connected_time":8333000000000,"state":"active","ping":55},{"user_id":180,"name":"BillytheKid1911","steam_id":76561198123975074,"connected_time":3916000000000,"state":"active","ping":56},{"user_id":152,"name":"Defeat","steam_id":76561198065203818,"connected_time":5773000000000,"state":"active","ping":44},{"user_id":214,"name":"Marsdudes","steam_id":76561198065755365,"connected_time":977000000000,"state":"active","ping":121},{"user_id":215,"name":"Arsonist Goose","steam_id":76561198147441830,"connected_time":971000000000,"state":"active","ping":73},{"user_id":176,"name":"Donny Q","steam_id":76561198020901703,"connected_time":4461000000000,"state":"active","ping":57},{"user_id":207,"name":"‚ù§ Ashley ‚ù§","steam_id":76561198056428303,"connected_time":1713000000000,"state":"active","ping":71},{"user_id":194,"name":"sillyjack","steam_id":76561198844273999,"connected_time":3249000000000,"state":"active","ping":47},{"user_id":187,"name":"Radio","steam_id":76561198194821053,"connected_time":3347000000000,"state":"active","ping":55},{"user_id":216,"name":"freedom staff","steam_id":76561199123218315,"connected_time":806000000000,"state":"active","ping":131},{"user_id":205,"name":"Yurei","steam_id":76561198088750661,"connected_time":1735000000000,"state":"active","ping":78}]},{"server_id":119,"name":"Uncletopia | Seattle | 2 | All Maps","name_short":"sea-2","host":"sea-1.us.uncletopia.com","port":27025,"enabled":true,"region":"us-west","cc":"us","latitude":47.608013,"longitude":-122.33517,"reserved":0,"last_update":"0001-01-01T00:00:00Z","name_a2s":"Uncletopia | Seattle | 2 | All Maps","protocol":17,"map":"cp_sunshine","folder":"tf","game":"Team Fortress","app_id":440,"player_count":24,"max_players":24,"Bots":0,"server_type":"Dedicated","server_os":"Linux","password":true,"vac":true,"version":"7961495","steam_id":85568392924469998,"keywords":["cp","nocrits","nodmgspread","uncletopia"],"game_id":440,"stv_port":27026,"stv_name":"Uncletopia | Seattle | 2 | All Maps | STV","players":[{"user_id":183,"name":"dougrocks421","steam_id":76561198165063918,"connected_time":2142000000000,"state":"active","ping":37},{"user_id":191,"name":"Robert","steam_id":76561198091171326,"connected_time":1983000000000,"state":"active","ping":45},{"user_id":161,"name":"T√ºCold","steam_id":76561198111278197,"connected_time":3424000000000,"state":"active","ping":53},{"user_id":196,"name":"Pneumo.","steam_id":76561197987911883,"connected_time":1230000000000,"state":"active","ping":74},{"user_id":190,"name":"Lordus","steam_id":76561198160381729,"connected_time":2050000000000,"state":"active","ping":57},{"user_id":61,"name":"cubibluer","steam_id":76561198197405295,"connected_time":10711000000000,"state":"active","ping":51},{"user_id":128,"name":"Gerbias","steam_id":76561198001002427,"connected_time":7134000000000,"state":"active","ping":75},{"user_id":158,"name":"‚ô¶Benji‚ô¶","steam_id":76561198313529973,"connected_time":3856000000000,"state":"active","ping":47},{"user_id":167,"name":"cool beans","steam_id":76561198045758072,"connected_time":3037000000000,"state":"active","ping":61},{"user_id":139,"name":"Sweatpants","steam_id":76561198097188001,"connected_time":5554000000000,"state":"active","ping":44},{"user_id":168,"name":"bubba simp club","steam_id":76561199338554815,"connected_time":2953000000000,"state":"active","ping":103},{"user_id":147,"name":"Wheaty","steam_id":76561198003553412,"connected_time":5362000000000,"state":"active","ping":52},{"user_id":192,"name":"M4 Sherman","steam_id":76561198126990820,"connected_time":1696000000000,"state":"active","ping":88},{"user_id":98,"name":"LederBoy","steam_id":76561198051822369,"connected_time":9335000000000,"state":"active","ping":71},{"user_id":186,"name":"bobby wasabi","steam_id":76561198380018244,"connected_time":2124000000000,"state":"active","ping":60},{"user_id":188,"name":"V‚àÜlume The 1rd","steam_id":76561198133260990,"connected_time":2099000000000,"state":"active","ping":60},{"user_id":195,"name":"defcon","steam_id":76561198100656328,"connected_time":1285000000000,"state":"active","ping":127},{"user_id":173,"name":"carpet","steam_id":76561199059705224,"connected_time":2808000000000,"state":"active","ping":59},{"user_id":156,"name":"Lesbian Futa Mommy","steam_id":76561198130479030,"connected_time":3973000000000,"state":"active","ping":68},{"user_id":201,"name":"no vc no c","steam_id":76561197989503095,"connected_time":386000000000,"state":"active","ping":151},{"user_id":157,"name":"‚ô• Venti ‚ô• (Soupcan)","steam_id":76561198056269538,"connected_time":3916000000000,"state":"active","ping":57},{"user_id":176,"name":"benji","steam_id":76561198084417967,"connected_time":2624000000000,"state":"active","ping":73},{"user_id":198,"name":"pigswill","steam_id":76561197999081865,"connected_time":1080000000000,"state":"active","ping":134},{"user_id":101,"name":"VascoLeder","steam_id":76561198035813854,"connected_time":8963000000000,"state":"active","ping":79}]},{"server_id":406,"name":"Uncletopia | Seattle | 3 | Stopwatch Beta","name_short":"sea-3","host":"sea-1.us.uncletopia.com","port":27035,"enabled":true,"region":"us-west","cc":"us","latitude":47.608013,"longitude":-122.33517,"reserved":0,"last_update":"0001-01-01T00:00:00Z","name_a2s":"Uncletopia | Seattle | 3 | Stopwatch Beta","protocol":17,"map":"pl_borneo","folder":"tf","game":"Team Fortress","app_id":440,"player_count":0,"max_players":24,"Bots":0,"server_type":"Dedicated","server_os":"Linux","password":true,"vac":true,"version":"7961495","steam_id":85568392924515217,"keywords":["nocrits","nodmgspread","payload","uncletopia"],"game_id":440,"stv_port":27036,"stv_name":"Uncletopia | Seattle | 3 | Stopwatch Beta | STV","players":null},{"server_id":17,"name":"Uncletopia | San Francisco | 1 | All Maps","name_short":"sfo-1","host":"sfo-1.us.uncletopia.com","port":27015,"enabled":true,"region":"us-west","cc":"us","latitude":37.77397,"longitude":-122.4313,"reserved":0,"last_update":"0001-01-01T00:00:00Z","name_a2s":"Uncletopia | San Francisco | 1 | All Maps","protocol":17,"map":"pl_frontier_final","folder":"tf","game":"Team Fortress","app_id":440,"player_count":0,"max_players":24,"Bots":0,"server_type":"Dedicated","server_os":"Linux","password":true,"vac":true,"version":"7932396","steam_id":85568392924469999,"keywords":["nocrits","nodmgspread","payload","uncletopia"],"game_id":440,"stv_port":27016,"stv_name":"Uncletopia | San Francisco | 1 | All Maps | STV","players":null},{"server_id":18,"name":"Uncletopia | San Francisco | 2 | All Maps","name_short":"sfo-2","host":"sfo-1.us.uncletopia.com","port":27025,"enabled":true,"region":"us-west","cc":"us","latitude":37.77397,"longitude":-122.4313,"reserved":0,"last_update":"0001-01-01T00:00:00Z","name_a2s":"Uncletopia | San Francisco | 2 | All Maps","protocol":17,"map":"cp_snakewater_final1","folder":"tf","game":"Team Fortress","app_id":440,"player_count":0,"max_players":24,"Bots":0,"server_type":"Dedicated","server_os":"Linux","password":true,"vac":true,"version":"7932396","steam_id":85568392924470000,"keywords":["cp","nocrits","nodmgspread","uncletopia"],"game_id":440,"stv_port":27026,"stv_name":"Uncletopia | San Francisco | 2 | All Maps | STV","players":null},{"server_id":19,"name":"Uncletopia | San Francisco | 3 | Stopwatch Beta","name_short":"sfo-3","host":"sfo-1.us.uncletopia.com","port":27035,"enabled":true,"region":"us-west","cc":"us","latitude":37.77397,"longitude":-122.4313,"reserved":0,"last_update":"0001-01-01T00:00:00Z","name_a2s":"Uncletopia | San Francisco | 3 | Stopwatch Beta","protocol":17,"map":"koth_lakeside_final","folder":"tf","game":"Team Fortress","app_id":440,"player_count":0,"max_players":24,"Bots":0,"server_type":"Dedicated","server_os":"Linux","password":true,"vac":true,"version":"7932396","steam_id":85568392924742824,"keywords":["cp","nocrits","nodmgspread","uncletopia"],"game_id":440,"stv_port":27036,"stv_name":"Uncletopia | San Francisco | 3 | Stopwatch Beta | STV","players":null},{"server_id":20,"name":"Uncletopia | San Francisco | 4 | Community","name_short":"sfo-4","host":"sfo-1.us.uncletopia.com","port":27045,"enabled":true,"region":"us-west","cc":"us","latitude":37.77397,"longitude":-122.4313,"reserved":0,"last_update":"0001-01-01T00:00:00Z","name_a2s":"Uncletopia | San Francisco | 4 | Community","protocol":17,"map":"pl_borneo","folder":"tf","game":"Team Fortress","app_id":440,"player_count":0,"max_players":24,"Bots":0,"server_type":"Dedicated","server_os":"Linux","password":true,"vac":true,"version":"7932396","steam_id":85568392924742826,"keywords":["nocrits","nodmgspread","payload","uncletopia"],"game_id":440,"stv_port":27046,"stv_name":"Uncletopia | San Francisco | 4 | Community | STV","players":null},{"server_id":141,"name":"Uncletopia | Sydney | 1 | All Maps","name_short":"syd-1","host":"syd-1.au.uncletopia.com","port":27015,"enabled":true,"region":"au","cc":"au","latitude":-33.865143,"longitude":151.2099,"reserved":0,"last_update":"0001-01-01T00:00:00Z","name_a2s":"Uncletopia | Sydney | 1 | All Maps","protocol":17,"map":"pl_borneo","folder":"tf","game":"Team Fortress","app_id":440,"player_count":0,"max_players":24,"Bots":0,"server_type":"Dedicated","server_os":"Linux","password":true,"vac":true,"version":"7961495","steam_id":85568392924470001,"keywords":["nocrits","nodmgspread","payload","uncletopia"],"game_id":440,"stv_port":27016,"stv_name":"Uncletopia | Sydney | 1 | All Maps | STV","players":null},{"server_id":123,"name":"Uncletopia | Sydney | 2 | All Maps","name_short":"syd-2","host":"syd-1.au.uncletopia.com","port":27025,"enabled":true,"region":"au","cc":"au","latitude":-33.865143,"longitude":151.2099,"reserved":0,"last_update":"0001-01-01T00:00:00Z","name_a2s":"Uncletopia | Sydney | 2 | All Maps","protocol":17,"map":"koth_viaduct","folder":"tf","game":"Team Fortress","app_id":440,"player_count":0,"max_players":24,"Bots":0,"server_type":"Dedicated","server_os":"Linux","password":true,"vac":true,"version":"7961495","steam_id":85568392924470002,"keywords":["cp","nocrits","nodmgspread","uncletopia"],"game_id":440,"stv_port":27026,"stv_name":"Uncletopia | Sydney | 2 | All Maps | STV","players":null},{"server_id":395,"name":"Uncletopia | Sydney | 3 | All Maps","name_short":"syd-3","host":"syd-1.au.uncletopia.com","port":27035,"enabled":true,"region":"au","cc":"au","latitude":-33.865143,"longitude":151.2099,"reserved":0,"last_update":"0001-01-01T00:00:00Z","name_a2s":"Uncletopia | Sydney | 3 | All Maps","protocol":17,"map":"cp_dustbowl","folder":"tf","game":"Team Fortress","app_id":440,"player_count":0,"max_players":24,"Bots":0,"server_type":"Dedicated","server_os":"Linux","password":true,"vac":true,"version":"7961495","steam_id":85568392925194467,"keywords":["cp","nocrits","nodmgspread","uncletopia"],"game_id":440,"stv_port":27036,"stv_name":"Uncletopia | Sydney | 3 | All Maps | STV","players":null},{"server_id":396,"name":"Uncletopia | Sydney | 4 | All Maps","name_short":"syd-4","host":"syd-1.au.uncletopia.com","port":27045,"enabled":true,"region":"au","cc":"au","latitude":-33.865143,"longitude":151.2099,"reserved":0,"last_update":"0001-01-01T00:00:00Z","name_a2s":"Uncletopia | Sydney | 4 | All Maps","protocol":17,"map":"koth_cascade","folder":"tf","game":"Team Fortress","app_id":440,"player_count":0,"max_players":24,"Bots":0,"server_type":"Dedicated","server_os":"Linux","password":true,"vac":true,"version":"7961495","steam_id":85568392925397958,"keywords":["cp","nocrits","nodmgspread","uncletopia"],"game_id":440,"stv_port":27046,"stv_name":"Uncletopia | Sydney | 4 | All Maps | STV","players":null},{"server_id":58,"name":"Uncletopia | Sydney | 5 | Stopwatch Beta","name_short":"syd-5","host":"syd-1.au.uncletopia.com","port":27055,"enabled":true,"region":"au","cc":"au","latitude":-33.865143,"longitude":151.2099,"reserved":0,"last_update":"0001-01-01T00:00:00Z","name_a2s":"Uncletopia | Sydney | 5 | Stopwatch Beta","protocol":17,"map":"koth_viaduct","folder":"tf","game":"Team Fortress","app_id":440,"player_count":0,"max_players":24,"Bots":0,"server_type":"Dedicated","server_os":"Linux","password":true,"vac":true,"version":"7961495","steam_id":85568392925397959,"keywords":["cp","nocrits","nodmgspread","uncletopia"],"game_id":440,"stv_port":27056,"stv_name":"Uncletopia | Sydney | 5 | Stopwatch Beta | STV","players":null},{"server_id":59,"name":"Uncletopia | Sydney | 6 | Community","name_short":"syd-6","host":"syd-1.au.uncletopia.com","port":27065,"enabled":true,"region":"au","cc":"au","latitude":-33.865143,"longitude":151.2099,"reserved":0,"last_update":"0001-01-01T00:00:00Z","name_a2s":"Uncletopia | Sydney | 6 | Community","protocol":17,"map":"pl_barnblitz","folder":"tf","game":"Team Fortress","app_id":440,"player_count":0,"max_players":24,"Bots":0,"server_type":"Dedicated","server_os":"Linux","password":true,"vac":true,"version":"7961495","steam_id":85568392925397960,"keywords":["nocrits","nodmgspread","payload","uncletopia"],"game_id":440,"stv_port":27066,"stv_name":"Uncletopia | Sydney | 6 | Community | STV","players":null},{"server_id":49,"name":"Uncletopia | Warsaw | 1 | All Maps","name_short":"waw-1","host":"waw-1.pl.uncletopia.com","port":27015,"enabled":true,"region":"eu","cc":"pl","latitude":52.2297,"longitude":21.017532,"reserved":0,"last_update":"0001-01-01T00:00:00Z","name_a2s":"","protocol":0,"map":"","folder":"","game":"","app_id":0,"player_count":0,"max_players":0,"Bots":0,"server_type":"","server_os":"","password":false,"vac":false,"version":"","steam_id":0,"keywords":null,"game_id":0,"stv_port":0,"stv_name":"","players":null},{"server_id":50,"name":"Uncletopia | Warsaw | 2 | All Maps","name_short":"waw-2","host":"waw-1.pl.uncletopia.com","port":27025,"enabled":true,"region":"eu","cc":"pl","latitude":52.2297,"longitude":21.017532,"reserved":0,"last_update":"0001-01-01T00:00:00Z","name_a2s":"Uncletopia | Warsaw | 2 | All Maps","protocol":17,"map":"koth_cascade","folder":"tf","game":"Team Fortress","app_id":440,"player_count":3,"max_players":24,"Bots":0,"server_type":"Dedicated","server_os":"Linux","password":true,"vac":true,"version":"7961495","steam_id":85568392925397851,"keywords":["cp","nocrits","nodmgspread","uncletopia"],"game_id":440,"stv_port":27026,"stv_name":"Uncletopia | Warsaw | 2 | All Maps | STV","players":[{"user_id":140,"name":"Mafalik","steam_id":76561198231353148,"connected_time":2583000000000,"state":"active","ping":48},{"user_id":141,"name":"WotFox","steam_id":76561198941119977,"connected_time":2506000000000,"state":"active","ping":55},{"user_id":142,"name":"stefanbejenari","steam_id":76561199466718294,"connected_time":1648000000000,"state":"active","ping":76}]},{"server_id":51,"name":"Uncletopia | Warsaw | 3 | All Maps","name_short":"waw-3","host":"waw-1.pl.uncletopia.com","port":27035,"enabled":true,"region":"eu","cc":"pl","latitude":52.2297,"longitude":21.017532,"reserved":0,"last_update":"0001-01-01T00:00:00Z","name_a2s":"Uncletopia | Warsaw | 3 | All Maps","protocol":17,"map":"cp_sunshine","folder":"tf","game":"Team Fortress","app_id":440,"player_count":11,"max_players":24,"Bots":0,"server_type":"Dedicated","server_os":"Linux","password":true,"vac":true,"version":"7961495","steam_id":85568392925397852,"keywords":["cp","nocrits","nodmgspread","uncletopia"],"game_id":440,"stv_port":27036,"stv_name":"Uncletopia | Warsaw | 3 | All Maps | STV","players":[{"user_id":177,"name":"zenily","steam_id":76561199014739856,"connected_time":2313000000000,"state":"active","ping":90},{"user_id":199,"name":"Alegz","steam_id":76561198287810139,"connected_time":120000000000,"state":"active","ping":56},{"user_id":127,"name":"Ekon","steam_id":76561199145447699,"connected_time":5858000000000,"state":"active","ping":111},{"user_id":120,"name":"‚ô•HuHi‚ô•","steam_id":76561198286149089,"connected_time":7451000000000,"state":"active","ping":99},{"user_id":132,"name":"siarczan (VI) miedzi (II)","steam_id":76561198327848460,"connected_time":5322000000000,"state":"active","ping":49},{"user_id":198,"name":"Bahador","steam_id":76561198897378461,"connected_time":187000000000,"state":"active","ping":112},{"user_id":185,"name":"Mr_jelezyaka_UA","steam_id":76561198318394990,"connected_time":1057000000000,"state":"active","ping":66},{"user_id":167,"name":"Nice One #SAVETF2","steam_id":76561197967904760,"connected_time":2762000000000,"state":"active","ping":85},{"user_id":189,"name":"danlov54","steam_id":76561199079250473,"connected_time":727000000000,"state":"active","ping":195},{"user_id":179,"name":"Zencrusher","steam_id":76561197971847752,"connected_time":2142000000000,"state":"active","ping":82},{"user_id":165,"name":"–õ—ã—Å—ã–π –∏–∑ –∫—É—Ö–Ω–∏","steam_id":76561199072741842,"connected_time":3167000000000,"state":"active","ping":101}]},{"server_id":52,"name":"Uncletopia | Warsaw | 4 | All Maps","name_short":"waw-4","host":"waw-1.pl.uncletopia.com","port":27045,"enabled":true,"region":"eu","cc":"pl","latitude":52.2297,"longitude":21.017532,"reserved":0,"last_update":"0001-01-01T00:00:00Z","name_a2s":"Uncletopia | Warsaw | 4 | All Maps","protocol":17,"map":"pl_upward","folder":"tf","game":"Team Fortress","app_id":440,"player_count":24,"max_players":24,"Bots":0,"server_type":"Dedicated","server_os":"Linux","password":true,"vac":true,"version":"7961495","steam_id":85568392925397853,"keywords":["nocrits","nodmgspread","payload","uncletopia"],"game_id":440,"stv_port":27046,"stv_name":"Uncletopia | Warsaw | 4 | All Maps | STV","players":[{"user_id":24,"name":"xX_DogWater-Gaming69_Xx","steam_id":76561198335486000,"connected_time":3342000000000,"state":"active","ping":67},{"user_id":52,"name":"Û†Å≥‚Åß‚Åß Kruthal","steam_id":76561198245726582,"connected_time":589000000000,"state":"active","ping":57},{"user_id":26,"name":"Rocadinis","steam_id":76561198095910616,"connected_time":2936000000000,"state":"active","ping":109},{"user_id":53,"name":"Mischail","steam_id":76561198016127010,"connected_time":564000000000,"state":"active","ping":89},{"user_id":14,"name":"Bucket","steam_id":76561199165494885,"connected_time":4521000000000,"state":"active","ping":129},{"user_id":21,"name":"Le kabeb","steam_id":76561198086578208,"connected_time":3821000000000,"state":"active","ping":64},{"user_id":37,"name":"ST‚õ•RZ","steam_id":76561198965593434,"connected_time":1638000000000,"state":"active","ping":167},{"user_id":20,"name":"Bradders","steam_id":76561198072225758,"connected_time":3836000000000,"state":"active","ping":67},{"user_id":22,"name":"Memph","steam_id":76561198093280341,"connected_time":3815000000000,"state":"active","ping":70},{"user_id":51,"name":"Glenn Quagmire","steam_id":76561199348527880,"connected_time":623000000000,"state":"active","ping":96},{"user_id":29,"name":"JM\u003c3","steam_id":76561199123978696,"connected_time":2813000000000,"state":"active","ping":115},{"user_id":54,"name":"Norwegian Individual","steam_id":76561198427965963,"connected_time":534000000000,"state":"active","ping":112},{"user_id":32,"name":"maslak","steam_id":76561198803969176,"connected_time":2509000000000,"state":"active","ping":58},{"user_id":56,"name":"Shynii","steam_id":76561198194682105,"connected_time":418000000000,"state":"active","ping":80},{"user_id":39,"name":"Fagette","steam_id":76561198165878858,"connected_time":1434000000000,"state":"active","ping":41},{"user_id":40,"name":"thog","steam_id":76561198219901556,"connected_time":1330000000000,"state":"active","ping":112},{"user_id":45,"name":"–¢—Ä—É–ø –í–æ–ª–æ–¥—è","steam_id":76561198035718457,"connected_time":958000000000,"state":"active","ping":102},{"user_id":42,"name":"PanAdrian00","steam_id":76561199170844894,"connected_time":1248000000000,"state":"active","ping":65},{"user_id":43,"name":"Wir suchen dich!","steam_id":76561198307613521,"connected_time":1234000000000,"state":"active","ping":70},{"user_id":46,"name":"BlackBerry","steam_id":76561198146232396,"connected_time":945000000000,"state":"active","ping":93},{"user_id":55,"name":"ja","steam_id":76561199228540618,"connected_time":480000000000,"state":"active","ping":52},{"user_id":60,"name":"SynthBox3","steam_id":76561199094075745,"connected_time":56000000000,"state":"active","ping":123},{"user_id":58,"name":"R'aiq","steam_id":76561198063083993,"connected_time":374000000000,"state":"active","ping":103},{"user_id":50,"name":"GoatLord1","steam_id":76561198157964544,"connected_time":820000000000,"state":"active","ping":85}]},{"server_id":53,"name":"Uncletopia | Warsaw | 5 | Stopwatch Beta","name_short":"waw-5","host":"waw-1.pl.uncletopia.com","port":27055,"enabled":true,"region":"eu","cc":"pl","latitude":52.2297,"longitude":21.017532,"reserved":0,"last_update":"0001-01-01T00:00:00Z","name_a2s":"Uncletopia | Warsaw | 5 | Stopwatch Beta","protocol":17,"map":"workshop/koth_ashville_final.ugc2130459942","folder":"tf","game":"Team Fortress","app_id":440,"player_count":0,"max_players":24,"Bots":0,"server_type":"Dedicated","server_os":"Linux","password":true,"vac":true,"version":"7961495","steam_id":85568392925397854,"keywords":["cp","nocrits","nodmgspread","uncletopia"],"game_id":440,"stv_port":27056,"stv_name":"Uncletopia | Warsaw | 5 | Stopwatch Beta | STV","players":null},{"server_id":54,"name":"Uncletopia | Warsaw | 6 | Community","name_short":"waw-6","host":"waw-1.pl.uncletopia.com","port":27065,"enabled":true,"region":"eu","cc":"pl","latitude":52.2297,"longitude":21.017532,"reserved":0,"last_update":"0001-01-01T00:00:00Z","name_a2s":"Uncletopia | Warsaw | 6 | Community","protocol":17,"map":"workshop/cp_indulge.ugc528106646","folder":"tf","game":"Team Fortress","app_id":440,"player_count":0,"max_players":24,"Bots":0,"server_type":"Dedicated","server_os":"Linux","password":true,"vac":true,"version":"7961495","steam_id":85568392925397856,"keywords":["cp","nocrits","nodmgspread","uncletopia"],"game_id":440,"stv_port":27066,"stv_name":"Uncletopia | Warsaw | 6 | Community | STV","players":null}]}