{"status":true,"message":"","result":[{"server_id":9,"name":"Uncletopia | Atlanta | 1 | All Maps","name_short":"atl-1","host":"atl-1.us.uncletopia.com","port":27015,"enabled":true,"region":"us-east","cc":"us","latitude":33.753746,"longitude":-84.38633,"reserved":0,"last_update":"0001-01-01T00:00:00Z","name_a2s":"Uncletopia | Atlanta | 1 | All Maps","protocol":17,"map":"pl_upward","folder":"tf","game":"Team Fortress","app_id":440,"player_count":24,"max_players":24,"Bots":0,"server_type":"Dedicated","server_os":"Linux","password":true,"vac":true,"version":"7961495","steam_id":85568392924469982,"keywords":["nocrits","nodmgspread","payload","uncletopia"],"game_id":440,"stv_port":27016,"stv_name":"Uncletopia | Atlanta | 1 | All Maps | STV","players":[{"user_id":71,"name":"Ashes!","steam_id":76561197998475441,"connected_time":5809000000000,"state":"active","ping":76},{"user_id":132,"name":"eish","steam_id":76561198089463603,"connected_time":124000000000,"state":"active","ping":112},{"user_id":126,"name":"THE INK BOY","steam_id":76561199173893537,"connected_time":822000000000,"state":"active","ping":109},{"user_id":123,"name":"WizardTo4sty","steam_id":76561199015340845,"connected_time":973000000000,"state":"active","ping":73},{"user_id":90,"name":"Girlcliff","steam_id":76561198044288534,"connected_time":3553000000000,"state":"active","ping":73},{"user_id":112,"name":"Femboy Medic Main","steam_id":76561198268225109,"connected_time":1374000000000,"state":"active","ping":101},{"user_id":110,"name":"Kuri","steam_id":76561199037050183,"connected_time":1742000000000,"state":"active","ping":77},{"user_id":129,"name":"Woke Bush","steam_id":76561198047994501,"connected_time":557000000000,"state":"active","ping":42},{"user_id":115,"name":"yaldabaoth","steam_id":76561198084606869,"connected_time":1353000000000,"state":"active","ping":76},{"user_id":99,"name":"Boneless Blithen","steam_id":76561197989955619,"connected_time":2942000000000,"state":"active","ping":130},{"user_id":116,"name":"ATL1 I'm a girl","steam_id":76561198825997674,"connected_time":1321000000000,"state":"active","ping":59},{"user_id":117,"name":"ndvr (femboy (REAL))","steam_id":76561199379200102,"connected_time":1293000000000,"state":"active","ping":69},{"user_id":105,"name":"lu","steam_id":76561198080731872,"connected_time":2057000000000,"state":"active","ping":70},{"user_id":113,"name":"tgirl swag","steam_id":76561198128164970,"connected_time":1371000000000,"state":"active","ping":99},{"user_id":121,"name":"TerracottaP","steam_id":76561199402983168,"connected_time":1139000000000,"state":"active","ping":71},{"user_id":118,"name":"Duck","steam_id":76561198303483056,"connected_time":1289000000000,"state":"active","ping":98},{"user_id":128,"name":"Buck","steam_id":76561198064244796,"connected_time":590000000000,"state":"active","ping":69},{"user_id":133,"name":"MeatGrinderGuy(Vegans Beware)","steam_id":76561198833470398,"connected_time":120000000000,"state":"active","ping":65},{"user_id":107,"name":"Thotimus Begonimus","steam_id":76561197970275938,"connected_time":2000000000000,"state":"active","ping":46},{"user_id":120,"name":"ATL1 | to4st","steam_id":76561198981009008,"connected_time":1173000000000,"state":"active","ping":68},{"user_id":97,"name":"Gang Stalker","steam_id":76561199151545966,"connected_time":2963000000000,"state":"active","ping":61},{"user_id":108,"name":"NotoriousThicc","steam_id":76561198244650474,"connected_time":2000000000000,"state":"active","ping":106},{"user_id":89,"name":"lucin","steam_id":76561198258062078,"connected_time":3614000000000,"state":"active","ping":64},{"user_id":125,"name":"crabapples","steam_id":76561198075818655,"connected_time":883000000000,"state":"active","ping":73}]},{"server_id":104,"name":"Uncletopia | Atlanta | 2 | All Maps","name_short":"atl-2","host":"atl-1.us.uncletopia.com","port":27025,"enabled":true,"region":"us-east","cc":"us","latitude":33.753746,"longitude":-84.38633,"reserved":0,"last_update":"0001-01-01T00:00:00Z","name_a2s":"Uncletopia | Atlanta | 2 | All Maps","protocol":17,"map":"pl_badwater","folder":"tf","game":"Team Fortress","app_id":440,"player_count":24,"max_players":24,"Bots":0,"server_type":"Dedicated","server_os":"Linux","password":true,"vac":true,"version":"7961495","steam_id":85568392924469983,"keywords":["nocrits","nodmgspread","payload","uncletopia"],"game_id":440,"stv_port":27026,"stv_name":"Uncletopia | Atlanta | 2 | All Maps | STV","players":[{"user_id":66,"name":"JustAnotherPlayer","steam_id":76561198852738657,"connected_time":1169000000000,"state":"active","ping":114},{"user_id":85,"name":"jeffus","steam_id":76561199347238848,"connected_time":184000000000,"state":"active","ping":122},{"user_id":46,"name":"Erchius","steam_id":76561198256892300,"connected_time":2071000000000,"state":"active","ping":60},{"user_id":67,"name":"PVT. Parts","steam_id":76561198263037404,"connected_time":1127000000000,"state":"active","ping":70},{"user_id":83,"name":"SnexLongman","steam_id":76561198237309374,"connected_time":230000000000,"state":"active","ping":100},{"user_id":81,"name":"y'all hear sumthin'?","steam_id":76561199012662729,"connected_time":483000000000,"state":"active","ping":61},{"user_id":70,"name":"Training Bot [Easy]","steam_id":76561199119473164,"connected_time":1084000000000,"state":"active","ping":89},{"user_id":15,"name":"Moonlighter","steam_id":76561198325526945,"connected_time":3427000000000,"state":"active","ping":89},{"user_id":82,"name":"skrill issue","steam_id":76561198104086771,"connected_time":406000000000,"state":"active","ping":108},{"user_id":68,"name":"Plug N' Plague","steam_id":76561199014298277,"connected_time":1116000000000,"state":"active","ping":85},{"user_id":86,"name":"salami girl","steam_id":76561198817968375,"connected_time":148000000000,"state":"active","ping":96},{"user_id":19,"name":"JustAnotherHuman","steam_id":76561199018122924,"connected_time":3332000000000,"state":"active","ping":108},{"user_id":21,"name":"lil' Wayne","steam_id":76561198050136796,"connected_time":3303000000000,"state":"active","ping":91},{"user_id":84,"name":"Lars Ulrich (real)","steam_id":76561198099296029,"connected_time":227000000000,"state":"active","ping":58},{"user_id":72,"name":"Trapilicious","steam_id":76561198061430457,"connected_time":1016000000000,"state":"active","ping":70},{"user_id":38,"name":"Scita","steam_id":76561198066861559,"connected_time":2836000000000,"state":"active","ping":68},{"user_id":87,"name":"Oopsie Daisy ‚ùã","steam_id":76561198042144492,"connected_time":74000000000,"state":"active","ping":58},{"user_id":74,"name":"Mr. E","steam_id":76561198060381147,"connected_time":1006000000000,"state":"active","ping":124},{"user_id":75,"name":"COW","steam_id":76561198149003050,"connected_time":1005000000000,"state":"active","ping":83},{"user_id":77,"name":"non","steam_id":76561198203991196,"connected_time":932000000000,"state":"active","ping":81},{"user_id":80,"name":"Robo","steam_id":76561199106531261,"connected_time":595000000000,"state":"active","ping":55},{"user_id":54,"name":"King Cotton","steam_id":76561198292444376,"connected_time":1858000000000,"state":"active","ping":91},{"user_id":62,"name":"El Bondin","steam_id":76561198820792434,"connected_time":1508000000000,"state":"active","ping":87},{"user_id":65,"name":"Waff00","steam_id":76561198848377100,"connected_time":1279000000000,"state":"active","ping":91}]},{"server_id":400,"name":"Uncletopia | Atlanta | 3 | Stopwatch","name_short":"atl-3","host":"atl-1.us.uncletopia.com","port":27035,"enabled":true,"region":"us-east","cc":"us","latitude":33.753746,"longitude":-84.38633,"reserved":0,"last_update":"0001-01-01T00:00:00Z","name_a2s":"Uncletopia | Atlanta | 3 | Stopwatch","protocol":17,"map":"pl_badwater","folder":"tf","game":"Team Fortress","app_id":440,"player_count":0,"max_players":24,"Bots":0,"server_type":"Dedicated","server_os":"Linux","password":true,"vac":true,"version":"7961495","steam_id":85568392924515187,"keywords":["nocrits","nodmgspread","payload","uncletopia"],"game_id":440,"stv_port":27036,"stv_name":"Uncletopia | Atlanta | 3 | Stopwatch | STV","players":null},{"server_id":401,"name":"Uncletopia | Atlanta | 4 | Community","name_short":"atl-4","host":"atl-1.us.uncletopia.com","port":27045,"enabled":true,"region":"us-east","cc":"us","latitude":33.753746,"longitude":-84.38633,"reserved":0,"last_update":"0001-01-01T00:00:00Z","name_a2s":"Uncletopia | Atlanta | 4 | Community","protocol":17,"map":"workshop/pl_vigil_rc10.ugc1266210012","folder":"tf","game":"Team Fortress","app_id":440,"player_count":0,"max_players":24,"Bots":0,"server_type":"Dedicated","server_os":"Linux","password":true,"vac":true,"version":"7961495","steam_id":85568392924515188,"keywords":["nocrits","nodmgspread","payload","uncletopia"],"game_id":440,"stv_port":27046,"stv_name":"Uncletopia | Atlanta | 4 | Community | STV","players":null},{"server_id":2,"name":"Uncletopia | Chicago | 1 | All Maps","name_short":"chi-1","host":"chi-1.us.uncletopia.com","port":27015,"enabled":true,"region":"us-central","cc":"us","latitude":41.881832,"longitude":-87.62318,"reserved":0,"last_update":"0001-01-01T00:00:00Z","name_a2s":"Uncletopia | Chicago | 1 | All Maps","protocol":17,"map":"pl_upward","folder":"tf","game":"Team Fortress","app_id":440,"player_count":24,"max_players":24,"Bots":0,"server_type":"Dedicated","server_os":"Linux","password":true,"vac":true,"version":"7961495","steam_id":85568392924469984,"keywords":["nocrits","nodmgspread","payload","uncletopia"],"game_id":440,"stv_port":27016,"stv_name":"Uncletopia | Chicago | 1 | All Maps | STV","players":[{"user_id":333,"name":"Meerkat","steam_id":76561199245435539,"connected_time":564000000000,"state":"active","ping":94},{"user_id":321,"name":"I shovel mayonnaise in mouth","steam_id":76561199123118241,"connected_time":1190000000000,"state":"active","ping":106},{"user_id":322,"name":"rat eater","steam_id":76561199216874750,"connected_time":1175000000000,"state":"active","ping":55},{"user_id":208,"name":"loser","steam_id":76561198259380127,"connected_time":9925000000000,"state":"active","ping":51},{"user_id":297,"name":"Bottom Trans Cowgirl","steam_id":76561198304239680,"connected_time":3499000000000,"state":"active","ping":78},{"user_id":329,"name":"damoke44","steam_id":76561198409185643,"connected_time":820000000000,"state":"active","ping":97},{"user_id":323,"name":"‚ô• „Çπ„Éä„ÉÉ„Éï„Ç°„Éº ‚ô•","steam_id":76561198158822845,"connected_time":1163000000000,"state":"active","ping":46},{"user_id":336,"name":"swee","steam_id":76561198264702085,"connected_time":257000000000,"state":"active","ping":60},{"user_id":292,"name":"Exetior","steam_id":76561198978688451,"connected_time":3923000000000,"state":"active","ping":61},{"user_id":316,"name":"Nortel Network Telephone T7316","steam_id":76561198399261089,"connected_time":1819000000000,"state":"active","ping":87},{"user_id":233,"name":"Chip","steam_id":76561198182205245,"connected_time":8589000000000,"state":"active","ping":55},{"user_id":320,"name":"Siz","steam_id":76561198072962154,"connected_time":1214000000000,"state":"active","ping":72},{"user_id":328,"name":"what the freak","steam_id":76561198080754727,"connected_time":948000000000,"state":"active","ping":76},{"user_id":255,"name":"Hamlindigo Blue‚Ñ¢","steam_id":76561198116337540,"connected_time":7058000000000,"state":"active","ping":83},{"user_id":338,"name":"DuckKey","steam_id":76561198904477889,"connected_time":229000000000,"state":"active","ping":60},{"user_id":324,"name":"reymundo","steam_id":76561197989412830,"connected_time":1159000000000,"state":"active","ping":113},{"user_id":330,"name":"Lyfull (Rip Rick May)","steam_id":76561198273398361,"connected_time":578000000000,"state":"active","ping":61},{"user_id":331,"name":"recycle","steam_id":76561198819562111,"connected_time":577000000000,"state":"active","ping":58},{"user_id":332,"name":"Sunshine","steam_id":76561198885528098,"connected_time":570000000000,"state":"active","ping":63},{"user_id":300,"name":"Aztea","steam_id":76561198982089893,"connected_time":3453000000000,"state":"active","ping":88},{"user_id":327,"name":"Wooden E","steam_id":76561198020308956,"connected_time":1000000000000,"state":"active","ping":60},{"user_id":315,"name":"ThatGamingKiwi","steam_id":76561199170522237,"connected_time":2006000000000,"state":"active","ping":81},{"user_id":339,"name":"Ta5K","steam_id":76561198939558155,"connected_time":222000000000,"state":"active","ping":51},{"user_id":335,"name":"yourlocalforecast","steam_id":76561198042243083,"connected_time":440000000000,"state":"active","ping":60}]},{"server_id":106,"name":"Uncletopia | Chicago | 2 | All Maps","name_short":"chi-2","host":"chi-1.us.uncletopia.com","port":27025,"enabled":true,"region":"us-central","cc":"us","latitude":41.881832,"longitude":-87.62318,"reserved":0,"last_update":"0001-01-01T00:00:00Z","name_a2s":"Uncletopia | Chicago | 2 | All Maps","protocol":17,"map":"cp_process_final","folder":"tf","game":"Team Fortress","app_id":440,"player_count":24,"max_players":24,"Bots":0,"server_type":"Dedicated","server_os":"Linux","password":true,"vac":true,"version":"7961495","steam_id":85568392924469985,"keywords":["cp","nocrits","nodmgspread","uncletopia"],"game_id":440,"stv_port":27026,"stv_name":"Uncletopia | Chicago | 2 | All Maps | STV","players":[{"user_id":197,"name":"carrot cake","steam_id":76561198055174915,"connected_time":1103000000000,"state":"active","ping":61},{"user_id":216,"name":"tiananmensquare1989","steam_id":76561199076837870,"connected_time":654000000000,"state":"active","ping":97},{"user_id":212,"name":"Fearlessmetal2","steam_id":76561198129226335,"connected_time":710000000000,"state":"active","ping":75},{"user_id":208,"name":"opps fucked up his do","steam_id":76561198803704016,"connected_time":863000000000,"state":"active","ping":68},{"user_id":218,"name":"nuclear gorilla","steam_id":76561198858445311,"connected_time":562000000000,"state":"active","ping":61},{"user_id":198,"name":"Reaver","steam_id":76561198182383834,"connected_time":1065000000000,"state":"active","ping":61},{"user_id":184,"name":"Jey","steam_id":76561198110957641,"connected_time":2275000000000,"state":"active","ping":77},{"user_id":226,"name":"Kellyn Nova \\\\SQC//","steam_id":76561198064588009,"connected_time":192000000000,"state":"active","ping":65},{"user_id":221,"name":"AilurosMajor88","steam_id":76561198350900640,"connected_time":408000000000,"state":"active","ping":100},{"user_id":219,"name":"EvilStickGuy","steam_id":76561197985379320,"connected_time":517000000000,"state":"active","ping":68},{"user_id":200,"name":"Kos, or some say Kosm","steam_id":76561197998833309,"connected_time":990000000000,"state":"active","ping":71},{"user_id":217,"name":"Ben Dover","steam_id":76561199414514585,"connected_time":613000000000,"state":"active","ping":60},{"user_id":177,"name":"Bobato Chaps","steam_id":76561198065103552,"connected_time":2797000000000,"state":"active","ping":55},{"user_id":209,"name":"cheeserific","steam_id":76561198087598341,"connected_time":849000000000,"state":"active","ping":72},{"user_id":225,"name":"LazyRuin","steam_id":76561198157494915,"connected_time":224000000000,"state":"active","ping":92},{"user_id":214,"name":"breakcore enjoyer","steam_id":76561198031400151,"connected_time":669000000000,"state":"active","ping":52},{"user_id":211,"name":"Monsterkil_","steam_id":76561198143858847,"connected_time":825000000000,"state":"active","ping":51},{"user_id":182,"name":"Junk","steam_id":76561198024382753,"connected_time":2385000000000,"state":"active","ping":50},{"user_id":224,"name":"Sollyz","steam_id":76561198081110786,"connected_time":267000000000,"state":"active","ping":117},{"user_id":181,"name":"gerge","steam_id":76561198092238353,"connected_time":2416000000000,"state":"active","ping":72},{"user_id":227,"name":"Just washed","steam_id":76561199030160932,"connected_time":68000000000,"state":"active","ping":76},{"user_id":222,"name":"Mayonnaise","steam_id":76561199219852129,"connected_time":371000000000,"state":"active","ping":197},{"user_id":179,"name":"Jaeger","steam_id":76561199392187099,"connected_time":2738000000000,"state":"active","ping":72},{"user_id":223,"name":"yomo","steam_id":76561198063175935,"connected_time":315000000000,"state":"active","ping":75}]},{"server_id":402,"name":"Uncletopia | Chicago | 3 | All Maps","name_short":"chi-3","host":"chi-1.us.uncletopia.com","port":27035,"enabled":true,"region":"us-central","cc":"us","latitude":41.881832,"longitude":-87.62318,"reserved":0,"last_update":"0001-01-01T00:00:00Z","name_a2s":"Uncletopia | Chicago | 3 | All Maps","protocol":17,"map":"cp_dustbowl","folder":"tf","game":"Team Fortress","app_id":440,"player_count":23,"max_players":24,"Bots":0,"server_type":"Dedicated","server_os":"Linux","password":true,"vac":true,"version":"7961495","steam_id":85568392924515191,"keywords":["cp","nocrits","nodmgspread","uncletopia"],"game_id":440,"stv_port":27036,"stv_name":"Uncletopia | Chicago | 3 | All Maps | STV","players":[{"user_id":129,"name":"Mimt1111","steam_id":76561198392370897,"connected_time":4801000000000,"state":"active","ping":93},{"user_id":166,"name":"story","steam_id":76561199088496817,"connected_time":2198000000000,"state":"active","ping":78},{"user_id":189,"name":"laz","steam_id":76561198334164507,"connected_time":53000000000,"state":"active","ping":71},{"user_id":154,"name":"The Khronicles of Keith","steam_id":76561198056622157,"connected_time":2775000000000,"state":"active","ping":62},{"user_id":188,"name":"Surin","steam_id":76561198008953177,"connected_time":85000000000,"state":"active","ping":86},{"user_id":128,"name":"corntent","steam_id":76561198824847948,"connected_time":4808000000000,"state":"active","ping":59},{"user_id":180,"name":"MaximumLawmanX","steam_id":76561198396297265,"connected_time":1111000000000,"state":"active","ping":72},{"user_id":177,"name":"Helmet Hands","steam_id":76561197961141994,"connected_time":1183000000000,"state":"active","ping":97},{"user_id":173,"name":"Minkiraj","steam_id":76561198000381909,"connected_time":1367000000000,"state":"active","ping":77},{"user_id":190,"name":"mikeyreal0813","steam_id":76561199500596867,"connected_time":36000000000,"state":"active","ping":109},{"user_id":187,"name":"LoboSolo","steam_id":76561198006883170,"connected_time":261000000000,"state":"active","ping":121},{"user_id":125,"name":"Vaudeville Villain","steam_id":76561197991063996,"connected_time":4840000000000,"state":"active","ping":57},{"user_id":182,"name":"Admiral Angry","steam_id":76561198058199206,"connected_time":941000000000,"state":"active","ping":55},{"user_id":150,"name":"Kung fu MUNGUS","steam_id":76561198069281556,"connected_time":3213000000000,"state":"active","ping":72},{"user_id":179,"name":"porfer","steam_id":76561199118049168,"connected_time":1121000000000,"state":"active","ping":98},{"user_id":184,"name":"TheSnipersHat","steam_id":76561198057684066,"connected_time":469000000000,"state":"active","ping":56},{"user_id":186,"name":"Stock Dog","steam_id":76561198070469034,"connected_time":399000000000,"state":"active","ping":88},{"user_id":191,"name":"FungusBreeder","steam_id":76561198818724472,"connected_time":32000000000,"state":"active","ping":70},{"user_id":134,"name":"HUMBY","steam_id":76561198065045867,"connected_time":4698000000000,"state":"active","ping":81},{"user_id":145,"name":"ham salmontizer","steam_id":76561198168840293,"connected_time":3966000000000,"state":"active","ping":80},{"user_id":143,"name":"Waesel","steam_id":76561198069188177,"connected_time":4001000000000,"state":"active","ping":75},{"user_id":176,"name":"·πΩ‚ßâ cookie","steam_id":76561197998884823,"connected_time":1249000000000,"state":"active","ping":72},{"user_id":147,"name":"Try Gardening","steam_id":76561198120311340,"connected_time":3891000000000,"state":"active","ping":49}]},{"server_id":403,"name":"Uncletopia | Chicago | 4 | All Maps","name_short":"chi-4","host":"chi-1.us.uncletopia.com","port":27045,"enabled":true,"region":"us-central","cc":"us","latitude":41.881832,"longitude":-87.62318,"reserved":0,"last_update":"0001-01-01T00:00:00Z","name_a2s":"Uncletopia | Chicago | 4 | All Maps","protocol":17,"map":"koth_cascade","folder":"tf","game":"Team Fortress","app_id":440,"player_count":0,"max_players":24,"Bots":0,"server_type":"Dedicated","server_os":"Linux","password":true,"vac":true,"version":"7961495","steam_id":85568392924515193,"keywords":["cp","nocrits","nodmgspread","uncletopia"],"game_id":440,"stv_port":27046,"stv_name":"Uncletopia | Chicago | 4 | All Maps | STV","players":null},{"server_id":36,"name":"Uncletopia | Chicago | 5 | All Maps","name_short":"chi-5","host":"chi-2.us.uncletopia.com","port":27015,"enabled":true,"region":"us-central","cc":"us","latitude":41.881832,"longitude":-87.62318,"reserved":0,"last_update":"0001-01-01T00:00:00Z","name_a2s":"Uncletopia | Chicago | 5 | All Maps","protocol":17,"map":"cp_sunshine","folder":"tf","game":"Team Fortress","app_id":440,"player_count":24,"max_players":24,"Bots":0,"server_type":"Dedicated","server_os":"Linux","password":true,"vac":true,"version":"7961495","steam_id":85568392924866362,"keywords":["cp","nocrits","nodmgspread","uncletopia"],"game_id":440,"stv_port":27016,"stv_name":"Uncletopia | Chicago | 5 | All Maps | STV","players":[{"user_id":5,"name":"Shaper Loks","steam_id":76561198207958144,"connected_time":5414000000000,"state":"active","ping":98},{"user_id":64,"name":"hater","steam_id":76561199072909614,"connected_time":755000000000,"state":"active","ping":65},{"user_id":61,"name":"Smiles","steam_id":76561198107197973,"connected_time":1144000000000,"state":"active","ping":60},{"user_id":65,"name":"Eiss","steam_id":76561198343183806,"connected_time":713000000000,"state":"active","ping":70},{"user_id":36,"name":"Pyrrhon the Aurum","steam_id":76561198046272856,"connected_time":2512000000000,"state":"active","ping":72},{"user_id":60,"name":"lcy13vv","steam_id":76561197995997446,"connected_time":1199000000000,"state":"active","ping":56},{"user_id":72,"name":"TechnoBear2099","steam_id":76561198238863596,"connected_time":203000000000,"state":"active","ping":67},{"user_id":66,"name":"Radio_Doge","steam_id":76561199121921973,"connected_time":713000000000,"state":"active","ping":75},{"user_id":25,"name":"ExtraExtra","steam_id":76561198041816027,"connected_time":3222000000000,"state":"active","ping":43},{"user_id":71,"name":"get scrongled, idiot","steam_id":76561198115874625,"connected_time":525000000000,"state":"active","ping":92},{"user_id":48,"name":"Smoeker","steam_id":76561198166723053,"connected_time":1535000000000,"state":"active","ping":55},{"user_id":41,"name":"MiPlatypus","steam_id":76561198210393620,"connected_time":1835000000000,"state":"active","ping":51},{"user_id":42,"name":"shanerbaker","steam_id":76561198252522438,"connected_time":1828000000000,"state":"active","ping":100},{"user_id":51,"name":"ball thrower","steam_id":76561198433240073,"connected_time":1461000000000,"state":"active","ping":63},{"user_id":44,"name":"sharpshooterz16","steam_id":76561199073828371,"connected_time":1681000000000,"state":"active","ping":110},{"user_id":45,"name":"Mom","steam_id":76561198207936000,"connected_time":1654000000000,"state":"active","ping":91},{"user_id":68,"name":"Katy","steam_id":76561198079395814,"connected_time":581000000000,"state":"active","ping":65},{"user_id":52,"name":"Eviscerator","steam_id":76561197980073637,"connected_time":1458000000000,"state":"active","ping":79},{"user_id":53,"name":"chen","steam_id":76561198064872330,"connected_time":1456000000000,"state":"active","ping":62},{"user_id":54,"name":"MillerWhite","steam_id":76561198076060357,"connected_time":1455000000000,"state":"active","ping":83},{"user_id":67,"name":"dadgummit","steam_id":76561198005806915,"connected_time":673000000000,"state":"active","ping":60},{"user_id":56,"name":"Papa Smoke","steam_id":76561198181348206,"connected_time":1424000000000,"state":"active","ping":58},{"user_id":57,"name":"incredirocks","steam_id":76561198061079993,"connected_time":1356000000000,"state":"active","ping":50},{"user_id":69,"name":"Kitchen Sink Gaming","steam_id":76561198930293420,"connected_time":578000000000,"state":"active","ping":63}]},{"server_id":37,"name":"Uncletopia | Chicago | 6 | All Maps","name_short":"chi-6","host":"chi-2.us.uncletopia.com","port":27025,"enabled":true,"region":"us-central","cc":"us","latitude":41.881832,"longitude":-87.62318,"reserved":0,"last_update":"0001-01-01T00:00:00Z","name_a2s":"Uncletopia | Chicago | 6 | All Maps","protocol":17,"map":"koth_highpass","folder":"tf","game":"Team Fortress","app_id":440,"player_count":0,"max_players":24,"Bots":0,"server_type":"Dedicated","server_os":"Linux","password":true,"vac":true,"version":"7961495","steam_id":85568392924866363,"keywords":["cp","nocrits","nodmgspread","uncletopia"],"game_id":440,"stv_port":27026,"stv_name":"Uncletopia | Chicago | 6 | All Maps | STV","players":null},{"server_id":38,"name":"Uncletopia | Chicago | 7 | Stopwatch","name_short":"chi-7","host":"chi-2.us.uncletopia.com","port":27035,"enabled":true,"region":"us-central","cc":"us","latitude":41.881832,"longitude":-87.62318,"reserved":0,"last_update":"0001-01-01T00:00:00Z","name_a2s":"Uncletopia | Chicago | 7 | Stopwatch","protocol":17,"map":"cp_metalworks","folder":"tf","game":"Team Fortress","app_id":440,"player_count":0,"max_players":24,"Bots":0,"server_type":"Dedicated","server_os":"Linux","password":true,"vac":true,"version":"7961495","steam_id":85568392924866364,"keywords":["cp","nocrits","nodmgspread","uncletopia"],"game_id":440,"stv_port":27036,"stv_name":"Uncletopia | Chicago | 7 | Stopwatch | STV","players":null},{"server_id":39,"name":"Uncletopia | Chicago | 8 | Community","name_short":"chi-8","host":"chi-2.us.uncletopia.com","port":27045,"enabled":true,"region":"us-central","cc":"us","latitude":41.881832,"longitude":-87.62318,"reserved":0,"last_update":"0001-01-01T00:00:00Z","name_a2s":"Uncletopia | Chicago | 8 | Community","protocol":17,"map":"pl_pier","folder":"tf","game":"Team Fortress","app_id":440,"player_count":3,"max_players":24,"Bots":0,"server_type":"Dedicated","server_os":"Linux","password":true,"vac":true,"version":"7961495","steam_id":85568392924866365,"keywords":["nocrits","nodmgspread","payload","uncletopia"],"game_id":440,"stv_port":27046,"stv_name":"Uncletopia | Chicago | 8 | Community | STV","players":[{"user_id":8,"name":"101_the_Robot","steam_id":76561198331039848,"connected_time":863000000000,"state":"active","ping":91},{"user_id":6,"name":"ctf_well","steam_id":76561198016826181,"connected_time":952000000000,"state":"active","ping":70},{"user_id":9,"name":"The Hose on Upward","steam_id":76561197965092192,"connected_time":822000000000,"state":"active","ping":74}]},{"server_id":8,"name":"Uncletopia | Dallas | 1 | All Maps","name_short":"dal-1","host":"dal-1.us.uncletopia.com","port":27015,"enabled":true,"region":"us-central","cc":"us","latitude":32.779167,"longitude":-96.80889,"reserved":0,"last_update":"0001-01-01T00:00:00Z","name_a2s":"Uncletopia | Dallas | 1 | All Maps","protocol":17,"map":"koth_viaduct","folder":"tf","game":"Team Fortress","app_id":440,"player_count":24,"max_players":24,"Bots":0,"server_type":"Dedicated","server_os":"Linux","password":true,"vac":true,"version":"7961495","steam_id":85568392924469986,"keywords":["cp","nocrits","nodmgspread","uncletopia"],"game_id":440,"stv_port":27016,"stv_name":"Uncletopia | Dallas | 1 | All Maps | STV","players":[{"user_id":90,"name":"b0urbaki7","steam_id":76561198141342345,"connected_time":1647000000000,"state":"active","ping":90},{"user_id":95,"name":"nake","steam_id":76561198004619118,"connected_time":1202000000000,"state":"active","ping":90},{"user_id":53,"name":"corviraptor!!!!!!","steam_id":76561198058284392,"connected_time":4876000000000,"state":"active","ping":55},{"user_id":103,"name":"crumbles","steam_id":76561198168707036,"connected_time":486000000000,"state":"active","ping":82},{"user_id":114,"name":"freesia","steam_id":76561198127525888,"connected_time":27000000000,"state":"active","ping":48},{"user_id":101,"name":"_","steam_id":76561199030697193,"connected_time":547000000000,"state":"active","ping":74},{"user_id":92,"name":"Your Loyal Familiar","steam_id":76561198106476075,"connected_time":1561000000000,"state":"active","ping":77},{"user_id":100,"name":"Quigi","steam_id":76561198144645874,"connected_time":607000000000,"state":"active","ping":114},{"user_id":88,"name":"–ü–≤—Ç –î–∏–Ω–≥–æ","steam_id":76561198119683217,"connected_time":2067000000000,"state":"active","ping":104},{"user_id":102,"name":"Spooky","steam_id":76561198317988296,"connected_time":540000000000,"state":"active","ping":86},{"user_id":93,"name":"Gary Budussy","steam_id":76561197969793969,"connected_time":1303000000000,"state":"active","ping":58},{"user_id":110,"name":"artichoke","steam_id":76561198980994364,"connected_time":347000000000,"state":"active","ping":90},{"user_id":111,"name":"Shootco","steam_id":76561198156959719,"connected_time":201000000000,"state":"active","ping":74},{"user_id":78,"name":"godsdoctor","steam_id":76561198055010413,"connected_time":3250000000000,"state":"active","ping":134},{"user_id":25,"name":"Peepster","steam_id":76561198297854733,"connected_time":6822000000000,"state":"active","ping":94},{"user_id":106,"name":"natsu","steam_id":76561198066566813,"connected_time":462000000000,"state":"active","ping":116},{"user_id":112,"name":"Fred Ott","steam_id":76561198099088693,"connected_time":174000000000,"state":"active","ping":81},{"user_id":87,"name":"Bogey","steam_id":76561198096227944,"connected_time":2124000000000,"state":"active","ping":53},{"user_id":89,"name":"emerge","steam_id":76561198186882891,"connected_time":2060000000000,"state":"active","ping":90},{"user_id":98,"name":"TheAsianMeatball","steam_id":76561198336926133,"connected_time":848000000000,"state":"active","ping":71},{"user_id":107,"name":"Dr. Unventor","steam_id":76561199174694230,"connected_time":456000000000,"state":"active","ping":62},{"user_id":113,"name":"Ronnie Pickering!","steam_id":76561198041842118,"connected_time":40000000000,"state":"active","ping":86},{"user_id":83,"name":"cupsovietxeno","steam_id":76561198997539399,"connected_time":2585000000000,"state":"active","ping":93},{"user_id":59,"name":"‚à´ (x + 1) / (x^2 + x) d x","steam_id":76561198313364985,"connected_time":4598000000000,"state":"active","ping":94}]},{"server_id":108,"name":"Uncletopia | Dallas | 2 | All Maps","name_short":"dal-2","host":"dal-1.us.uncletopia.com","port":27025,"enabled":true,"region":"us-central","cc":"us","latitude":32.779167,"longitude":-96.80889,"reserved":0,"last_update":"0001-01-01T00:00:00Z","name_a2s":"Uncletopia | Dallas | 2 | All Maps","protocol":17,"map":"pl_snowycoast","folder":"tf","game":"Team Fortress","app_id":440,"player_count":23,"max_players":24,"Bots":0,"server_type":"Dedicated","server_os":"Linux","password":true,"vac":true,"version":"7961495","steam_id":85568392924469988,"keywords":["nocrits","nodmgspread","payload","uncletopia"],"game_id":440,"stv_port":27026,"stv_name":"Uncletopia | Dallas | 2 | All Maps | STV","players":[{"user_id":252,"name":"ChocolatteMousse","steam_id":76561198136313455,"connected_time":2555000000000,"state":"active","ping":74},{"user_id":285,"name":"Insizhen","steam_id":76561198051352605,"connected_time":712000000000,"state":"active","ping":57},{"user_id":264,"name":"BurnN8or101","steam_id":76561198132668224,"connected_time":1756000000000,"state":"active","ping":57},{"user_id":271,"name":"God's Wet Diaper","steam_id":76561198273203726,"connected_time":1404000000000,"state":"active","ping":62},{"user_id":282,"name":"Lain","steam_id":76561198029303534,"connected_time":886000000000,"state":"active","ping":61},{"user_id":247,"name":"Dreamzapp","steam_id":76561199084936632,"connected_time":2815000000000,"state":"active","ping":87},{"user_id":269,"name":"Spider_god","steam_id":76561199097791017,"connected_time":1454000000000,"state":"active","ping":111},{"user_id":277,"name":"Maid 'n' China","steam_id":76561198423392976,"connected_time":1232000000000,"state":"active","ping":82},{"user_id":272,"name":"Skiddy","steam_id":76561198125942665,"connected_time":1395000000000,"state":"active","ping":91},{"user_id":288,"name":"Firedust19","steam_id":76561198153238631,"connected_time":5000000000,"state":"spawning","ping":115},{"user_id":274,"name":"viedoamges","steam_id":76561198025295263,"connected_time":1360000000000,"state":"active","ping":55},{"user_id":283,"name":"·≤º·≤º·≤º","steam_id":76561198845246815,"connected_time":876000000000,"state":"active","ping":75},{"user_id":191,"name":"who is gavin?","steam_id":76561198069415057,"connected_time":8467000000000,"state":"active","ping":80},{"user_id":280,"name":"viva la vida","steam_id":76561198072179483,"connected_time":1028000000000,"state":"active","ping":103},{"user_id":286,"name":"Shaqdaddylong","steam_id":76561198987222560,"connected_time":693000000000,"state":"active","ping":69},{"user_id":275,"name":"ciao!","steam_id":76561198136308630,"connected_time":1348000000000,"state":"active","ping":72},{"user_id":239,"name":"Dwebus","steam_id":76561198086559045,"connected_time":4220000000000,"state":"active","ping":67},{"user_id":255,"name":"Mr.Sex","steam_id":76561198169957571,"connected_time":2476000000000,"state":"active","ping":67},{"user_id":287,"name":"T1tanium","steam_id":76561198001366660,"connected_time":497000000000,"state":"active","ping":77},{"user_id":284,"name":"aeon","steam_id":76561198068654532,"connected_time":746000000000,"state":"active","ping":91},{"user_id":276,"name":"Philomentus","steam_id":76561198067714196,"connected_time":1317000000000,"state":"active","ping":92},{"user_id":278,"name":"nonagon infinity","steam_id":76561198397662124,"connected_time":1189000000000,"state":"active","ping":69},{"user_id":262,"name":"kamala harris gaming","steam_id":76561198132803810,"connected_time":2123000000000,"state":"active","ping":63}]},{"server_id":404,"name":"Uncletopia | Dallas | 3 | All Maps","name_short":"dal-3","host":"dal-1.us.uncletopia.com","port":27035,"enabled":true,"region":"us-central","cc":"us","latitude":32.779167,"longitude":-96.80889,"reserved":0,"last_update":"0001-01-01T00:00:00Z","name_a2s":"Uncletopia | Dallas | 3 | All Maps","protocol":17,"map":"ctf_2fort","folder":"tf","game":"Team Fortress","app_id":440,"player_count":23,"max_players":24,"Bots":0,"server_type":"Dedicated","server_os":"Linux","password":true,"vac":true,"version":"7961495","steam_id":85568392924515219,"keywords":["ctf","nocrits","nodmgspread","uncletopia"],"game_id":440,"stv_port":27036,"stv_name":"Uncletopia | Dallas | 3 | All Maps | STV","players":[{"user_id":80,"name":"Joe Biden","steam_id":76561198056170906,"connected_time":1956000000000,"state":"active","ping":82},{"user_id":88,"name":"wetbrain","steam_id":76561198796967995,"connected_time":1399000000000,"state":"active","ping":173},{"user_id":105,"name":"mr_smallfrag","steam_id":76561199081061787,"connected_time":638000000000,"state":"active","ping":79},{"user_id":65,"name":"Lunarthrope","steam_id":76561198292132147,"connected_time":2629000000000,"state":"active","ping":86},{"user_id":89,"name":"Humwrecker","steam_id":76561199003607331,"connected_time":1317000000000,"state":"active","ping":81},{"user_id":113,"name":"how tf am I an essential worker","steam_id":76561199017002442,"connected_time":97000000000,"state":"active","ping":76},{"user_id":90,"name":"bowling","steam_id":76561198854571744,"connected_time":1250000000000,"state":"active","ping":80},{"user_id":114,"name":"coc","steam_id":76561198079668789,"connected_time":92000000000,"state":"active","ping":84},{"user_id":57,"name":"trackball gaming","steam_id":76561198057371485,"connected_time":3033000000000,"state":"active","ping":89},{"user_id":110,"name":"A pig","steam_id":76561199175242804,"connected_time":423000000000,"state":"active","ping":85},{"user_id":99,"name":"Rearranging furniture","steam_id":76561199054971009,"connected_time":1032000000000,"state":"active","ping":47},{"user_id":92,"name":"TheBrocklobster","steam_id":76561198039682984,"connected_time":1214000000000,"state":"active","ping":88},{"user_id":100,"name":"{Caulk-\u0026-Bawls Explorer}","steam_id":76561198025410898,"connected_time":916000000000,"state":"active","ping":89},{"user_id":67,"name":"ùìïùìÆùì∂ùì´ùì∏ùîÇùì©\ufffd\ufffd\ufffd","steam_id":76561198220055885,"connected_time":2620000000000,"state":"active","ping":56},{"user_id":75,"name":"mj1203mom","steam_id":76561199060392010,"connected_time":2144000000000,"state":"active","ping":58},{"user_id":102,"name":"Asanez3","steam_id":76561198037381436,"connected_time":686000000000,"state":"active","ping":96},{"user_id":112,"name":"wrongthink","steam_id":76561198830293087,"connected_time":152000000000,"state":"active","ping":67},{"user_id":107,"name":"Fog_Ballistic","steam_id":76561199074395345,"connected_time":609000000000,"state":"active","ping":97},{"user_id":96,"name":"bogdagod","steam_id":76561198286968297,"connected_time":1142000000000,"state":"active","ping":104},{"user_id":97,"name":"Exidy","steam_id":76561198036216584,"connected_time":1096000000000,"state":"active","ping":96},{"user_id":59,"name":"CreateADebate","steam_id":76561198115760035,"connected_time":2904000000000,"state":"active","ping":63},{"user_id":77,"name":"Silly Shark","steam_id":76561198130714378,"connected_time":2101000000000,"state":"active","ping":117},{"user_id":98,"name":"Melonfrog","steam_id":76561198389885427,"connected_time":1089000000000,"state":"active","ping":75}]},{"server_id":405,"name":"Uncletopia | Dallas | 4 | Community","name_short":"dal-4","host":"dal-1.us.uncletopia.com","port":27045,"enabled":true,"region":"us-central","cc":"us","latitude":32.779167,"longitude":-96.80889,"reserved":0,"last_update":"0001-01-01T00:00:00Z","name_a2s":"Uncletopia | Dallas | 4 | Community","protocol":17,"map":"workshop/koth_product_final.ugc454272353","folder":"tf","game":"Team Fortress","app_id":440,"player_count":0,"max_players":24,"Bots":0,"server_type":"Dedicated","server_os":"Linux","password":true,"vac":true,"version":"7961495","steam_id":85568392924515220,"keywords":["cp","nocrits","nodmgspread","uncletopia"],"game_id":440,"stv_port":27046,"stv_name":"Uncletopia | Dallas | 4 | Community | STV","players":null},{"server_id":5,"name":"Uncletopia | Frankfurt | 1 | All Maps","name_short":"frk-1","host":"frk-1.de.uncletopia.com","port":27015,"enabled":true,"region":"eu","cc":"de","latitude":50.110924,"longitude":8.682127,"reserved":0,"last_update":"0001-01-01T00:00:00Z","name_a2s":"Uncletopia | Frankfurt | 1 | All Maps","protocol":17,"map":"cp_process_final","folder":"tf","game":"Team Fortress","app_id":440,"player_count":24,"max_players":24,"Bots":0,"server_type":"Dedicated","server_os":"Linux","password":true,"vac":true,"version":"7961495","steam_id":85568392924469989,"keywords":["cp","nocrits","nodmgspread","uncletopia"],"game_id":440,"stv_port":27016,"stv_name":"Uncletopia | Frankfurt | 1 | All Maps | STV","players":[{"user_id":465,"name":"ANGELFISH","steam_id":76561198027536466,"connected_time":423000000000,"state":"active","ping":104},{"user_id":442,"name":"void","steam_id":76561198035831433,"connected_time":1426000000000,"state":"active","ping":65},{"user_id":428,"name":"Fran","steam_id":76561199070516960,"connected_time":2413000000000,"state":"active","ping":61},{"user_id":409,"name":"Chopperson_","steam_id":76561198873728497,"connected_time":4205000000000,"state":"active","ping":112},{"user_id":443,"name":"Rock..","steam_id":76561198004641963,"connected_time":1419000000000,"state":"active","ping":85},{"user_id":401,"name":"Hurans","steam_id":76561198064853199,"connected_time":4591000000000,"state":"active","ping":56},{"user_id":461,"name":"pardner","steam_id":76561198451471161,"connected_time":670000000000,"state":"active","ping":69},{"user_id":459,"name":"R8N - Obismal","steam_id":76561198007482714,"connected_time":728000000000,"state":"active","ping":69},{"user_id":445,"name":"Marty‚Ñ¢","steam_id":76561198060073673,"connected_time":1371000000000,"state":"active","ping":60},{"user_id":446,"name":"DOOKIEBOB","steam_id":76561198061248547,"connected_time":1357000000000,"state":"active","ping":55},{"user_id":463,"name":"rts","steam_id":76561199090876980,"connected_time":584000000000,"state":"active","ping":83},{"user_id":467,"name":"HRTV","steam_id":76561198978457123,"connected_time":310000000000,"state":"active","ping":75},{"user_id":327,"name":"nyanezt","steam_id":76561198253734265,"connected_time":10623000000000,"state":"active","ping":83},{"user_id":453,"name":"Mr. Hunts","steam_id":76561197981910397,"connected_time":1046000000000,"state":"active","ping":70},{"user_id":454,"name":"WEEP","steam_id":76561199499933159,"connected_time":928000000000,"state":"active","ping":60},{"user_id":438,"name":"–í–∞–¥–∏–º –ö–∞–∫–∞—à–∫–∏–Ω","steam_id":76561198383509320,"connected_time":1793000000000,"state":"active","ping":75},{"user_id":455,"name":"jonas","steam_id":76561198883559477,"connected_time":928000000000,"state":"active","ping":61},{"user_id":427,"name":"wee nut","steam_id":76561198083288197,"connected_time":2468000000000,"state":"active","ping":79},{"user_id":466,"name":"Tyren","steam_id":76561198993747516,"connected_time":401000000000,"state":"active","ping":68},{"user_id":458,"name":"K44N","steam_id":76561198349605952,"connected_time":887000000000,"state":"active","ping":130},{"user_id":462,"name":"Urfangonultasadana","steam_id":76561199389286151,"connected_time":621000000000,"state":"active","ping":97},{"user_id":436,"name":"tallen","steam_id":76561198061708595,"connected_time":2093000000000,"state":"active","ping":79},{"user_id":449,"name":"≈ò√¥≈õ≈õ","steam_id":76561198123398130,"connected_time":1244000000000,"state":"active","ping":105},{"user_id":450,"name":"Redrim","steam_id":76561197998374658,"connected_time":1235000000000,"state":"active","ping":76}]},{"server_id":110,"name":"Uncletopia | Frankfurt | 2 | All Maps","name_short":"frk-2","host":"frk-1.de.uncletopia.com","port":27025,"enabled":true,"region":"eu","cc":"de","latitude":50.110924,"longitude":8.682127,"reserved":0,"last_update":"0001-01-01T00:00:00Z","name_a2s":"Uncletopia | Frankfurt | 2 | All Maps","protocol":17,"map":"pl_swiftwater_final1","folder":"tf","game":"Team Fortress","app_id":440,"player_count":24,"max_players":24,"Bots":0,"server_type":"Dedicated","server_os":"Linux","password":true,"vac":true,"version":"7961495","steam_id":85568392924469990,"keywords":["nocrits","nodmgspread","payload","uncletopia"],"game_id":440,"stv_port":27026,"stv_name":"Uncletopia | Frankfurt | 2 | All Maps | STV","players":[{"user_id":488,"name":"goofy ahh","steam_id":76561199066430860,"connected_time":352000000000,"state":"active","ping":70},{"user_id":485,"name":"NALA","steam_id":76561198039806469,"connected_time":584000000000,"state":"active","ping":66},{"user_id":448,"name":"slogar","steam_id":76561198046191991,"connected_time":2780000000000,"state":"active","ping":51},{"user_id":493,"name":"Caliban","steam_id":76561197999696839,"connected_time":64000000000,"state":"active","ping":101},{"user_id":486,"name":"Gillusion","steam_id":76561198138818087,"connected_time":560000000000,"state":"active","ping":51},{"user_id":445,"name":"Hundehunde (137)","steam_id":76561198028683991,"connected_time":2850000000000,"state":"active","ping":46},{"user_id":474,"name":"runcar222","steam_id":76561198077085528,"connected_time":1129000000000,"state":"active","ping":68},{"user_id":480,"name":"The Lady","steam_id":76561198029895809,"connected_time":918000000000,"state":"active","ping":74},{"user_id":475,"name":"Irrelevant \u003c---","steam_id":76561199195727551,"connected_time":1125000000000,"state":"active","ping":57},{"user_id":476,"name":"Lyell","steam_id":76561198350329389,"connected_time":1090000000000,"state":"active","ping":85},{"user_id":489,"name":"Toca","steam_id":76561198039582547,"connected_time":317000000000,"state":"active","ping":57},{"user_id":443,"name":"mesŒª","steam_id":76561198324582918,"connected_time":2872000000000,"state":"active","ping":102},{"user_id":469,"name":"warforge3","steam_id":76561199276024310,"connected_time":1525000000000,"state":"active","ping":98},{"user_id":478,"name":"Noice","steam_id":76561198142980847,"connected_time":986000000000,"state":"active","ping":83},{"user_id":492,"name":"Hegyi tah√≥ F2P","steam_id":76561199219150356,"connected_time":123000000000,"state":"active","ping":78},{"user_id":490,"name":"Radegast the Brown","steam_id":76561198075489505,"connected_time":271000000000,"state":"active","ping":60},{"user_id":313,"name":"fdcsfdsfdwdf","steam_id":76561198080496833,"connected_time":10538000000000,"state":"active","ping":90},{"user_id":491,"name":"TotallyRealRunarTv√•lfager‚Ñ¢","steam_id":76561198018228013,"connected_time":267000000000,"state":"active","ping":72},{"user_id":456,"name":"Saab900","steam_id":76561198143529110,"connected_time":2417000000000,"state":"active","ping":45},{"user_id":420,"name":"Mr.Nannoldo","steam_id":76561198107373653,"connected_time":3936000000000,"state":"active","ping":87},{"user_id":457,"name":"Destruction461","steam_id":76561198247548712,"connected_time":2307000000000,"state":"active","ping":91},{"user_id":484,"name":"e","steam_id":76561198204685028,"connected_time":648000000000,"state":"active","ping":71},{"user_id":422,"name":"Joe Dart","steam_id":76561198146221326,"connected_time":3776000000000,"state":"active","ping":105},{"user_id":447,"name":"rockBustaz","steam_id":76561198088290698,"connected_time":2837000000000,"state":"active","ping":63}]},{"server_id":308,"name":"Uncletopia | Frankfurt | 3 | All Maps","name_short":"frk-3","host":"frk-1.de.uncletopia.com","port":27035,"enabled":true,"region":"eu","cc":"de","latitude":50.110924,"longitude":8.682127,"reserved":0,"last_update":"0001-01-01T00:00:00Z","name_a2s":"Uncletopia | Frankfurt | 3 | All Maps","protocol":17,"map":"cp_process_final","folder":"tf","game":"Team Fortress","app_id":440,"player_count":19,"max_players":24,"Bots":0,"server_type":"Dedicated","server_os":"Linux","password":true,"vac":true,"version":"7961495","steam_id":85568392924504274,"keywords":["cp","nocrits","nodmgspread","uncletopia"],"game_id":440,"stv_port":27036,"stv_name":"Uncletopia | Frankfurt | 3 | All Maps | STV","players":[{"user_id":455,"name":"Not A Fake Uncletopia Server","steam_id":76561198152871288,"connected_time":1379000000000,"state":"spawning","ping":73},{"user_id":396,"name":"urby7","steam_id":76561198042122860,"connected_time":6335000000000,"state":"spawning","ping":71},{"user_id":429,"name":"Laru","steam_id":76561197998838438,"connected_time":3543000000000,"state":"spawning","ping":88},{"user_id":431,"name":"Udinese Dion","steam_id":76561198067931573,"connected_time":3395000000000,"state":"spawning","ping":64},{"user_id":446,"name":"Dellty","steam_id":76561198173944065,"connected_time":2182000000000,"state":"spawning","ping":70},{"user_id":445,"name":"Hungeryan","steam_id":76561198887299930,"connected_time":2302000000000,"state":"spawning","ping":132},{"user_id":389,"name":"night.s","steam_id":76561198326287823,"connected_time":6679000000000,"state":"spawning","ping":97},{"user_id":434,"name":"Armand","steam_id":76561198236126774,"connected_time":2779000000000,"state":"spawning","ping":49},{"user_id":466,"name":"Kn√∂sta","steam_id":76561198143422139,"connected_time":761000000000,"state":"spawning","ping":101},{"user_id":450,"name":"Angst","steam_id":76561197970562002,"connected_time":1888000000000,"state":"spawning","ping":63},{"user_id":461,"name":"anders McFlanders","steam_id":76561198022811995,"connected_time":1197000000000,"state":"spawning","ping":53},{"user_id":444,"name":"SendBob","steam_id":76561198151981614,"connected_time":2484000000000,"state":"spawning","ping":86},{"user_id":449,"name":"mt","steam_id":76561197961319303,"connected_time":1919000000000,"state":"spawning","ping":59},{"user_id":441,"name":"sondi","steam_id":76561198045466209,"connected_time":2619000000000,"state":"spawning","ping":71},{"user_id":467,"name":"SodaHead13","steam_id":76561198202990635,"connected_time":490000000000,"state":"spawning","ping":75},{"user_id":471,"name":"Rigby","steam_id":76561198021552128,"connected_time":13000000000,"state":"connecting","ping":89},{"user_id":469,"name":"7oid","steam_id":76561198142074232,"connected_time":37000000000,"state":"spawning","ping":121},{"user_id":463,"name":"Heisenburger","steam_id":76561199098248458,"connected_time":1106000000000,"state":"spawning","ping":78},{"user_id":435,"name":"Keke","steam_id":76561199052783561,"connected_time":2767000000000,"state":"spawning","ping":72}]},{"server_id":309,"name":"Uncletopia | Frankfurt | 4 | All Maps","name_short":"frk-4","host":"frk-1.de.uncletopia.com","port":27045,"enabled":true,"region":"eu","cc":"de","latitude":50.110924,"longitude":8.682127,"reserved":0,"last_update":"0001-01-01T00:00:00Z","name_a2s":"Uncletopia | Frankfurt | 4 | All Maps","protocol":17,"map":"cp_steel","folder":"tf","game":"Team Fortress","app_id":440,"player_count":22,"max_players":24,"Bots":0,"server_type":"Dedicated","server_os":"Linux","password":true,"vac":true,"version":"7961495","steam_id":85568392924504275,"keywords":["cp","nocrits","nodmgspread","uncletopia"],"game_id":440,"stv_port":27046,"stv_name":"Uncletopia | Frankfurt | 4 | All Maps | STV","players":[{"user_id":429,"name":"Laki","steam_id":76561198126078953,"connected_time":6505000000000,"state":"active","ping":119},{"user_id":518,"name":"Warkzt","steam_id":76561198098166869,"connected_time":613000000000,"state":"active","ping":64},{"user_id":519,"name":"Liko","steam_id":76561197994660517,"connected_time":610000000000,"state":"active","ping":64},{"user_id":467,"name":"Bloody Wolf","steam_id":76561198109282610,"connected_time":4522000000000,"state":"active","ping":60},{"user_id":454,"name":"Swegumbre","steam_id":76561198253855048,"connected_time":4986000000000,"state":"active","ping":45},{"user_id":496,"name":"engineer drip","steam_id":76561198991032570,"connected_time":2108000000000,"state":"active","ping":94},{"user_id":507,"name":"umido","steam_id":76561198371096273,"connected_time":1199000000000,"state":"active","ping":80},{"user_id":466,"name":"Plop_","steam_id":76561198112567921,"connected_time":4565000000000,"state":"active","ping":44},{"user_id":486,"name":"Swagmaster","steam_id":76561198045828392,"connected_time":2417000000000,"state":"active","ping":73},{"user_id":505,"name":"dildo_swaggins","steam_id":76561198049764599,"connected_time":1245000000000,"state":"active","ping":56},{"user_id":504,"name":"snsmac","steam_id":76561198082821185,"connected_time":1420000000000,"state":"active","ping":46},{"user_id":521,"name":"a pile of ants","steam_id":76561199030798940,"connected_time":78000000000,"state":"active","ping":76},{"user_id":522,"name":"Jela331","steam_id":76561198112625107,"connected_time":77000000000,"state":"active","ping":65},{"user_id":503,"name":"sticks","steam_id":76561198127099299,"connected_time":1735000000000,"state":"active","ping":52},{"user_id":488,"name":"Vacys Maslionka","steam_id":76561198126518252,"connected_time":2287000000000,"state":"active","ping":70},{"user_id":489,"name":"[Pro TF2 player]sharap.","steam_id":76561198133568449,"connected_time":2271000000000,"state":"active","ping":127},{"user_id":510,"name":"Szeregowy LowiRyb","steam_id":76561198855967762,"connected_time":1107000000000,"state":"active","ping":96},{"user_id":515,"name":"cocaine fan","steam_id":76561198123592400,"connected_time":768000000000,"state":"active","ping":89},{"user_id":447,"name":"tully","steam_id":76561198058012525,"connected_time":5343000000000,"state":"active","ping":58},{"user_id":453,"name":"bid","steam_id":76561198083863043,"connected_time":5030000000000,"state":"active","ping":48},{"user_id":469,"name":"breadbear \u003c3","steam_id":76561198036895007,"connected_time":4346000000000,"state":"active","ping":78},{"user_id":523,"name":"Richard_HUN","steam_id":76561198299050967,"connected_time":73000000000,"state":"spawning","ping":99}]},{"server_id":310,"name":"Uncletopia | Frankfurt | 5 | All Maps","name_short":"frk-5","host":"frk-1.de.uncletopia.com","port":27055,"enabled":true,"region":"eu","cc":"de","latitude":50.110924,"longitude":8.682127,"reserved":0,"last_update":"0001-01-01T00:00:00Z","name_a2s":"Uncletopia | Frankfurt | 5 | All Maps","protocol":17,"map":"cp_granary","folder":"tf","game":"Team Fortress","app_id":440,"player_count":23,"max_players":24,"Bots":0,"server_type":"Dedicated","server_os":"Linux","password":true,"vac":true,"version":"7961495","steam_id":85568392924504277,"keywords":["cp","nocrits","nodmgspread","uncletopia"],"game_id":440,"stv_port":27056,"stv_name":"Uncletopia | Frankfurt | 5 | All Maps | STV","players":[{"user_id":580,"name":"Ghetto Reimo","steam_id":76561198189315728,"connected_time":515000000000,"state":"active","ping":69},{"user_id":567,"name":"–°–æ–ª—è–Ω–æ–π —Ö–∞—Å–∫","steam_id":76561198181087086,"connected_time":1101000000000,"state":"spawning","ping":111},{"user_id":579,"name":"Jethro Tull","steam_id":76561199034041634,"connected_time":715000000000,"state":"active","ping":61},{"user_id":575,"name":"magÃ∂pÃ∂iÃ∂e ‚úø","steam_id":76561198797266244,"connected_time":803000000000,"state":"active","ping":62},{"user_id":556,"name":"pepe","steam_id":76561198019562074,"connected_time":1733000000000,"state":"active","ping":71},{"user_id":551,"name":"NikyuuVl","steam_id":76561198159506454,"connected_time":1889000000000,"state":"spawning","ping":60},{"user_id":587,"name":"Bodalika","steam_id":76561199238644230,"connected_time":113000000000,"state":"active","ping":94},{"user_id":588,"name":"Lord Perhaps","steam_id":76561198065211253,"connected_time":109000000000,"state":"active","ping":53},{"user_id":557,"name":"barom","steam_id":76561198086355651,"connected_time":1726000000000,"state":"active","ping":78},{"user_id":569,"name":"Demo #saveTF2","steam_id":76561198102850854,"connected_time":1095000000000,"state":"active","ping":56},{"user_id":582,"name":"Alegz","steam_id":76561198287810139,"connected_time":485000000000,"state":"active","ping":76},{"user_id":589,"name":"ËìÆ Lotus","steam_id":76561198083141117,"connected_time":58000000000,"state":"active","ping":51},{"user_id":590,"name":"C11 H17 O2 Na","steam_id":76561198825184066,"connected_time":22000000000,"state":"active","ping":58},{"user_id":566,"name":"Bill Clinton","steam_id":76561198060011032,"connected_time":1260000000000,"state":"active","ping":61},{"user_id":561,"name":"TOKOZACKO","steam_id":76561198125163526,"connected_time":1588000000000,"state":"active","ping":72},{"user_id":591,"name":"Sesse","steam_id":76561198254375590,"connected_time":14000000000,"state":"spawning","ping":59},{"user_id":592,"name":"Pyrolander","steam_id":76561198050785450,"connected_time":5000000000,"state":"spawning","ping":37},{"user_id":520,"name":"Doctor Medic","steam_id":76561198100957443,"connected_time":4443000000000,"state":"active","ping":82},{"user_id":577,"name":"toad (ungodly gigantic)","steam_id":76561198870327755,"connected_time":753000000000,"state":"active","ping":109},{"user_id":593,"name":"drip devil","steam_id":76561198235739036,"connected_time":4000000000,"state":"spawning","ping":68},{"user_id":554,"name":"Test_Subject _9730","steam_id":76561198065594171,"connected_time":1849000000000,"state":"active","ping":122},{"user_id":521,"name":"random gaming","steam_id":76561198087970118,"connected_time":4414000000000,"state":"spawning","ping":46},{"user_id":560,"name":"manhunter","steam_id":76561198009152277,"connected_time":1673000000000,"state":"active","ping":79}]},{"server_id":311,"name":"Uncletopia | Frankfurt | 6 | All Maps","name_short":"frk-6","host":"frk-1.de.uncletopia.com","port":27065,"enabled":true,"region":"eu","cc":"de","latitude":50.110924,"longitude":8.682127,"reserved":0,"last_update":"0001-01-01T00:00:00Z","name_a2s":"Uncletopia | Frankfurt | 6 | All Maps","protocol":17,"map":"pl_snowycoast","folder":"tf","game":"Team Fortress","app_id":440,"player_count":23,"max_players":24,"Bots":0,"server_type":"Dedicated","server_os":"Linux","password":true,"vac":true,"version":"7961495","steam_id":85568392924504278,"keywords":["nocrits","nodmgspread","payload","uncletopia"],"game_id":440,"stv_port":27066,"stv_name":"Uncletopia | Frankfurt | 6 | All Maps | STV","players":[{"user_id":486,"name":"B@yka","steam_id":76561198986736592,"connected_time":822000000000,"state":"active","ping":68},{"user_id":468,"name":"hasansaeedifar","steam_id":76561198974563618,"connected_time":1455000000000,"state":"active","ping":152},{"user_id":433,"name":"wes","steam_id":76561198067000117,"connected_time":3426000000000,"state":"active","ping":62},{"user_id":469,"name":"AlanWillson","steam_id":76561198043975413,"connected_time":1396000000000,"state":"active","ping":68},{"user_id":417,"name":"Joetron","steam_id":76561198267907985,"connected_time":4190000000000,"state":"active","ping":60},{"user_id":451,"name":"Arsonist","steam_id":76561199087953833,"connected_time":2231000000000,"state":"active","ping":106},{"user_id":427,"name":"nezolif","steam_id":76561198102030382,"connected_time":3833000000000,"state":"active","ping":62},{"user_id":493,"name":"SalCrabber deluxe","steam_id":76561198275942961,"connected_time":144000000000,"state":"active","ping":43},{"user_id":482,"name":"finbar","steam_id":76561198056812396,"connected_time":909000000000,"state":"active","ping":72},{"user_id":491,"name":"0\u003e0","steam_id":76561198049741238,"connected_time":224000000000,"state":"active","ping":91},{"user_id":473,"name":"Gas Doge","steam_id":76561198074869243,"connected_time":1205000000000,"state":"active","ping":68},{"user_id":474,"name":"glunker","steam_id":76561197982523508,"connected_time":1185000000000,"state":"active","ping":113},{"user_id":442,"name":"Sprayus #Rustypot","steam_id":76561198399216417,"connected_time":2986000000000,"state":"active","ping":60},{"user_id":483,"name":"cuddles","steam_id":76561198805181599,"connected_time":906000000000,"state":"active","ping":64},{"user_id":484,"name":"Nuuskis","steam_id":76561198084042012,"connected_time":880000000000,"state":"active","ping":83},{"user_id":487,"name":"GrentenDri","steam_id":76561198146131107,"connected_time":804000000000,"state":"active","ping":74},{"user_id":416,"name":"hotmom","steam_id":76561198081264588,"connected_time":4914000000000,"state":"active","ping":76},{"user_id":426,"name":"debil boywife","steam_id":76561198160047415,"connected_time":3874000000000,"state":"active","ping":89},{"user_id":492,"name":"Adushka","steam_id":76561198053095808,"connected_time":223000000000,"state":"active","ping":73},{"user_id":494,"name":"LOBZIK","steam_id":76561198114830120,"connected_time":36000000000,"state":"active","ping":75},{"user_id":418,"name":"d0gger","steam_id":76561198054902449,"connected_time":4183000000000,"state":"active","ping":57},{"user_id":449,"name":"say gex","steam_id":76561198265479349,"connected_time":2253000000000,"state":"active","ping":60},{"user_id":488,"name":"Mr. Voice","steam_id":76561198121649244,"connected_time":775000000000,"state":"active","ping":58}]},{"server_id":23,"name":"Uncletopia | Frankfurt | 7 | Stopwatch","name_short":"frk-7","host":"frk-1.de.uncletopia.com","port":27075,"enabled":true,"region":"eu","cc":"de","latitude":50.110924,"longitude":8.682127,"reserved":0,"last_update":"0001-01-01T00:00:00Z","name_a2s":"Uncletopia | Frankfurt | 7 | Stopwatch","protocol":17,"map":"workshop/koth_ashville_final.ugc2130459942","folder":"tf","game":"Team Fortress","app_id":440,"player_count":0,"max_players":24,"Bots":0,"server_type":"Dedicated","server_os":"Linux","password":true,"vac":true,"version":"7961495","steam_id":85568392924742827,"keywords":["cp","nocrits","nodmgspread","uncletopia"],"game_id":440,"stv_port":27076,"stv_name":"Uncletopia | Frankfurt | 7 | Stopwatch | STV","players":null},{"server_id":24,"name":"Uncletopia | Frankfurt | 8 | Community","name_short":"frk-8","host":"frk-1.de.uncletopia.com","port":27085,"enabled":true,"region":"eu","cc":"de","latitude":50.110924,"longitude":8.682127,"reserved":0,"last_update":"0001-01-01T00:00:00Z","name_a2s":"Uncletopia | Frankfurt | 8 | Community","protocol":17,"map":"workshop/koth_trenchfoot_ab1.ugc731436616","folder":"tf","game":"Team Fortress","app_id":440,"player_count":2,"max_players":24,"Bots":0,"server_type":"Dedicated","server_os":"Linux","password":true,"vac":true,"version":"7961495","steam_id":85568392924742828,"keywords":["cp","nocrits","nodmgspread","uncletopia"],"game_id":440,"stv_port":27086,"stv_name":"Uncletopia | Frankfurt | 8 | Community | STV","players":[{"user_id":38,"name":"The_Dark_Night","steam_id":76561198884257698,"connected_time":2954000000000,"state":"active","ping":105},{"user_id":39,"name":"Mr.Beans","steam_id":76561199062611417,"connected_time":2935000000000,"state":"active","ping":77}]},{"server_id":202,"name":"Uncletopia | Hong Kong | 1 | All Maps","name_short":"hgk-1","host":"hgk-1.hk.uncletopia.com","port":27015,"enabled":true,"region":"asia","cc":"hk","latitude":22.302711,"longitude":114.177216,"reserved":0,"last_update":"0001-01-01T00:00:00Z","name_a2s":"Uncletopia | Hong Kong | 1 | All Maps","protocol":17,"map":"cp_snakewater_final1","folder":"tf","game":"Team Fortress","app_id":440,"player_count":0,"max_players":24,"Bots":0,"server_type":"Dedicated","server_os":"Linux","password":true,"vac":true,"version":"7961495","steam_id":85568392924494504,"keywords":["cp","nocrits","nodmgspread","uncletopia"],"game_id":440,"stv_port":27016,"stv_name":"Uncletopia | Hong Kong | 1 | All Maps | STV","players":null},{"server_id":1,"name":"Uncletopia | Los Angeles | 1 | All Maps","name_short":"lax-1","host":"lax-1.us.uncletopia.com","port":27015,"enabled":true,"region":"us-west","cc":"us","latitude":33.94279,"longitude":-118.41004,"reserved":0,"last_update":"0001-01-01T00:00:00Z","name_a2s":"Uncletopia | Los Angeles | 1 | All Maps","protocol":17,"map":"cp_process_final","folder":"tf","game":"Team Fortress","app_id":440,"player_count":0,"max_players":24,"Bots":0,"server_type":"Dedicated","server_os":"Linux","password":true,"vac":true,"version":"7961495","steam_id":85568392924469991,"keywords":["cp","nocrits","nodmgspread","uncletopia"],"game_id":440,"stv_port":27016,"stv_name":"Uncletopia | Los Angeles | 1 | All Maps | STV","players":null},{"server_id":112,"name":"Uncletopia | Los Angeles | 2 | All Maps","name_short":"lax-2","host":"lax-1.us.uncletopia.com","port":27025,"enabled":true,"region":"us-west","cc":"us","latitude":33.94279,"longitude":-118.41004,"reserved":0,"last_update":"0001-01-01T00:00:00Z","name_a2s":"Uncletopia | Los Angeles | 2 | All Maps","protocol":17,"map":"cp_snakewater_final1","folder":"tf","game":"Team Fortress","app_id":440,"player_count":0,"max_players":24,"Bots":0,"server_type":"Dedicated","server_os":"Linux","password":true,"vac":true,"version":"7961495","steam_id":85568392924469992,"keywords":["cp","nocrits","nodmgspread","uncletopia"],"game_id":440,"stv_port":27026,"stv_name":"Uncletopia | Los Angeles | 2 | All Maps | STV","players":null},{"server_id":324,"name":"Uncletopia | Los Angeles | 3 | All Maps","name_short":"lax-3","host":"lax-1.us.uncletopia.com","port":27035,"enabled":true,"region":"us-west","cc":"us","latitude":33.94279,"longitude":-118.41004,"reserved":0,"last_update":"0001-01-01T00:00:00Z","name_a2s":"Uncletopia | Los Angeles | 3 | All Maps","protocol":17,"map":"pl_frontier_final","folder":"tf","game":"Team Fortress","app_id":440,"player_count":0,"max_players":24,"Bots":0,"server_type":"Dedicated","server_os":"Linux","password":true,"vac":true,"version":"7961495","steam_id":85568392924510198,"keywords":["nocrits","nodmgspread","payload","uncletopia"],"game_id":440,"stv_port":27036,"stv_name":"Uncletopia | Los Angeles | 3 | All Maps | STV","players":null},{"server_id":25,"name":"Uncletopia | Los Angeles | 4 | Stopwatch","name_short":"lax-4","host":"lax-1.us.uncletopia.com","port":27045,"enabled":true,"region":"us-west","cc":"us","latitude":33.94279,"longitude":-118.41004,"reserved":0,"last_update":"0001-01-01T00:00:00Z","name_a2s":"Uncletopia | Los Angeles | 4 | Stopwatch","protocol":17,"map":"pl_barnblitz","folder":"tf","game":"Team Fortress","app_id":440,"player_count":0,"max_players":24,"Bots":0,"server_type":"Dedicated","server_os":"Linux","password":true,"vac":true,"version":"7961495","steam_id":85568392924510199,"keywords":["nocrits","nodmgspread","payload","uncletopia"],"game_id":440,"stv_port":27046,"stv_name":"Uncletopia | Los Angeles | 4 | Stopwatch | STV","players":null},{"server_id":11,"name":"Uncletopia | London | 1 | All Maps","name_short":"lon-1","host":"lon-1.uk.uncletopia.com","port":27015,"enabled":true,"region":"eu","cc":"gb","latitude":51.509865,"longitude":-0.118092,"reserved":0,"last_update":"0001-01-01T00:00:00Z","name_a2s":"Uncletopia | London | 1 | All Maps","protocol":17,"map":"pl_swiftwater_final1","folder":"tf","game":"Team Fortress","app_id":440,"player_count":24,"max_players":24,"Bots":0,"server_type":"Dedicated","server_os":"Linux","password":true,"vac":true,"version":"7961495","steam_id":85568392924367362,"keywords":["nocrits","nodmgspread","payload","uncletopia"],"game_id":440,"stv_port":27016,"stv_name":"Uncletopia | London | 1 | All Maps | STV","players":[{"user_id":579,"name":"Storm's Foreshadow","steam_id":76561198098462526,"connected_time":1597000000000,"state":"active","ping":75},{"user_id":519,"name":"RubyTheUnicorn","steam_id":76561198091772218,"connected_time":5021000000000,"state":"active","ping":60},{"user_id":603,"name":"Jack King","steam_id":76561198076219289,"connected_time":781000000000,"state":"active","ping":57},{"user_id":533,"name":"Janneke Maan","steam_id":76561198069290924,"connected_time":4157000000000,"state":"active","ping":67},{"user_id":597,"name":"milof","steam_id":76561198809199604,"connected_time":1256000000000,"state":"active","ping":85},{"user_id":507,"name":"stinko","steam_id":76561198358856044,"connected_time":5465000000000,"state":"active","ping":45},{"user_id":609,"name":"A Girl","steam_id":76561198061836929,"connected_time":305000000000,"state":"active","ping":84},{"user_id":598,"name":"Vito","steam_id":76561198103978102,"connected_time":1201000000000,"state":"active","ping":72},{"user_id":585,"name":"Chinpo to b≈çru no g≈çmon","steam_id":76561199214163032,"connected_time":1497000000000,"state":"active","ping":97},{"user_id":576,"name":"nappo","steam_id":76561198060105180,"connected_time":1775000000000,"state":"active","ping":75},{"user_id":567,"name":"kr√§k","steam_id":76561198040725235,"connected_time":2634000000000,"state":"active","ping":75},{"user_id":570,"name":"reika","steam_id":76561198043601838,"connected_time":2435000000000,"state":"active","ping":60},{"user_id":577,"name":"kinesitherapie","steam_id":76561198087909358,"connected_time":1694000000000,"state":"active","ping":87},{"user_id":612,"name":"Calve","steam_id":76561198027943437,"connected_time":31000000000,"state":"active","ping":113},{"user_id":607,"name":"YARrICk.¬´+¬ª","steam_id":76561197990126485,"connected_time":455000000000,"state":"active","ping":59},{"user_id":608,"name":"OutOfDucks","steam_id":76561198166376227,"connected_time":395000000000,"state":"active","ping":61},{"user_id":605,"name":"ashley","steam_id":76561198448551449,"connected_time":735000000000,"state":"active","ping":34},{"user_id":600,"name":"Purps","steam_id":76561198053886680,"connected_time":1149000000000,"state":"active","ping":44},{"user_id":611,"name":"puck","steam_id":76561198121260981,"connected_time":200000000000,"state":"active","ping":45},{"user_id":503,"name":"Estamie","steam_id":76561198058527691,"connected_time":5594000000000,"state":"active","ping":74},{"user_id":542,"name":"sokige","steam_id":76561198167112371,"connected_time":3694000000000,"state":"active","ping":103},{"user_id":599,"name":"waj","steam_id":76561198053628243,"connected_time":1189000000000,"state":"active","ping":45},{"user_id":602,"name":"the silly creature","steam_id":76561198819986745,"connected_time":849000000000,"state":"active","ping":96},{"user_id":572,"name":"meow :3","steam_id":76561198010662796,"connected_time":2401000000000,"state":"active","ping":49}]},{"server_id":114,"name":"Uncletopia | London | 2 | All Maps","name_short":"lon-2","host":"lon-1.uk.uncletopia.com","port":27025,"enabled":true,"region":"eu","cc":"gb","latitude":51.509865,"longitude":-0.118092,"reserved":0,"last_update":"0001-01-01T00:00:00Z","name_a2s":"Uncletopia | London | 2 | All Maps","protocol":17,"map":"pl_barnblitz","folder":"tf","game":"Team Fortress","app_id":440,"player_count":24,"max_players":24,"Bots":0,"server_type":"Dedicated","server_os":"Linux","password":true,"vac":true,"version":"7961495","steam_id":85568392924470941,"keywords":["nocrits","nodmgspread","payload","uncletopia"],"game_id":440,"stv_port":27026,"stv_name":"Uncletopia | London | 2 | All Maps | STV","players":[{"user_id":487,"name":"im not a femboy i swear","steam_id":76561198441084881,"connected_time":1583000000000,"state":"active","ping":72},{"user_id":353,"name":"Demicore","steam_id":76561197976922136,"connected_time":12337000000000,"state":"active","ping":68},{"user_id":467,"name":"British Disapproval","steam_id":76561198001375260,"connected_time":2310000000000,"state":"active","ping":52},{"user_id":496,"name":"Citrus","steam_id":76561198090650837,"connected_time":885000000000,"state":"active","ping":58},{"user_id":497,"name":"01010110 00110001","steam_id":76561198039914302,"connected_time":812000000000,"state":"active","ping":127},{"user_id":484,"name":"hardway","steam_id":76561198272529254,"connected_time":1649000000000,"state":"active","ping":57},{"user_id":502,"name":"Emerald","steam_id":76561199141384216,"connected_time":243000000000,"state":"active","ping":48},{"user_id":486,"name":"LordTrap.exe","steam_id":76561198318089716,"connected_time":1593000000000,"state":"active","ping":60},{"user_id":464,"name":"DaisyTheCat","steam_id":76561198241732704,"connected_time":2700000000000,"state":"active","ping":50},{"user_id":499,"name":"Urtaras","steam_id":76561198085604412,"connected_time":450000000000,"state":"active","ping":51},{"user_id":452,"name":"Phat","steam_id":76561198272293356,"connected_time":3767000000000,"state":"active","ping":67},{"user_id":491,"name":"Visphiric","steam_id":76561198071938027,"connected_time":1426000000000,"state":"active","ping":43},{"user_id":504,"name":"Ken Salmon","steam_id":76561198115505914,"connected_time":133000000000,"state":"active","ping":47},{"user_id":507,"name":"Kappa","steam_id":76561198089341471,"connected_time":49000000000,"state":"active","ping":71},{"user_id":431,"name":"GhastlyPann","steam_id":76561198825373404,"connected_time":5959000000000,"state":"active","ping":122},{"user_id":416,"name":"(MAC) [BN] Crazyking","steam_id":76561198001668616,"connected_time":6790000000000,"state":"active","ping":60},{"user_id":495,"name":"-_-","steam_id":76561198813192630,"connected_time":1065000000000,"state":"active","ping":43},{"user_id":418,"name":"gapeboi farti","steam_id":76561199121999431,"connected_time":6656000000000,"state":"active","ping":56},{"user_id":426,"name":"Fiishi","steam_id":76561198098706390,"connected_time":6220000000000,"state":"active","ping":137},{"user_id":493,"name":"Horrowes","steam_id":76561198318446417,"connected_time":1104000000000,"state":"active","ping":135},{"user_id":448,"name":"Delta Flowers ‚ô°","steam_id":76561198434811706,"connected_time":4037000000000,"state":"active","ping":53},{"user_id":505,"name":"meriones","steam_id":76561198034234373,"connected_time":117000000000,"state":"active","ping":39},{"user_id":492,"name":"ABSOLUTE UNIT","steam_id":76561197972287320,"connected_time":1143000000000,"state":"active","ping":68},{"user_id":506,"name":"Dogdigger","steam_id":76561198032893130,"connected_time":100000000000,"state":"active","ping":104}]},{"server_id":320,"name":"Uncletopia | London | 3 | All Maps","name_short":"lon-3","host":"lon-1.uk.uncletopia.com","port":27035,"enabled":true,"region":"eu","cc":"gb","latitude":51.509865,"longitude":-0.118092,"reserved":0,"last_update":"0001-01-01T00:00:00Z","name_a2s":"Uncletopia | London | 3 | All Maps","protocol":17,"map":"pl_frontier_final","folder":"tf","game":"Team Fortress","app_id":440,"player_count":24,"max_players":24,"Bots":0,"server_type":"Dedicated","server_os":"Linux","password":true,"vac":true,"version":"7961495","steam_id":85568392924510192,"keywords":["nocrits","nodmgspread","payload","uncletopia"],"game_id":440,"stv_port":27036,"stv_name":"Uncletopia | London | 3 | All Maps | STV","players":[{"user_id":270,"name":"Scarlet","steam_id":76561198075966579,"connected_time":1889000000000,"state":"active","ping":42},{"user_id":283,"name":"Skelet","steam_id":76561198051685232,"connected_time":527000000000,"state":"active","ping":45},{"user_id":289,"name":"Shmig","steam_id":76561199039358883,"connected_time":186000000000,"state":"active","ping":162},{"user_id":280,"name":"‚ÜØ","steam_id":76561198055389492,"connected_time":630000000000,"state":"active","ping":45},{"user_id":285,"name":"MrCannon","steam_id":76561199054586042,"connected_time":340000000000,"state":"active","ping":105},{"user_id":225,"name":"soil.dirt.earth","steam_id":76561198014377623,"connected_time":6488000000000,"state":"active","ping":31},{"user_id":254,"name":"√áodar","steam_id":76561198235518444,"connected_time":4053000000000,"state":"active","ping":34},{"user_id":204,"name":"VolcanicArts","steam_id":76561198063453246,"connected_time":8646000000000,"state":"active","ping":58},{"user_id":213,"name":"Dr_Agent","steam_id":76561198330355519,"connected_time":8147000000000,"state":"active","ping":63},{"user_id":290,"name":"fernandobmwm355555","steam_id":76561198086609447,"connected_time":166000000000,"state":"active","ping":61},{"user_id":196,"name":"Marcel","steam_id":76561198348686648,"connected_time":9234000000000,"state":"active","ping":32},{"user_id":162,"name":"zayd","steam_id":76561198895235231,"connected_time":11404000000000,"state":"active","ping":57},{"user_id":278,"name":"Bighead","steam_id":76561197970693183,"connected_time":1563000000000,"state":"active","ping":114},{"user_id":200,"name":"LiterallyRyanGosling","steam_id":76561199017856691,"connected_time":9014000000000,"state":"active","ping":59},{"user_id":292,"name":"TheEventGuy","steam_id":76561197972797744,"connected_time":29000000000,"state":"active","ping":79},{"user_id":242,"name":"NESS","steam_id":76561197995225318,"connected_time":5170000000000,"state":"active","ping":45},{"user_id":211,"name":"Rjay","steam_id":76561198026151229,"connected_time":8394000000000,"state":"active","ping":111},{"user_id":288,"name":"Eric Catman","steam_id":76561198802117294,"connected_time":274000000000,"state":"active","ping":71},{"user_id":272,"name":"quickfast","steam_id":76561199438900919,"connected_time":1869000000000,"state":"active","ping":45},{"user_id":276,"name":"puffled","steam_id":76561198894774140,"connected_time":1702000000000,"state":"active","ping":45},{"user_id":275,"name":"Chonky dorito","steam_id":76561199076870571,"connected_time":1768000000000,"state":"active","ping":98},{"user_id":247,"name":"MakeItRainbow","steam_id":76561198045098064,"connected_time":5102000000000,"state":"active","ping":64},{"user_id":248,"name":"icymelon","steam_id":76561198072239175,"connected_time":5078000000000,"state":"active","ping":42},{"user_id":282,"name":"sam_","steam_id":76561198814734120,"connected_time":557000000000,"state":"active","ping":117}]},{"server_id":321,"name":"Uncletopia | London | 4 | All Maps","name_short":"lon-4","host":"lon-1.uk.uncletopia.com","port":27045,"enabled":true,"region":"eu","cc":"gb","latitude":51.509865,"longitude":-0.118092,"reserved":0,"last_update":"0001-01-01T00:00:00Z","name_a2s":"Uncletopia | London | 4 | All Maps","protocol":17,"map":"pl_swiftwater_final1","folder":"tf","game":"Team Fortress","app_id":440,"player_count":24,"max_players":24,"Bots":0,"server_type":"Dedicated","server_os":"Linux","password":true,"vac":true,"version":"7961495","steam_id":85568392924510193,"keywords":["nocrits","nodmgspread","payload","uncletopia"],"game_id":440,"stv_port":27046,"stv_name":"Uncletopia | London | 4 | All Maps | STV","players":[{"user_id":346,"name":"lulebalule","steam_id":76561199211194890,"connected_time":1541000000000,"state":"active","ping":84},{"user_id":289,"name":"gentoo stage 1 tarball","steam_id":76561199077022985,"connected_time":4629000000000,"state":"active","ping":51},{"user_id":356,"name":"Cantro","steam_id":76561199026052361,"connected_time":1079000000000,"state":"active","ping":74},{"user_id":378,"name":"onixed766","steam_id":76561198995478547,"connected_time":290000000000,"state":"active","ping":71},{"user_id":359,"name":"collateralaoe","steam_id":76561198297151242,"connected_time":983000000000,"state":"active","ping":49},{"user_id":361,"name":"VampireSunflower","steam_id":76561199007012355,"connected_time":885000000000,"state":"active","ping":54},{"user_id":362,"name":"koffei","steam_id":76561198065683178,"connected_time":845000000000,"state":"active","ping":55},{"user_id":380,"name":"kinimon","steam_id":76561198178453270,"connected_time":133000000000,"state":"active","ping":34},{"user_id":341,"name":"Plep","steam_id":76561198840259819,"connected_time":2239000000000,"state":"active","ping":59},{"user_id":381,"name":"Milk","steam_id":76561198125876588,"connected_time":34000000000,"state":"active","ping":38},{"user_id":355,"name":"Enda","steam_id":76561198202980164,"connected_time":1190000000000,"state":"active","ping":87},{"user_id":340,"name":"Dezalt","steam_id":76561198154866092,"connected_time":2428000000000,"state":"active","ping":78},{"user_id":364,"name":"Moe Swanson","steam_id":76561198120035423,"connected_time":820000000000,"state":"active","ping":48},{"user_id":382,"name":"Ellipsis","steam_id":76561198236630276,"connected_time":29000000000,"state":"active","ping":39},{"user_id":365,"name":"mary","steam_id":76561198014828037,"connected_time":768000000000,"state":"active","ping":51},{"user_id":379,"name":"useless","steam_id":76561198842020955,"connected_time":232000000000,"state":"active","ping":73},{"user_id":367,"name":"Chance","steam_id":76561198076530208,"connected_time":718000000000,"state":"active","ping":44},{"user_id":333,"name":"Rez","steam_id":76561198410598772,"connected_time":2938000000000,"state":"active","ping":44},{"user_id":368,"name":"Mirru","steam_id":76561198078247594,"connected_time":675000000000,"state":"active","ping":91},{"user_id":374,"name":"cisgender clown","steam_id":76561199469909295,"connected_time":553000000000,"state":"active","ping":71},{"user_id":370,"name":"cov (flick's nephew)","steam_id":76561198328047855,"connected_time":661000000000,"state":"active","ping":90},{"user_id":375,"name":"Swiss_Nostalgia","steam_id":76561199159896259,"connected_time":523000000000,"state":"active","ping":66},{"user_id":372,"name":"mick","steam_id":76561199473954060,"connected_time":629000000000,"state":"active","ping":91},{"user_id":373,"name":"theodorc68","steam_id":76561199250592158,"connected_time":604000000000,"state":"active","ping":75}]},{"server_id":21,"name":"Uncletopia | London | 5 | All Maps","name_short":"lon-5","host":"lon-1.uk.uncletopia.com","port":27055,"enabled":true,"region":"eu","cc":"gb","latitude":51.509865,"longitude":-0.118092,"reserved":0,"last_update":"0001-01-01T00:00:00Z","name_a2s":"Uncletopia | London | 5 | All Maps","protocol":17,"map":"cp_dustbowl","folder":"tf","game":"Team Fortress","app_id":440,"player_count":17,"max_players":24,"Bots":0,"server_type":"Dedicated","server_os":"Linux","password":true,"vac":true,"version":"7961495","steam_id":85568392924742829,"keywords":["cp","nocrits","nodmgspread","uncletopia"],"game_id":440,"stv_port":27056,"stv_name":"Uncletopia | London | 5 | All Maps | STV","players":[{"user_id":247,"name":"Dolcelatte","steam_id":76561198038501770,"connected_time":642000000000,"state":"active","ping":60},{"user_id":228,"name":"lol","steam_id":76561198093458326,"connected_time":2335000000000,"state":"active","ping":60},{"user_id":191,"name":"Gregor Samsa","steam_id":76561198973069177,"connected_time":4336000000000,"state":"active","ping":51},{"user_id":244,"name":"Oak","steam_id":76561198067315672,"connected_time":1327000000000,"state":"active","ping":43},{"user_id":254,"name":"Can't outsmart bullet","steam_id":76561199239168617,"connected_time":23000000000,"state":"active","ping":74},{"user_id":256,"name":"Mother","steam_id":76561198038282957,"connected_time":5000000000,"state":"spawning","ping":77},{"user_id":255,"name":"PhantomReaper","steam_id":76561199058312643,"connected_time":12000000000,"state":"spawning","ping":183},{"user_id":242,"name":"faden","steam_id":76561198172147593,"connected_time":1584000000000,"state":"active","ping":107},{"user_id":239,"name":"Outlaw Sniff Gluer","steam_id":76561198263263692,"connected_time":1614000000000,"state":"active","ping":61},{"user_id":211,"name":"G-Man Follower","steam_id":76561199384234822,"connected_time":3326000000000,"state":"active","ping":71},{"user_id":203,"name":"[FP] Shiken","steam_id":76561198257905663,"connected_time":4095000000000,"state":"active","ping":58},{"user_id":241,"name":"Mozzaza","steam_id":76561198156316111,"connected_time":1596000000000,"state":"spawning","ping":153},{"user_id":188,"name":"engineer gaming","steam_id":76561198976416610,"connected_time":4395000000000,"state":"active","ping":53},{"user_id":245,"name":"‚ô•Neko Girlfriend‚ô•","steam_id":76561198143422702,"connected_time":1153000000000,"state":"active","ping":115},{"user_id":251,"name":"TJ1212","steam_id":76561199013575313,"connected_time":510000000000,"state":"active","ping":74},{"user_id":206,"name":"Beep","steam_id":76561198120500488,"connected_time":3711000000000,"state":"active","ping":54},{"user_id":202,"name":"[FP] Rune","steam_id":76561198030842879,"connected_time":4175000000000,"state":"active","ping":42}]},{"server_id":22,"name":"Uncletopia | London | 6 | All Maps","name_short":"lon-6","host":"lon-1.uk.uncletopia.com","port":27065,"enabled":true,"region":"eu","cc":"gb","latitude":51.509865,"longitude":-0.118092,"reserved":0,"last_update":"0001-01-01T00:00:00Z","name_a2s":"Uncletopia | London | 6 | All Maps","protocol":17,"map":"pl_pier","folder":"tf","game":"Team Fortress","app_id":440,"player_count":24,"max_players":24,"Bots":0,"server_type":"Dedicated","server_os":"Linux","password":true,"vac":true,"version":"7961495","steam_id":85568392924742830,"keywords":["nocrits","nodmgspread","payload","uncletopia"],"game_id":440,"stv_port":27066,"stv_name":"Uncletopia | London | 6 | All Maps | STV","players":[{"user_id":421,"name":"GoatLord1","steam_id":76561198157964544,"connected_time":231000000000,"state":"active","ping":51},{"user_id":415,"name":"mugshot","steam_id":76561198363841749,"connected_time":695000000000,"state":"active","ping":75},{"user_id":353,"name":"angry russian man","steam_id":76561198386712795,"connected_time":3784000000000,"state":"active","ping":56},{"user_id":382,"name":"Deez nuts","steam_id":76561199429562693,"connected_time":2523000000000,"state":"active","ping":76},{"user_id":417,"name":"CherrySnek","steam_id":76561198095222514,"connected_time":635000000000,"state":"active","ping":71},{"user_id":410,"name":"armadillo","steam_id":76561198324656652,"connected_time":1154000000000,"state":"active","ping":47},{"user_id":393,"name":"Jeff","steam_id":76561198074722832,"connected_time":1774000000000,"state":"active","ping":60},{"user_id":411,"name":"Spyoru","steam_id":76561199422949621,"connected_time":980000000000,"state":"active","ping":74},{"user_id":416,"name":"gwenllian1136","steam_id":76561198958303726,"connected_time":688000000000,"state":"active","ping":64},{"user_id":388,"name":"The Bread Bringer","steam_id":76561198264079743,"connected_time":2229000000000,"state":"active","ping":45},{"user_id":419,"name":"Jimmy Poppadopolos","steam_id":76561198044825612,"connected_time":422000000000,"state":"active","ping":54},{"user_id":418,"name":"Pew","steam_id":76561198425388109,"connected_time":602000000000,"state":"active","ping":64},{"user_id":390,"name":"Tavish","steam_id":76561197971486686,"connected_time":2178000000000,"state":"active","ping":49},{"user_id":355,"name":"Worm","steam_id":76561198296497176,"connected_time":3726000000000,"state":"active","ping":52},{"user_id":412,"name":"GopniC","steam_id":76561198015529261,"connected_time":951000000000,"state":"active","ping":59},{"user_id":379,"name":"ROX","steam_id":76561198272289320,"connected_time":2785000000000,"state":"active","ping":61},{"user_id":406,"name":"Jon","steam_id":76561199380849468,"connected_time":1554000000000,"state":"active","ping":71},{"user_id":380,"name":"Warrior555MainsGanon","steam_id":76561198388627786,"connected_time":2723000000000,"state":"active","ping":67},{"user_id":394,"name":"Borat","steam_id":76561198122226417,"connected_time":1772000000000,"state":"active","ping":41},{"user_id":396,"name":"Spurt","steam_id":76561198078523852,"connected_time":1770000000000,"state":"active","ping":50},{"user_id":397,"name":"Sebab","steam_id":76561198122706821,"connected_time":1766000000000,"state":"active","ping":50},{"user_id":408,"name":"gfef beozs","steam_id":76561198295281421,"connected_time":1387000000000,"state":"active","ping":114},{"user_id":413,"name":"Themoonisacheese","steam_id":76561198025594173,"connected_time":935000000000,"state":"active","ping":45},{"user_id":352,"name":"Adam","steam_id":76561198259467867,"connected_time":3817000000000,"state":"active","ping":88}]},{"server_id":40,"name":"Uncletopia | London | 7 | Stopwatch","name_short":"lon-7","host":"lon-1.uk.uncletopia.com","port":27075,"enabled":true,"region":"eu","cc":"gb","latitude":51.509865,"longitude":-0.118092,"reserved":0,"last_update":"0001-01-01T00:00:00Z","name_a2s":"Uncletopia | London | 7 | Stopwatch","protocol":17,"map":"koth_highpass","folder":"tf","game":"Team Fortress","app_id":440,"player_count":0,"max_players":24,"Bots":0,"server_type":"Dedicated","server_os":"Linux","password":true,"vac":true,"version":"7961495","steam_id":85568392924964314,"keywords":["cp","nocrits","nodmgspread","uncletopia"],"game_id":440,"stv_port":27076,"stv_name":"Uncletopia | London | 7 | Stopwatch | STV","players":null},{"server_id":41,"name":"Uncletopia | London | 8 | Community","name_short":"lon-8","host":"lon-1.uk.uncletopia.com","port":27085,"enabled":true,"region":"eu","cc":"gb","latitude":51.509865,"longitude":-0.118092,"reserved":0,"last_update":"0001-01-01T00:00:00Z","name_a2s":"Uncletopia | London | 8 | Community","protocol":17,"map":"workshop/pl_divulgence_b4b.ugc2884808746","folder":"tf","game":"Team Fortress","app_id":440,"player_count":7,"max_players":24,"Bots":0,"server_type":"Dedicated","server_os":"Linux","password":true,"vac":true,"version":"7961495","steam_id":85568392924964315,"keywords":["nocrits","nodmgspread","payload","uncletopia"],"game_id":440,"stv_port":27086,"stv_name":"Uncletopia | London | 8 | Community | STV","players":[{"user_id":8,"name":"TSx* Osa__PL","steam_id":76561198027016799,"connected_time":3716000000000,"state":"active","ping":70},{"user_id":24,"name":"F","steam_id":76561199149462792,"connected_time":1112000000000,"state":"active","ping":63},{"user_id":10,"name":"TSx* Naxer","steam_id":76561198011986779,"connected_time":3686000000000,"state":"active","ping":78},{"user_id":11,"name":"TSx* Dante","steam_id":76561198139309331,"connected_time":3674000000000,"state":"active","ping":69},{"user_id":19,"name":"TSx* {Demon-Angel}","steam_id":76561198151486463,"connected_time":2567000000000,"state":"active","ping":90},{"user_id":28,"name":"GMAN_L@ver_6978 [GMF][Priest]","steam_id":76561199461851882,"connected_time":64000000000,"state":"active","ping":56},{"user_id":26,"name":"Stragnov‚òÜ","steam_id":76561198074702465,"connected_time":916000000000,"state":"active","ping":65}]},{"server_id":300,"name":"Uncletopia | Montr√©al | 1 | One Thousand Uncles","name_short":"mtl-1","host":"mtl-1.ca.uncletopia.com","port":27015,"enabled":true,"region":"us-east","cc":"ca","latitude":45.50889,"longitude":-73.56167,"reserved":0,"last_update":"0001-01-01T00:00:00Z","name_a2s":"","protocol":0,"map":"","folder":"","game":"","app_id":0,"player_count":7,"max_players":0,"Bots":0,"server_type":"","server_os":"","password":false,"vac":false,"version":"","steam_id":0,"keywords":null,"game_id":0,"stv_port":0,"stv_name":"","players":[{"user_id":230,"name":"Yep","steam_id":76561198041437251,"connected_time":576000000000,"state":"active","ping":60},{"user_id":251,"name":"–ù–µ–≥—Ä —é–∂–Ω–µ–µ –°–∞—Ö–∞—Ä\ufffd","steam_id":76561199296042270,"connected_time":20000000000,"state":"spawning","ping":169},{"user_id":231,"name":"Gravel Appreciator","steam_id":76561199274452891,"connected_time":567000000000,"state":"active","ping":90},{"user_id":232,"name":"Lots0","steam_id":76561198043143145,"connected_time":469000000000,"state":"active","ping":91},{"user_id":233,"name":"INFECTED, SPAM'DWICH, lostlapto","steam_id":76561198860068961,"connected_time":446000000000,"state":"active","ping":46},{"user_id":250,"name":"Gaming123","steam_id":76561198801780168,"connected_time":137000000000,"state":"active","ping":57},{"user_id":229,"name":"rb_quick","steam_id":76561197992053677,"connected_time":804000000000,"state":"active","ping":114}]},{"server_id":301,"name":"Uncletopia | Montr√©al | 2 | One Thousand Uncles","name_short":"mtl-2","host":"mtl-1.ca.uncletopia.com","port":27025,"enabled":true,"region":"us-east","cc":"ca","latitude":45.50889,"longitude":-73.56167,"reserved":0,"last_update":"0001-01-01T00:00:00Z","name_a2s":"","protocol":0,"map":"","folder":"","game":"","app_id":0,"player_count":0,"max_players":0,"Bots":0,"server_type":"","server_os":"","password":false,"vac":false,"version":"","steam_id":0,"keywords":null,"game_id":0,"stv_port":0,"stv_name":"","players":null},{"server_id":302,"name":"Uncletopia | Montr√©al | 3 | One Thousand Uncles","name_short":"mtl-3","host":"mtl-1.ca.uncletopia.com","port":27035,"enabled":true,"region":"us-east","cc":"ca","latitude":45.50889,"longitude":-73.56167,"reserved":0,"last_update":"0001-01-01T00:00:00Z","name_a2s":"","protocol":0,"map":"","folder":"","game":"","app_id":0,"player_count":0,"max_players":0,"Bots":0,"server_type":"","server_os":"","password":false,"vac":false,"version":"","steam_id":0,"keywords":null,"game_id":0,"stv_port":0,"stv_name":"","players":null},{"server_id":13,"name":"Uncletopia | New York City | 1 | All Maps","name_short":"nyc-1","host":"nyc-1.us.uncletopia.com","port":27015,"enabled":true,"region":"us-east","cc":"us","latitude":40.73061,"longitude":-73.93524,"reserved":0,"last_update":"0001-01-01T00:00:00Z","name_a2s":"Uncletopia | New York City | 1 | All Maps","protocol":17,"map":"koth_cascade","folder":"tf","game":"Team Fortress","app_id":440,"player_count":0,"max_players":24,"Bots":0,"server_type":"Dedicated","server_os":"Linux","password":true,"vac":true,"version":"7961495","steam_id":85568392924469993,"keywords":["cp","nocrits","nodmgspread","uncletopia"],"game_id":440,"stv_port":27016,"stv_name":"Uncletopia | New York City | 1 | All Maps | STV","players":null},{"server_id":14,"name":"Uncletopia | New York City | 2 | All Maps","name_short":"nyc-2","host":"nyc-1.us.uncletopia.com","port":27025,"enabled":true,"region":"us-east","cc":"us","latitude":40.73061,"longitude":-73.93524,"reserved":0,"last_update":"0001-01-01T00:00:00Z","name_a2s":"Uncletopia | New York City | 2 | All Maps","protocol":17,"map":"pl_rumford_event","folder":"tf","game":"Team Fortress","app_id":440,"player_count":24,"max_players":24,"Bots":0,"server_type":"Dedicated","server_os":"Linux","password":true,"vac":true,"version":"7961495","steam_id":85568392924469994,"keywords":["nocrits","nodmgspread","payload","uncletopia"],"game_id":440,"stv_port":27026,"stv_name":"Uncletopia | New York City | 2 | All Maps | STV","players":[{"user_id":310,"name":"cellogamer","steam_id":76561198016937098,"connected_time":3823000000000,"state":"active","ping":54},{"user_id":86,"name":"Jin","steam_id":76561198119873148,"connected_time":18693000000000,"state":"active","ping":46},{"user_id":330,"name":"BoxOfStaples","steam_id":76561198834773017,"connected_time":1693000000000,"state":"active","ping":96},{"user_id":336,"name":"Top Frog","steam_id":76561198072793446,"connected_time":1270000000000,"state":"active","ping":71},{"user_id":267,"name":"milk","steam_id":76561198813251405,"connected_time":7775000000000,"state":"active","ping":52},{"user_id":339,"name":"2 Percent Milk","steam_id":76561198118529039,"connected_time":1117000000000,"state":"active","ping":46},{"user_id":325,"name":"G4Vi","steam_id":76561197998117895,"connected_time":2417000000000,"state":"active","ping":55},{"user_id":304,"name":"Brawns","steam_id":76561198045190199,"connected_time":4109000000000,"state":"active","ping":58},{"user_id":317,"name":"AstronautPug","steam_id":76561198162372709,"connected_time":3370000000000,"state":"active","ping":75},{"user_id":340,"name":"mattazzzar","steam_id":76561198063068990,"connected_time":1053000000000,"state":"active","ping":69},{"user_id":314,"name":"Delsym Sipper","steam_id":76561198206177593,"connected_time":3765000000000,"state":"active","ping":114},{"user_id":337,"name":"Krispy","steam_id":76561197994783393,"connected_time":1223000000000,"state":"active","ping":59},{"user_id":331,"name":"Werm","steam_id":76561198149601897,"connected_time":1330000000000,"state":"active","ping":57},{"user_id":343,"name":"Hawkborne","steam_id":76561198107249245,"connected_time":650000000000,"state":"active","ping":76},{"user_id":342,"name":"Hot Milk + Big Slappies","steam_id":76561197988989149,"connected_time":977000000000,"state":"active","ping":102},{"user_id":346,"name":"TheFrogGoesMoo","steam_id":76561198841671908,"connected_time":78000000000,"state":"active","ping":44},{"user_id":341,"name":"Sahalanthro","steam_id":76561199073298722,"connected_time":1034000000000,"state":"active","ping":120},{"user_id":303,"name":"Bother","steam_id":76561198336750909,"connected_time":4211000000000,"state":"active","ping":44},{"user_id":291,"name":"Jojo","steam_id":76561198332887086,"connected_time":5570000000000,"state":"active","ping":45},{"user_id":345,"name":"nuts","steam_id":76561198066494938,"connected_time":376000000000,"state":"active","ping":55},{"user_id":290,"name":"Matt","steam_id":76561198182639406,"connected_time":5708000000000,"state":"active","ping":67},{"user_id":338,"name":"Baron von Whoopsie","steam_id":76561197996691013,"connected_time":1135000000000,"state":"active","ping":60},{"user_id":253,"name":"Voracious Puma","steam_id":76561197963621649,"connected_time":9258000000000,"state":"active","ping":88},{"user_id":332,"name":"he suckin on my rick til i mort","steam_id":76561198310711692,"connected_time":1330000000000,"state":"active","ping":166}]},{"server_id":15,"name":"Uncletopia | New York City | 3 | Stopwatch","name_short":"nyc-3","host":"nyc-1.us.uncletopia.com","port":27035,"enabled":true,"region":"us-east","cc":"us","latitude":40.73061,"longitude":-73.93524,"reserved":0,"last_update":"0001-01-01T00:00:00Z","name_a2s":"Uncletopia | New York City | 3 | Stopwatch","protocol":17,"map":"workshop/koth_product_final.ugc454272353","folder":"tf","game":"Team Fortress","app_id":440,"player_count":0,"max_players":24,"Bots":0,"server_type":"Dedicated","server_os":"Linux","password":true,"vac":true,"version":"7961495","steam_id":85568392924742820,"keywords":["cp","nocrits","nodmgspread","uncletopia"],"game_id":440,"stv_port":27036,"stv_name":"Uncletopia | New York City | 3 | Stopwatch | STV","players":null},{"server_id":16,"name":"Uncletopia | New York City | 4 | Community","name_short":"nyc-4","host":"nyc-1.us.uncletopia.com","port":27045,"enabled":true,"region":"us-east","cc":"us","latitude":40.73061,"longitude":-73.93524,"reserved":0,"last_update":"0001-01-01T00:00:00Z","name_a2s":"Uncletopia | New York City | 4 | Community","protocol":17,"map":"workshop/cp_fulgur_rc2a.ugc2068252300","folder":"tf","game":"Team Fortress","app_id":440,"player_count":0,"max_players":24,"Bots":0,"server_type":"Dedicated","server_os":"Linux","password":true,"vac":true,"version":"7961495","steam_id":85568392924742821,"keywords":["cp","nocrits","nodmgspread","uncletopia"],"game_id":440,"stv_port":27046,"stv_name":"Uncletopia | New York City | 4 | Community | STV","players":null},{"server_id":142,"name":"Uncletopia | S√£o Paulo | 1 | All Maps","name_short":"sao-1","host":"sao-1.br.uncletopia.com","port":27015,"enabled":true,"region":"sa","cc":"br","latitude":-23.533773,"longitude":-46.62529,"reserved":0,"last_update":"0001-01-01T00:00:00Z","name_a2s":"Uncletopia | S√£o Paulo | 1 | All Maps","protocol":17,"map":"koth_viaduct","folder":"tf","game":"Team Fortress","app_id":440,"player_count":0,"max_players":24,"Bots":0,"server_type":"Dedicated","server_os":"Linux","password":true,"vac":true,"version":"7961495","steam_id":85568392924469996,"keywords":["cp","nocrits","nodmgspread","uncletopia"],"game_id":440,"stv_port":27016,"stv_name":"Uncletopia | S√£o Paulo | 1 | All Maps | STV","players":null},{"server_id":143,"name":"Uncletopia | S√£o Paulo | 2 | Community","name_short":"sao-2","host":"sao-2.br.uncletopia.com","port":27015,"enabled":true,"region":"sa","cc":"br","latitude":-23.533773,"longitude":-46.62529,"reserved":0,"last_update":"0001-01-01T00:00:00Z","name_a2s":"Uncletopia | S√£o Paulo | 2 | Community","protocol":17,"map":"workshop/cp_snowbase_b21.ugc2081770490","folder":"tf","game":"Team Fortress","app_id":440,"player_count":0,"max_players":24,"Bots":0,"server_type":"Dedicated","server_os":"Linux","password":true,"vac":true,"version":"7961495","steam_id":85568392924485349,"keywords":["cp","nocrits","nodmgspread","uncletopia"],"game_id":440,"stv_port":27016,"stv_name":"Uncletopia | S√£o Paulo | 2 | Community | STV","players":null},{"server_id":7,"name":"Uncletopia | Seattle | 1 | All Maps","name_short":"sea-1","host":"sea-1.us.uncletopia.com","port":27015,"enabled":true,"region":"us-west","cc":"us","latitude":47.608013,"longitude":-122.33517,"reserved":0,"last_update":"0001-01-01T00:00:00Z","name_a2s":"Uncletopia | Seattle | 1 | All Maps","protocol":17,"map":"pl_pier","folder":"tf","game":"Team Fortress","app_id":440,"player_count":24,"max_players":24,"Bots":0,"server_type":"Dedicated","server_os":"Linux","password":true,"vac":true,"version":"7961495","steam_id":85568392924469997,"keywords":["nocrits","nodmgspread","payload","uncletopia"],"game_id":440,"stv_port":27016,"stv_name":"Uncletopia | Seattle | 1 | All Maps | STV","players":[{"user_id":232,"name":"rad killl raccoon","steam_id":76561198980975595,"connected_time":4617000000000,"state":"active","ping":38},{"user_id":235,"name":"hammythegreat #SaveTF2","steam_id":76561198079526946,"connected_time":4213000000000,"state":"active","ping":126},{"user_id":272,"name":"Dimple","steam_id":76561198980324190,"connected_time":1025000000000,"state":"active","ping":55},{"user_id":284,"name":"pyllw","steam_id":76561199094351893,"connected_time":112000000000,"state":"active","ping":47},{"user_id":286,"name":"Wessle T","steam_id":76561198295353875,"connected_time":57000000000,"state":"active","ping":129},{"user_id":279,"name":"Madam Zo-Zo","steam_id":76561198136789464,"connected_time":534000000000,"state":"active","ping":55},{"user_id":285,"name":"Walter White","steam_id":76561199102963294,"connected_time":68000000000,"state":"active","ping":61},{"user_id":274,"name":"Uncle Dang","steam_id":76561198131567365,"connected_time":863000000000,"state":"active","ping":56},{"user_id":245,"name":"MrYadaization","steam_id":76561198050770818,"connected_time":4032000000000,"state":"active","ping":73},{"user_id":268,"name":"ZaniZ","steam_id":76561198161467000,"connected_time":2104000000000,"state":"active","ping":31},{"user_id":240,"name":"Linus Sex Tips","steam_id":76561199217319028,"connected_time":4098000000000,"state":"active","ping":82},{"user_id":269,"name":"Peppy","steam_id":76561198866629645,"connected_time":2040000000000,"state":"active","ping":57},{"user_id":282,"name":"Arkus","steam_id":76561199092478198,"connected_time":284000000000,"state":"active","ping":52},{"user_id":254,"name":"LavenderSys","steam_id":76561198289106015,"connected_time":3450000000000,"state":"active","ping":47},{"user_id":271,"name":"gamer_scourge","steam_id":76561198973306314,"connected_time":1152000000000,"state":"active","ping":74},{"user_id":261,"name":"Iron Fox (Update-sized)","steam_id":76561198326520372,"connected_time":2865000000000,"state":"active","ping":137},{"user_id":281,"name":"BasedGod","steam_id":76561198061177973,"connected_time":357000000000,"state":"active","ping":61},{"user_id":248,"name":"Mr. Cheesey","steam_id":76561198153462183,"connected_time":3892000000000,"state":"active","ping":90},{"user_id":112,"name":"Eden","steam_id":76561198081284664,"connected_time":13717000000000,"state":"active","ping":87},{"user_id":270,"name":"Havi","steam_id":76561198197832829,"connected_time":1752000000000,"state":"active","ping":55},{"user_id":273,"name":"Chimp Peen's Revunge","steam_id":76561198165778514,"connected_time":926000000000,"state":"active","ping":86},{"user_id":277,"name":"danthediamondminecraft","steam_id":76561198870728607,"connected_time":761000000000,"state":"active","ping":119},{"user_id":276,"name":"Can of Oranges","steam_id":76561199121813529,"connected_time":849000000000,"state":"active","ping":47},{"user_id":280,"name":"Rally Racer","steam_id":76561198044613715,"connected_time":533000000000,"state":"active","ping":51}]},{"server_id":119,"name":"Uncletopia | Seattle | 2 | All Maps","name_short":"sea-2","host":"sea-1.us.uncletopia.com","port":27025,"enabled":true,"region":"us-west","cc":"us","latitude":47.608013,"longitude":-122.33517,"reserved":0,"last_update":"0001-01-01T00:00:00Z","name_a2s":"Uncletopia | Seattle | 2 | All Maps","protocol":17,"map":"koth_cascade","folder":"tf","game":"Team Fortress","app_id":440,"player_count":0,"max_players":24,"Bots":0,"server_type":"Dedicated","server_os":"Linux","password":true,"vac":true,"version":"7961495","steam_id":85568392924469998,"keywords":["cp","nocrits","nodmgspread","uncletopia"],"game_id":440,"stv_port":27026,"stv_name":"Uncletopia | Seattle | 2 | All Maps | STV","players":null},{"server_id":406,"name":"Uncletopia | Seattle | 3 | Stopwatch","name_short":"sea-3","host":"sea-1.us.uncletopia.com","port":27035,"enabled":true,"region":"us-west","cc":"us","latitude":47.608013,"longitude":-122.33517,"reserved":0,"last_update":"0001-01-01T00:00:00Z","name_a2s":"Uncletopia | Seattle | 3 | Stopwatch","protocol":17,"map":"workshop/cp_reckoner_rc6.ugc674719999","folder":"tf","game":"Team Fortress","app_id":440,"player_count":4,"max_players":24,"Bots":0,"server_type":"Dedicated","server_os":"Linux","password":true,"vac":true,"version":"7961495","steam_id":85568392924515217,"keywords":["cp","nocrits","nodmgspread","uncletopia"],"game_id":440,"stv_port":27036,"stv_name":"Uncletopia | Seattle | 3 | Stopwatch | STV","players":[{"user_id":4,"name":"cool beans","steam_id":76561198321591685,"connected_time":2063000000000,"state":"active","ping":70},{"user_id":17,"name":"Cosmoose","steam_id":76561198120336284,"connected_time":416000000000,"state":"active","ping":92},{"user_id":10,"name":"Fresh Lychee","steam_id":76561198045399559,"connected_time":1390000000000,"state":"active","ping":97},{"user_id":9,"name":"Dr,Dan64","steam_id":76561199013363718,"connected_time":1626000000000,"state":"active","ping":97}]},{"server_id":17,"name":"Uncletopia | San Francisco | 1 | All Maps","name_short":"sfo-1","host":"sfo-1.us.uncletopia.com","port":27015,"enabled":true,"region":"us-west","cc":"us","latitude":37.77397,"longitude":-122.4313,"reserved":0,"last_update":"0001-01-01T00:00:00Z","name_a2s":"Uncletopia | San Francisco | 1 | All Maps","protocol":17,"map":"koth_cascade","folder":"tf","game":"Team Fortress","app_id":440,"player_count":0,"max_players":24,"Bots":0,"server_type":"Dedicated","server_os":"Linux","password":true,"vac":true,"version":"7961495","steam_id":85568392924469999,"keywords":["cp","nocrits","nodmgspread","uncletopia"],"game_id":440,"stv_port":27016,"stv_name":"Uncletopia | San Francisco | 1 | All Maps | STV","players":null},{"server_id":18,"name":"Uncletopia | San Francisco | 2 | All Maps","name_short":"sfo-2","host":"sfo-1.us.uncletopia.com","port":27025,"enabled":true,"region":"us-west","cc":"us","latitude":37.77397,"longitude":-122.4313,"reserved":0,"last_update":"0001-01-01T00:00:00Z","name_a2s":"Uncletopia | San Francisco | 2 | All Maps","protocol":17,"map":"koth_cascade","folder":"tf","game":"Team Fortress","app_id":440,"player_count":0,"max_players":24,"Bots":0,"server_type":"Dedicated","server_os":"Linux","password":true,"vac":true,"version":"7961495","steam_id":85568392924470000,"keywords":["cp","nocrits","nodmgspread","uncletopia"],"game_id":440,"stv_port":27026,"stv_name":"Uncletopia | San Francisco | 2 | All Maps | STV","players":null},{"server_id":19,"name":"Uncletopia | San Francisco | 3 | Stopwatch","name_short":"sfo-3","host":"sfo-1.us.uncletopia.com","port":27035,"enabled":true,"region":"us-west","cc":"us","latitude":37.77397,"longitude":-122.4313,"reserved":0,"last_update":"0001-01-01T00:00:00Z","name_a2s":"Uncletopia | San Francisco | 3 | Stopwatch","protocol":17,"map":"workshop/koth_clearcut_b15.ugc2107050255","folder":"tf","game":"Team Fortress","app_id":440,"player_count":0,"max_players":24,"Bots":0,"server_type":"Dedicated","server_os":"Linux","password":true,"vac":true,"version":"7961495","steam_id":85568392924742824,"keywords":["cp","nocrits","nodmgspread","uncletopia"],"game_id":440,"stv_port":27036,"stv_name":"Uncletopia | San Francisco | 3 | Stopwatch | STV","players":null},{"server_id":20,"name":"Uncletopia | San Francisco | 4 | Community","name_short":"sfo-4","host":"sfo-1.us.uncletopia.com","port":27045,"enabled":true,"region":"us-west","cc":"us","latitude":37.77397,"longitude":-122.4313,"reserved":0,"last_update":"0001-01-01T00:00:00Z","name_a2s":"Uncletopia | San Francisco | 4 | Community","protocol":17,"map":"pl_pier","folder":"tf","game":"Team Fortress","app_id":440,"player_count":0,"max_players":24,"Bots":0,"server_type":"Dedicated","server_os":"Linux","password":true,"vac":true,"version":"7961495","steam_id":85568392924742826,"keywords":["nocrits","nodmgspread","payload","uncletopia"],"game_id":440,"stv_port":27046,"stv_name":"Uncletopia | San Francisco | 4 | Community | STV","players":null},{"server_id":141,"name":"Uncletopia | Sydney | 1 | All Maps","name_short":"syd-1","host":"syd-1.au.uncletopia.com","port":27015,"enabled":true,"region":"au","cc":"au","latitude":-33.865143,"longitude":151.2099,"reserved":0,"last_update":"0001-01-01T00:00:00Z","name_a2s":"Uncletopia | Sydney | 1 | All Maps","protocol":17,"map":"koth_viaduct","folder":"tf","game":"Team Fortress","app_id":440,"player_count":0,"max_players":24,"Bots":0,"server_type":"Dedicated","server_os":"Linux","password":true,"vac":true,"version":"7961495","steam_id":85568392924470001,"keywords":["cp","nocrits","nodmgspread","uncletopia"],"game_id":440,"stv_port":27016,"stv_name":"Uncletopia | Sydney | 1 | All Maps | STV","players":null},{"server_id":123,"name":"Uncletopia | Sydney | 2 | All Maps","name_short":"syd-2","host":"syd-1.au.uncletopia.com","port":27025,"enabled":true,"region":"au","cc":"au","latitude":-33.865143,"longitude":151.2099,"reserved":0,"last_update":"0001-01-01T00:00:00Z","name_a2s":"Uncletopia | Sydney | 2 | All Maps","protocol":17,"map":"pl_pier","folder":"tf","game":"Team Fortress","app_id":440,"player_count":0,"max_players":24,"Bots":0,"server_type":"Dedicated","server_os":"Linux","password":true,"vac":true,"version":"7961495","steam_id":85568392924470002,"keywords":["nocrits","nodmgspread","payload","uncletopia"],"game_id":440,"stv_port":27026,"stv_name":"Uncletopia | Sydney | 2 | All Maps | STV","players":null},{"server_id":395,"name":"Uncletopia | Sydney | 3 | All Maps","name_short":"syd-3","host":"syd-1.au.uncletopia.com","port":27035,"enabled":true,"region":"au","cc":"au","latitude":-33.865143,"longitude":151.2099,"reserved":0,"last_update":"0001-01-01T00:00:00Z","name_a2s":"Uncletopia | Sydney | 3 | All Maps","protocol":17,"map":"pl_pier","folder":"tf","game":"Team Fortress","app_id":440,"player_count":0,"max_players":24,"Bots":0,"server_type":"Dedicated","server_os":"Linux","password":true,"vac":true,"version":"7961495","steam_id":85568392925194467,"keywords":["nocrits","nodmgspread","payload","uncletopia"],"game_id":440,"stv_port":27036,"stv_name":"Uncletopia | Sydney | 3 | All Maps | STV","players":null},{"server_id":396,"name":"Uncletopia | Sydney | 4 | All Maps","name_short":"syd-4","host":"syd-1.au.uncletopia.com","port":27045,"enabled":true,"region":"au","cc":"au","latitude":-33.865143,"longitude":151.2099,"reserved":0,"last_update":"0001-01-01T00:00:00Z","name_a2s":"Uncletopia | Sydney | 4 | All Maps","protocol":17,"map":"koth_lakeside_final","folder":"tf","game":"Team Fortress","app_id":440,"player_count":0,"max_players":24,"Bots":0,"server_type":"Dedicated","server_os":"Linux","password":true,"vac":true,"version":"7961495","steam_id":85568392925397958,"keywords":["cp","nocrits","nodmgspread","uncletopia"],"game_id":440,"stv_port":27046,"stv_name":"Uncletopia | Sydney | 4 | All Maps | STV","players":null},{"server_id":58,"name":"Uncletopia | Sydney | 5 | Stopwatch","name_short":"syd-5","host":"syd-1.au.uncletopia.com","port":27055,"enabled":true,"region":"au","cc":"au","latitude":-33.865143,"longitude":151.2099,"reserved":0,"last_update":"0001-01-01T00:00:00Z","name_a2s":"Uncletopia | Sydney | 5 | Stopwatch","protocol":17,"map":"workshop/pl_badwater_pro_v12.ugc2142942074","folder":"tf","game":"Team Fortress","app_id":440,"player_count":0,"max_players":24,"Bots":0,"server_type":"Dedicated","server_os":"Linux","password":true,"vac":true,"version":"7961495","steam_id":85568392925397959,"keywords":["nocrits","nodmgspread","payload","uncletopia"],"game_id":440,"stv_port":27056,"stv_name":"Uncletopia | Sydney | 5 | Stopwatch | STV","players":null},{"server_id":59,"name":"Uncletopia | Sydney | 6 | Community","name_short":"syd-6","host":"syd-1.au.uncletopia.com","port":27065,"enabled":true,"region":"au","cc":"au","latitude":-33.865143,"longitude":151.2099,"reserved":0,"last_update":"0001-01-01T00:00:00Z","name_a2s":"Uncletopia | Sydney | 6 | Community","protocol":17,"map":"workshop/pl_boundary_final1.ugc456799153","folder":"tf","game":"Team Fortress","app_id":440,"player_count":0,"max_players":24,"Bots":0,"server_type":"Dedicated","server_os":"Linux","password":true,"vac":true,"version":"7961495","steam_id":85568392925397960,"keywords":["nocrits","nodmgspread","payload","uncletopia"],"game_id":440,"stv_port":27066,"stv_name":"Uncletopia | Sydney | 6 | Community | STV","players":null},{"server_id":49,"name":"Uncletopia | Warsaw | 1 | One Thousand Uncles","name_short":"waw-1","host":"waw-1.pl.uncletopia.com","port":27015,"enabled":true,"region":"eu","cc":"pl","latitude":52.2297,"longitude":21.017532,"reserved":0,"last_update":"0001-01-01T00:00:00Z","name_a2s":"Uncletopia | Warsaw | 1 | One Thousand Uncles","protocol":17,"map":"cp_mossrock","folder":"tf","game":"Team Fortress","app_id":440,"player_count":29,"max_players":32,"Bots":16,"server_type":"Dedicated","server_os":"Linux","password":true,"vac":true,"version":"7961495","steam_id":85568392925397850,"keywords":["alltalk","bots","cp","danepve","increased_maxplayers","nocrits","norespawntime","uncletopia"],"game_id":440,"stv_port":0,"stv_name":"","players":[{"user_id":711,"name":"MrCalmL.I","steam_id":76561198966598137,"connected_time":355000000000,"state":"active","ping":153},{"user_id":714,"name":"Ruygun","steam_id":76561198294755098,"connected_time":158000000000,"state":"active","ping":78},{"user_id":678,"name":"Sigma","steam_id":76561198086510020,"connected_time":2444000000000,"state":"active","ping":158},{"user_id":708,"name":"chundora","steam_id":76561199406659713,"connected_time":834000000000,"state":"active","ping":47},{"user_id":710,"name":"Womanticore","steam_id":76561199235582031,"connected_time":670000000000,"state":"active","ping":262},{"user_id":709,"name":"demo flower","steam_id":76561199401272759,"connected_time":796000000000,"state":"active","ping":71},{"user_id":677,"name":"[Mann Co]Puzzle Games","steam_id":76561198022078318,"connected_time":2600000000000,"state":"active","ping":76},{"user_id":673,"name":"PuPuruPuruPumPu","steam_id":76561198391950490,"connected_time":3252000000000,"state":"active","ping":99},{"user_id":579,"name":"MetalSight","steam_id":76561198257781711,"connected_time":6653000000000,"state":"active","ping":44},{"user_id":713,"name":"nelipa84","steam_id":76561199259397833,"connected_time":221000000000,"state":"active","ping":42},{"user_id":707,"name":"dimavokijbum","steam_id":76561199235847588,"connected_time":929000000000,"state":"active","ping":49},{"user_id":653,"name":"SeaDeez","steam_id":76561198171637283,"connected_time":3471000000000,"state":"active","ping":195},{"user_id":688,"name":"sussygamer2023","steam_id":76561199473267237,"connected_time":1551000000000,"state":"active","ping":53}]},{"server_id":50,"name":"Uncletopia | Warsaw | 2 | One Thousand Uncles","name_short":"waw-2","host":"waw-1.pl.uncletopia.com","port":27025,"enabled":true,"region":"eu","cc":"pl","latitude":52.2297,"longitude":21.017532,"reserved":0,"last_update":"0001-01-01T00:00:00Z","name_a2s":"Uncletopia | Warsaw | 2 | One Thousand Uncles","protocol":17,"map":"pl_goldrush","folder":"tf","game":"Team Fortress","app_id":440,"player_count":25,"max_players":32,"Bots":16,"server_type":"Dedicated","server_os":"Linux","password":true,"vac":true,"version":"7961495","steam_id":85568392925397851,"keywords":["alltalk","bots","danepve","increased_maxplayers","nocrits","norespawntime","payload","uncletopia"],"game_id":440,"stv_port":0,"stv_name":"","players":[{"user_id":257,"name":"Demoman","steam_id":76561198343960221,"connected_time":2020000000000,"state":"active","ping":108},{"user_id":248,"name":"Ukr–•–ª—î–±","steam_id":76561198388896707,"connected_time":3247000000000,"state":"active","ping":76},{"user_id":249,"name":"Aklaster[NOOB]","steam_id":76561198977982289,"connected_time":3244000000000,"state":"active","ping":40},{"user_id":267,"name":"henrique_best","steam_id":76561199317304919,"connected_time":154000000000,"state":"active","ping":99},{"user_id":250,"name":"cheesecake hunter","steam_id":76561198097769060,"connected_time":3166000000000,"state":"active","ping":75},{"user_id":261,"name":"Riky95","steam_id":76561198095289436,"connected_time":1527000000000,"state":"active","ping":65},{"user_id":263,"name":"‚òõ‚òöFrigot‚òõ‚òö #SAVETF2","steam_id":76561198113296687,"connected_time":1149000000000,"state":"active","ping":78},{"user_id":265,"name":"piping hot","steam_id":76561198011692496,"connected_time":822000000000,"state":"active","ping":68},{"user_id":264,"name":"Furious_soldier","steam_id":76561199073825442,"connected_time":1141000000000,"state":"active","ping":64}]},{"server_id":51,"name":"Uncletopia | Warsaw | 3 | All Maps","name_short":"waw-3","host":"waw-1.pl.uncletopia.com","port":27035,"enabled":true,"region":"eu","cc":"pl","latitude":52.2297,"longitude":21.017532,"reserved":0,"last_update":"0001-01-01T00:00:00Z","name_a2s":"Uncletopia | Warsaw | 3 | All Maps","protocol":17,"map":"pl_upward","folder":"tf","game":"Team Fortress","app_id":440,"player_count":5,"max_players":24,"Bots":0,"server_type":"Dedicated","server_os":"Linux","password":true,"vac":true,"version":"7961495","steam_id":85568392925397852,"keywords":["nocrits","nodmgspread","payload","uncletopia"],"game_id":440,"stv_port":27036,"stv_name":"Uncletopia | Warsaw | 3 | All Maps | STV","players":[{"user_id":40,"name":"Pablo","steam_id":76561198129035532,"connected_time":2093000000000,"state":"active","ping":75},{"user_id":41,"name":"womanizer","steam_id":76561198127480138,"connected_time":2086000000000,"state":"active","ping":78},{"user_id":42,"name":"AH","steam_id":76561198089886364,"connected_time":2018000000000,"state":"active","ping":88},{"user_id":43,"name":"El Racismus","steam_id":76561198063131706,"connected_time":1993000000000,"state":"active","ping":101},{"user_id":49,"name":"The Knight","steam_id":76561198055320626,"connected_time":314000000000,"state":"active","ping":69}]},{"server_id":52,"name":"Uncletopia | Warsaw | 4 | All Maps","name_short":"waw-4","host":"waw-1.pl.uncletopia.com","port":27045,"enabled":true,"region":"eu","cc":"pl","latitude":52.2297,"longitude":21.017532,"reserved":0,"last_update":"0001-01-01T00:00:00Z","name_a2s":"Uncletopia | Warsaw | 4 | All Maps","protocol":17,"map":"cp_altitude","folder":"tf","game":"Team Fortress","app_id":440,"player_count":2,"max_players":24,"Bots":0,"server_type":"Dedicated","server_os":"Linux","password":true,"vac":true,"version":"7961495","steam_id":85568392925397853,"keywords":["cp","nocrits","nodmgspread","uncletopia"],"game_id":440,"stv_port":27046,"stv_name":"Uncletopia | Warsaw | 4 | All Maps | STV","players":[{"user_id":30,"name":"Metin_erd","steam_id":76561199134448234,"connected_time":441000000000,"state":"active","ping":121},{"user_id":31,"name":"szarycieni","steam_id":76561199472437851,"connected_time":322000000000,"state":"active","ping":36}]},{"server_id":53,"name":"Uncletopia | Warsaw | 5 | Stopwatch","name_short":"waw-5","host":"waw-1.pl.uncletopia.com","port":27055,"enabled":true,"region":"eu","cc":"pl","latitude":52.2297,"longitude":21.017532,"reserved":0,"last_update":"0001-01-01T00:00:00Z","name_a2s":"Uncletopia | Warsaw | 5 | Stopwatch","protocol":17,"map":"workshop/koth_bagel_rc6.ugc2514036946","folder":"tf","game":"Team Fortress","app_id":440,"player_count":0,"max_players":24,"Bots":0,"server_type":"Dedicated","server_os":"Linux","password":true,"vac":true,"version":"7961495","steam_id":85568392925397854,"keywords":["cp","nocrits","nodmgspread","uncletopia"],"game_id":440,"stv_port":27056,"stv_name":"Uncletopia | Warsaw | 5 | Stopwatch | STV","players":null},{"server_id":54,"name":"Uncletopia | Warsaw | 6 | Community","name_short":"waw-6","host":"waw-1.pl.uncletopia.com","port":27065,"enabled":true,"region":"eu","cc":"pl","latitude":52.2297,"longitude":21.017532,"reserved":0,"last_update":"0001-01-01T00:00:00Z","name_a2s":"Uncletopia | Warsaw | 6 | Community","protocol":17,"map":"workshop/cp_mannbase_rc2a.ugc1900737467","folder":"tf","game":"Team Fortress","app_id":440,"player_count":0,"max_players":24,"Bots":0,"server_type":"Dedicated","server_os":"Linux","password":true,"vac":true,"version":"7961495","steam_id":85568392925397856,"keywords":["cp","nocrits","nodmgspread","uncletopia"],"game_id":440,"stv_port":27066,"stv_name":"Uncletopia | Warsaw | 6 | Community | STV","players":null}]}