{"status":true,"message":"","result":[{"server_id":9,"name":"Uncletopia | Atlanta | 1 | All Maps","name_short":"atl-1","host":"atl-1.us.uncletopia.com","port":27015,"enabled":true,"region":"us-east","cc":"us","latitude":33.753746,"longitude":-84.38633,"reserved":0,"last_update":"0001-01-01T00:00:00Z","name_a2s":"Uncletopia | Atlanta | 1 | All Maps","protocol":17,"map":"cp_mossrock","folder":"tf","game":"Team Fortress","app_id":440,"player_count":15,"max_players":24,"Bots":0,"server_type":"Dedicated","server_os":"Linux","password":true,"vac":true,"version":"7882260","steam_id":85568392924469982,"keywords":["cp","nocrits","nodmgspread","uncletopia"],"game_id":440,"stv_port":27016,"stv_name":"Uncletopia | Atlanta | 1 | All Maps | STV","players":[{"user_id":656,"name":"starvin like marvin","steam_id":76561198347286009,"connected_time":1600000000000,"state":"active","ping":65},{"user_id":618,"name":"TheRealMud","steam_id":76561198138312993,"connected_time":4075000000000,"state":"active","ping":85},{"user_id":619,"name":"Onyx","steam_id":76561198275349640,"connected_time":3880000000000,"state":"active","ping":71},{"user_id":671,"name":"A Literal Goblin","steam_id":76561199122306809,"connected_time":256000000000,"state":"active","ping":53},{"user_id":672,"name":"Panda McSpycrab","steam_id":76561198163545310,"connected_time":224000000000,"state":"active","ping":75},{"user_id":664,"name":"king arthur the black","steam_id":76561199039152146,"connected_time":953000000000,"state":"active","ping":90},{"user_id":644,"name":"thenick80","steam_id":76561198369155607,"connected_time":2121000000000,"state":"active","ping":88},{"user_id":673,"name":"Scaredy Cat","steam_id":76561198246037452,"connected_time":45000000000,"state":"active","ping":82},{"user_id":638,"name":"Swiggs","steam_id":76561198135015291,"connected_time":2416000000000,"state":"active","ping":83},{"user_id":670,"name":"BattleWriter","steam_id":76561198059618706,"connected_time":462000000000,"state":"active","ping":63},{"user_id":666,"name":"bron jame","steam_id":76561198202195792,"connected_time":918000000000,"state":"active","ping":72},{"user_id":661,"name":"\u003c blank \u003e","steam_id":76561198012566503,"connected_time":1381000000000,"state":"active","ping":92},{"user_id":650,"name":"catgirl giantess in heat","steam_id":76561198439042583,"connected_time":1756000000000,"state":"active","ping":77},{"user_id":653,"name":"Yoloisnotded","steam_id":76561198995043589,"connected_time":1719000000000,"state":"active","ping":82},{"user_id":667,"name":"Father Jon","steam_id":76561198324730919,"connected_time":910000000000,"state":"active","ping":84}]},{"server_id":104,"name":"Uncletopia | Atlanta | 2 | All Maps","name_short":"atl-2","host":"atl-1.us.uncletopia.com","port":27025,"enabled":true,"region":"us-east","cc":"us","latitude":33.753746,"longitude":-84.38633,"reserved":0,"last_update":"0001-01-01T00:00:00Z","name_a2s":"Uncletopia | Atlanta | 2 | All Maps","protocol":17,"map":"koth_viaduct","folder":"tf","game":"Team Fortress","app_id":440,"player_count":7,"max_players":24,"Bots":0,"server_type":"Dedicated","server_os":"Linux","password":true,"vac":true,"version":"7882260","steam_id":85568392924469983,"keywords":["cp","nocrits","nodmgspread","uncletopia"],"game_id":440,"stv_port":27026,"stv_name":"Uncletopia | Atlanta | 2 | All Maps | STV","players":[{"user_id":912,"name":"PaD_Ding","steam_id":76561198831202965,"connected_time":1587000000000,"state":"active","ping":144},{"user_id":922,"name":"medd","steam_id":76561198078238722,"connected_time":623000000000,"state":"active","ping":94},{"user_id":923,"name":"ratboy supreme","steam_id":76561198340302508,"connected_time":586000000000,"state":"active","ping":60},{"user_id":920,"name":"Iron Argus","steam_id":76561198181088245,"connected_time":759000000000,"state":"active","ping":86},{"user_id":924,"name":"Sirgioblayde","steam_id":76561198059445113,"connected_time":568000000000,"state":"active","ping":79},{"user_id":925,"name":"noodlebox","steam_id":76561197980262245,"connected_time":550000000000,"state":"active","ping":75},{"user_id":907,"name":"goopshit","steam_id":76561198126489501,"connected_time":2317000000000,"state":"active","ping":60}]},{"server_id":400,"name":"Uncletopia | Atlanta | 3 | Community","name_short":"atl-3","host":"atl-1.us.uncletopia.com","port":27035,"enabled":true,"region":"us-east","cc":"us","latitude":33.753746,"longitude":-84.38633,"reserved":0,"last_update":"0001-01-01T00:00:00Z","name_a2s":"Uncletopia | Atlanta | 3 | Community","protocol":17,"map":"workshop/cp_indulge.ugc528106646","folder":"tf","game":"Team Fortress","app_id":440,"player_count":0,"max_players":24,"Bots":0,"server_type":"Dedicated","server_os":"Linux","password":true,"vac":true,"version":"7882260","steam_id":85568392924515187,"keywords":["cp","nocrits","nodmgspread","uncletopia"],"game_id":440,"stv_port":27036,"stv_name":"Uncletopia | Atlanta | 3 | Community | STV","players":null},{"server_id":401,"name":"Uncletopia | Atlanta | 4 | No Payload","name_short":"atl-4","host":"atl-1.us.uncletopia.com","port":27045,"enabled":true,"region":"us-east","cc":"us","latitude":33.753746,"longitude":-84.38633,"reserved":0,"last_update":"0001-01-01T00:00:00Z","name_a2s":"","protocol":0,"map":"","folder":"","game":"","app_id":0,"player_count":0,"max_players":0,"Bots":0,"server_type":"","server_os":"","password":false,"vac":false,"version":"","steam_id":0,"keywords":null,"game_id":0,"stv_port":0,"stv_name":"","players":null},{"server_id":2,"name":"Uncletopia | Chicago | 1 | All Maps","name_short":"chi-1","host":"chi-1.us.uncletopia.com","port":27015,"enabled":true,"region":"us-central","cc":"us","latitude":41.881832,"longitude":-87.62318,"reserved":0,"last_update":"0001-01-01T00:00:00Z","name_a2s":"Uncletopia | Chicago | 1 | All Maps","protocol":17,"map":"ctf_2fort","folder":"tf","game":"Team Fortress","app_id":440,"player_count":23,"max_players":24,"Bots":0,"server_type":"Dedicated","server_os":"Linux","password":true,"vac":true,"version":"7882260","steam_id":85568392924469984,"keywords":["ctf","nocrits","nodmgspread","uncletopia"],"game_id":440,"stv_port":27016,"stv_name":"Uncletopia | Chicago | 1 | All Maps | STV","players":[{"user_id":889,"name":"Project_Counter","steam_id":76561198152786076,"connected_time":1035000000000,"state":"active","ping":70},{"user_id":891,"name":"bee","steam_id":76561198025553902,"connected_time":753000000000,"state":"active","ping":44},{"user_id":856,"name":"hi","steam_id":76561198809577048,"connected_time":2473000000000,"state":"active","ping":93},{"user_id":880,"name":"DMJanitor","steam_id":76561198058929753,"connected_time":1374000000000,"state":"active","ping":103},{"user_id":866,"name":"FlarbaDoodle","steam_id":76561198176879990,"connected_time":1732000000000,"state":"active","ping":56},{"user_id":867,"name":"anna","steam_id":76561199100831175,"connected_time":1724000000000,"state":"active","ping":67},{"user_id":902,"name":"KentYardAssociate","steam_id":76561198290499758,"connected_time":80000000000,"state":"active","ping":69},{"user_id":894,"name":"Praise_to_the_Flashlight!","steam_id":76561199001728789,"connected_time":451000000000,"state":"active","ping":62},{"user_id":895,"name":"g8rade","steam_id":76561198070593964,"connected_time":437000000000,"state":"active","ping":75},{"user_id":896,"name":"Devorous","steam_id":76561198098418776,"connected_time":436000000000,"state":"active","ping":82},{"user_id":888,"name":"SirKnight5067","steam_id":76561198377306047,"connected_time":1186000000000,"state":"active","ping":64},{"user_id":881,"name":"chem⭑","steam_id":76561198972045654,"connected_time":1357000000000,"state":"active","ping":86},{"user_id":904,"name":"OsoNervous","steam_id":76561198335305893,"connected_time":2000000000,"state":"spawning","ping":45},{"user_id":882,"name":"Gloop","steam_id":76561198063925499,"connected_time":1355000000000,"state":"active","ping":62},{"user_id":892,"name":"[S]Mr. X [No Monitor]","steam_id":76561197963746035,"connected_time":578000000000,"state":"active","ping":133},{"user_id":897,"name":"NEЯO","steam_id":76561197965450216,"connected_time":391000000000,"state":"active","ping":89},{"user_id":883,"name":"salamandood","steam_id":76561198028493074,"connected_time":1324000000000,"state":"active","ping":126},{"user_id":884,"name":"Bloop","steam_id":76561198253563271,"connected_time":1320000000000,"state":"active","ping":45},{"user_id":903,"name":"adiosToreador","steam_id":76561198297961039,"connected_time":72000000000,"state":"active","ping":54},{"user_id":898,"name":"Neo Kojiro","steam_id":76561198000967076,"connected_time":283000000000,"state":"active","ping":82},{"user_id":893,"name":"Banana Dispenser","steam_id":76561198446549451,"connected_time":536000000000,"state":"active","ping":86},{"user_id":901,"name":"Flamango7","steam_id":76561198131892406,"connected_time":188000000000,"state":"active","ping":82},{"user_id":815,"name":"Yoru","steam_id":76561198119698950,"connected_time":5206000000000,"state":"active","ping":115}]},{"server_id":106,"name":"Uncletopia | Chicago | 2 | All Maps","name_short":"chi-2","host":"chi-1.us.uncletopia.com","port":27025,"enabled":true,"region":"us-central","cc":"us","latitude":41.881832,"longitude":-87.62318,"reserved":0,"last_update":"0001-01-01T00:00:00Z","name_a2s":"Uncletopia | Chicago | 2 | All Maps","protocol":17,"map":"koth_highpass","folder":"tf","game":"Team Fortress","app_id":440,"player_count":15,"max_players":24,"Bots":0,"server_type":"Dedicated","server_os":"Linux","password":true,"vac":true,"version":"7882260","steam_id":85568392924469985,"keywords":["cp","nocrits","nodmgspread","uncletopia"],"game_id":440,"stv_port":27026,"stv_name":"Uncletopia | Chicago | 2 | All Maps | STV","players":[{"user_id":840,"name":"[DEEP] Danmar33","steam_id":76561198056453091,"connected_time":1045000000000,"state":"active","ping":75},{"user_id":842,"name":"Codo Sapien","steam_id":76561198014206810,"connected_time":698000000000,"state":"active","ping":38},{"user_id":843,"name":"Lope","steam_id":76561198169381232,"connected_time":697000000000,"state":"active","ping":92},{"user_id":848,"name":"herb","steam_id":76561198185980055,"connected_time":178000000000,"state":"active","ping":62},{"user_id":844,"name":"Digital Lummox","steam_id":76561198136198600,"connected_time":685000000000,"state":"active","ping":71},{"user_id":827,"name":"X_Sniper7","steam_id":76561198081097640,"connected_time":2482000000000,"state":"active","ping":75},{"user_id":845,"name":"St. Michael","steam_id":76561198037611052,"connected_time":530000000000,"state":"active","ping":69},{"user_id":846,"name":"MedRed™ #IATAH","steam_id":76561198002962970,"connected_time":359000000000,"state":"active","ping":90},{"user_id":836,"name":"evegioyidechadab","steam_id":76561198075991626,"connected_time":1166000000000,"state":"active","ping":161},{"user_id":847,"name":"Free1337","steam_id":76561198034160133,"connected_time":241000000000,"state":"active","ping":46},{"user_id":849,"name":"Sans","steam_id":76561199163622552,"connected_time":109000000000,"state":"active","ping":134},{"user_id":850,"name":"asp eater","steam_id":76561198070547748,"connected_time":51000000000,"state":"active","ping":55},{"user_id":851,"name":"VlAd","steam_id":76561198076597947,"connected_time":41000000000,"state":"active","ping":70},{"user_id":800,"name":"Castroy","steam_id":76561198108160099,"connected_time":4549000000000,"state":"active","ping":66}]},{"server_id":402,"name":"Uncletopia | Chicago | 3 | All Maps","name_short":"chi-3","host":"chi-1.us.uncletopia.com","port":27035,"enabled":true,"region":"us-central","cc":"us","latitude":41.881832,"longitude":-87.62318,"reserved":0,"last_update":"0001-01-01T00:00:00Z","name_a2s":"Uncletopia | Chicago | 3 | All Maps","protocol":17,"map":"pl_badwater","folder":"tf","game":"Team Fortress","app_id":440,"player_count":24,"max_players":24,"Bots":0,"server_type":"Dedicated","server_os":"Linux","password":true,"vac":true,"version":"7882260","steam_id":85568392924515191,"keywords":["nocrits","nodmgspread","payload","uncletopia"],"game_id":440,"stv_port":27036,"stv_name":"Uncletopia | Chicago | 3 | All Maps | STV","players":[{"user_id":735,"name":"gNarNar","steam_id":76561197994505205,"connected_time":4302000000000,"state":"active","ping":68},{"user_id":677,"name":"Hope","steam_id":76561199182558088,"connected_time":7690000000000,"state":"active","ping":67},{"user_id":756,"name":"Ping","steam_id":76561198072947773,"connected_time":2890000000000,"state":"active","ping":54},{"user_id":772,"name":"trans they gender she/her/they/","steam_id":76561198212470305,"connected_time":1651000000000,"state":"active","ping":69},{"user_id":778,"name":"pHsHy","steam_id":76561198013195018,"connected_time":1055000000000,"state":"active","ping":74},{"user_id":779,"name":"bullet","steam_id":76561199482235026,"connected_time":457000000000,"state":"active","ping":62},{"user_id":759,"name":"Belloq","steam_id":76561198060279052,"connected_time":2765000000000,"state":"active","ping":47},{"user_id":775,"name":"basmati jarate","steam_id":76561198319442494,"connected_time":1250000000000,"state":"active","ping":101},{"user_id":769,"name":"Yeshie","steam_id":76561198080214214,"connected_time":2434000000000,"state":"active","ping":34},{"user_id":774,"name":"BasicallySpring","steam_id":76561198953818016,"connected_time":1410000000000,"state":"active","ping":76},{"user_id":776,"name":"Dispenser (Twan)","steam_id":76561197991064908,"connected_time":1234000000000,"state":"active","ping":61},{"user_id":777,"name":"Wizard Raccoon","steam_id":76561198072562591,"connected_time":1213000000000,"state":"active","ping":75},{"user_id":780,"name":"Fightingwaffles","steam_id":76561198103500397,"connected_time":430000000000,"state":"active","ping":66},{"user_id":717,"name":"Truffles","steam_id":76561198095868800,"connected_time":6101000000000,"state":"active","ping":84},{"user_id":768,"name":"Fantastic","steam_id":76561198079088978,"connected_time":2448000000000,"state":"active","ping":44},{"user_id":770,"name":"Manticore","steam_id":76561198044664093,"connected_time":2225000000000,"state":"active","ping":73},{"user_id":766,"name":"Chef Fettuccine","steam_id":76561198267505810,"connected_time":2570000000000,"state":"active","ping":40},{"user_id":781,"name":"Ice","steam_id":76561198045076794,"connected_time":384000000000,"state":"active","ping":51},{"user_id":747,"name":"HAT-WEARING™ Maggot Gamer Cat","steam_id":76561197973992705,"connected_time":3557000000000,"state":"active","ping":108},{"user_id":734,"name":"Purple potato","steam_id":76561198932276149,"connected_time":4403000000000,"state":"active","ping":123},{"user_id":748,"name":"[PINGU™] Tiny Tuna","steam_id":76561198193611579,"connected_time":3552000000000,"state":"active","ping":84},{"user_id":782,"name":"I'm Only 4 Inches","steam_id":76561198055542546,"connected_time":378000000000,"state":"active","ping":57},{"user_id":671,"name":"Grand","steam_id":76561198290143399,"connected_time":8827000000000,"state":"active","ping":74},{"user_id":784,"name":"BoneHeadTRex","steam_id":76561199438411250,"connected_time":279000000000,"state":"active","ping":97}]},{"server_id":403,"name":"Uncletopia | Chicago | 4 | All Maps","name_short":"chi-4","host":"chi-1.us.uncletopia.com","port":27045,"enabled":true,"region":"us-central","cc":"us","latitude":41.881832,"longitude":-87.62318,"reserved":0,"last_update":"0001-01-01T00:00:00Z","name_a2s":"Uncletopia | Chicago | 4 | All Maps","protocol":17,"map":"koth_highpass","folder":"tf","game":"Team Fortress","app_id":440,"player_count":2,"max_players":24,"Bots":0,"server_type":"Dedicated","server_os":"Linux","password":true,"vac":true,"version":"7882260","steam_id":85568392924515193,"keywords":["cp","nocrits","nodmgspread","uncletopia"],"game_id":440,"stv_port":27046,"stv_name":"Uncletopia | Chicago | 4 | All Maps | STV","players":[{"user_id":628,"name":"Chachario1","steam_id":76561198994985263,"connected_time":1590000000000,"state":"active","ping":55},{"user_id":616,"name":"Crazy face","steam_id":76561198035251337,"connected_time":2956000000000,"state":"active","ping":88}]},{"server_id":36,"name":"Uncletopia | Chicago | 5 | All Maps","name_short":"chi-5","host":"chi-2.us.uncletopia.com","port":27015,"enabled":true,"region":"us-central","cc":"us","latitude":41.881832,"longitude":-87.62318,"reserved":0,"last_update":"0001-01-01T00:00:00Z","name_a2s":"Uncletopia | Chicago | 5 | All Maps","protocol":17,"map":"cp_gravelpit","folder":"tf","game":"Team Fortress","app_id":440,"player_count":6,"max_players":24,"Bots":0,"server_type":"Dedicated","server_os":"Linux","password":true,"vac":true,"version":"7882260","steam_id":85568392924866362,"keywords":["cp","nocrits","nodmgspread","uncletopia"],"game_id":440,"stv_port":27016,"stv_name":"Uncletopia | Chicago | 5 | All Maps | STV","players":[{"user_id":883,"name":"GROOVYROOM","steam_id":76561199153684166,"connected_time":2444000000000,"state":"active","ping":54},{"user_id":854,"name":"win stupid prizes","steam_id":76561198262827851,"connected_time":4335000000000,"state":"active","ping":71},{"user_id":861,"name":"Jousty","steam_id":76561199162677853,"connected_time":3886000000000,"state":"active","ping":90},{"user_id":865,"name":"Ghost","steam_id":76561198426370628,"connected_time":3812000000000,"state":"active","ping":60},{"user_id":867,"name":"El Choko","steam_id":76561199236028258,"connected_time":3769000000000,"state":"active","ping":110},{"user_id":874,"name":"Scatter (She/Her)","steam_id":76561198405168492,"connected_time":3631000000000,"state":"active","ping":75}]},{"server_id":37,"name":"Uncletopia | Chicago | 6 | All Maps","name_short":"chi-6","host":"chi-2.us.uncletopia.com","port":27025,"enabled":true,"region":"us-central","cc":"us","latitude":41.881832,"longitude":-87.62318,"reserved":0,"last_update":"0001-01-01T00:00:00Z","name_a2s":"Uncletopia | Chicago | 6 | All Maps","protocol":17,"map":"pl_borneo","folder":"tf","game":"Team Fortress","app_id":440,"player_count":22,"max_players":24,"Bots":0,"server_type":"Dedicated","server_os":"Linux","password":true,"vac":true,"version":"7882260","steam_id":85568392924866363,"keywords":["nocrits","nodmgspread","payload","uncletopia"],"game_id":440,"stv_port":27026,"stv_name":"Uncletopia | Chicago | 6 | All Maps | STV","players":[{"user_id":702,"name":"AAGooseman","steam_id":76561198378941369,"connected_time":841000000000,"state":"active","ping":90},{"user_id":648,"name":"Spaceman","steam_id":76561198349305249,"connected_time":4276000000000,"state":"active","ping":112},{"user_id":695,"name":"Raggedy","steam_id":76561198073271513,"connected_time":1338000000000,"state":"active","ping":141},{"user_id":682,"name":"去他媽的白痴","steam_id":76561198082585094,"connected_time":2027000000000,"state":"active","ping":71},{"user_id":691,"name":"Grape Sauce","steam_id":76561198140136651,"connected_time":1463000000000,"state":"active","ping":83},{"user_id":713,"name":"Olly","steam_id":76561198054273611,"connected_time":128000000000,"state":"active","ping":67},{"user_id":709,"name":"CamSoup","steam_id":76561198202483168,"connected_time":566000000000,"state":"active","ping":64},{"user_id":690,"name":"Sly_Soviet","steam_id":76561199138465888,"connected_time":1483000000000,"state":"active","ping":84},{"user_id":703,"name":"Thermalpwn","steam_id":76561198027552989,"connected_time":767000000000,"state":"active","ping":95},{"user_id":714,"name":"Hifumi Togo","steam_id":76561198074930636,"connected_time":105000000000,"state":"active","ping":66},{"user_id":683,"name":"Solvnt","steam_id":76561198119233691,"connected_time":2016000000000,"state":"active","ping":74},{"user_id":697,"name":"Lore","steam_id":76561198098407538,"connected_time":1111000000000,"state":"active","ping":45},{"user_id":645,"name":"SpecialForce19","steam_id":76561198120974644,"connected_time":4430000000000,"state":"active","ping":70},{"user_id":710,"name":"slep.py","steam_id":76561197988287144,"connected_time":464000000000,"state":"active","ping":51},{"user_id":698,"name":"BOT Positronic♥June","steam_id":76561198042556857,"connected_time":1069000000000,"state":"active","ping":45},{"user_id":686,"name":"00GENESIS","steam_id":76561198135559825,"connected_time":1853000000000,"state":"active","ping":60},{"user_id":689,"name":"Ġ1 ♦ Synth","steam_id":76561198058660228,"connected_time":1666000000000,"state":"active","ping":60},{"user_id":701,"name":"frank","steam_id":76561198137777483,"connected_time":941000000000,"state":"active","ping":62},{"user_id":696,"name":"I left my shoes at home.","steam_id":76561198306965757,"connected_time":1241000000000,"state":"active","ping":86},{"user_id":638,"name":"cupcake","steam_id":76561198987892499,"connected_time":4943000000000,"state":"active","ping":74},{"user_id":711,"name":"scrotal recall","steam_id":76561198135945598,"connected_time":340000000000,"state":"active","ping":80},{"user_id":707,"name":"kiseek","steam_id":76561198075474088,"connected_time":715000000000,"state":"active","ping":83}]},{"server_id":38,"name":"Uncletopia | Chicago | 7 | Stopwatch Beta","name_short":"chi-7","host":"chi-2.us.uncletopia.com","port":27035,"enabled":true,"region":"us-central","cc":"us","latitude":41.881832,"longitude":-87.62318,"reserved":0,"last_update":"0001-01-01T00:00:00Z","name_a2s":"Uncletopia | Chicago | 7 | Stopwatch Beta","protocol":17,"map":"koth_highpass","folder":"tf","game":"Team Fortress","app_id":440,"player_count":0,"max_players":24,"Bots":0,"server_type":"Dedicated","server_os":"Linux","password":true,"vac":true,"version":"7882260","steam_id":85568392924866364,"keywords":["cp","nocrits","nodmgspread","uncletopia"],"game_id":440,"stv_port":27036,"stv_name":"Uncletopia | Chicago | 7 | Stopwatch Beta | STV","players":null},{"server_id":39,"name":"Uncletopia | Chicago | 8 | Community","name_short":"chi-8","host":"chi-2.us.uncletopia.com","port":27045,"enabled":true,"region":"us-central","cc":"us","latitude":41.881832,"longitude":-87.62318,"reserved":0,"last_update":"0001-01-01T00:00:00Z","name_a2s":"Uncletopia | Chicago | 8 | Community","protocol":17,"map":"workshop/koth_trenchfoot_b1a.ugc731436616","folder":"tf","game":"Team Fortress","app_id":440,"player_count":1,"max_players":24,"Bots":0,"server_type":"Dedicated","server_os":"Linux","password":true,"vac":true,"version":"7882260","steam_id":85568392924866365,"keywords":["cp","nocrits","nodmgspread","uncletopia"],"game_id":440,"stv_port":27046,"stv_name":"Uncletopia | Chicago | 8 | Community | STV","players":[{"user_id":565,"name":"realCptJack","steam_id":76561198021082168,"connected_time":6000000000,"state":"spawning","ping":93}]},{"server_id":8,"name":"Uncletopia | Dallas | 1 | All Maps","name_short":"dal-1","host":"dal-1.us.uncletopia.com","port":27015,"enabled":true,"region":"us-central","cc":"us","latitude":32.779167,"longitude":-96.80889,"reserved":0,"last_update":"0001-01-01T00:00:00Z","name_a2s":"Uncletopia | Dallas | 1 | All Maps","protocol":17,"map":"pl_upward","folder":"tf","game":"Team Fortress","app_id":440,"player_count":23,"max_players":24,"Bots":0,"server_type":"Dedicated","server_os":"Linux","password":true,"vac":true,"version":"7882260","steam_id":85568392924469986,"keywords":["nocrits","nodmgspread","payload","uncletopia"],"game_id":440,"stv_port":27016,"stv_name":"Uncletopia | Dallas | 1 | All Maps | STV","players":[{"user_id":908,"name":"JiminyJustin","steam_id":76561198103623389,"connected_time":55000000000,"state":"active","ping":94},{"user_id":907,"name":"pp","steam_id":76561198057158117,"connected_time":121000000000,"state":"active","ping":69},{"user_id":883,"name":"Logic is a Good Rapper","steam_id":76561198976821898,"connected_time":1008000000000,"state":"active","ping":78},{"user_id":862,"name":"errant","steam_id":76561197961758410,"connected_time":2200000000000,"state":"active","ping":45},{"user_id":909,"name":"Methgineer","steam_id":76561198088321636,"connected_time":43000000000,"state":"active","ping":105},{"user_id":910,"name":"Rafl","steam_id":76561198055222756,"connected_time":35000000000,"state":"active","ping":39},{"user_id":885,"name":"H00DEDRIOT","steam_id":76561198351880498,"connected_time":910000000000,"state":"active","ping":63},{"user_id":886,"name":"Idontknow","steam_id":76561199207044048,"connected_time":909000000000,"state":"active","ping":88},{"user_id":911,"name":"soupy","steam_id":76561197974283797,"connected_time":24000000000,"state":"active","ping":66},{"user_id":906,"name":"Kuchio","steam_id":76561198161218914,"connected_time":153000000000,"state":"active","ping":87},{"user_id":835,"name":"AzuriousAlex","steam_id":76561198158026405,"connected_time":3904000000000,"state":"active","ping":72},{"user_id":891,"name":"jumbi","steam_id":76561198353456379,"connected_time":665000000000,"state":"active","ping":67},{"user_id":892,"name":"SliceO'Fish","steam_id":76561198290695237,"connected_time":603000000000,"state":"active","ping":75},{"user_id":912,"name":"Howoriginal","steam_id":76561197993701184,"connected_time":17000000000,"state":"active","ping":83},{"user_id":894,"name":"Kraznet","steam_id":76561198799374777,"connected_time":519000000000,"state":"active","ping":68},{"user_id":895,"name":"TOKENLIZARD","steam_id":76561198218765205,"connected_time":492000000000,"state":"active","ping":60},{"user_id":896,"name":"An Unhappy Clown","steam_id":76561198175516514,"connected_time":466000000000,"state":"active","ping":46},{"user_id":904,"name":"Teh_Hsky","steam_id":76561198798630221,"connected_time":191000000000,"state":"active","ping":66},{"user_id":913,"name":"Little King Trash Mouth","steam_id":76561198241162728,"connected_time":2000000000,"state":"spawning","ping":67},{"user_id":914,"name":"Zombi3Johnny","steam_id":76561198273553661,"connected_time":1000000000,"state":"spawning","ping":50},{"user_id":905,"name":"Wonglee","steam_id":76561199310553655,"connected_time":175000000000,"state":"active","ping":72},{"user_id":878,"name":"s71nk3y / Stinky / Apestoso","steam_id":76561198060954715,"connected_time":1488000000000,"state":"active","ping":73},{"user_id":857,"name":"Lox","steam_id":76561198255838610,"connected_time":2485000000000,"state":"active","ping":90}]},{"server_id":108,"name":"Uncletopia | Dallas | 2 | All Maps","name_short":"dal-2","host":"dal-1.us.uncletopia.com","port":27025,"enabled":true,"region":"us-central","cc":"us","latitude":32.779167,"longitude":-96.80889,"reserved":0,"last_update":"0001-01-01T00:00:00Z","name_a2s":"Uncletopia | Dallas | 2 | All Maps","protocol":17,"map":"koth_harvest_final","folder":"tf","game":"Team Fortress","app_id":440,"player_count":24,"max_players":24,"Bots":0,"server_type":"Dedicated","server_os":"Linux","password":true,"vac":true,"version":"7882260","steam_id":85568392924469988,"keywords":["cp","nocrits","nodmgspread","uncletopia"],"game_id":440,"stv_port":27026,"stv_name":"Uncletopia | Dallas | 2 | All Maps | STV","players":[{"user_id":624,"name":"Oni","steam_id":76561198112066584,"connected_time":1662000000000,"state":"active","ping":63},{"user_id":649,"name":"my money washed like george","steam_id":76561198115458307,"connected_time":197000000000,"state":"active","ping":75},{"user_id":644,"name":"Oakspace_","steam_id":76561198132487015,"connected_time":431000000000,"state":"active","ping":92},{"user_id":657,"name":"small formula","steam_id":76561198839164349,"connected_time":20000000000,"state":"active","ping":83},{"user_id":595,"name":"Chad","steam_id":76561198222313772,"connected_time":5163000000000,"state":"active","ping":116},{"user_id":581,"name":"Skullflesh","steam_id":76561198286722734,"connected_time":6050000000000,"state":"active","ping":166},{"user_id":645,"name":"Nüþ","steam_id":76561198043956703,"connected_time":423000000000,"state":"active","ping":79},{"user_id":647,"name":"KillPact","steam_id":76561197976319415,"connected_time":215000000000,"state":"active","ping":85},{"user_id":598,"name":"Woozy","steam_id":76561198008220735,"connected_time":5031000000000,"state":"active","ping":84},{"user_id":655,"name":"EvilPigglet","steam_id":76561197987243470,"connected_time":74000000000,"state":"active","ping":96},{"user_id":623,"name":"SIGMA [BS]","steam_id":76561197962604879,"connected_time":1782000000000,"state":"active","ping":91},{"user_id":648,"name":"goooot","steam_id":76561198155591052,"connected_time":212000000000,"state":"active","ping":48},{"user_id":640,"name":"Pinetree w/ apples.","steam_id":76561198105411709,"connected_time":1108000000000,"state":"active","ping":108},{"user_id":626,"name":"catrinaisahuman","steam_id":76561198281355729,"connected_time":1559000000000,"state":"active","ping":68},{"user_id":651,"name":"diymo . watashi wa heavy weapon","steam_id":76561198017600790,"connected_time":171000000000,"state":"active","ping":84},{"user_id":641,"name":"chhiccennuggett","steam_id":76561198125864630,"connected_time":1105000000000,"state":"active","ping":76},{"user_id":631,"name":"dweaver","steam_id":76561198119610135,"connected_time":1336000000000,"state":"active","ping":75},{"user_id":632,"name":"rat","steam_id":76561198078484417,"connected_time":1324000000000,"state":"active","ping":63},{"user_id":652,"name":"Mr. StepOnShi","steam_id":76561198049381236,"connected_time":156000000000,"state":"active","ping":101},{"user_id":653,"name":"Scout","steam_id":76561198140517330,"connected_time":137000000000,"state":"active","ping":73},{"user_id":616,"name":"Satori Komeiji","steam_id":76561198158211423,"connected_time":3092000000000,"state":"active","ping":87},{"user_id":642,"name":"minty","steam_id":76561198062821894,"connected_time":753000000000,"state":"active","ping":54},{"user_id":654,"name":"Mobius","steam_id":76561199121973450,"connected_time":127000000000,"state":"active","ping":82},{"user_id":656,"name":"gromit","steam_id":76561198037746805,"connected_time":58000000000,"state":"active","ping":91}]},{"server_id":5,"name":"Uncletopia | Frankfurt | 1 | All Maps","name_short":"frk-1","host":"frk-1.de.uncletopia.com","port":27015,"enabled":true,"region":"eu","cc":"de","latitude":50.110924,"longitude":8.682127,"reserved":0,"last_update":"0001-01-01T00:00:00Z","name_a2s":"Uncletopia | Frankfurt | 1 | All Maps","protocol":17,"map":"cp_process_final","folder":"tf","game":"Team Fortress","app_id":440,"player_count":0,"max_players":24,"Bots":0,"server_type":"Dedicated","server_os":"Linux","password":true,"vac":true,"version":"7882260","steam_id":85568392924469989,"keywords":["cp","nocrits","nodmgspread","uncletopia"],"game_id":440,"stv_port":27016,"stv_name":"Uncletopia | Frankfurt | 1 | All Maps | STV","players":null},{"server_id":110,"name":"Uncletopia | Frankfurt | 2 | All Maps","name_short":"frk-2","host":"frk-1.de.uncletopia.com","port":27025,"enabled":true,"region":"eu","cc":"de","latitude":50.110924,"longitude":8.682127,"reserved":0,"last_update":"0001-01-01T00:00:00Z","name_a2s":"Uncletopia | Frankfurt | 2 | All Maps","protocol":17,"map":"pl_swiftwater_final1","folder":"tf","game":"Team Fortress","app_id":440,"player_count":0,"max_players":24,"Bots":0,"server_type":"Dedicated","server_os":"Linux","password":true,"vac":true,"version":"7882260","steam_id":85568392924469990,"keywords":["nocrits","nodmgspread","payload","uncletopia"],"game_id":440,"stv_port":27026,"stv_name":"Uncletopia | Frankfurt | 2 | All Maps | STV","players":null},{"server_id":308,"name":"Uncletopia | Frankfurt | 3 | All Maps","name_short":"frk-3","host":"frk-1.de.uncletopia.com","port":27035,"enabled":true,"region":"eu","cc":"de","latitude":50.110924,"longitude":8.682127,"reserved":0,"last_update":"0001-01-01T00:00:00Z","name_a2s":"Uncletopia | Frankfurt | 3 | All Maps","protocol":17,"map":"cp_snakewater_final1","folder":"tf","game":"Team Fortress","app_id":440,"player_count":0,"max_players":24,"Bots":0,"server_type":"Dedicated","server_os":"Linux","password":true,"vac":true,"version":"7882260","steam_id":85568392924504274,"keywords":["cp","nocrits","nodmgspread","uncletopia"],"game_id":440,"stv_port":27036,"stv_name":"Uncletopia | Frankfurt | 3 | All Maps | STV","players":null},{"server_id":309,"name":"Uncletopia | Frankfurt | 4 | All Maps","name_short":"frk-4","host":"frk-1.de.uncletopia.com","port":27045,"enabled":true,"region":"eu","cc":"de","latitude":50.110924,"longitude":8.682127,"reserved":0,"last_update":"0001-01-01T00:00:00Z","name_a2s":"Uncletopia | Frankfurt | 4 | All Maps","protocol":17,"map":"pl_badwater","folder":"tf","game":"Team Fortress","app_id":440,"player_count":0,"max_players":24,"Bots":0,"server_type":"Dedicated","server_os":"Linux","password":true,"vac":true,"version":"7882260","steam_id":85568392924504275,"keywords":["nocrits","nodmgspread","payload","uncletopia"],"game_id":440,"stv_port":27046,"stv_name":"Uncletopia | Frankfurt | 4 | All Maps | STV","players":null},{"server_id":310,"name":"Uncletopia | Frankfurt | 5 | All Maps","name_short":"frk-5","host":"frk-1.de.uncletopia.com","port":27055,"enabled":true,"region":"eu","cc":"de","latitude":50.110924,"longitude":8.682127,"reserved":0,"last_update":"0001-01-01T00:00:00Z","name_a2s":"Uncletopia | Frankfurt | 5 | All Maps","protocol":17,"map":"cp_mountainlab","folder":"tf","game":"Team Fortress","app_id":440,"player_count":0,"max_players":24,"Bots":0,"server_type":"Dedicated","server_os":"Linux","password":true,"vac":true,"version":"7882260","steam_id":85568392924504277,"keywords":["cp","nocrits","nodmgspread","uncletopia"],"game_id":440,"stv_port":27056,"stv_name":"Uncletopia | Frankfurt | 5 | All Maps | STV","players":null},{"server_id":311,"name":"Uncletopia | Frankfurt | 6 | All Maps","name_short":"frk-6","host":"frk-1.de.uncletopia.com","port":27065,"enabled":true,"region":"eu","cc":"de","latitude":50.110924,"longitude":8.682127,"reserved":0,"last_update":"0001-01-01T00:00:00Z","name_a2s":"Uncletopia | Frankfurt | 6 | All Maps","protocol":17,"map":"pl_badwater","folder":"tf","game":"Team Fortress","app_id":440,"player_count":0,"max_players":24,"Bots":0,"server_type":"Dedicated","server_os":"Linux","password":true,"vac":true,"version":"7882260","steam_id":85568392924504278,"keywords":["nocrits","nodmgspread","payload","uncletopia"],"game_id":440,"stv_port":27066,"stv_name":"Uncletopia | Frankfurt | 6 | All Maps | STV","players":null},{"server_id":23,"name":"Uncletopia | Frankfurt | 7 | Stopwatch Beta","name_short":"frk-7","host":"frk-1.de.uncletopia.com","port":27075,"enabled":true,"region":"eu","cc":"de","latitude":50.110924,"longitude":8.682127,"reserved":0,"last_update":"0001-01-01T00:00:00Z","name_a2s":"Uncletopia | Frankfurt | 7 | Stopwatch Beta","protocol":17,"map":"cp_dustbowl","folder":"tf","game":"Team Fortress","app_id":440,"player_count":0,"max_players":24,"Bots":0,"server_type":"Dedicated","server_os":"Linux","password":true,"vac":true,"version":"7882260","steam_id":85568392924742827,"keywords":["cp","nocrits","nodmgspread","uncletopia"],"game_id":440,"stv_port":27076,"stv_name":"Uncletopia | Frankfurt | 7 | Stopwatch Beta | STV","players":null},{"server_id":24,"name":"Uncletopia | Frankfurt | 8 | Community","name_short":"frk-8","host":"frk-1.de.uncletopia.com","port":27085,"enabled":true,"region":"eu","cc":"de","latitude":50.110924,"longitude":8.682127,"reserved":0,"last_update":"0001-01-01T00:00:00Z","name_a2s":"Uncletopia | Frankfurt | 8 | Community","protocol":17,"map":"koth_cascade","folder":"tf","game":"Team Fortress","app_id":440,"player_count":0,"max_players":24,"Bots":0,"server_type":"Dedicated","server_os":"Linux","password":true,"vac":true,"version":"7882260","steam_id":85568392924742828,"keywords":["cp","nocrits","nodmgspread","uncletopia"],"game_id":440,"stv_port":27086,"stv_name":"Uncletopia | Frankfurt | 8 | Community | STV","players":null},{"server_id":202,"name":"Uncletopia | Hong Kong | 1 | All Maps","name_short":"hgk-1","host":"hgk-1.hk.uncletopia.com","port":27015,"enabled":true,"region":"asia","cc":"hk","latitude":22.302711,"longitude":114.177216,"reserved":0,"last_update":"0001-01-01T00:00:00Z","name_a2s":"Uncletopia | Hong Kong | 1 | All Maps","protocol":17,"map":"koth_cascade","folder":"tf","game":"Team Fortress","app_id":440,"player_count":0,"max_players":24,"Bots":0,"server_type":"Dedicated","server_os":"Linux","password":true,"vac":true,"version":"7882260","steam_id":85568392924494504,"keywords":["cp","nocrits","nodmgspread","uncletopia"],"game_id":440,"stv_port":27016,"stv_name":"Uncletopia | Hong Kong | 1 | All Maps | STV","players":null},{"server_id":1,"name":"Uncletopia | Los Angeles | 1 | All Maps","name_short":"lax-1","host":"lax-1.us.uncletopia.com","port":27015,"enabled":true,"region":"us-west","cc":"us","latitude":33.94279,"longitude":-118.41004,"reserved":0,"last_update":"0001-01-01T00:00:00Z","name_a2s":"Uncletopia | Los Angeles | 1 | All Maps","protocol":17,"map":"pl_snowycoast","folder":"tf","game":"Team Fortress","app_id":440,"player_count":23,"max_players":24,"Bots":0,"server_type":"Dedicated","server_os":"Linux","password":true,"vac":true,"version":"7882260","steam_id":85568392924469991,"keywords":["nocrits","nodmgspread","payload","uncletopia"],"game_id":440,"stv_port":27016,"stv_name":"Uncletopia | Los Angeles | 1 | All Maps | STV","players":[{"user_id":653,"name":"HiddenEgg","steam_id":76561199045105518,"connected_time":1939000000000,"state":"active","ping":51},{"user_id":674,"name":"boopeanuts2012","steam_id":76561198453203619,"connected_time":859000000000,"state":"active","ping":40},{"user_id":654,"name":"Mapachito Lindo","steam_id":76561198031359995,"connected_time":1935000000000,"state":"active","ping":66},{"user_id":667,"name":"Fluffy_Toast","steam_id":76561199120045918,"connected_time":1489000000000,"state":"active","ping":90},{"user_id":613,"name":"Nugakku","steam_id":76561198082346219,"connected_time":5978000000000,"state":"active","ping":71},{"user_id":582,"name":"Lambchop","steam_id":76561198043900363,"connected_time":8404000000000,"state":"active","ping":71},{"user_id":655,"name":"Antking14","steam_id":76561198188971771,"connected_time":1925000000000,"state":"active","ping":72},{"user_id":672,"name":"Shamrock Shake Oct.10.2020 @8pm","steam_id":76561198833313201,"connected_time":998000000000,"state":"active","ping":65},{"user_id":681,"name":"Townze","steam_id":76561198081827165,"connected_time":816000000000,"state":"active","ping":89},{"user_id":665,"name":"bad spy player","steam_id":76561198873699671,"connected_time":1498000000000,"state":"active","ping":87},{"user_id":670,"name":"evil jesus 05","steam_id":76561198419315893,"connected_time":1254000000000,"state":"active","ping":64},{"user_id":637,"name":"Ad3ptus","steam_id":76561198272045750,"connected_time":3572000000000,"state":"active","ping":60},{"user_id":682,"name":"Juul Room","steam_id":76561198132867238,"connected_time":813000000000,"state":"active","ping":75},{"user_id":652,"name":"HeroOfTime","steam_id":76561199096218001,"connected_time":1963000000000,"state":"active","ping":52},{"user_id":688,"name":"wuG","steam_id":76561198011101532,"connected_time":34000000000,"state":"active","ping":87},{"user_id":671,"name":"shoe","steam_id":76561198451476220,"connected_time":1168000000000,"state":"active","ping":79},{"user_id":651,"name":"Tam Honks","steam_id":76561198044347961,"connected_time":1966000000000,"state":"active","ping":70},{"user_id":668,"name":"ShadowDragon0125","steam_id":76561198343849022,"connected_time":1440000000000,"state":"active","ping":95},{"user_id":657,"name":"bocaJ","steam_id":76561198374535092,"connected_time":1907000000000,"state":"active","ping":40},{"user_id":647,"name":"Chaos","steam_id":76561198168263777,"connected_time":2968000000000,"state":"active","ping":78},{"user_id":661,"name":"Dodobirdthe3rd","steam_id":76561199119848224,"connected_time":1716000000000,"state":"active","ping":55},{"user_id":685,"name":"Gentle Opp 3","steam_id":76561198150406851,"connected_time":453000000000,"state":"active","ping":60},{"user_id":686,"name":"HanakoToast","steam_id":76561198045233131,"connected_time":448000000000,"state":"active","ping":66}]},{"server_id":112,"name":"Uncletopia | Los Angeles | 2 | All Maps","name_short":"lax-2","host":"lax-1.us.uncletopia.com","port":27025,"enabled":true,"region":"us-west","cc":"us","latitude":33.94279,"longitude":-118.41004,"reserved":0,"last_update":"0001-01-01T00:00:00Z","name_a2s":"Uncletopia | Los Angeles | 2 | All Maps","protocol":17,"map":"pl_frontier_final","folder":"tf","game":"Team Fortress","app_id":440,"player_count":24,"max_players":24,"Bots":0,"server_type":"Dedicated","server_os":"Linux","password":true,"vac":true,"version":"7882260","steam_id":85568392924469992,"keywords":["nocrits","nodmgspread","payload","uncletopia"],"game_id":440,"stv_port":27026,"stv_name":"Uncletopia | Los Angeles | 2 | All Maps | STV","players":[{"user_id":444,"name":"organic kale","steam_id":76561198101506575,"connected_time":5659000000000,"state":"active","ping":79},{"user_id":509,"name":"JanPinyon610","steam_id":76561199238454799,"connected_time":810000000000,"state":"active","ping":105},{"user_id":492,"name":"Twombly","steam_id":76561198056532348,"connected_time":2010000000000,"state":"active","ping":62},{"user_id":527,"name":"Female Gamer (Mythic)","steam_id":76561198261007627,"connected_time":119000000000,"state":"active","ping":95},{"user_id":514,"name":"ba ba black sheep","steam_id":76561198206922028,"connected_time":674000000000,"state":"active","ping":54},{"user_id":515,"name":"chikin.sauce","steam_id":76561198042464635,"connected_time":618000000000,"state":"active","ping":83},{"user_id":512,"name":"hotdog every meal","steam_id":76561198392514273,"connected_time":693000000000,"state":"active","ping":85},{"user_id":508,"name":"tighty walter whities","steam_id":76561199122915452,"connected_time":842000000000,"state":"active","ping":76},{"user_id":462,"name":"ElectronX","steam_id":76561198116034988,"connected_time":4228000000000,"state":"active","ping":49},{"user_id":501,"name":"⛧Alkahestry","steam_id":76561198109641497,"connected_time":891000000000,"state":"active","ping":42},{"user_id":528,"name":"M3gan","steam_id":76561198025437192,"connected_time":119000000000,"state":"active","ping":54},{"user_id":510,"name":"Fachedin","steam_id":76561198041850415,"connected_time":744000000000,"state":"active","ping":57},{"user_id":511,"name":"Sigmer","steam_id":76561198397023567,"connected_time":719000000000,"state":"active","ping":63},{"user_id":502,"name":"DOPEam1ne","steam_id":76561198112204774,"connected_time":884000000000,"state":"active","ping":56},{"user_id":529,"name":"resh","steam_id":76561198239598834,"connected_time":85000000000,"state":"active","ping":244},{"user_id":516,"name":"Fish Lambert","steam_id":76561198098279668,"connected_time":610000000000,"state":"active","ping":57},{"user_id":517,"name":"Snork Porklet","steam_id":76561198022556859,"connected_time":570000000000,"state":"active","ping":90},{"user_id":525,"name":"ArumiKaze","steam_id":76561198026814729,"connected_time":198000000000,"state":"active","ping":65},{"user_id":454,"name":"FriskyDemon","steam_id":76561198043684646,"connected_time":4561000000000,"state":"active","ping":69},{"user_id":497,"name":"Dob Bole","steam_id":76561198056367220,"connected_time":1056000000000,"state":"active","ping":36},{"user_id":498,"name":"litroolay","steam_id":76561197995226856,"connected_time":1038000000000,"state":"active","ping":60},{"user_id":520,"name":"Brook","steam_id":76561198035687784,"connected_time":459000000000,"state":"active","ping":128},{"user_id":522,"name":"Mute.03","steam_id":76561199229281804,"connected_time":431000000000,"state":"active","ping":87},{"user_id":523,"name":"Juevos","steam_id":76561198066142119,"connected_time":431000000000,"state":"active","ping":70}]},{"server_id":324,"name":"Uncletopia | Los Angeles | 3 | All Maps","name_short":"lax-3","host":"lax-1.us.uncletopia.com","port":27035,"enabled":true,"region":"us-west","cc":"us","latitude":33.94279,"longitude":-118.41004,"reserved":0,"last_update":"0001-01-01T00:00:00Z","name_a2s":"Uncletopia | Los Angeles | 3 | All Maps","protocol":17,"map":"pl_upward","folder":"tf","game":"Team Fortress","app_id":440,"player_count":24,"max_players":24,"Bots":0,"server_type":"Dedicated","server_os":"Linux","password":true,"vac":true,"version":"7882260","steam_id":85568392924510198,"keywords":["nocrits","nodmgspread","payload","uncletopia"],"game_id":440,"stv_port":27036,"stv_name":"Uncletopia | Los Angeles | 3 | All Maps | STV","players":[{"user_id":605,"name":"nory","steam_id":76561198031819070,"connected_time":3044000000000,"state":"active","ping":52},{"user_id":606,"name":"puke","steam_id":76561197999279693,"connected_time":2558000000000,"state":"active","ping":81},{"user_id":554,"name":"Gavial the Invincible","steam_id":76561198348354629,"connected_time":7139000000000,"state":"active","ping":34},{"user_id":612,"name":"GLXy","steam_id":76561198207551544,"connected_time":2230000000000,"state":"active","ping":115},{"user_id":617,"name":"Risky","steam_id":76561198231029328,"connected_time":1108000000000,"state":"active","ping":50},{"user_id":591,"name":"Literal Vampire Potbelly Goblin","steam_id":76561197970527356,"connected_time":4162000000000,"state":"active","ping":35},{"user_id":622,"name":"TheBigSauceBoss.TTV","steam_id":76561198056556496,"connected_time":29000000000,"state":"spawning","ping":53},{"user_id":600,"name":"His buddy Eric","steam_id":76561198275362375,"connected_time":3596000000000,"state":"active","ping":60},{"user_id":542,"name":"TwoForFlinching","steam_id":76561198073814209,"connected_time":7882000000000,"state":"active","ping":94},{"user_id":576,"name":"BUSY","steam_id":76561198047532250,"connected_time":6102000000000,"state":"active","ping":77},{"user_id":614,"name":"kohaku gaming","steam_id":76561198071600385,"connected_time":1976000000000,"state":"active","ping":102},{"user_id":594,"name":"Landjrin","steam_id":76561198415410003,"connected_time":4060000000000,"state":"active","ping":60},{"user_id":582,"name":"Dingus","steam_id":76561198091720598,"connected_time":5608000000000,"state":"active","ping":64},{"user_id":616,"name":"MonkeyNobody","steam_id":76561199451266605,"connected_time":1589000000000,"state":"active","ping":55},{"user_id":621,"name":"Addy \u003c3","steam_id":76561198045819723,"connected_time":169000000000,"state":"active","ping":125},{"user_id":609,"name":"BurningKev","steam_id":76561198057688837,"connected_time":2466000000000,"state":"active","ping":87},{"user_id":561,"name":"Ryn_48","steam_id":76561199229400014,"connected_time":6973000000000,"state":"active","ping":161},{"user_id":555,"name":"souljaboytellem.com","steam_id":76561198095824426,"connected_time":7106000000000,"state":"active","ping":86},{"user_id":595,"name":"LordGooch","steam_id":76561198968335919,"connected_time":3979000000000,"state":"active","ping":66},{"user_id":567,"name":"Star","steam_id":76561198187728043,"connected_time":6679000000000,"state":"active","ping":51},{"user_id":610,"name":"Grassman (Cc)","steam_id":76561198026488532,"connected_time":2366000000000,"state":"active","ping":56},{"user_id":620,"name":"Agent Mania","steam_id":76561198029741272,"connected_time":486000000000,"state":"active","ping":53},{"user_id":569,"name":"Timebomb2134","steam_id":76561199065629825,"connected_time":6643000000000,"state":"active","ping":67},{"user_id":615,"name":"iphone 7 plus","steam_id":76561198335836405,"connected_time":1958000000000,"state":"active","ping":100}]},{"server_id":25,"name":"Uncletopia | Los Angeles | 4 | Stopwatch Beta","name_short":"lax-4","host":"lax-1.us.uncletopia.com","port":27045,"enabled":true,"region":"us-west","cc":"us","latitude":33.94279,"longitude":-118.41004,"reserved":0,"last_update":"0001-01-01T00:00:00Z","name_a2s":"Uncletopia | Los Angeles | 4 | Stopwatch Beta","protocol":17,"map":"workshop/koth_ramjam_rc1.ugc459778887","folder":"tf","game":"Team Fortress","app_id":440,"player_count":0,"max_players":24,"Bots":0,"server_type":"Dedicated","server_os":"Linux","password":true,"vac":true,"version":"7882260","steam_id":85568392924510199,"keywords":["cp","nocrits","nodmgspread","uncletopia"],"game_id":440,"stv_port":27046,"stv_name":"Uncletopia | Los Angeles | 4 | Stopwatch Beta | STV","players":null},{"server_id":11,"name":"Uncletopia | London | 1 | All Maps","name_short":"lon-1","host":"lon-1.uk.uncletopia.com","port":27015,"enabled":true,"region":"eu","cc":"gb","latitude":51.509865,"longitude":-0.118092,"reserved":0,"last_update":"0001-01-01T00:00:00Z","name_a2s":"Uncletopia | London | 1 | All Maps","protocol":17,"map":"cp_process_final","folder":"tf","game":"Team Fortress","app_id":440,"player_count":0,"max_players":24,"Bots":0,"server_type":"Dedicated","server_os":"Linux","password":true,"vac":true,"version":"7882260","steam_id":85568392924367362,"keywords":["cp","nocrits","nodmgspread","uncletopia"],"game_id":440,"stv_port":27016,"stv_name":"Uncletopia | London | 1 | All Maps | STV","players":null},{"server_id":114,"name":"Uncletopia | London | 2 | All Maps","name_short":"lon-2","host":"lon-1.uk.uncletopia.com","port":27025,"enabled":true,"region":"eu","cc":"gb","latitude":51.509865,"longitude":-0.118092,"reserved":0,"last_update":"0001-01-01T00:00:00Z","name_a2s":"Uncletopia | London | 2 | All Maps","protocol":17,"map":"pl_swiftwater_final1","folder":"tf","game":"Team Fortress","app_id":440,"player_count":0,"max_players":24,"Bots":0,"server_type":"Dedicated","server_os":"Linux","password":true,"vac":true,"version":"7882260","steam_id":85568392924470941,"keywords":["nocrits","nodmgspread","payload","uncletopia"],"game_id":440,"stv_port":27026,"stv_name":"Uncletopia | London | 2 | All Maps | STV","players":null},{"server_id":320,"name":"Uncletopia | London | 3 | All Maps","name_short":"lon-3","host":"lon-1.uk.uncletopia.com","port":27035,"enabled":true,"region":"eu","cc":"gb","latitude":51.509865,"longitude":-0.118092,"reserved":0,"last_update":"0001-01-01T00:00:00Z","name_a2s":"Uncletopia | London | 3 | All Maps","protocol":17,"map":"koth_highpass","folder":"tf","game":"Team Fortress","app_id":440,"player_count":0,"max_players":24,"Bots":0,"server_type":"Dedicated","server_os":"Linux","password":true,"vac":true,"version":"7882260","steam_id":85568392924510192,"keywords":["cp","nocrits","nodmgspread","uncletopia"],"game_id":440,"stv_port":27036,"stv_name":"Uncletopia | London | 3 | All Maps | STV","players":null},{"server_id":321,"name":"Uncletopia | London | 4 | All Maps","name_short":"lon-4","host":"lon-1.uk.uncletopia.com","port":27045,"enabled":true,"region":"eu","cc":"gb","latitude":51.509865,"longitude":-0.118092,"reserved":0,"last_update":"0001-01-01T00:00:00Z","name_a2s":"Uncletopia | London | 4 | All Maps","protocol":17,"map":"pl_badwater","folder":"tf","game":"Team Fortress","app_id":440,"player_count":22,"max_players":24,"Bots":0,"server_type":"Dedicated","server_os":"Linux","password":true,"vac":true,"version":"7882260","steam_id":85568392924510193,"keywords":["nocrits","nodmgspread","payload","uncletopia"],"game_id":440,"stv_port":27046,"stv_name":"Uncletopia | London | 4 | All Maps | STV","players":[{"user_id":49,"name":"Nyhde","steam_id":76561198012771416,"connected_time":37000000000,"state":"active","ping":98},{"user_id":4,"name":"cool skeleton","steam_id":76561198219901556,"connected_time":3435000000000,"state":"active","ping":106},{"user_id":19,"name":"minn","steam_id":76561198099101232,"connected_time":1877000000000,"state":"active","ping":54},{"user_id":6,"name":"engie?","steam_id":76561198331852832,"connected_time":3430000000000,"state":"active","ping":41},{"user_id":45,"name":"lvl. 50 honkler","steam_id":76561198061688660,"connected_time":218000000000,"state":"active","ping":119},{"user_id":35,"name":"Mandele","steam_id":76561199183213205,"connected_time":1053000000000,"state":"active","ping":95},{"user_id":15,"name":"Tx_madmash","steam_id":76561198924656512,"connected_time":2299000000000,"state":"active","ping":60},{"user_id":42,"name":"Copium addict","steam_id":76561198102125260,"connected_time":495000000000,"state":"active","ping":75},{"user_id":28,"name":"wide appreciator","steam_id":76561198083286511,"connected_time":1599000000000,"state":"active","ping":35},{"user_id":14,"name":"BLACKBIRD CLOSE [she/her]","steam_id":76561198262910410,"connected_time":2636000000000,"state":"active","ping":107},{"user_id":34,"name":"PhitoHue","steam_id":76561198156893557,"connected_time":1133000000000,"state":"active","ping":104},{"user_id":21,"name":"[Sheep] Tomco","steam_id":76561198388549261,"connected_time":1783000000000,"state":"active","ping":61},{"user_id":29,"name":"bozo","steam_id":76561198928909138,"connected_time":1568000000000,"state":"active","ping":45},{"user_id":36,"name":"LV TRAPAHOLIKS","steam_id":76561198141151763,"connected_time":995000000000,"state":"active","ping":83},{"user_id":46,"name":"Neimon","steam_id":76561198343485710,"connected_time":157000000000,"state":"active","ping":134},{"user_id":37,"name":"cl1x","steam_id":76561198066687157,"connected_time":950000000000,"state":"active","ping":92},{"user_id":38,"name":"RobTheKid","steam_id":76561198346638308,"connected_time":934000000000,"state":"active","ping":59},{"user_id":39,"name":"0","steam_id":76561199084809092,"connected_time":743000000000,"state":"active","ping":110},{"user_id":40,"name":"stun","steam_id":76561198276681691,"connected_time":726000000000,"state":"active","ping":42},{"user_id":43,"name":"SEX","steam_id":76561198382281653,"connected_time":466000000000,"state":"active","ping":90},{"user_id":48,"name":"Enigmus","steam_id":76561197994063627,"connected_time":111000000000,"state":"active","ping":105},{"user_id":50,"name":"Susu","steam_id":76561198269866537,"connected_time":4000000000,"state":"spawning","ping":74}]},{"server_id":21,"name":"Uncletopia | London | 5 | All Maps","name_short":"lon-5","host":"lon-1.uk.uncletopia.com","port":27055,"enabled":true,"region":"eu","cc":"gb","latitude":51.509865,"longitude":-0.118092,"reserved":0,"last_update":"0001-01-01T00:00:00Z","name_a2s":"Uncletopia | London | 5 | All Maps","protocol":17,"map":"pl_frontier_final","folder":"tf","game":"Team Fortress","app_id":440,"player_count":0,"max_players":24,"Bots":0,"server_type":"Dedicated","server_os":"Linux","password":true,"vac":true,"version":"7882260","steam_id":85568392924742829,"keywords":["nocrits","nodmgspread","payload","uncletopia"],"game_id":440,"stv_port":27056,"stv_name":"Uncletopia | London | 5 | All Maps | STV","players":null},{"server_id":22,"name":"Uncletopia | London | 6 | All Maps","name_short":"lon-6","host":"lon-1.uk.uncletopia.com","port":27065,"enabled":true,"region":"eu","cc":"gb","latitude":51.509865,"longitude":-0.118092,"reserved":0,"last_update":"0001-01-01T00:00:00Z","name_a2s":"Uncletopia | London | 6 | All Maps","protocol":17,"map":"cp_altitude","folder":"tf","game":"Team Fortress","app_id":440,"player_count":0,"max_players":24,"Bots":0,"server_type":"Dedicated","server_os":"Linux","password":true,"vac":true,"version":"7882260","steam_id":85568392924742830,"keywords":["cp","nocrits","nodmgspread","uncletopia"],"game_id":440,"stv_port":27066,"stv_name":"Uncletopia | London | 6 | All Maps | STV","players":null},{"server_id":40,"name":"Uncletopia | London | 7 | No Payload","name_short":"lon-7","host":"lon-1.uk.uncletopia.com","port":27075,"enabled":true,"region":"eu","cc":"gb","latitude":51.509865,"longitude":-0.118092,"reserved":0,"last_update":"0001-01-01T00:00:00Z","name_a2s":"Uncletopia | London | 7 | No Payload","protocol":17,"map":"pl_pier","folder":"tf","game":"Team Fortress","app_id":440,"player_count":0,"max_players":24,"Bots":0,"server_type":"Dedicated","server_os":"Linux","password":true,"vac":true,"version":"7882260","steam_id":85568392924964314,"keywords":["nocrits","nodmgspread","payload","uncletopia"],"game_id":440,"stv_port":27076,"stv_name":"Uncletopia | London | 7 | No Payload | STV","players":null},{"server_id":41,"name":"Uncletopia | London | 8 | Community","name_short":"lon-8","host":"lon-1.uk.uncletopia.com","port":27085,"enabled":true,"region":"eu","cc":"gb","latitude":51.509865,"longitude":-0.118092,"reserved":0,"last_update":"0001-01-01T00:00:00Z","name_a2s":"Uncletopia | London | 8 | Community","protocol":17,"map":"pl_swiftwater_final1","folder":"tf","game":"Team Fortress","app_id":440,"player_count":0,"max_players":24,"Bots":0,"server_type":"Dedicated","server_os":"Linux","password":true,"vac":true,"version":"7882260","steam_id":85568392924964315,"keywords":["nocrits","nodmgspread","payload","uncletopia"],"game_id":440,"stv_port":27086,"stv_name":"Uncletopia | London | 8 | Community | STV","players":null},{"server_id":300,"name":"Uncletopia | Montréal | 1 | All Maps","name_short":"mtl-1","host":"mtl-1.ca.uncletopia.com","port":27015,"enabled":true,"region":"us-east","cc":"ca","latitude":45.50889,"longitude":-73.56167,"reserved":0,"last_update":"0001-01-01T00:00:00Z","name_a2s":"Uncletopia | Montréal | 1 | All Maps","protocol":17,"map":"cp_altitude","folder":"tf","game":"Team Fortress","app_id":440,"player_count":0,"max_players":24,"Bots":0,"server_type":"Dedicated","server_os":"Linux","password":true,"vac":true,"version":"7882260","steam_id":85568392924500087,"keywords":["cp","nocrits","nodmgspread","uncletopia"],"game_id":440,"stv_port":27016,"stv_name":"Uncletopia | Montréal | 1 | All Maps | STV","players":null},{"server_id":301,"name":"Uncletopia | Montréal | 2 | All Maps","name_short":"mtl-2","host":"mtl-1.ca.uncletopia.com","port":27025,"enabled":true,"region":"us-east","cc":"ca","latitude":45.50889,"longitude":-73.56167,"reserved":0,"last_update":"0001-01-01T00:00:00Z","name_a2s":"Uncletopia | Montréal | 2 | All Maps","protocol":17,"map":"koth_cascade","folder":"tf","game":"Team Fortress","app_id":440,"player_count":0,"max_players":24,"Bots":0,"server_type":"Dedicated","server_os":"Linux","password":true,"vac":true,"version":"7882260","steam_id":85568392924500088,"keywords":["cp","nocrits","nodmgspread","uncletopia"],"game_id":440,"stv_port":27026,"stv_name":"Uncletopia | Montréal | 2 | All Maps | STV","players":null},{"server_id":302,"name":"Uncletopia | Montréal | 3 | All Maps","name_short":"mtl-3","host":"mtl-1.ca.uncletopia.com","port":27035,"enabled":true,"region":"us-east","cc":"ca","latitude":45.50889,"longitude":-73.56167,"reserved":0,"last_update":"0001-01-01T00:00:00Z","name_a2s":"Uncletopia | Montréal | 3 | All Maps","protocol":17,"map":"koth_highpass","folder":"tf","game":"Team Fortress","app_id":440,"player_count":0,"max_players":24,"Bots":0,"server_type":"Dedicated","server_os":"Linux","password":true,"vac":true,"version":"7882260","steam_id":85568392924500089,"keywords":["cp","nocrits","nodmgspread","uncletopia"],"game_id":440,"stv_port":27036,"stv_name":"Uncletopia | Montréal | 3 | All Maps | STV","players":null},{"server_id":303,"name":"Uncletopia | Montréal | 4 | No Payload","name_short":"mtl-4","host":"mtl-1.ca.uncletopia.com","port":27045,"enabled":true,"region":"us-east","cc":"ca","latitude":45.50889,"longitude":-73.56167,"reserved":0,"last_update":"0001-01-01T00:00:00Z","name_a2s":"Uncletopia | Montréal | 4 | No Payload","protocol":17,"map":"koth_highpass","folder":"tf","game":"Team Fortress","app_id":440,"player_count":3,"max_players":24,"Bots":0,"server_type":"Dedicated","server_os":"Linux","password":true,"vac":true,"version":"7882260","steam_id":85568392924500090,"keywords":["cp","nocrits","nodmgspread","uncletopia"],"game_id":440,"stv_port":27046,"stv_name":"Uncletopia | Montréal | 4 | No Payload | STV","players":[{"user_id":195,"name":"Evil UnusualSandwich","steam_id":76561198250215874,"connected_time":182000000000,"state":"active","ping":72},{"user_id":196,"name":"MvM Maid","steam_id":76561198163665060,"connected_time":151000000000,"state":"active","ping":116},{"user_id":197,"name":"Addison","steam_id":76561198128173568,"connected_time":3000000000,"state":"spawning","ping":48}]},{"server_id":13,"name":"Uncletopia | New York City | 1 | All Maps","name_short":"nyc-1","host":"nyc-1.us.uncletopia.com","port":27015,"enabled":true,"region":"us-east","cc":"us","latitude":40.73061,"longitude":-73.93524,"reserved":0,"last_update":"0001-01-01T00:00:00Z","name_a2s":"Uncletopia | New York City | 1 | All Maps","protocol":17,"map":"pl_borneo","folder":"tf","game":"Team Fortress","app_id":440,"player_count":24,"max_players":24,"Bots":0,"server_type":"Dedicated","server_os":"Linux","password":true,"vac":true,"version":"7882260","steam_id":85568392924469993,"keywords":["nocrits","nodmgspread","payload","uncletopia"],"game_id":440,"stv_port":27016,"stv_name":"Uncletopia | New York City | 1 | All Maps | STV","players":[{"user_id":727,"name":"Bocchi the Cock","steam_id":76561198152455316,"connected_time":4872000000000,"state":"active","ping":141},{"user_id":757,"name":"ƐՌѴƳ","steam_id":76561198099470277,"connected_time":1254000000000,"state":"active","ping":82},{"user_id":748,"name":"BigDeac","steam_id":76561198091237274,"connected_time":3429000000000,"state":"active","ping":70},{"user_id":758,"name":"Jerkface","steam_id":76561198130815383,"connected_time":1222000000000,"state":"active","ping":82},{"user_id":688,"name":"Leo","steam_id":76561198088304064,"connected_time":7576000000000,"state":"active","ping":50},{"user_id":759,"name":"Iron","steam_id":76561198247918478,"connected_time":1216000000000,"state":"active","ping":70},{"user_id":777,"name":"get that pyeppah off now","steam_id":76561198054070811,"connected_time":338000000000,"state":"active","ping":120},{"user_id":761,"name":"La'Flame","steam_id":76561198979341213,"connected_time":1176000000000,"state":"active","ping":78},{"user_id":771,"name":"wokwok","steam_id":76561198137743898,"connected_time":600000000000,"state":"active","ping":66},{"user_id":746,"name":"--_Cook_--","steam_id":76561198080855748,"connected_time":3445000000000,"state":"active","ping":52},{"user_id":762,"name":"Srattinee","steam_id":76561198199840395,"connected_time":1090000000000,"state":"active","ping":75},{"user_id":766,"name":"Golden","steam_id":76561199128320581,"connected_time":966000000000,"state":"active","ping":108},{"user_id":779,"name":"SomeGuy","steam_id":76561198350585861,"connected_time":245000000000,"state":"active","ping":78},{"user_id":705,"name":"C papi","steam_id":76561198027779564,"connected_time":6677000000000,"state":"active","ping":56},{"user_id":764,"name":"Czar","steam_id":76561198165585182,"connected_time":1072000000000,"state":"active","ping":77},{"user_id":769,"name":"Flashtasm","steam_id":76561198026635660,"connected_time":828000000000,"state":"active","ping":72},{"user_id":706,"name":"SNOW SNOWER","steam_id":76561198014919412,"connected_time":6531000000000,"state":"active","ping":45},{"user_id":728,"name":"Riley","steam_id":76561198123389438,"connected_time":4868000000000,"state":"active","ping":61},{"user_id":767,"name":"Tit fucker 1985","steam_id":76561198128156322,"connected_time":951000000000,"state":"active","ping":48},{"user_id":751,"name":"SHADY SWEATER SALESMAN","steam_id":76561198014616865,"connected_time":3375000000000,"state":"active","ping":60},{"user_id":731,"name":"Kyle","steam_id":76561198105307551,"connected_time":4847000000000,"state":"active","ping":59},{"user_id":743,"name":"noah","steam_id":76561198173310157,"connected_time":3829000000000,"state":"active","ping":68},{"user_id":756,"name":"Chrisscar","steam_id":76561198086298130,"connected_time":1329000000000,"state":"active","ping":118},{"user_id":768,"name":"Ash_Follow3","steam_id":76561199150479264,"connected_time":946000000000,"state":"active","ping":73}]},{"server_id":14,"name":"Uncletopia | New York City | 2 | All Maps","name_short":"nyc-2","host":"nyc-1.us.uncletopia.com","port":27025,"enabled":true,"region":"us-east","cc":"us","latitude":40.73061,"longitude":-73.93524,"reserved":0,"last_update":"0001-01-01T00:00:00Z","name_a2s":"Uncletopia | New York City | 2 | All Maps","protocol":17,"map":"pl_snowycoast","folder":"tf","game":"Team Fortress","app_id":440,"player_count":24,"max_players":24,"Bots":0,"server_type":"Dedicated","server_os":"Linux","password":true,"vac":true,"version":"7882260","steam_id":85568392924469994,"keywords":["nocrits","nodmgspread","payload","uncletopia"],"game_id":440,"stv_port":27026,"stv_name":"Uncletopia | New York City | 2 | All Maps | STV","players":[{"user_id":879,"name":"|AG| Level","steam_id":76561198063633592,"connected_time":339000000000,"state":"active","ping":95},{"user_id":848,"name":"Ethan","steam_id":76561198371216468,"connected_time":2559000000000,"state":"active","ping":92},{"user_id":868,"name":"Green Icicle","steam_id":76561198069624529,"connected_time":926000000000,"state":"active","ping":108},{"user_id":860,"name":"the worst tf2 player ever","steam_id":76561198330205913,"connected_time":1588000000000,"state":"active","ping":61},{"user_id":718,"name":"Horrizan","steam_id":76561197965028480,"connected_time":14201000000000,"state":"active","ping":86},{"user_id":867,"name":"RAT LUNG (HAWAII LETTUCE)","steam_id":76561197970111837,"connected_time":1003000000000,"state":"active","ping":80},{"user_id":872,"name":"Huge Jackman","steam_id":76561198098142914,"connected_time":693000000000,"state":"active","ping":85},{"user_id":869,"name":"Testiclitz Penischmidt","steam_id":76561198050582941,"connected_time":900000000000,"state":"active","ping":66},{"user_id":871,"name":"reallyfriendly","steam_id":76561197996819313,"connected_time":871000000000,"state":"active","ping":72},{"user_id":847,"name":"5ShellHung","steam_id":76561198046011621,"connected_time":2815000000000,"state":"active","ping":43},{"user_id":870,"name":"ShellShotty","steam_id":76561198023113266,"connected_time":883000000000,"state":"active","ping":60},{"user_id":873,"name":"CollegeBabes","steam_id":76561198346710167,"connected_time":680000000000,"state":"active","ping":70},{"user_id":875,"name":"quint","steam_id":76561198046797995,"connected_time":649000000000,"state":"active","ping":75},{"user_id":876,"name":"p.kaczmarek","steam_id":76561197994659597,"connected_time":604000000000,"state":"active","ping":152},{"user_id":854,"name":"the beach that makes you old","steam_id":76561198008332777,"connected_time":2213000000000,"state":"active","ping":58},{"user_id":878,"name":"Liberty Prime [Dexgod]","steam_id":76561198017130786,"connected_time":531000000000,"state":"active","ping":71},{"user_id":880,"name":"ArcticJames","steam_id":76561198336826959,"connected_time":318000000000,"state":"active","ping":129},{"user_id":810,"name":"squidgamer89","steam_id":76561198368108050,"connected_time":6825000000000,"state":"active","ping":33},{"user_id":863,"name":"Rudy","steam_id":76561198013456828,"connected_time":1400000000000,"state":"active","ping":58},{"user_id":834,"name":"Scooter O'Boyl","steam_id":76561197971687069,"connected_time":4415000000000,"state":"active","ping":57},{"user_id":862,"name":"Tidwell","steam_id":76561198037414410,"connected_time":1467000000000,"state":"active","ping":59},{"user_id":859,"name":"Constipated Barry","steam_id":76561198004482269,"connected_time":1773000000000,"state":"active","ping":111},{"user_id":881,"name":"NewerCoke","steam_id":76561198042911847,"connected_time":304000000000,"state":"active","ping":71}]},{"server_id":15,"name":"Uncletopia | New York City | 3 | Stopwatch Beta","name_short":"nyc-3","host":"nyc-1.us.uncletopia.com","port":27035,"enabled":true,"region":"us-east","cc":"us","latitude":40.73061,"longitude":-73.93524,"reserved":0,"last_update":"0001-01-01T00:00:00Z","name_a2s":"Uncletopia | New York City | 3 | Stopwatch Beta","protocol":17,"map":"koth_highpass","folder":"tf","game":"Team Fortress","app_id":440,"player_count":0,"max_players":24,"Bots":0,"server_type":"Dedicated","server_os":"Linux","password":true,"vac":true,"version":"7882260","steam_id":85568392924742820,"keywords":["cp","nocrits","nodmgspread","uncletopia"],"game_id":440,"stv_port":27036,"stv_name":"Uncletopia | New York City | 3 | Stopwatch Beta | STV","players":null},{"server_id":16,"name":"Uncletopia | New York City | 4 | Community","name_short":"nyc-4","host":"nyc-1.us.uncletopia.com","port":27045,"enabled":true,"region":"us-east","cc":"us","latitude":40.73061,"longitude":-73.93524,"reserved":0,"last_update":"0001-01-01T00:00:00Z","name_a2s":"Uncletopia | New York City | 4 | Community","protocol":17,"map":"workshop/cp_sulfur_rc2.ugc619869471","folder":"tf","game":"Team Fortress","app_id":440,"player_count":0,"max_players":24,"Bots":0,"server_type":"Dedicated","server_os":"Linux","password":true,"vac":true,"version":"7882260","steam_id":85568392924742821,"keywords":["cp","nocrits","nodmgspread","uncletopia"],"game_id":440,"stv_port":27046,"stv_name":"Uncletopia | New York City | 4 | Community | STV","players":null},{"server_id":142,"name":"Uncletopia | São Paulo | 1 | All Maps","name_short":"sao-1","host":"sao-1.br.uncletopia.com","port":27015,"enabled":true,"region":"sa","cc":"br","latitude":-23.533773,"longitude":-46.62529,"reserved":0,"last_update":"0001-01-01T00:00:00Z","name_a2s":"Uncletopia | São Paulo | 1 | All Maps","protocol":17,"map":"pl_pier","folder":"tf","game":"Team Fortress","app_id":440,"player_count":0,"max_players":24,"Bots":0,"server_type":"Dedicated","server_os":"Linux","password":true,"vac":true,"version":"7882260","steam_id":85568392924469996,"keywords":["nocrits","nodmgspread","payload","uncletopia"],"game_id":440,"stv_port":27016,"stv_name":"Uncletopia | São Paulo | 1 | All Maps | STV","players":null},{"server_id":143,"name":"Uncletopia | São Paulo | 2 | All Maps","name_short":"sao-2","host":"sao-2.br.uncletopia.com","port":27015,"enabled":true,"region":"sa","cc":"br","latitude":-23.533773,"longitude":-46.62529,"reserved":0,"last_update":"0001-01-01T00:00:00Z","name_a2s":"Uncletopia | São Paulo | 2 | All Maps","protocol":17,"map":"koth_viaduct","folder":"tf","game":"Team Fortress","app_id":440,"player_count":0,"max_players":24,"Bots":0,"server_type":"Dedicated","server_os":"Linux","password":true,"vac":true,"version":"7882260","steam_id":85568392924485349,"keywords":["cp","nocrits","nodmgspread","uncletopia"],"game_id":440,"stv_port":27016,"stv_name":"Uncletopia | São Paulo | 2 | All Maps | STV","players":null},{"server_id":7,"name":"Uncletopia | Seattle | 1 | All Maps","name_short":"sea-1","host":"sea-1.us.uncletopia.com","port":27015,"enabled":true,"region":"us-west","cc":"us","latitude":47.608013,"longitude":-122.33517,"reserved":0,"last_update":"0001-01-01T00:00:00Z","name_a2s":"Uncletopia | Seattle | 1 | All Maps","protocol":17,"map":"koth_lakeside_final","folder":"tf","game":"Team Fortress","app_id":440,"player_count":23,"max_players":24,"Bots":0,"server_type":"Dedicated","server_os":"Linux","password":true,"vac":true,"version":"7882260","steam_id":85568392924469997,"keywords":["cp","nocrits","nodmgspread","uncletopia"],"game_id":440,"stv_port":27016,"stv_name":"Uncletopia | Seattle | 1 | All Maps | STV","players":[{"user_id":779,"name":"abaddon_amogTTV #savetf2","steam_id":76561198268581959,"connected_time":444000000000,"state":"active","ping":65},{"user_id":780,"name":"a cat plushie","steam_id":76561198080046542,"connected_time":433000000000,"state":"active","ping":45},{"user_id":793,"name":"The premium licking experience","steam_id":76561199213456232,"connected_time":56000000000,"state":"active","ping":78},{"user_id":777,"name":"ImmuneToPeas","steam_id":76561198342411594,"connected_time":538000000000,"state":"active","ping":59},{"user_id":782,"name":"JonBoy","steam_id":76561198082052480,"connected_time":411000000000,"state":"active","ping":82},{"user_id":778,"name":"Femboi Fox","steam_id":76561198915758702,"connected_time":521000000000,"state":"active","ping":55},{"user_id":783,"name":"W.Crow","steam_id":76561198074183597,"connected_time":387000000000,"state":"active","ping":66},{"user_id":729,"name":"Username","steam_id":76561198855586261,"connected_time":3314000000000,"state":"active","ping":66},{"user_id":784,"name":"Vandhoming","steam_id":76561198183775386,"connected_time":374000000000,"state":"active","ping":66},{"user_id":785,"name":"squash","steam_id":76561198150281353,"connected_time":371000000000,"state":"active","ping":56},{"user_id":786,"name":"Thundalife","steam_id":76561198254523198,"connected_time":362000000000,"state":"active","ping":48},{"user_id":795,"name":"Bugc97","steam_id":76561198007662645,"connected_time":2000000000,"state":"spawning","ping":94},{"user_id":787,"name":"Seriously Bruh","steam_id":76561198070408485,"connected_time":289000000000,"state":"active","ping":48},{"user_id":740,"name":"Avaez","steam_id":76561198056248743,"connected_time":3020000000000,"state":"active","ping":47},{"user_id":724,"name":"Bottom Trans Cowgirl","steam_id":76561198304239680,"connected_time":4224000000000,"state":"active","ping":122},{"user_id":788,"name":"Hatfam","steam_id":76561199192629036,"connected_time":287000000000,"state":"active","ping":81},{"user_id":741,"name":"Goat Boat","steam_id":76561198063403028,"connected_time":3001000000000,"state":"active","ping":127},{"user_id":790,"name":"Artyom","steam_id":76561198152149679,"connected_time":262000000000,"state":"active","ping":44},{"user_id":765,"name":"Luckyminer","steam_id":76561198376599885,"connected_time":1012000000000,"state":"active","ping":102},{"user_id":791,"name":"sims4","steam_id":76561198301887399,"connected_time":134000000000,"state":"active","ping":155},{"user_id":768,"name":"Surfing Garchomp","steam_id":76561199107236884,"connected_time":980000000000,"state":"active","ping":52},{"user_id":769,"name":"Quon Grene for Vice Prez","steam_id":76561198127545817,"connected_time":978000000000,"state":"active","ping":91},{"user_id":792,"name":"gnoblin","steam_id":76561198314221897,"connected_time":126000000000,"state":"active","ping":50}]},{"server_id":119,"name":"Uncletopia | Seattle | 2 | All Maps","name_short":"sea-2","host":"sea-1.us.uncletopia.com","port":27025,"enabled":true,"region":"us-west","cc":"us","latitude":47.608013,"longitude":-122.33517,"reserved":0,"last_update":"0001-01-01T00:00:00Z","name_a2s":"Uncletopia | Seattle | 2 | All Maps","protocol":17,"map":"pl_borneo","folder":"tf","game":"Team Fortress","app_id":440,"player_count":24,"max_players":24,"Bots":0,"server_type":"Dedicated","server_os":"Linux","password":true,"vac":true,"version":"7882260","steam_id":85568392924469998,"keywords":["nocrits","nodmgspread","payload","uncletopia"],"game_id":440,"stv_port":27026,"stv_name":"Uncletopia | Seattle | 2 | All Maps | STV","players":[{"user_id":724,"name":"Soda Popinski","steam_id":76561198045209288,"connected_time":241000000000,"state":"active","ping":72},{"user_id":708,"name":"MINI CRIT!999","steam_id":76561198027649268,"connected_time":1513000000000,"state":"active","ping":90},{"user_id":691,"name":"Finkly","steam_id":76561198049828110,"connected_time":2801000000000,"state":"active","ping":45},{"user_id":728,"name":"Soph The Dark Elf","steam_id":76561198294426385,"connected_time":184000000000,"state":"active","ping":105},{"user_id":714,"name":"CPTforever","steam_id":76561198237767198,"connected_time":1269000000000,"state":"active","ping":63},{"user_id":727,"name":"Biggest Dude In Town 4U","steam_id":76561198070281464,"connected_time":199000000000,"state":"active","ping":116},{"user_id":722,"name":"amagicowl","steam_id":76561199060487814,"connected_time":279000000000,"state":"active","ping":61},{"user_id":656,"name":"toilet mafia","steam_id":76561198844273999,"connected_time":5750000000000,"state":"active","ping":44},{"user_id":710,"name":"Blitz","steam_id":76561198138737168,"connected_time":1497000000000,"state":"active","ping":57},{"user_id":696,"name":"bigindarug","steam_id":76561198165784818,"connected_time":2515000000000,"state":"active","ping":74},{"user_id":715,"name":"lilypad\u003c/3","steam_id":76561198094140669,"connected_time":1258000000000,"state":"active","ping":71},{"user_id":697,"name":"Stev the Prurient Oxymoron","steam_id":76561197999442625,"connected_time":2515000000000,"state":"active","ping":61},{"user_id":683,"name":"Dunkle","steam_id":76561198041903573,"connected_time":3940000000000,"state":"active","ping":44},{"user_id":618,"name":"SvicidalBug","steam_id":76561198221390504,"connected_time":7917000000000,"state":"active","ping":71},{"user_id":717,"name":"meowdy :3","steam_id":76561198107941274,"connected_time":715000000000,"state":"active","ping":77},{"user_id":672,"name":"Thanks Ants","steam_id":76561197966221018,"connected_time":4995000000000,"state":"active","ping":50},{"user_id":723,"name":"Keamy","steam_id":76561199471434875,"connected_time":277000000000,"state":"active","ping":43},{"user_id":659,"name":"Facepalm","steam_id":76561198001935226,"connected_time":5731000000000,"state":"active","ping":75},{"user_id":686,"name":"BoredBunny","steam_id":76561198243610560,"connected_time":3091000000000,"state":"active","ping":74},{"user_id":712,"name":"2Fort Cactus","steam_id":76561199273395913,"connected_time":1418000000000,"state":"active","ping":50},{"user_id":623,"name":"ROGUE-PLANET","steam_id":76561198116023052,"connected_time":7632000000000,"state":"active","ping":79},{"user_id":699,"name":"Sinn","steam_id":76561199013434543,"connected_time":1991000000000,"state":"active","ping":74},{"user_id":713,"name":"noelle","steam_id":76561198842577534,"connected_time":1413000000000,"state":"active","ping":57},{"user_id":720,"name":"white obama","steam_id":76561199465040669,"connected_time":364000000000,"state":"active","ping":53}]},{"server_id":406,"name":"Uncletopia | Seattle | 3 | Stopwatch Beta","name_short":"sea-3","host":"sea-1.us.uncletopia.com","port":27035,"enabled":true,"region":"us-west","cc":"us","latitude":47.608013,"longitude":-122.33517,"reserved":0,"last_update":"0001-01-01T00:00:00Z","name_a2s":"Uncletopia | Seattle | 3 | Stopwatch Beta","protocol":17,"map":"workshop/koth_bagel_rc6.ugc2514036946","folder":"tf","game":"Team Fortress","app_id":440,"player_count":0,"max_players":24,"Bots":0,"server_type":"Dedicated","server_os":"Linux","password":true,"vac":true,"version":"7882260","steam_id":85568392924515217,"keywords":["cp","nocrits","nodmgspread","uncletopia"],"game_id":440,"stv_port":27036,"stv_name":"Uncletopia | Seattle | 3 | Stopwatch Beta | STV","players":null},{"server_id":17,"name":"Uncletopia | San Francisco | 1 | All Maps","name_short":"sfo-1","host":"sfo-1.us.uncletopia.com","port":27015,"enabled":true,"region":"us-west","cc":"us","latitude":37.77397,"longitude":-122.4313,"reserved":0,"last_update":"0001-01-01T00:00:00Z","name_a2s":"Uncletopia | San Francisco | 1 | All Maps","protocol":17,"map":"cp_process_final","folder":"tf","game":"Team Fortress","app_id":440,"player_count":0,"max_players":24,"Bots":0,"server_type":"Dedicated","server_os":"Linux","password":true,"vac":true,"version":"7757534","steam_id":85568392924469999,"keywords":["cp","nocrits","nodmgspread","uncletopia"],"game_id":440,"stv_port":27016,"stv_name":"Uncletopia | San Francisco | 1 | All Maps | STV","players":null},{"server_id":18,"name":"Uncletopia | San Francisco | 2 | All Maps","name_short":"sfo-2","host":"sfo-1.us.uncletopia.com","port":27025,"enabled":true,"region":"us-west","cc":"us","latitude":37.77397,"longitude":-122.4313,"reserved":0,"last_update":"0001-01-01T00:00:00Z","name_a2s":"Uncletopia | San Francisco | 2 | All Maps","protocol":17,"map":"koth_highpass","folder":"tf","game":"Team Fortress","app_id":440,"player_count":0,"max_players":24,"Bots":0,"server_type":"Dedicated","server_os":"Linux","password":true,"vac":true,"version":"7757534","steam_id":85568392924470000,"keywords":["cp","nocrits","nodmgspread","uncletopia"],"game_id":440,"stv_port":27026,"stv_name":"Uncletopia | San Francisco | 2 | All Maps | STV","players":null},{"server_id":19,"name":"Uncletopia | San Francisco | 3 | Stopwatch Beta","name_short":"sfo-3","host":"sfo-1.us.uncletopia.com","port":27035,"enabled":true,"region":"us-west","cc":"us","latitude":37.77397,"longitude":-122.4313,"reserved":0,"last_update":"0001-01-01T00:00:00Z","name_a2s":"Uncletopia | San Francisco | 3 | Stopwatch Beta","protocol":17,"map":"koth_lakeside_final","folder":"tf","game":"Team Fortress","app_id":440,"player_count":0,"max_players":24,"Bots":0,"server_type":"Dedicated","server_os":"Linux","password":true,"vac":true,"version":"7757534","steam_id":85568392924742824,"keywords":["cp","nocrits","nodmgspread","uncletopia"],"game_id":440,"stv_port":27036,"stv_name":"Uncletopia | San Francisco | 3 | Stopwatch Beta | STV","players":null},{"server_id":20,"name":"Uncletopia | San Francisco | 4 | Community","name_short":"sfo-4","host":"sfo-1.us.uncletopia.com","port":27045,"enabled":true,"region":"us-west","cc":"us","latitude":37.77397,"longitude":-122.4313,"reserved":0,"last_update":"0001-01-01T00:00:00Z","name_a2s":"Uncletopia | San Francisco | 4 | Community","protocol":17,"map":"cp_altitude","folder":"tf","game":"Team Fortress","app_id":440,"player_count":0,"max_players":24,"Bots":0,"server_type":"Dedicated","server_os":"Linux","password":true,"vac":true,"version":"7757534","steam_id":85568392924742826,"keywords":["cp","nocrits","nodmgspread","uncletopia"],"game_id":440,"stv_port":27046,"stv_name":"Uncletopia | San Francisco | 4 | Community | STV","players":null},{"server_id":141,"name":"Uncletopia | Sydney | 1 | All Maps","name_short":"syd-1","host":"syd-1.au.uncletopia.com","port":27015,"enabled":true,"region":"au","cc":"au","latitude":-33.865143,"longitude":151.2099,"reserved":0,"last_update":"0001-01-01T00:00:00Z","name_a2s":"Uncletopia | Sydney | 1 | All Maps","protocol":17,"map":"pl_upward","folder":"tf","game":"Team Fortress","app_id":440,"player_count":15,"max_players":24,"Bots":0,"server_type":"Dedicated","server_os":"Linux","password":true,"vac":true,"version":"7882260","steam_id":85568392924470001,"keywords":["nocrits","nodmgspread","payload","uncletopia"],"game_id":440,"stv_port":27016,"stv_name":"Uncletopia | Sydney | 1 | All Maps | STV","players":[{"user_id":271,"name":"Denszeal","steam_id":76561198313718095,"connected_time":1555000000000,"state":"active","ping":75},{"user_id":281,"name":"miyamoto is daddy","steam_id":76561199483818230,"connected_time":516000000000,"state":"active","ping":74},{"user_id":268,"name":"Branko","steam_id":76561199262196710,"connected_time":2317000000000,"state":"active","ping":36},{"user_id":278,"name":"TheChainsaw","steam_id":76561198312001455,"connected_time":639000000000,"state":"active","ping":299},{"user_id":284,"name":"platon","steam_id":76561199213703782,"connected_time":448000000000,"state":"active","ping":154},{"user_id":282,"name":"jini","steam_id":76561197960409237,"connected_time":495000000000,"state":"active","ping":55},{"user_id":285,"name":"Sir. Culation","steam_id":76561198174085434,"connected_time":447000000000,"state":"active","ping":262},{"user_id":287,"name":"KeeperOfBalance","steam_id":76561198028070089,"connected_time":403000000000,"state":"active","ping":88},{"user_id":288,"name":"Worst Sniper","steam_id":76561198025733081,"connected_time":402000000000,"state":"active","ping":74},{"user_id":290,"name":"Clueless L plater","steam_id":76561198169746374,"connected_time":376000000000,"state":"active","ping":65},{"user_id":298,"name":"Phibs","steam_id":76561199323730865,"connected_time":221000000000,"state":"active","ping":42},{"user_id":292,"name":"Sparky","steam_id":76561198117687688,"connected_time":370000000000,"state":"active","ping":60},{"user_id":293,"name":"covenofbats","steam_id":76561198152117315,"connected_time":368000000000,"state":"active","ping":44},{"user_id":300,"name":"rattlesnake jake","steam_id":76561199121517901,"connected_time":118000000000,"state":"active","ping":55},{"user_id":299,"name":"itsame","steam_id":76561198059284918,"connected_time":211000000000,"state":"active","ping":45}]},{"server_id":123,"name":"Uncletopia | Sydney | 2 | All Maps","name_short":"syd-2","host":"syd-1.au.uncletopia.com","port":27025,"enabled":true,"region":"au","cc":"au","latitude":-33.865143,"longitude":151.2099,"reserved":0,"last_update":"0001-01-01T00:00:00Z","name_a2s":"Uncletopia | Sydney | 2 | All Maps","protocol":17,"map":"cp_granary","folder":"tf","game":"Team Fortress","app_id":440,"player_count":21,"max_players":24,"Bots":0,"server_type":"Dedicated","server_os":"Linux","password":true,"vac":true,"version":"7882260","steam_id":85568392924470002,"keywords":["cp","nocrits","nodmgspread","uncletopia"],"game_id":440,"stv_port":27026,"stv_name":"Uncletopia | Sydney | 2 | All Maps | STV","players":[{"user_id":97,"name":"krandlez` (Any/All)","steam_id":76561198044839726,"connected_time":1390000000000,"state":"active","ping":42},{"user_id":31,"name":"Champ","steam_id":76561198119097735,"connected_time":6025000000000,"state":"active","ping":59},{"user_id":19,"name":"Y0shua3","steam_id":76561199381627916,"connected_time":7427000000000,"state":"active","ping":94},{"user_id":110,"name":"Zieria","steam_id":76561199261811388,"connected_time":124000000000,"state":"active","ping":40},{"user_id":107,"name":"Jodelkönig Franzl Lang","steam_id":76561198007667830,"connected_time":345000000000,"state":"active","ping":45},{"user_id":113,"name":"Planch","steam_id":76561199272069665,"connected_time":31000000000,"state":"active","ping":71},{"user_id":112,"name":"precious.","steam_id":76561198054804209,"connected_time":66000000000,"state":"active","ping":90},{"user_id":60,"name":"ADUCK","steam_id":76561198249887912,"connected_time":3696000000000,"state":"active","ping":65},{"user_id":84,"name":"Generic","steam_id":76561198832264022,"connected_time":2642000000000,"state":"active","ping":78},{"user_id":38,"name":"WussPoppinJimbo","steam_id":76561199111828033,"connected_time":4910000000000,"state":"active","ping":145},{"user_id":103,"name":"pancakelover","steam_id":76561198885258799,"connected_time":772000000000,"state":"active","ping":98},{"user_id":58,"name":"Rashid Of The Dank Memes","steam_id":76561198281398078,"connected_time":3923000000000,"state":"active","ping":60},{"user_id":106,"name":"whiteshaq","steam_id":76561198131988811,"connected_time":544000000000,"state":"active","ping":65},{"user_id":80,"name":"Cardboard (No mic gamer)","steam_id":76561199099769110,"connected_time":2838000000000,"state":"active","ping":54},{"user_id":51,"name":"AmethystDragon10","steam_id":76561198412979983,"connected_time":4202000000000,"state":"active","ping":86},{"user_id":79,"name":"L.ion","steam_id":76561198261172910,"connected_time":2921000000000,"state":"active","ping":54},{"user_id":95,"name":"Original Glazed (Krispy/Kreme)","steam_id":76561197997362731,"connected_time":1756000000000,"state":"active","ping":45},{"user_id":108,"name":"michael","steam_id":76561198052848358,"connected_time":179000000000,"state":"active","ping":61},{"user_id":100,"name":"l333am","steam_id":76561198363218204,"connected_time":937000000000,"state":"active","ping":64},{"user_id":99,"name":"Asl:3x","steam_id":76561198972095766,"connected_time":1079000000000,"state":"active","ping":32}]},{"server_id":395,"name":"Uncletopia | Sydney | 3 | All Maps","name_short":"syd-3","host":"syd-1.au.uncletopia.com","port":27035,"enabled":true,"region":"au","cc":"au","latitude":-33.865143,"longitude":151.2099,"reserved":0,"last_update":"0001-01-01T00:00:00Z","name_a2s":"Uncletopia | Sydney | 3 | All Maps","protocol":17,"map":"koth_viaduct","folder":"tf","game":"Team Fortress","app_id":440,"player_count":0,"max_players":24,"Bots":0,"server_type":"Dedicated","server_os":"Linux","password":true,"vac":true,"version":"7882260","steam_id":85568392925194467,"keywords":["cp","nocrits","nodmgspread","uncletopia"],"game_id":440,"stv_port":27036,"stv_name":"Uncletopia | Sydney | 3 | All Maps | STV","players":null},{"server_id":396,"name":"Uncletopia | Sydney | 4 | All Maps","name_short":"syd-4","host":"syd-1.au.uncletopia.com","port":27045,"enabled":true,"region":"au","cc":"au","latitude":-33.865143,"longitude":151.2099,"reserved":0,"last_update":"0001-01-01T00:00:00Z","name_a2s":"Uncletopia | Sydney | 4 | All Maps","protocol":17,"map":"cp_dustbowl","folder":"tf","game":"Team Fortress","app_id":440,"player_count":0,"max_players":24,"Bots":0,"server_type":"Dedicated","server_os":"Linux","password":true,"vac":true,"version":"7882260","steam_id":85568392925397958,"keywords":["cp","nocrits","nodmgspread","uncletopia"],"game_id":440,"stv_port":27046,"stv_name":"Uncletopia | Sydney | 4 | All Maps | STV","players":null},{"server_id":58,"name":"Uncletopia | Sydney | 5 | Stopwatch Beta","name_short":"syd-5","host":"syd-1.au.uncletopia.com","port":27055,"enabled":true,"region":"au","cc":"au","latitude":-33.865143,"longitude":151.2099,"reserved":0,"last_update":"0001-01-01T00:00:00Z","name_a2s":"Uncletopia | Sydney | 5 | Stopwatch Beta","protocol":17,"map":"workshop/pl_vigil_rc9.ugc1266210012","folder":"tf","game":"Team Fortress","app_id":440,"player_count":0,"max_players":24,"Bots":0,"server_type":"Dedicated","server_os":"Linux","password":true,"vac":true,"version":"7882260","steam_id":85568392925397959,"keywords":["nocrits","nodmgspread","payload","uncletopia"],"game_id":440,"stv_port":27056,"stv_name":"Uncletopia | Sydney | 5 | Stopwatch Beta | STV","players":null},{"server_id":59,"name":"Uncletopia | Sydney | 6 | Community","name_short":"syd-6","host":"syd-1.au.uncletopia.com","port":27065,"enabled":true,"region":"au","cc":"au","latitude":-33.865143,"longitude":151.2099,"reserved":0,"last_update":"0001-01-01T00:00:00Z","name_a2s":"Uncletopia | Sydney | 6 | Community","protocol":17,"map":"workshop/pl_divulgence_b4b.ugc2884808746","folder":"tf","game":"Team Fortress","app_id":440,"player_count":0,"max_players":24,"Bots":0,"server_type":"Dedicated","server_os":"Linux","password":true,"vac":true,"version":"7882260","steam_id":85568392925397960,"keywords":["nocrits","nodmgspread","payload","uncletopia"],"game_id":440,"stv_port":27066,"stv_name":"Uncletopia | Sydney | 6 | Community | STV","players":null},{"server_id":49,"name":"Uncletopia | Warsaw | 1 | All Maps","name_short":"waw-1","host":"waw-1.pl.uncletopia.com","port":27015,"enabled":true,"region":"eu","cc":"pl","latitude":52.2297,"longitude":21.017532,"reserved":0,"last_update":"0001-01-01T00:00:00Z","name_a2s":"","protocol":0,"map":"","folder":"","game":"","app_id":0,"player_count":0,"max_players":0,"Bots":0,"server_type":"","server_os":"","password":false,"vac":false,"version":"","steam_id":0,"keywords":null,"game_id":0,"stv_port":0,"stv_name":"","players":null},{"server_id":50,"name":"Uncletopia | Warsaw | 2 | All Maps","name_short":"waw-2","host":"waw-1.pl.uncletopia.com","port":27025,"enabled":true,"region":"eu","cc":"pl","latitude":52.2297,"longitude":21.017532,"reserved":0,"last_update":"0001-01-01T00:00:00Z","name_a2s":"Uncletopia | Warsaw | 2 | All Maps","protocol":17,"map":"pl_swiftwater_final1","folder":"tf","game":"Team Fortress","app_id":440,"player_count":0,"max_players":24,"Bots":0,"server_type":"Dedicated","server_os":"Linux","password":true,"vac":true,"version":"7882260","steam_id":85568392925397851,"keywords":["nocrits","nodmgspread","payload","uncletopia"],"game_id":440,"stv_port":27026,"stv_name":"Uncletopia | Warsaw | 2 | All Maps | STV","players":null},{"server_id":51,"name":"Uncletopia | Warsaw | 3 | All Maps","name_short":"waw-3","host":"waw-1.pl.uncletopia.com","port":27035,"enabled":true,"region":"eu","cc":"pl","latitude":52.2297,"longitude":21.017532,"reserved":0,"last_update":"0001-01-01T00:00:00Z","name_a2s":"Uncletopia | Warsaw | 3 | All Maps","protocol":17,"map":"koth_viaduct","folder":"tf","game":"Team Fortress","app_id":440,"player_count":0,"max_players":24,"Bots":0,"server_type":"Dedicated","server_os":"Linux","password":true,"vac":true,"version":"7882260","steam_id":85568392925397852,"keywords":["cp","nocrits","nodmgspread","uncletopia"],"game_id":440,"stv_port":27036,"stv_name":"Uncletopia | Warsaw | 3 | All Maps | STV","players":null},{"server_id":52,"name":"Uncletopia | Warsaw | 4 | All Maps","name_short":"waw-4","host":"waw-1.pl.uncletopia.com","port":27045,"enabled":true,"region":"eu","cc":"pl","latitude":52.2297,"longitude":21.017532,"reserved":0,"last_update":"0001-01-01T00:00:00Z","name_a2s":"Uncletopia | Warsaw | 4 | All Maps","protocol":17,"map":"koth_highpass","folder":"tf","game":"Team Fortress","app_id":440,"player_count":0,"max_players":24,"Bots":0,"server_type":"Dedicated","server_os":"Linux","password":true,"vac":true,"version":"7882260","steam_id":85568392925397853,"keywords":["cp","nocrits","nodmgspread","uncletopia"],"game_id":440,"stv_port":27046,"stv_name":"Uncletopia | Warsaw | 4 | All Maps | STV","players":null},{"server_id":53,"name":"Uncletopia | Warsaw | 5 | Stopwatch Beta","name_short":"waw-5","host":"waw-1.pl.uncletopia.com","port":27055,"enabled":true,"region":"eu","cc":"pl","latitude":52.2297,"longitude":21.017532,"reserved":0,"last_update":"0001-01-01T00:00:00Z","name_a2s":"Uncletopia | Warsaw | 5 | Stopwatch Beta","protocol":17,"map":"cp_mountainlab","folder":"tf","game":"Team Fortress","app_id":440,"player_count":0,"max_players":24,"Bots":0,"server_type":"Dedicated","server_os":"Linux","password":true,"vac":true,"version":"7882260","steam_id":85568392925397854,"keywords":["cp","nocrits","nodmgspread","uncletopia"],"game_id":440,"stv_port":27056,"stv_name":"Uncletopia | Warsaw | 5 | Stopwatch Beta | STV","players":null},{"server_id":54,"name":"Uncletopia | Warsaw | 6 | Community","name_short":"waw-6","host":"waw-1.pl.uncletopia.com","port":27065,"enabled":true,"region":"eu","cc":"pl","latitude":52.2297,"longitude":21.017532,"reserved":0,"last_update":"0001-01-01T00:00:00Z","name_a2s":"Uncletopia | Warsaw | 6 | Community","protocol":17,"map":"koth_viaduct","folder":"tf","game":"Team Fortress","app_id":440,"player_count":0,"max_players":24,"Bots":0,"server_type":"Dedicated","server_os":"Linux","password":true,"vac":true,"version":"7882260","steam_id":85568392925397856,"keywords":["cp","nocrits","nodmgspread","uncletopia"],"game_id":440,"stv_port":27066,"stv_name":"Uncletopia | Warsaw | 6 | Community | STV","players":null}]}