{"status":true,"message":"","result":[{"server_id":9,"name":"Uncletopia | Atlanta | 1 | All Maps","name_short":"atl-1","host":"atl-1.us.uncletopia.com","port":27015,"enabled":true,"region":"us-east","cc":"us","latitude":33.753746,"longitude":-84.38633,"reserved":0,"last_update":"0001-01-01T00:00:00Z","name_a2s":"Uncletopia | Atlanta | 1 | All Maps","protocol":17,"map":"koth_cascade","folder":"tf","game":"Team Fortress","app_id":440,"player_count":0,"max_players":24,"Bots":0,"server_type":"Dedicated","server_os":"Linux","password":true,"vac":true,"version":"7961495","steam_id":85568392924469982,"keywords":["cp","nocrits","nodmgspread","uncletopia"],"game_id":440,"stv_port":27016,"stv_name":"Uncletopia | Atlanta | 1 | All Maps | STV","players":null},{"server_id":104,"name":"Uncletopia | Atlanta | 2 | All Maps","name_short":"atl-2","host":"atl-1.us.uncletopia.com","port":27025,"enabled":true,"region":"us-east","cc":"us","latitude":33.753746,"longitude":-84.38633,"reserved":0,"last_update":"0001-01-01T00:00:00Z","name_a2s":"Uncletopia | Atlanta | 2 | All Maps","protocol":17,"map":"koth_viaduct","folder":"tf","game":"Team Fortress","app_id":440,"player_count":0,"max_players":24,"Bots":0,"server_type":"Dedicated","server_os":"Linux","password":true,"vac":true,"version":"7961495","steam_id":85568392924469983,"keywords":["cp","nocrits","nodmgspread","uncletopia"],"game_id":440,"stv_port":27026,"stv_name":"Uncletopia | Atlanta | 2 | All Maps | STV","players":null},{"server_id":400,"name":"Uncletopia | Atlanta | 3 | All Maps","name_short":"atl-3","host":"atl-1.us.uncletopia.com","port":27035,"enabled":true,"region":"us-east","cc":"us","latitude":33.753746,"longitude":-84.38633,"reserved":0,"last_update":"0001-01-01T00:00:00Z","name_a2s":"Uncletopia | Atlanta | 3 | All Maps","protocol":17,"map":"koth_lakeside_final","folder":"tf","game":"Team Fortress","app_id":440,"player_count":0,"max_players":24,"Bots":0,"server_type":"Dedicated","server_os":"Linux","password":true,"vac":true,"version":"7961495","steam_id":85568392924515187,"keywords":["cp","nocrits","nodmgspread","uncletopia"],"game_id":440,"stv_port":27036,"stv_name":"Uncletopia | Atlanta | 3 | All Maps | STV","players":null},{"server_id":401,"name":"Uncletopia | Atlanta | 4 | Community","name_short":"atl-4","host":"atl-1.us.uncletopia.com","port":27045,"enabled":true,"region":"us-east","cc":"us","latitude":33.753746,"longitude":-84.38633,"reserved":0,"last_update":"0001-01-01T00:00:00Z","name_a2s":"Uncletopia | Atlanta | 4 | Community","protocol":17,"map":"cp_dustbowl","folder":"tf","game":"Team Fortress","app_id":440,"player_count":0,"max_players":24,"Bots":0,"server_type":"Dedicated","server_os":"Linux","password":true,"vac":true,"version":"7961495","steam_id":85568392924515188,"keywords":["cp","nocrits","nodmgspread","uncletopia"],"game_id":440,"stv_port":27046,"stv_name":"Uncletopia | Atlanta | 4 | Community | STV","players":null},{"server_id":2,"name":"Uncletopia | Chicago | 1 | All Maps","name_short":"chi-1","host":"chi-1.us.uncletopia.com","port":27015,"enabled":true,"region":"us-central","cc":"us","latitude":41.881832,"longitude":-87.62318,"reserved":0,"last_update":"0001-01-01T00:00:00Z","name_a2s":"Uncletopia | Chicago | 1 | All Maps","protocol":17,"map":"plr_pipeline","folder":"tf","game":"Team Fortress","app_id":440,"player_count":24,"max_players":24,"Bots":0,"server_type":"Dedicated","server_os":"Linux","password":true,"vac":true,"version":"7961495","steam_id":85568392924469984,"keywords":["nocrits","nodmgspread","payload","uncletopia"],"game_id":440,"stv_port":27016,"stv_name":"Uncletopia | Chicago | 1 | All Maps | STV","players":[{"user_id":297,"name":"i suffer from ligma","steam_id":76561199158496518,"connected_time":1022000000000,"state":"active","ping":111},{"user_id":301,"name":"richard clock","steam_id":76561198048455671,"connected_time":704000000000,"state":"active","ping":56},{"user_id":287,"name":"giacomo","steam_id":76561198058560798,"connected_time":1791000000000,"state":"active","ping":60},{"user_id":284,"name":"lu","steam_id":76561198080731872,"connected_time":2046000000000,"state":"active","ping":70},{"user_id":303,"name":"BrainCell-Hazard","steam_id":76561199038566105,"connected_time":90000000000,"state":"active","ping":126},{"user_id":294,"name":"Chlorm","steam_id":76561198147052737,"connected_time":1223000000000,"state":"active","ping":43},{"user_id":262,"name":"Lunartik","steam_id":76561199004827382,"connected_time":3288000000000,"state":"active","ping":72},{"user_id":274,"name":"Your Local Queer Librarian","steam_id":76561198013077080,"connected_time":2459000000000,"state":"active","ping":59},{"user_id":263,"name":"Thewaffleman141","steam_id":76561198083068694,"connected_time":3197000000000,"state":"active","ping":70},{"user_id":305,"name":"Archer","steam_id":76561198341537452,"connected_time":16000000000,"state":"spawning","ping":80},{"user_id":105,"name":"Khun Aguero Agnes","steam_id":76561198055542546,"connected_time":14979000000000,"state":"active","ping":56},{"user_id":250,"name":"The Rock","steam_id":76561198433328517,"connected_time":4796000000000,"state":"active","ping":72},{"user_id":281,"name":"Brizuga","steam_id":76561198058722191,"connected_time":2140000000000,"state":"active","ping":75},{"user_id":243,"name":"._.","steam_id":76561198300316801,"connected_time":5148000000000,"state":"active","ping":59},{"user_id":298,"name":"the last Rhode Islander","steam_id":76561198330205913,"connected_time":911000000000,"state":"active","ping":89},{"user_id":285,"name":"NUt","steam_id":76561198031007966,"connected_time":1921000000000,"state":"active","ping":74},{"user_id":101,"name":"Rat Smoker","steam_id":76561198090419068,"connected_time":15562000000000,"state":"active","ping":127},{"user_id":295,"name":"Mog","steam_id":76561198025575870,"connected_time":1043000000000,"state":"active","ping":59},{"user_id":296,"name":"The Eyeball Man","steam_id":76561198013534207,"connected_time":1041000000000,"state":"active","ping":66},{"user_id":282,"name":"Mug Moment Gaming","steam_id":76561198233098136,"connected_time":2128000000000,"state":"active","ping":71},{"user_id":267,"name":"dak","steam_id":76561198076596506,"connected_time":2960000000000,"state":"active","ping":60},{"user_id":286,"name":"CrunchyHemorrhoids","steam_id":76561198868849673,"connected_time":1860000000000,"state":"active","ping":87},{"user_id":255,"name":"Ras","steam_id":76561198123546775,"connected_time":4031000000000,"state":"active","ping":85},{"user_id":300,"name":"Wowness","steam_id":76561199465759513,"connected_time":748000000000,"state":"active","ping":87}]},{"server_id":106,"name":"Uncletopia | Chicago | 2 | All Maps","name_short":"chi-2","host":"chi-1.us.uncletopia.com","port":27025,"enabled":true,"region":"us-central","cc":"us","latitude":41.881832,"longitude":-87.62318,"reserved":0,"last_update":"0001-01-01T00:00:00Z","name_a2s":"Uncletopia | Chicago | 2 | All Maps","protocol":17,"map":"pl_barnblitz","folder":"tf","game":"Team Fortress","app_id":440,"player_count":19,"max_players":24,"Bots":0,"server_type":"Dedicated","server_os":"Linux","password":true,"vac":true,"version":"7961495","steam_id":85568392924469985,"keywords":["nocrits","nodmgspread","payload","uncletopia"],"game_id":440,"stv_port":27026,"stv_name":"Uncletopia | Chicago | 2 | All Maps | STV","players":[{"user_id":150,"name":"SawyerSaur","steam_id":76561198872835142,"connected_time":3892000000000,"state":"spawning","ping":67},{"user_id":190,"name":"GOLDIE","steam_id":76561199375258674,"connected_time":1163000000000,"state":"spawning","ping":71},{"user_id":192,"name":"pump","steam_id":76561198071705442,"connected_time":1087000000000,"state":"spawning","ping":66},{"user_id":198,"name":"teamfortdude","steam_id":76561198056871257,"connected_time":121000000000,"state":"spawning","ping":67},{"user_id":138,"name":"De MonkE","steam_id":76561198140626221,"connected_time":4551000000000,"state":"spawning","ping":67},{"user_id":186,"name":"THE FLUMPSTER","steam_id":76561198060911025,"connected_time":1368000000000,"state":"spawning","ping":43},{"user_id":181,"name":"pro gamer","steam_id":76561199084520533,"connected_time":1772000000000,"state":"spawning","ping":60},{"user_id":197,"name":"TheGirthquake","steam_id":76561198238895056,"connected_time":200000000000,"state":"spawning","ping":134},{"user_id":139,"name":"Soul Garg Plushy","steam_id":76561198044480181,"connected_time":4546000000000,"state":"spawning","ping":66},{"user_id":199,"name":"captain red","steam_id":76561198191587983,"connected_time":37000000000,"state":"spawning","ping":90},{"user_id":194,"name":"beans","steam_id":76561199082781884,"connected_time":872000000000,"state":"spawning","ping":52},{"user_id":143,"name":"Yustin","steam_id":76561198123246835,"connected_time":4499000000000,"state":"spawning","ping":71},{"user_id":175,"name":"relay","steam_id":76561198314662811,"connected_time":1964000000000,"state":"spawning","ping":118},{"user_id":195,"name":"Dale","steam_id":76561199007791341,"connected_time":401000000000,"state":"spawning","ping":56},{"user_id":180,"name":"tydogzilla","steam_id":76561198054254518,"connected_time":1823000000000,"state":"spawning","ping":76},{"user_id":196,"name":"Aaron","steam_id":76561198091157802,"connected_time":391000000000,"state":"spawning","ping":76},{"user_id":161,"name":"40K","steam_id":76561198070599668,"connected_time":3190000000000,"state":"spawning","ping":56},{"user_id":163,"name":"POSTERBOYOFGOODBOYS","steam_id":76561198199344313,"connected_time":2722000000000,"state":"spawning","ping":129},{"user_id":48,"name":"Rornir","steam_id":76561198081829615,"connected_time":11429000000000,"state":"spawning","ping":49}]},{"server_id":402,"name":"Uncletopia | Chicago | 3 | All Maps","name_short":"chi-3","host":"chi-1.us.uncletopia.com","port":27035,"enabled":true,"region":"us-central","cc":"us","latitude":41.881832,"longitude":-87.62318,"reserved":0,"last_update":"0001-01-01T00:00:00Z","name_a2s":"Uncletopia | Chicago | 3 | All Maps","protocol":17,"map":"koth_viaduct","folder":"tf","game":"Team Fortress","app_id":440,"player_count":0,"max_players":24,"Bots":0,"server_type":"Dedicated","server_os":"Linux","password":true,"vac":true,"version":"7961495","steam_id":85568392924515191,"keywords":["cp","nocrits","nodmgspread","uncletopia"],"game_id":440,"stv_port":27036,"stv_name":"Uncletopia | Chicago | 3 | All Maps | STV","players":null},{"server_id":403,"name":"Uncletopia | Chicago | 4 | All Maps","name_short":"chi-4","host":"chi-1.us.uncletopia.com","port":27045,"enabled":true,"region":"us-central","cc":"us","latitude":41.881832,"longitude":-87.62318,"reserved":0,"last_update":"0001-01-01T00:00:00Z","name_a2s":"Uncletopia | Chicago | 4 | All Maps","protocol":17,"map":"cp_gorge","folder":"tf","game":"Team Fortress","app_id":440,"player_count":24,"max_players":24,"Bots":0,"server_type":"Dedicated","server_os":"Linux","password":true,"vac":true,"version":"7961495","steam_id":85568392924515193,"keywords":["cp","nocrits","nodmgspread","uncletopia"],"game_id":440,"stv_port":27046,"stv_name":"Uncletopia | Chicago | 4 | All Maps | STV","players":[{"user_id":291,"name":"Dum_Bass(Fish)","steam_id":76561197988105207,"connected_time":3468000000000,"state":"active","ping":65},{"user_id":298,"name":"177013","steam_id":76561198072303290,"connected_time":2732000000000,"state":"active","ping":60},{"user_id":292,"name":"Vegerot","steam_id":76561197997843710,"connected_time":3352000000000,"state":"active","ping":60},{"user_id":313,"name":"chaffy","steam_id":76561198021754567,"connected_time":2330000000000,"state":"active","ping":53},{"user_id":334,"name":"Doctor_Redstone","steam_id":76561198061947161,"connected_time":681000000000,"state":"active","ping":70},{"user_id":283,"name":"Crazy Dave!","steam_id":76561198951414566,"connected_time":4433000000000,"state":"active","ping":69},{"user_id":314,"name":"dick kickem (real)","steam_id":76561198084335030,"connected_time":2286000000000,"state":"active","ping":78},{"user_id":328,"name":"Fancyassasin","steam_id":76561198331864258,"connected_time":1549000000000,"state":"active","ping":40},{"user_id":302,"name":"Jerry Bondle","steam_id":76561198337512213,"connected_time":2549000000000,"state":"active","ping":66},{"user_id":303,"name":"JaminDamin","steam_id":76561199465916540,"connected_time":2492000000000,"state":"active","ping":71},{"user_id":276,"name":"derz","steam_id":76561198010742216,"connected_time":5689000000000,"state":"active","ping":54},{"user_id":323,"name":"FizzleWizard","steam_id":76561198045990868,"connected_time":2048000000000,"state":"active","ping":58},{"user_id":315,"name":"salty red","steam_id":76561199014145422,"connected_time":2278000000000,"state":"active","ping":75},{"user_id":259,"name":"Sunflower","steam_id":76561198081223793,"connected_time":7932000000000,"state":"active","ping":61},{"user_id":311,"name":"Jango","steam_id":76561198084589742,"connected_time":2375000000000,"state":"active","ping":76},{"user_id":327,"name":"femtofarad™","steam_id":76561198308583053,"connected_time":1830000000000,"state":"active","ping":85},{"user_id":332,"name":"The Noise","steam_id":76561199390353195,"connected_time":1029000000000,"state":"active","ping":77},{"user_id":333,"name":"Rein","steam_id":76561198300340427,"connected_time":742000000000,"state":"active","ping":65},{"user_id":306,"name":"YeetethYoteth","steam_id":76561198957396090,"connected_time":2472000000000,"state":"active","ping":68},{"user_id":316,"name":"Chunk Stuffer","steam_id":76561198856508573,"connected_time":2259000000000,"state":"active","ping":60},{"user_id":318,"name":"blazzeh","steam_id":76561198053407069,"connected_time":2228000000000,"state":"active","ping":134},{"user_id":331,"name":"B R O W N","steam_id":76561198047340813,"connected_time":1184000000000,"state":"active","ping":50},{"user_id":319,"name":"SLEEPY-Class NHP","steam_id":76561198064583865,"connected_time":2227000000000,"state":"active","ping":68},{"user_id":322,"name":"A_Malebolgia","steam_id":76561198097722818,"connected_time":2163000000000,"state":"active","ping":88}]},{"server_id":36,"name":"Uncletopia | Chicago | 5 | All Maps","name_short":"chi-5","host":"chi-2.us.uncletopia.com","port":27015,"enabled":true,"region":"us-central","cc":"us","latitude":41.881832,"longitude":-87.62318,"reserved":0,"last_update":"0001-01-01T00:00:00Z","name_a2s":"Uncletopia | Chicago | 5 | All Maps","protocol":17,"map":"pl_barnblitz","folder":"tf","game":"Team Fortress","app_id":440,"player_count":0,"max_players":24,"Bots":0,"server_type":"Dedicated","server_os":"Linux","password":true,"vac":true,"version":"7961495","steam_id":85568392924866362,"keywords":["nocrits","nodmgspread","payload","uncletopia"],"game_id":440,"stv_port":27016,"stv_name":"Uncletopia | Chicago | 5 | All Maps | STV","players":null},{"server_id":37,"name":"Uncletopia | Chicago | 6 | All Maps","name_short":"chi-6","host":"chi-2.us.uncletopia.com","port":27025,"enabled":true,"region":"us-central","cc":"us","latitude":41.881832,"longitude":-87.62318,"reserved":0,"last_update":"0001-01-01T00:00:00Z","name_a2s":"Uncletopia | Chicago | 6 | All Maps","protocol":17,"map":"pl_upward","folder":"tf","game":"Team Fortress","app_id":440,"player_count":24,"max_players":24,"Bots":0,"server_type":"Dedicated","server_os":"Linux","password":true,"vac":true,"version":"7961495","steam_id":85568392924866363,"keywords":["nocrits","nodmgspread","payload","uncletopia"],"game_id":440,"stv_port":27026,"stv_name":"Uncletopia | Chicago | 6 | All Maps | STV","players":[{"user_id":224,"name":"Wan Shi Tong","steam_id":76561198076441225,"connected_time":106000000000,"state":"active","ping":69},{"user_id":205,"name":"malon milk","steam_id":76561198042558913,"connected_time":894000000000,"state":"active","ping":84},{"user_id":95,"name":"Durt","steam_id":76561198073569962,"connected_time":9567000000000,"state":"active","ping":59},{"user_id":194,"name":"Slashes","steam_id":76561197968573499,"connected_time":1633000000000,"state":"active","ping":88},{"user_id":103,"name":"Jarnold","steam_id":76561198090434537,"connected_time":9328000000000,"state":"active","ping":56},{"user_id":222,"name":"dirty dank","steam_id":76561198360904432,"connected_time":156000000000,"state":"active","ping":65},{"user_id":209,"name":"FIREPOW","steam_id":76561198111259720,"connected_time":497000000000,"state":"active","ping":64},{"user_id":195,"name":"Person","steam_id":76561198093244204,"connected_time":1629000000000,"state":"active","ping":75},{"user_id":210,"name":"jammington jamsworth IV:)","steam_id":76561198143388600,"connected_time":485000000000,"state":"active","ping":78},{"user_id":225,"name":"Im Groot","steam_id":76561198294943420,"connected_time":60000000000,"state":"active","ping":65},{"user_id":223,"name":"TruffShuff","steam_id":76561198055869160,"connected_time":155000000000,"state":"active","ping":46},{"user_id":213,"name":"K9 Kid","steam_id":76561198078740641,"connected_time":448000000000,"state":"active","ping":89},{"user_id":165,"name":"sensible","steam_id":76561198072216373,"connected_time":4421000000000,"state":"active","ping":82},{"user_id":182,"name":"the gamer","steam_id":76561199175442910,"connected_time":3217000000000,"state":"active","ping":83},{"user_id":221,"name":"sal","steam_id":76561198814096380,"connected_time":269000000000,"state":"active","ping":77},{"user_id":206,"name":"indi","steam_id":76561198045917538,"connected_time":778000000000,"state":"active","ping":46},{"user_id":201,"name":"Jylppy","steam_id":76561198063544131,"connected_time":1081000000000,"state":"active","ping":166},{"user_id":203,"name":"All Smiles","steam_id":76561198033317990,"connected_time":955000000000,"state":"active","ping":107},{"user_id":215,"name":"LFT Cinderace","steam_id":76561198132899671,"connected_time":439000000000,"state":"active","ping":60},{"user_id":226,"name":"Sheppy","steam_id":76561198295126940,"connected_time":43000000000,"state":"active","ping":62},{"user_id":186,"name":"22:57","steam_id":76561198025668771,"connected_time":2803000000000,"state":"active","ping":107},{"user_id":188,"name":"Medic Bag","steam_id":76561198403209900,"connected_time":2302000000000,"state":"active","ping":67},{"user_id":219,"name":"WHAT","steam_id":76561198172609874,"connected_time":396000000000,"state":"active","ping":89},{"user_id":220,"name":"blanch","steam_id":76561198850629951,"connected_time":336000000000,"state":"active","ping":84}]},{"server_id":38,"name":"Uncletopia | Chicago | 7 | Stopwatch Beta","name_short":"chi-7","host":"chi-2.us.uncletopia.com","port":27035,"enabled":true,"region":"us-central","cc":"us","latitude":41.881832,"longitude":-87.62318,"reserved":0,"last_update":"0001-01-01T00:00:00Z","name_a2s":"Uncletopia | Chicago | 7 | Stopwatch Beta","protocol":17,"map":"pl_borneo","folder":"tf","game":"Team Fortress","app_id":440,"player_count":0,"max_players":24,"Bots":0,"server_type":"Dedicated","server_os":"Linux","password":true,"vac":true,"version":"7961495","steam_id":85568392924866364,"keywords":["nocrits","nodmgspread","payload","uncletopia"],"game_id":440,"stv_port":27036,"stv_name":"Uncletopia | Chicago | 7 | Stopwatch Beta | STV","players":null},{"server_id":39,"name":"Uncletopia | Chicago | 8 | Community","name_short":"chi-8","host":"chi-2.us.uncletopia.com","port":27045,"enabled":true,"region":"us-central","cc":"us","latitude":41.881832,"longitude":-87.62318,"reserved":0,"last_update":"0001-01-01T00:00:00Z","name_a2s":"Uncletopia | Chicago | 8 | Community","protocol":17,"map":"pl_barnblitz","folder":"tf","game":"Team Fortress","app_id":440,"player_count":0,"max_players":24,"Bots":0,"server_type":"Dedicated","server_os":"Linux","password":true,"vac":true,"version":"7961495","steam_id":85568392924866365,"keywords":["nocrits","nodmgspread","payload","uncletopia"],"game_id":440,"stv_port":27046,"stv_name":"Uncletopia | Chicago | 8 | Community | STV","players":null},{"server_id":8,"name":"Uncletopia | Dallas | 1 | All Maps","name_short":"dal-1","host":"dal-1.us.uncletopia.com","port":27015,"enabled":true,"region":"us-central","cc":"us","latitude":32.779167,"longitude":-96.80889,"reserved":0,"last_update":"0001-01-01T00:00:00Z","name_a2s":"Uncletopia | Dallas | 1 | All Maps","protocol":17,"map":"koth_suijin","folder":"tf","game":"Team Fortress","app_id":440,"player_count":22,"max_players":24,"Bots":0,"server_type":"Dedicated","server_os":"Linux","password":true,"vac":true,"version":"7961495","steam_id":85568392924469986,"keywords":["cp","nocrits","nodmgspread","uncletopia"],"game_id":440,"stv_port":27016,"stv_name":"Uncletopia | Dallas | 1 | All Maps | STV","players":[{"user_id":88,"name":"--_Cook_--","steam_id":76561198080855748,"connected_time":4673000000000,"state":"active","ping":48},{"user_id":82,"name":"crashymicsplody","steam_id":76561198213916765,"connected_time":4887000000000,"state":"active","ping":87},{"user_id":139,"name":"storyboard","steam_id":76561199088496817,"connected_time":624000000000,"state":"active","ping":61},{"user_id":113,"name":"Phosu","steam_id":76561198180162801,"connected_time":2605000000000,"state":"active","ping":72},{"user_id":140,"name":"Killerfish360","steam_id":76561198115029584,"connected_time":578000000000,"state":"active","ping":67},{"user_id":147,"name":"johnny","steam_id":76561198855841242,"connected_time":23000000000,"state":"active","ping":85},{"user_id":134,"name":"I shit myself","steam_id":76561199174310124,"connected_time":1046000000000,"state":"active","ping":104},{"user_id":104,"name":"Red Metal","steam_id":76561198362722560,"connected_time":3123000000000,"state":"active","ping":97},{"user_id":102,"name":"Furry Edgelord","steam_id":76561199216176798,"connected_time":3427000000000,"state":"active","ping":65},{"user_id":127,"name":"shakoiwa","steam_id":76561199059441773,"connected_time":1852000000000,"state":"active","ping":79},{"user_id":73,"name":"Heathcliff","steam_id":76561198044288534,"connected_time":5424000000000,"state":"active","ping":92},{"user_id":130,"name":"tsz","steam_id":76561199246231090,"connected_time":1684000000000,"state":"active","ping":79},{"user_id":135,"name":"m1 garand gaming","steam_id":76561199026721822,"connected_time":1042000000000,"state":"active","ping":112},{"user_id":144,"name":"capeeKo","steam_id":76561197970346623,"connected_time":132000000000,"state":"active","ping":99},{"user_id":141,"name":"Dr. W0lv","steam_id":76561198129237487,"connected_time":477000000000,"state":"active","ping":67},{"user_id":128,"name":"s p a c e k a t","steam_id":76561198066852209,"connected_time":1848000000000,"state":"active","ping":58},{"user_id":131,"name":"frog gaming","steam_id":76561198323926258,"connected_time":1503000000000,"state":"active","ping":46},{"user_id":125,"name":"chikin.sauce","steam_id":76561198042464635,"connected_time":1972000000000,"state":"active","ping":60},{"user_id":143,"name":"ATL1 | Zillers","steam_id":76561198095248744,"connected_time":167000000000,"state":"active","ping":102},{"user_id":45,"name":"Vorpas Jabwak","steam_id":76561198112186064,"connected_time":7373000000000,"state":"active","ping":74},{"user_id":133,"name":"PizzaFratello","steam_id":76561199059951970,"connected_time":1054000000000,"state":"active","ping":70},{"user_id":146,"name":"techdeck","steam_id":76561199022751661,"connected_time":43000000000,"state":"spawning","ping":59}]},{"server_id":108,"name":"Uncletopia | Dallas | 2 | All Maps","name_short":"dal-2","host":"dal-1.us.uncletopia.com","port":27025,"enabled":true,"region":"us-central","cc":"us","latitude":32.779167,"longitude":-96.80889,"reserved":0,"last_update":"0001-01-01T00:00:00Z","name_a2s":"Uncletopia | Dallas | 2 | All Maps","protocol":17,"map":"koth_highpass","folder":"tf","game":"Team Fortress","app_id":440,"player_count":7,"max_players":24,"Bots":0,"server_type":"Dedicated","server_os":"Linux","password":true,"vac":true,"version":"7961495","steam_id":85568392924469988,"keywords":["cp","nocrits","nodmgspread","uncletopia"],"game_id":440,"stv_port":27026,"stv_name":"Uncletopia | Dallas | 2 | All Maps | STV","players":[{"user_id":16,"name":"Dknight2","steam_id":76561199187382295,"connected_time":649000000000,"state":"active","ping":67},{"user_id":17,"name":"Kermit","steam_id":76561198034559979,"connected_time":422000000000,"state":"active","ping":83},{"user_id":18,"name":"dolph","steam_id":76561198341304816,"connected_time":382000000000,"state":"active","ping":91},{"user_id":19,"name":"CabbageMan","steam_id":76561198216980671,"connected_time":149000000000,"state":"active","ping":77},{"user_id":20,"name":"evil engie","steam_id":76561199474030986,"connected_time":121000000000,"state":"connecting","ping":0},{"user_id":21,"name":"BoyKisser","steam_id":76561199200969139,"connected_time":113000000000,"state":"active","ping":112},{"user_id":22,"name":"GX thedittoguy","steam_id":76561199013129784,"connected_time":67000000000,"state":"active","ping":57}]},{"server_id":404,"name":"Uncletopia | Dallas | 3 | All Maps","name_short":"dal-3","host":"dal-1.us.uncletopia.com","port":27035,"enabled":true,"region":"us-central","cc":"us","latitude":32.779167,"longitude":-96.80889,"reserved":0,"last_update":"0001-01-01T00:00:00Z","name_a2s":"Uncletopia | Dallas | 3 | All Maps","protocol":17,"map":"pl_pier","folder":"tf","game":"Team Fortress","app_id":440,"player_count":0,"max_players":24,"Bots":0,"server_type":"Dedicated","server_os":"Linux","password":true,"vac":true,"version":"7961495","steam_id":85568392924515219,"keywords":["nocrits","nodmgspread","payload","uncletopia"],"game_id":440,"stv_port":27036,"stv_name":"Uncletopia | Dallas | 3 | All Maps | STV","players":null},{"server_id":405,"name":"Uncletopia | Dallas | 4 | Community","name_short":"dal-4","host":"dal-1.us.uncletopia.com","port":27045,"enabled":true,"region":"us-central","cc":"us","latitude":32.779167,"longitude":-96.80889,"reserved":0,"last_update":"0001-01-01T00:00:00Z","name_a2s":"Uncletopia | Dallas | 4 | Community","protocol":17,"map":"workshop/koth_ashville_final.ugc2130459942","folder":"tf","game":"Team Fortress","app_id":440,"player_count":24,"max_players":24,"Bots":0,"server_type":"Dedicated","server_os":"Linux","password":true,"vac":true,"version":"7961495","steam_id":85568392924515220,"keywords":["cp","nocrits","nodmgspread","uncletopia"],"game_id":440,"stv_port":27046,"stv_name":"Uncletopia | Dallas | 4 | Community | STV","players":[{"user_id":145,"name":"floofy","steam_id":76561198389769098,"connected_time":829000000000,"state":"active","ping":77},{"user_id":139,"name":"MEME","steam_id":76561198092065033,"connected_time":1028000000000,"state":"active","ping":73},{"user_id":140,"name":"Your Pal, Vegeta","steam_id":76561198064916816,"connected_time":981000000000,"state":"active","ping":88},{"user_id":137,"name":"kazoo2","steam_id":76561198260473504,"connected_time":1314000000000,"state":"active","ping":67},{"user_id":122,"name":"Daz","steam_id":76561198041431938,"connected_time":2121000000000,"state":"active","ping":97},{"user_id":123,"name":"Fate/Unlimited Bread Sticks","steam_id":76561199075099223,"connected_time":2105000000000,"state":"active","ping":92},{"user_id":151,"name":"Chhaam","steam_id":76561198058508132,"connected_time":430000000000,"state":"active","ping":74},{"user_id":126,"name":"Mint Cemesherry","steam_id":76561198069459513,"connected_time":2064000000000,"state":"active","ping":70},{"user_id":141,"name":"Whispers","steam_id":76561198131077446,"connected_time":951000000000,"state":"active","ping":154},{"user_id":127,"name":"starwarslover911","steam_id":76561198144673121,"connected_time":2059000000000,"state":"active","ping":91},{"user_id":152,"name":"Frontier Psychiatrist","steam_id":76561198038689088,"connected_time":271000000000,"state":"active","ping":89},{"user_id":132,"name":"LegendaryMister151","steam_id":76561198064890524,"connected_time":1816000000000,"state":"active","ping":88},{"user_id":130,"name":"Viennetta","steam_id":76561198044088335,"connected_time":1900000000000,"state":"active","ping":88},{"user_id":149,"name":"Tay","steam_id":76561198059605568,"connected_time":555000000000,"state":"active","ping":127},{"user_id":129,"name":"ANGRY MOTHERFUCKER!","steam_id":76561198280446451,"connected_time":1949000000000,"state":"active","ping":90},{"user_id":154,"name":"Tan_Rat","steam_id":76561198313629344,"connected_time":81000000000,"state":"active","ping":79},{"user_id":72,"name":"denzell05","steam_id":76561198086987061,"connected_time":6701000000000,"state":"active","ping":82},{"user_id":153,"name":"Wingman","steam_id":76561198066270405,"connected_time":127000000000,"state":"active","ping":81},{"user_id":155,"name":"H2OBourne","steam_id":76561198396293109,"connected_time":74000000000,"state":"active","ping":62},{"user_id":147,"name":"Melaza Madera","steam_id":76561199031977210,"connected_time":727000000000,"state":"active","ping":54},{"user_id":156,"name":"Kagi","steam_id":76561198117400696,"connected_time":24000000000,"state":"active","ping":75},{"user_id":97,"name":"IanTheAwsm","steam_id":76561198093031738,"connected_time":5072000000000,"state":"active","ping":77},{"user_id":112,"name":"estrogenfan","steam_id":76561198356871016,"connected_time":3457000000000,"state":"active","ping":70},{"user_id":144,"name":"FlameShake","steam_id":76561198084021005,"connected_time":860000000000,"state":"active","ping":95}]},{"server_id":5,"name":"Uncletopia | Frankfurt | 1 | All Maps","name_short":"frk-1","host":"frk-1.de.uncletopia.com","port":27015,"enabled":true,"region":"eu","cc":"de","latitude":50.110924,"longitude":8.682127,"reserved":0,"last_update":"0001-01-01T00:00:00Z","name_a2s":"Uncletopia | Frankfurt | 1 | All Maps","protocol":17,"map":"pl_frontier_final","folder":"tf","game":"Team Fortress","app_id":440,"player_count":24,"max_players":24,"Bots":0,"server_type":"Dedicated","server_os":"Linux","password":true,"vac":true,"version":"7961495","steam_id":85568392924469989,"keywords":["nocrits","nodmgspread","payload","uncletopia"],"game_id":440,"stv_port":27016,"stv_name":"Uncletopia | Frankfurt | 1 | All Maps | STV","players":[{"user_id":609,"name":"Tails8521","steam_id":76561198051747164,"connected_time":1269000000000,"state":"active","ping":54},{"user_id":581,"name":"robbie","steam_id":76561198798195287,"connected_time":2742000000000,"state":"active","ping":58},{"user_id":602,"name":"Acheo","steam_id":76561198068228498,"connected_time":1505000000000,"state":"active","ping":135},{"user_id":604,"name":"Maestrul Adc","steam_id":76561199057736903,"connected_time":1463000000000,"state":"active","ping":90},{"user_id":598,"name":"Jānis Aizups | LV","steam_id":76561198129947877,"connected_time":1902000000000,"state":"active","ping":78},{"user_id":616,"name":"snsmac","steam_id":76561198082821185,"connected_time":350000000000,"state":"active","ping":48},{"user_id":615,"name":"etc","steam_id":76561197998394797,"connected_time":360000000000,"state":"active","ping":57},{"user_id":576,"name":"Kappa","steam_id":76561198089341471,"connected_time":3536000000000,"state":"active","ping":70},{"user_id":618,"name":"Woman (Real)","steam_id":76561199151823932,"connected_time":288000000000,"state":"active","ping":76},{"user_id":559,"name":"❤Speedbump❤","steam_id":76561198388690313,"connected_time":5180000000000,"state":"active","ping":59},{"user_id":601,"name":"Mr. Watch","steam_id":76561198276103501,"connected_time":1770000000000,"state":"active","ping":79},{"user_id":606,"name":"glyph","steam_id":76561197980736364,"connected_time":1433000000000,"state":"active","ping":76},{"user_id":599,"name":"RattaGams","steam_id":76561198866259365,"connected_time":1849000000000,"state":"active","ping":109},{"user_id":619,"name":"Eyelander","steam_id":76561199137392321,"connected_time":276000000000,"state":"active","ping":54},{"user_id":607,"name":"78 :3","steam_id":76561198208328357,"connected_time":1426000000000,"state":"active","ping":85},{"user_id":579,"name":"็McTK","steam_id":76561199384193338,"connected_time":3068000000000,"state":"active","ping":59},{"user_id":625,"name":"Emir","steam_id":76561198113089831,"connected_time":45000000000,"state":"active","ping":93},{"user_id":620,"name":"Curlew","steam_id":76561198075884540,"connected_time":232000000000,"state":"active","ping":82},{"user_id":592,"name":"Tichy☆","steam_id":76561198026218934,"connected_time":2456000000000,"state":"active","ping":47},{"user_id":608,"name":"an idiot","steam_id":76561198172542535,"connected_time":1424000000000,"state":"active","ping":67},{"user_id":621,"name":"Lyell","steam_id":76561198350329389,"connected_time":196000000000,"state":"active","ping":86},{"user_id":622,"name":"tree goblin","steam_id":76561199176610938,"connected_time":172000000000,"state":"active","ping":73},{"user_id":624,"name":"CLIF Bar Blueberry Crisp","steam_id":76561198060339391,"connected_time":118000000000,"state":"active","ping":45},{"user_id":542,"name":"Lukas","steam_id":76561198454286820,"connected_time":6669000000000,"state":"active","ping":70}]},{"server_id":110,"name":"Uncletopia | Frankfurt | 2 | All Maps","name_short":"frk-2","host":"frk-1.de.uncletopia.com","port":27025,"enabled":true,"region":"eu","cc":"de","latitude":50.110924,"longitude":8.682127,"reserved":0,"last_update":"0001-01-01T00:00:00Z","name_a2s":"Uncletopia | Frankfurt | 2 | All Maps","protocol":17,"map":"pl_borneo","folder":"tf","game":"Team Fortress","app_id":440,"player_count":24,"max_players":24,"Bots":0,"server_type":"Dedicated","server_os":"Linux","password":true,"vac":true,"version":"7961495","steam_id":85568392924469990,"keywords":["nocrits","nodmgspread","payload","uncletopia"],"game_id":440,"stv_port":27026,"stv_name":"Uncletopia | Frankfurt | 2 | All Maps | STV","players":[{"user_id":313,"name":"Staffy","steam_id":76561198859722036,"connected_time":1338000000000,"state":"active","ping":101},{"user_id":336,"name":"Flamy?","steam_id":76561198024332838,"connected_time":664000000000,"state":"active","ping":73},{"user_id":315,"name":"Bottle O' Scrumpy","steam_id":76561199244250562,"connected_time":1148000000000,"state":"active","ping":106},{"user_id":316,"name":"Maoma112","steam_id":76561199012536447,"connected_time":1146000000000,"state":"active","ping":85},{"user_id":328,"name":"Lola bunny","steam_id":76561198214149431,"connected_time":723000000000,"state":"active","ping":58},{"user_id":323,"name":"BigPeanut","steam_id":76561198199725210,"connected_time":809000000000,"state":"active","ping":83},{"user_id":342,"name":"bitkomet","steam_id":76561198058232147,"connected_time":512000000000,"state":"active","ping":69},{"user_id":321,"name":"Enderboy","steam_id":76561198074751012,"connected_time":855000000000,"state":"active","ping":62},{"user_id":326,"name":"psychographer","steam_id":76561198374484710,"connected_time":768000000000,"state":"active","ping":89},{"user_id":324,"name":"i love latinas","steam_id":76561198365750503,"connected_time":796000000000,"state":"active","ping":59},{"user_id":325,"name":"rz-/Atomic Punch","steam_id":76561199195508541,"connected_time":783000000000,"state":"active","ping":74},{"user_id":327,"name":"Crix","steam_id":76561199074232860,"connected_time":764000000000,"state":"active","ping":88},{"user_id":329,"name":"LainBizkit","steam_id":76561199200708626,"connected_time":715000000000,"state":"active","ping":109},{"user_id":347,"name":"luckyminer98","steam_id":76561198177095691,"connected_time":90000000000,"state":"active","ping":74},{"user_id":332,"name":"zenit","steam_id":76561198218625167,"connected_time":677000000000,"state":"active","ping":50},{"user_id":343,"name":"Strange sapper (Real)","steam_id":76561199438413886,"connected_time":433000000000,"state":"active","ping":119},{"user_id":334,"name":"CiVillain","steam_id":76561198059617732,"connected_time":669000000000,"state":"active","ping":59},{"user_id":335,"name":"Booter","steam_id":76561198062598972,"connected_time":667000000000,"state":"active","ping":88},{"user_id":337,"name":"o_o","steam_id":76561198113045011,"connected_time":664000000000,"state":"active","ping":89},{"user_id":338,"name":"Pepegi","steam_id":76561198001230113,"connected_time":658000000000,"state":"active","ping":79},{"user_id":339,"name":"cuddle","steam_id":76561198805181599,"connected_time":636000000000,"state":"active","ping":70},{"user_id":340,"name":"voco","steam_id":76561198179250642,"connected_time":625000000000,"state":"active","ping":111},{"user_id":341,"name":"Popop","steam_id":76561198004793795,"connected_time":624000000000,"state":"active","ping":46},{"user_id":345,"name":"arya sh","steam_id":76561199139537113,"connected_time":373000000000,"state":"active","ping":151}]},{"server_id":308,"name":"Uncletopia | Frankfurt | 3 | All Maps","name_short":"frk-3","host":"frk-1.de.uncletopia.com","port":27035,"enabled":true,"region":"eu","cc":"de","latitude":50.110924,"longitude":8.682127,"reserved":0,"last_update":"0001-01-01T00:00:00Z","name_a2s":"Uncletopia | Frankfurt | 3 | All Maps","protocol":17,"map":"pl_pier","folder":"tf","game":"Team Fortress","app_id":440,"player_count":24,"max_players":24,"Bots":0,"server_type":"Dedicated","server_os":"Linux","password":true,"vac":true,"version":"7961495","steam_id":85568392924504274,"keywords":["nocrits","nodmgspread","payload","uncletopia"],"game_id":440,"stv_port":27036,"stv_name":"Uncletopia | Frankfurt | 3 | All Maps | STV","players":[{"user_id":172,"name":"RatJam","steam_id":76561199030279432,"connected_time":406000000000,"state":"active","ping":63},{"user_id":142,"name":"Caliban","steam_id":76561197999696839,"connected_time":1884000000000,"state":"active","ping":99},{"user_id":158,"name":"Rune","steam_id":76561198066157645,"connected_time":1047000000000,"state":"active","ping":52},{"user_id":129,"name":"Заднепроходец","steam_id":76561198059741978,"connected_time":3373000000000,"state":"active","ping":76},{"user_id":151,"name":"Tonyx","steam_id":76561198414263237,"connected_time":1696000000000,"state":"active","ping":67},{"user_id":173,"name":"Spine fluid","steam_id":76561198180020222,"connected_time":365000000000,"state":"active","ping":69},{"user_id":127,"name":"Çodar","steam_id":76561198235518444,"connected_time":3433000000000,"state":"active","ping":49},{"user_id":176,"name":"ivanhus_","steam_id":76561199048134719,"connected_time":175000000000,"state":"active","ping":94},{"user_id":166,"name":"Wodaz","steam_id":76561198043263557,"connected_time":699000000000,"state":"active","ping":72},{"user_id":160,"name":"Space cowpoke","steam_id":76561198199471641,"connected_time":1008000000000,"state":"active","ping":95},{"user_id":136,"name":"corralled","steam_id":76561198028648627,"connected_time":2789000000000,"state":"active","ping":69},{"user_id":168,"name":"hhhhhh","steam_id":76561198031982574,"connected_time":680000000000,"state":"active","ping":54},{"user_id":114,"name":"wasps","steam_id":76561198049485054,"connected_time":4254000000000,"state":"active","ping":90},{"user_id":103,"name":"Dåvid","steam_id":76561198184135755,"connected_time":4964000000000,"state":"active","ping":62},{"user_id":179,"name":"Alex","steam_id":76561198003201759,"connected_time":98000000000,"state":"active","ping":60},{"user_id":171,"name":"Wade Wilson's Spoilt C4","steam_id":76561198013884709,"connected_time":434000000000,"state":"active","ping":69},{"user_id":147,"name":"Not a Sober Person","steam_id":76561198042593027,"connected_time":1828000000000,"state":"active","ping":85},{"user_id":178,"name":"ye haw⚠","steam_id":76561199180176442,"connected_time":155000000000,"state":"active","ping":67},{"user_id":109,"name":"REN","steam_id":76561198000596385,"connected_time":4605000000000,"state":"active","ping":65},{"user_id":139,"name":"heavy sings (real)","steam_id":76561199023804405,"connected_time":2538000000000,"state":"active","ping":76},{"user_id":148,"name":"Tort","steam_id":76561198329646769,"connected_time":1804000000000,"state":"active","ping":67},{"user_id":175,"name":"Zm4j","steam_id":76561198259465946,"connected_time":209000000000,"state":"active","ping":81},{"user_id":162,"name":"Qdarks","steam_id":76561198013391340,"connected_time":810000000000,"state":"active","ping":142},{"user_id":155,"name":"fanno shh sul mio hrr","steam_id":76561198048250715,"connected_time":1397000000000,"state":"active","ping":49}]},{"server_id":309,"name":"Uncletopia | Frankfurt | 4 | All Maps","name_short":"frk-4","host":"frk-1.de.uncletopia.com","port":27045,"enabled":true,"region":"eu","cc":"de","latitude":50.110924,"longitude":8.682127,"reserved":0,"last_update":"0001-01-01T00:00:00Z","name_a2s":"Uncletopia | Frankfurt | 4 | All Maps","protocol":17,"map":"cp_mountainlab","folder":"tf","game":"Team Fortress","app_id":440,"player_count":19,"max_players":24,"Bots":0,"server_type":"Dedicated","server_os":"Linux","password":true,"vac":true,"version":"7961495","steam_id":85568392924504275,"keywords":["cp","nocrits","nodmgspread","uncletopia"],"game_id":440,"stv_port":27046,"stv_name":"Uncletopia | Frankfurt | 4 | All Maps | STV","players":[{"user_id":631,"name":"Milkman","steam_id":76561199089290269,"connected_time":160000000000,"state":"active","ping":73},{"user_id":618,"name":"bigwish | bmod.tf","steam_id":76561197997859723,"connected_time":447000000000,"state":"active","ping":74},{"user_id":619,"name":"toomas2018(real)(official)","steam_id":76561199105796083,"connected_time":440000000000,"state":"active","ping":60},{"user_id":602,"name":"Naiten","steam_id":76561198051894514,"connected_time":1879000000000,"state":"active","ping":70},{"user_id":630,"name":"kelm","steam_id":76561198027166144,"connected_time":182000000000,"state":"active","ping":75},{"user_id":509,"name":"szmen","steam_id":76561198072569764,"connected_time":9011000000000,"state":"active","ping":72},{"user_id":622,"name":"Osman0","steam_id":76561198851527212,"connected_time":397000000000,"state":"active","ping":54},{"user_id":623,"name":"Bacoele","steam_id":76561198310381844,"connected_time":372000000000,"state":"active","ping":74},{"user_id":624,"name":"Cobra Cuspideira","steam_id":76561198929215658,"connected_time":367000000000,"state":"active","ping":96},{"user_id":598,"name":"Erithial","steam_id":76561198182904167,"connected_time":1957000000000,"state":"active","ping":67},{"user_id":637,"name":"Valheim","steam_id":76561198044199912,"connected_time":15000000000,"state":"active","ping":74},{"user_id":634,"name":"in mcdonalds","steam_id":76561198143921841,"connected_time":48000000000,"state":"spawning","ping":67},{"user_id":633,"name":"typicalcrimson","steam_id":76561198295439747,"connected_time":129000000000,"state":"active","ping":69},{"user_id":629,"name":"wardex","steam_id":76561198058776834,"connected_time":261000000000,"state":"active","ping":45},{"user_id":635,"name":"brehs","steam_id":76561198150653454,"connected_time":26000000000,"state":"active","ping":59},{"user_id":638,"name":"Sakata Gintoki","steam_id":76561198339980449,"connected_time":6000000000,"state":"spawning","ping":64},{"user_id":636,"name":"The_Luin","steam_id":76561199097105542,"connected_time":22000000000,"state":"spawning","ping":83},{"user_id":608,"name":"Dj_Bear","steam_id":76561198149865187,"connected_time":831000000000,"state":"active","ping":69},{"user_id":606,"name":"We are in a world of magic","steam_id":76561198104745492,"connected_time":1530000000000,"state":"active","ping":77}]},{"server_id":310,"name":"Uncletopia | Frankfurt | 5 | All Maps","name_short":"frk-5","host":"frk-1.de.uncletopia.com","port":27055,"enabled":true,"region":"eu","cc":"de","latitude":50.110924,"longitude":8.682127,"reserved":0,"last_update":"0001-01-01T00:00:00Z","name_a2s":"Uncletopia | Frankfurt | 5 | All Maps","protocol":17,"map":"pl_barnblitz","folder":"tf","game":"Team Fortress","app_id":440,"player_count":24,"max_players":24,"Bots":0,"server_type":"Dedicated","server_os":"Linux","password":true,"vac":true,"version":"7961495","steam_id":85568392924504277,"keywords":["nocrits","nodmgspread","payload","uncletopia"],"game_id":440,"stv_port":27056,"stv_name":"Uncletopia | Frankfurt | 5 | All Maps | STV","players":[{"user_id":396,"name":"The Daniella","steam_id":76561198023075547,"connected_time":655000000000,"state":"active","ping":61},{"user_id":247,"name":"Wario","steam_id":76561198356089255,"connected_time":10490000000000,"state":"active","ping":58},{"user_id":391,"name":"Sholunan","steam_id":76561198062435739,"connected_time":695000000000,"state":"active","ping":69},{"user_id":395,"name":"Urfangonultasadana","steam_id":76561199389286151,"connected_time":660000000000,"state":"active","ping":96},{"user_id":357,"name":"LemonLeCitron","steam_id":76561198215545267,"connected_time":3198000000000,"state":"active","ping":76},{"user_id":385,"name":"Air","steam_id":76561198271025518,"connected_time":1745000000000,"state":"active","ping":99},{"user_id":380,"name":"♂ Animan ♂ Studios ♂","steam_id":76561198308302932,"connected_time":2054000000000,"state":"active","ping":90},{"user_id":330,"name":"Wilderhammer","steam_id":76561198132133702,"connected_time":5021000000000,"state":"active","ping":44},{"user_id":381,"name":"AnanasGerste","steam_id":76561198133825211,"connected_time":1895000000000,"state":"active","ping":45},{"user_id":383,"name":"NeonPixel","steam_id":76561198165901066,"connected_time":1847000000000,"state":"active","ping":61},{"user_id":294,"name":"Finnish Farmer","steam_id":76561198205366043,"connected_time":8636000000000,"state":"active","ping":89},{"user_id":369,"name":"Breizbuc","steam_id":76561198118220633,"connected_time":2586000000000,"state":"active","ping":67},{"user_id":376,"name":"CMD_God","steam_id":76561198333037007,"connected_time":2159000000000,"state":"active","ping":69},{"user_id":402,"name":"Zazou","steam_id":76561198028076362,"connected_time":294000000000,"state":"active","ping":55},{"user_id":346,"name":"Laura ❤","steam_id":76561198975652501,"connected_time":4211000000000,"state":"active","ping":76},{"user_id":401,"name":"[SSRB] Kiri","steam_id":76561198193983787,"connected_time":413000000000,"state":"active","ping":131},{"user_id":403,"name":"HenryFromSkalitz!","steam_id":76561198062139190,"connected_time":48000000000,"state":"active","ping":176},{"user_id":390,"name":"cazador","steam_id":76561198123096922,"connected_time":1130000000000,"state":"active","ping":91},{"user_id":355,"name":"Cypher","steam_id":76561197996967254,"connected_time":3820000000000,"state":"active","ping":46},{"user_id":392,"name":"dumdum","steam_id":76561198069430083,"connected_time":695000000000,"state":"active","ping":85},{"user_id":308,"name":"the one who grips","steam_id":76561198381106289,"connected_time":7710000000000,"state":"active","ping":77},{"user_id":301,"name":"Grey","steam_id":76561198187190267,"connected_time":8060000000000,"state":"active","ping":45},{"user_id":393,"name":"Sparks","steam_id":76561198423827206,"connected_time":679000000000,"state":"active","ping":70},{"user_id":398,"name":"Silver","steam_id":76561198175238807,"connected_time":642000000000,"state":"active","ping":61}]},{"server_id":311,"name":"Uncletopia | Frankfurt | 6 | All Maps","name_short":"frk-6","host":"frk-1.de.uncletopia.com","port":27065,"enabled":true,"region":"eu","cc":"de","latitude":50.110924,"longitude":8.682127,"reserved":0,"last_update":"0001-01-01T00:00:00Z","name_a2s":"Uncletopia | Frankfurt | 6 | All Maps","protocol":17,"map":"pl_snowycoast","folder":"tf","game":"Team Fortress","app_id":440,"player_count":23,"max_players":24,"Bots":0,"server_type":"Dedicated","server_os":"Linux","password":true,"vac":true,"version":"7961495","steam_id":85568392924504278,"keywords":["nocrits","nodmgspread","payload","uncletopia"],"game_id":440,"stv_port":27066,"stv_name":"Uncletopia | Frankfurt | 6 | All Maps | STV","players":[{"user_id":507,"name":"KajaStorm","steam_id":76561199215842872,"connected_time":1224000000000,"state":"active","ping":123},{"user_id":470,"name":"zazuza","steam_id":76561198049820905,"connected_time":3526000000000,"state":"active","ping":62},{"user_id":509,"name":"static","steam_id":76561198836825741,"connected_time":946000000000,"state":"active","ping":65},{"user_id":477,"name":"Rojapokemona","steam_id":76561198179925894,"connected_time":3328000000000,"state":"active","ping":62},{"user_id":462,"name":"MerlinMelon","steam_id":76561198131601158,"connected_time":3730000000000,"state":"active","ping":72},{"user_id":510,"name":"h0ster","steam_id":76561198183949987,"connected_time":914000000000,"state":"active","ping":57},{"user_id":511,"name":"Españaa","steam_id":76561198879587832,"connected_time":892000000000,"state":"active","ping":85},{"user_id":512,"name":"Largo","steam_id":76561198844368927,"connected_time":868000000000,"state":"active","ping":74},{"user_id":519,"name":"TidB","steam_id":76561198055342304,"connected_time":521000000000,"state":"active","ping":46},{"user_id":520,"name":"Slooshie","steam_id":76561198008749909,"connected_time":422000000000,"state":"active","ping":60},{"user_id":504,"name":"QR code 78","steam_id":76561198073749509,"connected_time":1503000000000,"state":"active","ping":71},{"user_id":505,"name":"Rondald McDondald","steam_id":76561199266547847,"connected_time":1363000000000,"state":"active","ping":106},{"user_id":524,"name":"Behind you","steam_id":76561198102420849,"connected_time":340000000000,"state":"active","ping":59},{"user_id":471,"name":"Vonacht","steam_id":76561198016033944,"connected_time":3526000000000,"state":"active","ping":62},{"user_id":516,"name":"lulu","steam_id":76561199147764133,"connected_time":767000000000,"state":"active","ping":77},{"user_id":526,"name":"chgivan","steam_id":76561198060010064,"connected_time":144000000000,"state":"active","ping":75},{"user_id":499,"name":"capslocked","steam_id":76561198095960796,"connected_time":2108000000000,"state":"active","ping":52},{"user_id":491,"name":"NEONPRIME.AXL","steam_id":76561198043791421,"connected_time":2925000000000,"state":"active","ping":69},{"user_id":518,"name":"Qwertuss","steam_id":76561198026305366,"connected_time":648000000000,"state":"active","ping":57},{"user_id":522,"name":"PixelVader","steam_id":76561198034195553,"connected_time":362000000000,"state":"active","ping":47},{"user_id":482,"name":"twscsvl","steam_id":76561198045304929,"connected_time":3236000000000,"state":"active","ping":90},{"user_id":500,"name":"benifis163","steam_id":76561198420973492,"connected_time":2101000000000,"state":"active","ping":92},{"user_id":527,"name":"ŁEPEK02","steam_id":76561198230715748,"connected_time":110000000000,"state":"active","ping":106}]},{"server_id":23,"name":"Uncletopia | Frankfurt | 7 | Stopwatch Beta","name_short":"frk-7","host":"frk-1.de.uncletopia.com","port":27075,"enabled":true,"region":"eu","cc":"de","latitude":50.110924,"longitude":8.682127,"reserved":0,"last_update":"0001-01-01T00:00:00Z","name_a2s":"Uncletopia | Frankfurt | 7 | Stopwatch Beta","protocol":17,"map":"pl_frontier_final","folder":"tf","game":"Team Fortress","app_id":440,"player_count":0,"max_players":24,"Bots":0,"server_type":"Dedicated","server_os":"Linux","password":true,"vac":true,"version":"7961495","steam_id":85568392924742827,"keywords":["nocrits","nodmgspread","payload","uncletopia"],"game_id":440,"stv_port":27076,"stv_name":"Uncletopia | Frankfurt | 7 | Stopwatch Beta | STV","players":null},{"server_id":24,"name":"Uncletopia | Frankfurt | 8 | Community","name_short":"frk-8","host":"frk-1.de.uncletopia.com","port":27085,"enabled":true,"region":"eu","cc":"de","latitude":50.110924,"longitude":8.682127,"reserved":0,"last_update":"0001-01-01T00:00:00Z","name_a2s":"Uncletopia | Frankfurt | 8 | Community","protocol":17,"map":"workshop/pl_divulgence_b4b.ugc2884808746","folder":"tf","game":"Team Fortress","app_id":440,"player_count":0,"max_players":24,"Bots":0,"server_type":"Dedicated","server_os":"Linux","password":true,"vac":true,"version":"7961495","steam_id":85568392924742828,"keywords":["nocrits","nodmgspread","payload","uncletopia"],"game_id":440,"stv_port":27086,"stv_name":"Uncletopia | Frankfurt | 8 | Community | STV","players":null},{"server_id":202,"name":"Uncletopia | Hong Kong | 1 | All Maps","name_short":"hgk-1","host":"hgk-1.hk.uncletopia.com","port":27015,"enabled":true,"region":"asia","cc":"hk","latitude":22.302711,"longitude":114.177216,"reserved":0,"last_update":"0001-01-01T00:00:00Z","name_a2s":"Uncletopia | Hong Kong | 1 | All Maps","protocol":17,"map":"cp_mountainlab","folder":"tf","game":"Team Fortress","app_id":440,"player_count":0,"max_players":24,"Bots":0,"server_type":"Dedicated","server_os":"Linux","password":true,"vac":true,"version":"7961495","steam_id":85568392924494504,"keywords":["cp","nocrits","nodmgspread","uncletopia"],"game_id":440,"stv_port":27016,"stv_name":"Uncletopia | Hong Kong | 1 | All Maps | STV","players":null},{"server_id":1,"name":"Uncletopia | Los Angeles | 1 | All Maps","name_short":"lax-1","host":"lax-1.us.uncletopia.com","port":27015,"enabled":true,"region":"us-west","cc":"us","latitude":33.94279,"longitude":-118.41004,"reserved":0,"last_update":"0001-01-01T00:00:00Z","name_a2s":"Uncletopia | Los Angeles | 1 | All Maps","protocol":17,"map":"cp_fastlane","folder":"tf","game":"Team Fortress","app_id":440,"player_count":24,"max_players":24,"Bots":0,"server_type":"Dedicated","server_os":"Linux","password":true,"vac":true,"version":"7961495","steam_id":85568392924469991,"keywords":["cp","nocrits","nodmgspread","uncletopia"],"game_id":440,"stv_port":27016,"stv_name":"Uncletopia | Los Angeles | 1 | All Maps | STV","players":[{"user_id":92,"name":"HRT","steam_id":76561198013781132,"connected_time":2427000000000,"state":"active","ping":101},{"user_id":93,"name":"Petrivus","steam_id":76561198202152453,"connected_time":2418000000000,"state":"active","ping":83},{"user_id":20,"name":"señora","steam_id":76561199353185652,"connected_time":7279000000000,"state":"active","ping":146},{"user_id":94,"name":"Cael Thavain","steam_id":76561198136789464,"connected_time":2156000000000,"state":"active","ping":56},{"user_id":120,"name":"Maid 'n' China","steam_id":76561198423392976,"connected_time":1005000000000,"state":"active","ping":56},{"user_id":123,"name":"Urist McDwarf","steam_id":76561198164004939,"connected_time":784000000000,"state":"active","ping":77},{"user_id":130,"name":"big chalupa gaming","steam_id":76561198153504932,"connected_time":333000000000,"state":"active","ping":74},{"user_id":138,"name":"Sax","steam_id":76561198055425123,"connected_time":38000000000,"state":"active","ping":91},{"user_id":98,"name":"Warmerfall","steam_id":76561198812218923,"connected_time":1958000000000,"state":"active","ping":126},{"user_id":135,"name":"||BassMan||","steam_id":76561198279865229,"connected_time":166000000000,"state":"active","ping":86},{"user_id":76,"name":"Exactly 8 Italians","steam_id":76561199443213821,"connected_time":4216000000000,"state":"active","ping":101},{"user_id":100,"name":"HOVY GAMING (REAL)","steam_id":76561199210311096,"connected_time":1947000000000,"state":"active","ping":123},{"user_id":131,"name":"Gamingtime","steam_id":76561198339856746,"connected_time":330000000000,"state":"active","ping":98},{"user_id":139,"name":"Grandpa 1MinecraftEmpire","steam_id":76561198069046338,"connected_time":32000000000,"state":"active","ping":54},{"user_id":136,"name":"Klip","steam_id":76561198316254429,"connected_time":145000000000,"state":"active","ping":90},{"user_id":124,"name":"A Lamentable Waste of Oxygen","steam_id":76561198131567365,"connected_time":747000000000,"state":"active","ping":57},{"user_id":134,"name":"Wofford","steam_id":76561198342952417,"connected_time":294000000000,"state":"active","ping":62},{"user_id":132,"name":"Bargain Brand Cereal","steam_id":76561198440470058,"connected_time":325000000000,"state":"active","ping":133},{"user_id":39,"name":"vfa","steam_id":76561198055729118,"connected_time":6724000000000,"state":"active","ping":81},{"user_id":133,"name":"ඞ","steam_id":76561199365672047,"connected_time":309000000000,"state":"active","ping":129},{"user_id":110,"name":"the keebler","steam_id":76561199486326945,"connected_time":1585000000000,"state":"active","ping":106},{"user_id":111,"name":"Clam","steam_id":76561198288570962,"connected_time":1583000000000,"state":"active","ping":71},{"user_id":112,"name":"I stole your catchphrase","steam_id":76561198053465042,"connected_time":1542000000000,"state":"active","ping":87},{"user_id":129,"name":"PissMaster^5","steam_id":76561198959576385,"connected_time":370000000000,"state":"active","ping":105}]},{"server_id":112,"name":"Uncletopia | Los Angeles | 2 | All Maps","name_short":"lax-2","host":"lax-1.us.uncletopia.com","port":27025,"enabled":true,"region":"us-west","cc":"us","latitude":33.94279,"longitude":-118.41004,"reserved":0,"last_update":"0001-01-01T00:00:00Z","name_a2s":"Uncletopia | Los Angeles | 2 | All Maps","protocol":17,"map":"cp_dustbowl","folder":"tf","game":"Team Fortress","app_id":440,"player_count":0,"max_players":24,"Bots":0,"server_type":"Dedicated","server_os":"Linux","password":true,"vac":true,"version":"7961495","steam_id":85568392924469992,"keywords":["cp","nocrits","nodmgspread","uncletopia"],"game_id":440,"stv_port":27026,"stv_name":"Uncletopia | Los Angeles | 2 | All Maps | STV","players":null},{"server_id":324,"name":"Uncletopia | Los Angeles | 3 | All Maps","name_short":"lax-3","host":"lax-1.us.uncletopia.com","port":27035,"enabled":true,"region":"us-west","cc":"us","latitude":33.94279,"longitude":-118.41004,"reserved":0,"last_update":"0001-01-01T00:00:00Z","name_a2s":"Uncletopia | Los Angeles | 3 | All Maps","protocol":17,"map":"cp_altitude","folder":"tf","game":"Team Fortress","app_id":440,"player_count":22,"max_players":24,"Bots":0,"server_type":"Dedicated","server_os":"Linux","password":true,"vac":true,"version":"7961495","steam_id":85568392924510198,"keywords":["cp","nocrits","nodmgspread","uncletopia"],"game_id":440,"stv_port":27036,"stv_name":"Uncletopia | Los Angeles | 3 | All Maps | STV","players":[{"user_id":293,"name":"KarmaStar","steam_id":76561197971945357,"connected_time":857000000000,"state":"active","ping":123},{"user_id":288,"name":"Almimi","steam_id":76561198084059352,"connected_time":1124000000000,"state":"active","ping":52},{"user_id":250,"name":"Toad","steam_id":76561198198163491,"connected_time":3938000000000,"state":"active","ping":108},{"user_id":271,"name":"Ashes!","steam_id":76561197998475441,"connected_time":2268000000000,"state":"active","ping":116},{"user_id":291,"name":"Interrobang","steam_id":76561198385044529,"connected_time":937000000000,"state":"active","ping":91},{"user_id":267,"name":"TeriyakiDynamite","steam_id":76561198050049346,"connected_time":2569000000000,"state":"active","ping":66},{"user_id":302,"name":"TheProphet_08","steam_id":76561199164300600,"connected_time":350000000000,"state":"active","ping":72},{"user_id":303,"name":"Acro","steam_id":76561198092451804,"connected_time":256000000000,"state":"active","ping":108},{"user_id":292,"name":"Redrox112016","steam_id":76561199250762203,"connected_time":886000000000,"state":"active","ping":114},{"user_id":294,"name":"fortzei","steam_id":76561198210920541,"connected_time":830000000000,"state":"active","ping":69},{"user_id":278,"name":"Cypress","steam_id":76561198070560915,"connected_time":2144000000000,"state":"active","ping":64},{"user_id":298,"name":"Slugger3535","steam_id":76561199247060607,"connected_time":649000000000,"state":"active","ping":53},{"user_id":273,"name":"b","steam_id":76561198087200115,"connected_time":2211000000000,"state":"active","ping":71},{"user_id":295,"name":"White_Wizard_Named_Corona","steam_id":76561198055652735,"connected_time":769000000000,"state":"active","ping":99},{"user_id":299,"name":"my mom","steam_id":76561199225201569,"connected_time":642000000000,"state":"active","ping":112},{"user_id":289,"name":"suffrage for frogs","steam_id":76561198024661591,"connected_time":1075000000000,"state":"active","ping":87},{"user_id":297,"name":"n00dle","steam_id":76561198120798040,"connected_time":765000000000,"state":"active","ping":90},{"user_id":275,"name":"Chilihuahua","steam_id":76561198004929152,"connected_time":2178000000000,"state":"active","ping":74},{"user_id":276,"name":"sixauto0706","steam_id":76561198126443610,"connected_time":2170000000000,"state":"active","ping":60},{"user_id":300,"name":"Matches_","steam_id":76561198048925904,"connected_time":604000000000,"state":"active","ping":59},{"user_id":290,"name":"EliteSpartan","steam_id":76561198174023582,"connected_time":1040000000000,"state":"active","ping":115},{"user_id":301,"name":"RuinLucky","steam_id":76561199481172481,"connected_time":514000000000,"state":"active","ping":123}]},{"server_id":25,"name":"Uncletopia | Los Angeles | 4 | Stopwatch Beta","name_short":"lax-4","host":"lax-1.us.uncletopia.com","port":27045,"enabled":true,"region":"us-west","cc":"us","latitude":33.94279,"longitude":-118.41004,"reserved":0,"last_update":"0001-01-01T00:00:00Z","name_a2s":"Uncletopia | Los Angeles | 4 | Stopwatch Beta","protocol":17,"map":"koth_highpass","folder":"tf","game":"Team Fortress","app_id":440,"player_count":0,"max_players":24,"Bots":0,"server_type":"Dedicated","server_os":"Linux","password":true,"vac":true,"version":"7961495","steam_id":85568392924510199,"keywords":["cp","nocrits","nodmgspread","uncletopia"],"game_id":440,"stv_port":27046,"stv_name":"Uncletopia | Los Angeles | 4 | Stopwatch Beta | STV","players":null},{"server_id":11,"name":"Uncletopia | London | 1 | All Maps","name_short":"lon-1","host":"lon-1.uk.uncletopia.com","port":27015,"enabled":true,"region":"eu","cc":"gb","latitude":51.509865,"longitude":-0.118092,"reserved":0,"last_update":"0001-01-01T00:00:00Z","name_a2s":"Uncletopia | London | 1 | All Maps","protocol":17,"map":"pl_frontier_final","folder":"tf","game":"Team Fortress","app_id":440,"player_count":24,"max_players":24,"Bots":0,"server_type":"Dedicated","server_os":"Linux","password":true,"vac":true,"version":"7961495","steam_id":85568392924367362,"keywords":["nocrits","nodmgspread","payload","uncletopia"],"game_id":440,"stv_port":27016,"stv_name":"Uncletopia | London | 1 | All Maps | STV","players":[{"user_id":944,"name":"SpyCrab  Erik Twice","steam_id":76561198009710309,"connected_time":1027000000000,"state":"active","ping":55},{"user_id":941,"name":"the_Qcumber","steam_id":76561199152515819,"connected_time":1051000000000,"state":"active","ping":63},{"user_id":828,"name":"nemelex","steam_id":76561198958005865,"connected_time":4352000000000,"state":"active","ping":55},{"user_id":823,"name":"mr.manager","steam_id":76561198010662796,"connected_time":4974000000000,"state":"active","ping":48},{"user_id":951,"name":"Mircoxi","steam_id":76561199407632710,"connected_time":771000000000,"state":"active","ping":63},{"user_id":908,"name":"caramelldancin'","steam_id":76561198193357946,"connected_time":1652000000000,"state":"active","ping":97},{"user_id":836,"name":"Stunner/John ツ","steam_id":76561199085822219,"connected_time":4105000000000,"state":"active","ping":82},{"user_id":869,"name":"iiiiiii","steam_id":76561199082156030,"connected_time":2235000000000,"state":"active","ping":76},{"user_id":889,"name":"Aaron","steam_id":76561197990046953,"connected_time":1927000000000,"state":"active","ping":59},{"user_id":950,"name":"♂ Twink Hunter ♂","steam_id":76561198397024973,"connected_time":780000000000,"state":"active","ping":32},{"user_id":912,"name":"Goose","steam_id":76561199054486490,"connected_time":1502000000000,"state":"active","ping":56},{"user_id":945,"name":"tWx","steam_id":76561198123145824,"connected_time":1015000000000,"state":"active","ping":76},{"user_id":942,"name":"jonesy","steam_id":76561198073975078,"connected_time":1038000000000,"state":"active","ping":60},{"user_id":907,"name":"Makłowicz","steam_id":76561198281831506,"connected_time":1702000000000,"state":"active","ping":88},{"user_id":946,"name":"14 ants","steam_id":76561198036119802,"connected_time":1008000000000,"state":"active","ping":58},{"user_id":952,"name":"NotChloe","steam_id":76561198080658092,"connected_time":768000000000,"state":"active","ping":59},{"user_id":878,"name":"Sh3ba Spaniel","steam_id":76561198047412394,"connected_time":2139000000000,"state":"active","ping":153},{"user_id":948,"name":"Smiffy","steam_id":76561198094911581,"connected_time":995000000000,"state":"active","ping":51},{"user_id":903,"name":"png.png","steam_id":76561198444446521,"connected_time":1772000000000,"state":"active","ping":107},{"user_id":887,"name":"Mapavri","steam_id":76561198370196400,"connected_time":1940000000000,"state":"active","ping":93},{"user_id":867,"name":"Egor Pomidor","steam_id":76561199175688390,"connected_time":2269000000000,"state":"active","ping":90},{"user_id":954,"name":"MatchaPanda","steam_id":76561198027383926,"connected_time":226000000000,"state":"active","ping":42},{"user_id":955,"name":"Ziemniaczki","steam_id":76561198061866742,"connected_time":84000000000,"state":"active","ping":82},{"user_id":953,"name":"cortex","steam_id":76561198839790230,"connected_time":580000000000,"state":"active","ping":76}]},{"server_id":114,"name":"Uncletopia | London | 2 | All Maps","name_short":"lon-2","host":"lon-1.uk.uncletopia.com","port":27025,"enabled":true,"region":"eu","cc":"gb","latitude":51.509865,"longitude":-0.118092,"reserved":0,"last_update":"0001-01-01T00:00:00Z","name_a2s":"Uncletopia | London | 2 | All Maps","protocol":17,"map":"pl_swiftwater_final1","folder":"tf","game":"Team Fortress","app_id":440,"player_count":24,"max_players":24,"Bots":0,"server_type":"Dedicated","server_os":"Linux","password":true,"vac":true,"version":"7961495","steam_id":85568392924470941,"keywords":["nocrits","nodmgspread","payload","uncletopia"],"game_id":440,"stv_port":27026,"stv_name":"Uncletopia | London | 2 | All Maps | STV","players":[{"user_id":434,"name":"vurtun","steam_id":76561198857395274,"connected_time":254000000000,"state":"active","ping":56},{"user_id":435,"name":"mr.resetti","steam_id":76561198974520642,"connected_time":253000000000,"state":"active","ping":72},{"user_id":409,"name":"๖ۣۜSir Robbiewolf","steam_id":76561198001357988,"connected_time":2284000000000,"state":"active","ping":71},{"user_id":436,"name":"Adolf Potter","steam_id":76561198120554557,"connected_time":253000000000,"state":"active","ping":60},{"user_id":431,"name":"Alcoholic Princess","steam_id":76561198208093880,"connected_time":319000000000,"state":"active","ping":54},{"user_id":437,"name":"I Don't Know","steam_id":76561198841011430,"connected_time":243000000000,"state":"active","ping":77},{"user_id":438,"name":"Vanta_BlackLD","steam_id":76561198346271576,"connected_time":239000000000,"state":"active","ping":75},{"user_id":423,"name":"rev","steam_id":76561198134512931,"connected_time":1182000000000,"state":"active","ping":66},{"user_id":347,"name":"enine","steam_id":76561198890193313,"connected_time":6061000000000,"state":"active","ping":55},{"user_id":404,"name":"Geoff the Oracle","steam_id":76561198053759965,"connected_time":2321000000000,"state":"active","ping":55},{"user_id":439,"name":"Shynii","steam_id":76561198194682105,"connected_time":196000000000,"state":"active","ping":59},{"user_id":322,"name":"Lyra","steam_id":76561198043601838,"connected_time":7237000000000,"state":"active","ping":60},{"user_id":406,"name":"FoOzTV","steam_id":76561197998636728,"connected_time":2295000000000,"state":"active","ping":67},{"user_id":414,"name":"Bob D","steam_id":76561198026375630,"connected_time":2148000000000,"state":"active","ping":50},{"user_id":391,"name":"Sgreff","steam_id":76561198036304365,"connected_time":3250000000000,"state":"active","ping":46},{"user_id":429,"name":"lizard fucker","steam_id":76561198139729249,"connected_time":500000000000,"state":"active","ping":96},{"user_id":426,"name":"hipster_doofus","steam_id":76561197970902697,"connected_time":716000000000,"state":"active","ping":56},{"user_id":394,"name":"Gio'sMonkey","steam_id":76561198892432223,"connected_time":2738000000000,"state":"active","ping":75},{"user_id":410,"name":"Ar|es","steam_id":76561198819160313,"connected_time":2282000000000,"state":"active","ping":93},{"user_id":411,"name":"Eggy_The_Tyrone","steam_id":76561198036857277,"connected_time":2276000000000,"state":"active","ping":60},{"user_id":416,"name":"Snake-chan","steam_id":76561199044755854,"connected_time":1733000000000,"state":"active","ping":74},{"user_id":413,"name":"turkish barber wallahi","steam_id":76561198111807532,"connected_time":2250000000000,"state":"active","ping":56},{"user_id":419,"name":"19raic","steam_id":76561199093514786,"connected_time":1534000000000,"state":"active","ping":69},{"user_id":386,"name":"sBLOCKER  85","steam_id":76561198939078994,"connected_time":3594000000000,"state":"active","ping":159}]},{"server_id":320,"name":"Uncletopia | London | 3 | All Maps","name_short":"lon-3","host":"lon-1.uk.uncletopia.com","port":27035,"enabled":true,"region":"eu","cc":"gb","latitude":51.509865,"longitude":-0.118092,"reserved":0,"last_update":"0001-01-01T00:00:00Z","name_a2s":"Uncletopia | London | 3 | All Maps","protocol":17,"map":"pl_badwater","folder":"tf","game":"Team Fortress","app_id":440,"player_count":24,"max_players":24,"Bots":0,"server_type":"Dedicated","server_os":"Linux","password":true,"vac":true,"version":"7961495","steam_id":85568392924510192,"keywords":["nocrits","nodmgspread","payload","uncletopia"],"game_id":440,"stv_port":27036,"stv_name":"Uncletopia | London | 3 | All Maps | STV","players":[{"user_id":185,"name":"God's Goofiest Goober","steam_id":76561198103175187,"connected_time":3773000000000,"state":"active","ping":70},{"user_id":183,"name":"worm with a fat ass","steam_id":76561198170026338,"connected_time":3819000000000,"state":"active","ping":70},{"user_id":201,"name":"Kapitan Taco","steam_id":76561198889730038,"connected_time":3081000000000,"state":"active","ping":92},{"user_id":216,"name":"ṽ⧉ cookie","steam_id":76561197998884823,"connected_time":1149000000000,"state":"active","ping":140},{"user_id":188,"name":"skype enjoyer","steam_id":76561198113051680,"connected_time":3700000000000,"state":"active","ping":73},{"user_id":146,"name":"1couver","steam_id":76561198168553215,"connected_time":5891000000000,"state":"active","ping":104},{"user_id":135,"name":"DJ Sheeve","steam_id":76561198095910139,"connected_time":6869000000000,"state":"active","ping":161},{"user_id":221,"name":"METhOphetamine","steam_id":76561198068216224,"connected_time":168000000000,"state":"active","ping":60},{"user_id":207,"name":"Gosman","steam_id":76561198062956955,"connected_time":2045000000000,"state":"active","ping":65},{"user_id":116,"name":"bad_egg","steam_id":76561198870666753,"connected_time":7898000000000,"state":"active","ping":83},{"user_id":222,"name":"Black Shadow 634","steam_id":76561199481445037,"connected_time":151000000000,"state":"active","ping":112},{"user_id":202,"name":"sex defender","steam_id":76561198121816815,"connected_time":3015000000000,"state":"active","ping":74},{"user_id":214,"name":"please do not the cat","steam_id":76561198089003514,"connected_time":1228000000000,"state":"active","ping":45},{"user_id":142,"name":"cowböy","steam_id":76561198048990716,"connected_time":6162000000000,"state":"active","ping":101},{"user_id":219,"name":"Big Al","steam_id":76561198079585198,"connected_time":537000000000,"state":"active","ping":55},{"user_id":225,"name":"Pawoss","steam_id":76561198050416391,"connected_time":39000000000,"state":"active","ping":93},{"user_id":215,"name":"◢◤ Joker ◢◤","steam_id":76561198038325384,"connected_time":1189000000000,"state":"active","ping":52},{"user_id":153,"name":"gx71","steam_id":76561198035112358,"connected_time":5605000000000,"state":"active","ping":47},{"user_id":224,"name":"fénix","steam_id":76561198083199151,"connected_time":41000000000,"state":"active","ping":58},{"user_id":220,"name":"knyazF","steam_id":76561198163278585,"connected_time":476000000000,"state":"active","ping":78},{"user_id":223,"name":"gabagool","steam_id":76561198307111838,"connected_time":147000000000,"state":"active","ping":33},{"user_id":176,"name":"Plep","steam_id":76561198840259819,"connected_time":4114000000000,"state":"active","ping":61},{"user_id":195,"name":"Szczuruw Krul","steam_id":76561198248227378,"connected_time":3534000000000,"state":"active","ping":79},{"user_id":165,"name":"AftiksPL","steam_id":76561198875182686,"connected_time":4675000000000,"state":"active","ping":112}]},{"server_id":321,"name":"Uncletopia | London | 4 | All Maps","name_short":"lon-4","host":"lon-1.uk.uncletopia.com","port":27045,"enabled":true,"region":"eu","cc":"gb","latitude":51.509865,"longitude":-0.118092,"reserved":0,"last_update":"0001-01-01T00:00:00Z","name_a2s":"Uncletopia | London | 4 | All Maps","protocol":17,"map":"pl_upward","folder":"tf","game":"Team Fortress","app_id":440,"player_count":24,"max_players":24,"Bots":0,"server_type":"Dedicated","server_os":"Linux","password":true,"vac":true,"version":"7961495","steam_id":85568392924510193,"keywords":["nocrits","nodmgspread","payload","uncletopia"],"game_id":440,"stv_port":27046,"stv_name":"Uncletopia | London | 4 | All Maps | STV","players":[{"user_id":404,"name":"Piteras","steam_id":76561198858532207,"connected_time":1910000000000,"state":"active","ping":79},{"user_id":418,"name":"Burbie","steam_id":76561198046069449,"connected_time":664000000000,"state":"active","ping":58},{"user_id":410,"name":"traff","steam_id":76561198199834531,"connected_time":1181000000000,"state":"active","ping":49},{"user_id":371,"name":"Sussius Amogius The Third","steam_id":76561198047778351,"connected_time":4308000000000,"state":"active","ping":46},{"user_id":381,"name":"-rikeOo-","steam_id":76561198303995379,"connected_time":2999000000000,"state":"active","ping":77},{"user_id":357,"name":"akakez","steam_id":76561198095432821,"connected_time":5932000000000,"state":"active","ping":129},{"user_id":382,"name":"imROBO","steam_id":76561198859060841,"connected_time":2998000000000,"state":"active","ping":71},{"user_id":374,"name":"Huskey","steam_id":76561198152392309,"connected_time":3616000000000,"state":"active","ping":45},{"user_id":398,"name":"israelphobic","steam_id":76561198116530769,"connected_time":2287000000000,"state":"active","ping":93},{"user_id":395,"name":"your local Medic GF","steam_id":76561199088845896,"connected_time":2717000000000,"state":"active","ping":140},{"user_id":372,"name":"TJ1212","steam_id":76561199013575313,"connected_time":3983000000000,"state":"active","ping":67},{"user_id":388,"name":"Brinier","steam_id":76561199012604288,"connected_time":2797000000000,"state":"active","ping":68},{"user_id":376,"name":"fp","steam_id":76561198817940142,"connected_time":3608000000000,"state":"active","ping":50},{"user_id":413,"name":"rabi","steam_id":76561198269167544,"connected_time":798000000000,"state":"active","ping":104},{"user_id":396,"name":"Shapeshifter","steam_id":76561198052898368,"connected_time":2707000000000,"state":"active","ping":90},{"user_id":370,"name":"d u k k i","steam_id":76561198071807437,"connected_time":4372000000000,"state":"active","ping":92},{"user_id":400,"name":"StingyLettuce","steam_id":76561199010337406,"connected_time":2051000000000,"state":"active","ping":115},{"user_id":399,"name":"Ray Lilith","steam_id":76561198133946866,"connected_time":2085000000000,"state":"active","ping":60},{"user_id":411,"name":"Mr. Luigi","steam_id":76561198167312951,"connected_time":1161000000000,"state":"active","ping":36},{"user_id":419,"name":"Sergium46","steam_id":76561198121234345,"connected_time":547000000000,"state":"active","ping":81},{"user_id":412,"name":"Flashback","steam_id":76561197973978552,"connected_time":982000000000,"state":"active","ping":55},{"user_id":391,"name":"local uncletopia goblin","steam_id":76561198027187109,"connected_time":2766000000000,"state":"active","ping":61},{"user_id":394,"name":"Hitotsume","steam_id":76561198129157178,"connected_time":2735000000000,"state":"active","ping":122},{"user_id":406,"name":"syms","steam_id":76561198066679812,"connected_time":1670000000000,"state":"active","ping":76}]},{"server_id":21,"name":"Uncletopia | London | 5 | All Maps","name_short":"lon-5","host":"lon-1.uk.uncletopia.com","port":27055,"enabled":true,"region":"eu","cc":"gb","latitude":51.509865,"longitude":-0.118092,"reserved":0,"last_update":"0001-01-01T00:00:00Z","name_a2s":"Uncletopia | London | 5 | All Maps","protocol":17,"map":"pl_upward","folder":"tf","game":"Team Fortress","app_id":440,"player_count":24,"max_players":24,"Bots":0,"server_type":"Dedicated","server_os":"Linux","password":true,"vac":true,"version":"7961495","steam_id":85568392924742829,"keywords":["nocrits","nodmgspread","payload","uncletopia"],"game_id":440,"stv_port":27056,"stv_name":"Uncletopia | London | 5 | All Maps | STV","players":[{"user_id":303,"name":"rrm#4395","steam_id":76561199225339381,"connected_time":1313000000000,"state":"active","ping":51},{"user_id":308,"name":"DepressedOnion79","steam_id":76561198025771360,"connected_time":1240000000000,"state":"active","ping":97},{"user_id":319,"name":"globalist","steam_id":76561198087800030,"connected_time":203000000000,"state":"active","ping":55},{"user_id":294,"name":"Vermin","steam_id":76561198045527771,"connected_time":1906000000000,"state":"active","ping":74},{"user_id":321,"name":"SoldierSo1o","steam_id":76561199109522950,"connected_time":151000000000,"state":"active","ping":58},{"user_id":305,"name":"jù xiē","steam_id":76561198096189399,"connected_time":1308000000000,"state":"active","ping":69},{"user_id":318,"name":"Omyskull","steam_id":76561198131711758,"connected_time":543000000000,"state":"active","ping":69},{"user_id":295,"name":"mt","steam_id":76561197961319303,"connected_time":1875000000000,"state":"active","ping":58},{"user_id":320,"name":"Geist","steam_id":76561198047566695,"connected_time":196000000000,"state":"active","ping":88},{"user_id":316,"name":"Silver","steam_id":76561198037290739,"connected_time":688000000000,"state":"active","ping":71},{"user_id":314,"name":"Dogdigger","steam_id":76561198032893130,"connected_time":880000000000,"state":"active","ping":105},{"user_id":251,"name":"spy among us","steam_id":76561198392537090,"connected_time":4997000000000,"state":"active","ping":67},{"user_id":312,"name":"Fuvuk","steam_id":76561198044458593,"connected_time":923000000000,"state":"active","ping":94},{"user_id":309,"name":"John0309","steam_id":76561198447428162,"connected_time":1221000000000,"state":"active","ping":86},{"user_id":265,"name":"blurst of times","steam_id":76561197972325640,"connected_time":3920000000000,"state":"active","ping":41},{"user_id":317,"name":"glorbus","steam_id":76561198969544894,"connected_time":667000000000,"state":"active","ping":50},{"user_id":277,"name":"Sommelier_","steam_id":76561198354180808,"connected_time":3167000000000,"state":"active","ping":75},{"user_id":274,"name":"eye","steam_id":76561198343328308,"connected_time":3565000000000,"state":"active","ping":75},{"user_id":311,"name":"Sir Cauterize","steam_id":76561198047079422,"connected_time":1043000000000,"state":"active","ping":50},{"user_id":291,"name":"Cheese","steam_id":76561198146419076,"connected_time":2094000000000,"state":"active","ping":84},{"user_id":283,"name":"aeiou.","steam_id":76561198207929768,"connected_time":2627000000000,"state":"active","ping":62},{"user_id":310,"name":"Khrinde","steam_id":76561198036744526,"connected_time":1194000000000,"state":"active","ping":98},{"user_id":301,"name":"azzy","steam_id":76561198061293740,"connected_time":1348000000000,"state":"active","ping":79},{"user_id":315,"name":"clean carp","steam_id":76561198127053294,"connected_time":879000000000,"state":"active","ping":75}]},{"server_id":22,"name":"Uncletopia | London | 6 | All Maps","name_short":"lon-6","host":"lon-1.uk.uncletopia.com","port":27065,"enabled":true,"region":"eu","cc":"gb","latitude":51.509865,"longitude":-0.118092,"reserved":0,"last_update":"0001-01-01T00:00:00Z","name_a2s":"Uncletopia | London | 6 | All Maps","protocol":17,"map":"pl_pier","folder":"tf","game":"Team Fortress","app_id":440,"player_count":23,"max_players":24,"Bots":0,"server_type":"Dedicated","server_os":"Linux","password":true,"vac":true,"version":"7961495","steam_id":85568392924742830,"keywords":["nocrits","nodmgspread","payload","uncletopia"],"game_id":440,"stv_port":27066,"stv_name":"Uncletopia | London | 6 | All Maps | STV","players":[{"user_id":340,"name":"RedFog","steam_id":76561198284713081,"connected_time":395000000000,"state":"active","ping":54},{"user_id":213,"name":"Forklift Certified","steam_id":76561198001816577,"connected_time":10287000000000,"state":"active","ping":88},{"user_id":344,"name":"prophits","steam_id":76561198011854314,"connected_time":373000000000,"state":"active","ping":60},{"user_id":346,"name":"Amandus","steam_id":76561198036281079,"connected_time":248000000000,"state":"active","ping":64},{"user_id":345,"name":"Cookies and Bakies","steam_id":76561198017442928,"connected_time":364000000000,"state":"active","ping":74},{"user_id":211,"name":"Can I get a Beep Beep","steam_id":76561198010730967,"connected_time":10391000000000,"state":"active","ping":79},{"user_id":342,"name":"testicular torque","steam_id":76561198107978481,"connected_time":390000000000,"state":"active","ping":93},{"user_id":276,"name":"Unstable Goat","steam_id":76561197985788557,"connected_time":5682000000000,"state":"active","ping":92},{"user_id":338,"name":"Faking.","steam_id":76561198823540483,"connected_time":409000000000,"state":"active","ping":84},{"user_id":326,"name":"nobodyy","steam_id":76561198027735766,"connected_time":1715000000000,"state":"active","ping":73},{"user_id":321,"name":"mike erhmentraut","steam_id":76561199025378498,"connected_time":2388000000000,"state":"active","ping":42},{"user_id":349,"name":"gk","steam_id":76561198010433741,"connected_time":52000000000,"state":"active","ping":60},{"user_id":343,"name":"Saul Quiz-Man","steam_id":76561198353226972,"connected_time":390000000000,"state":"active","ping":62},{"user_id":329,"name":"Jack","steam_id":76561198209102833,"connected_time":1661000000000,"state":"active","ping":55},{"user_id":331,"name":"Chris Hansen, Kell of Kells","steam_id":76561198986775156,"connected_time":1640000000000,"state":"active","ping":137},{"user_id":323,"name":"AHHHHHHHHHHHHHHHHHHHHHHHHHHHH","steam_id":76561199202637333,"connected_time":2052000000000,"state":"active","ping":75},{"user_id":337,"name":"s a i","steam_id":76561197970379754,"connected_time":1065000000000,"state":"active","ping":61},{"user_id":303,"name":"rachel aldana's massive milkers","steam_id":76561198025916703,"connected_time":3117000000000,"state":"active","ping":72},{"user_id":350,"name":"You slumber","steam_id":76561198344639692,"connected_time":40000000000,"state":"active","ping":88},{"user_id":336,"name":"Maxmind24","steam_id":76561198859888778,"connected_time":1206000000000,"state":"active","ping":176},{"user_id":347,"name":"XxBenShapiro420xX","steam_id":76561199229373972,"connected_time":218000000000,"state":"active","ping":65},{"user_id":352,"name":"Cimbasso","steam_id":76561198968050004,"connected_time":24000000000,"state":"spawning","ping":146}]},{"server_id":40,"name":"Uncletopia | London | 7 | No Payload","name_short":"lon-7","host":"lon-1.uk.uncletopia.com","port":27075,"enabled":true,"region":"eu","cc":"gb","latitude":51.509865,"longitude":-0.118092,"reserved":0,"last_update":"0001-01-01T00:00:00Z","name_a2s":"Uncletopia | London | 7 | No Payload","protocol":17,"map":"ctf_2fort","folder":"tf","game":"Team Fortress","app_id":440,"player_count":22,"max_players":24,"Bots":0,"server_type":"Dedicated","server_os":"Linux","password":true,"vac":true,"version":"7961495","steam_id":85568392924964314,"keywords":["ctf","nocrits","nodmgspread","uncletopia"],"game_id":440,"stv_port":27076,"stv_name":"Uncletopia | London | 7 | No Payload | STV","players":[{"user_id":290,"name":"HunterPwner","steam_id":76561198073443107,"connected_time":2703000000000,"state":"active","ping":160},{"user_id":351,"name":"Brainless goga enjoyer","steam_id":76561198040509712,"connected_time":58000000000,"state":"active","ping":59},{"user_id":302,"name":"Bird On Your Window","steam_id":76561198081933130,"connected_time":2127000000000,"state":"active","ping":59},{"user_id":299,"name":"GorGutz","steam_id":76561198042530075,"connected_time":2221000000000,"state":"active","ping":63},{"user_id":332,"name":"ᶦˢʳᵃᵉˡ","steam_id":76561198051832269,"connected_time":745000000000,"state":"active","ping":69},{"user_id":308,"name":"El Śmiecho","steam_id":76561198406268329,"connected_time":1881000000000,"state":"active","ping":71},{"user_id":315,"name":"Pinkchup","steam_id":76561198106802803,"connected_time":1583000000000,"state":"active","ping":82},{"user_id":352,"name":"PaasiPiru","steam_id":76561198013325816,"connected_time":50000000000,"state":"spawning","ping":101},{"user_id":347,"name":"Seberster","steam_id":76561198136958624,"connected_time":317000000000,"state":"active","ping":112},{"user_id":311,"name":"Alvadonis","steam_id":76561198046736902,"connected_time":1802000000000,"state":"active","ping":91},{"user_id":339,"name":"Mr Acehole","steam_id":76561198123475157,"connected_time":589000000000,"state":"active","ping":75},{"user_id":304,"name":"gingus bobing IV","steam_id":76561198197851753,"connected_time":2014000000000,"state":"active","ping":75},{"user_id":340,"name":"Wyodu","steam_id":76561198406237593,"connected_time":588000000000,"state":"active","ping":71},{"user_id":288,"name":"NerevarDZN","steam_id":76561198055037163,"connected_time":2823000000000,"state":"active","ping":83},{"user_id":348,"name":"Sorry","steam_id":76561198040722720,"connected_time":281000000000,"state":"active","ping":138},{"user_id":345,"name":"Tobi Kool","steam_id":76561198421707721,"connected_time":455000000000,"state":"active","ping":72},{"user_id":331,"name":"Manwich","steam_id":76561198357334558,"connected_time":790000000000,"state":"active","ping":111},{"user_id":298,"name":"M2rtRa","steam_id":76561198111036466,"connected_time":2254000000000,"state":"active","ping":74},{"user_id":327,"name":"engineer drip","steam_id":76561198991032570,"connected_time":949000000000,"state":"active","ping":97},{"user_id":316,"name":"Katarina","steam_id":76561198016601374,"connected_time":1582000000000,"state":"active","ping":100},{"user_id":329,"name":"HUGO","steam_id":76561198317134996,"connected_time":939000000000,"state":"active","ping":89},{"user_id":343,"name":"[V.G.T.41] Seva the Gnome","steam_id":76561198951268072,"connected_time":562000000000,"state":"active","ping":105}]},{"server_id":41,"name":"Uncletopia | London | 8 | Community","name_short":"lon-8","host":"lon-1.uk.uncletopia.com","port":27085,"enabled":true,"region":"eu","cc":"gb","latitude":51.509865,"longitude":-0.118092,"reserved":0,"last_update":"0001-01-01T00:00:00Z","name_a2s":"Uncletopia | London | 8 | Community","protocol":17,"map":"workshop/koth_product_final.ugc454272353","folder":"tf","game":"Team Fortress","app_id":440,"player_count":0,"max_players":24,"Bots":0,"server_type":"Dedicated","server_os":"Linux","password":true,"vac":true,"version":"7961495","steam_id":85568392924964315,"keywords":["cp","nocrits","nodmgspread","uncletopia"],"game_id":440,"stv_port":27086,"stv_name":"Uncletopia | London | 8 | Community | STV","players":null},{"server_id":300,"name":"Uncletopia | Montréal | 1 | All Maps","name_short":"mtl-1","host":"mtl-1.ca.uncletopia.com","port":27015,"enabled":true,"region":"us-east","cc":"ca","latitude":45.50889,"longitude":-73.56167,"reserved":0,"last_update":"0001-01-01T00:00:00Z","name_a2s":"","protocol":0,"map":"","folder":"","game":"","app_id":0,"player_count":1,"max_players":0,"Bots":0,"server_type":"","server_os":"","password":false,"vac":false,"version":"","steam_id":0,"keywords":null,"game_id":0,"stv_port":0,"stv_name":"","players":[{"user_id":12,"name":"marshmellowguy","steam_id":76561199008710694,"connected_time":1848000000000,"state":"active","ping":75}]},{"server_id":301,"name":"Uncletopia | Montréal | 2 | All Maps","name_short":"mtl-2","host":"mtl-1.ca.uncletopia.com","port":27025,"enabled":true,"region":"us-east","cc":"ca","latitude":45.50889,"longitude":-73.56167,"reserved":0,"last_update":"0001-01-01T00:00:00Z","name_a2s":"","protocol":0,"map":"","folder":"","game":"","app_id":0,"player_count":0,"max_players":0,"Bots":0,"server_type":"","server_os":"","password":false,"vac":false,"version":"","steam_id":0,"keywords":null,"game_id":0,"stv_port":0,"stv_name":"","players":null},{"server_id":302,"name":"Uncletopia | Montréal | 3 | All Maps","name_short":"mtl-3","host":"mtl-1.ca.uncletopia.com","port":27035,"enabled":true,"region":"us-east","cc":"ca","latitude":45.50889,"longitude":-73.56167,"reserved":0,"last_update":"0001-01-01T00:00:00Z","name_a2s":"","protocol":0,"map":"","folder":"","game":"","app_id":0,"player_count":0,"max_players":0,"Bots":0,"server_type":"","server_os":"","password":false,"vac":false,"version":"","steam_id":0,"keywords":null,"game_id":0,"stv_port":0,"stv_name":"","players":null},{"server_id":303,"name":"Uncletopia | Montréal | 4 | No Payload","name_short":"mtl-4","host":"mtl-1.ca.uncletopia.com","port":27045,"enabled":true,"region":"us-east","cc":"ca","latitude":45.50889,"longitude":-73.56167,"reserved":0,"last_update":"0001-01-01T00:00:00Z","name_a2s":"","protocol":0,"map":"","folder":"","game":"","app_id":0,"player_count":0,"max_players":0,"Bots":0,"server_type":"","server_os":"","password":false,"vac":false,"version":"","steam_id":0,"keywords":null,"game_id":0,"stv_port":0,"stv_name":"","players":null},{"server_id":13,"name":"Uncletopia | New York City | 1 | All Maps","name_short":"nyc-1","host":"nyc-1.us.uncletopia.com","port":27015,"enabled":true,"region":"us-east","cc":"us","latitude":40.73061,"longitude":-73.93524,"reserved":0,"last_update":"0001-01-01T00:00:00Z","name_a2s":"Uncletopia | New York City | 1 | All Maps","protocol":17,"map":"pl_badwater","folder":"tf","game":"Team Fortress","app_id":440,"player_count":24,"max_players":24,"Bots":0,"server_type":"Dedicated","server_os":"Linux","password":true,"vac":true,"version":"7961495","steam_id":85568392924469993,"keywords":["nocrits","nodmgspread","payload","uncletopia"],"game_id":440,"stv_port":27016,"stv_name":"Uncletopia | New York City | 1 | All Maps | STV","players":[{"user_id":222,"name":"npc energy","steam_id":76561198035342207,"connected_time":1191000000000,"state":"active","ping":59},{"user_id":233,"name":"Walmart Employee","steam_id":76561198840373909,"connected_time":438000000000,"state":"active","ping":96},{"user_id":212,"name":"Belts the Puppet","steam_id":76561198322969864,"connected_time":1946000000000,"state":"active","ping":72},{"user_id":237,"name":"blobb","steam_id":76561198950448488,"connected_time":230000000000,"state":"active","ping":61},{"user_id":221,"name":"GummybearKillr","steam_id":76561198031235750,"connected_time":1197000000000,"state":"active","ping":55},{"user_id":210,"name":"Bippums","steam_id":76561198366406729,"connected_time":1951000000000,"state":"active","ping":98},{"user_id":167,"name":"googa","steam_id":76561198133130452,"connected_time":5843000000000,"state":"active","ping":45},{"user_id":213,"name":"Vortigon23","steam_id":76561198116361805,"connected_time":1937000000000,"state":"active","ping":90},{"user_id":205,"name":"SnickerNoodle","steam_id":76561198064359644,"connected_time":2854000000000,"state":"active","ping":57},{"user_id":220,"name":"dalehunter","steam_id":76561199158974920,"connected_time":1205000000000,"state":"active","ping":129},{"user_id":235,"name":"Scorpie Doodle","steam_id":76561198021845763,"connected_time":268000000000,"state":"active","ping":68},{"user_id":230,"name":"manscaped lawnmower 2.0","steam_id":76561199052840531,"connected_time":561000000000,"state":"active","ping":46},{"user_id":207,"name":"vv","steam_id":76561198134813102,"connected_time":2785000000000,"state":"active","ping":62},{"user_id":216,"name":"Sergeant Snowflake","steam_id":76561198041474489,"connected_time":1876000000000,"state":"active","ping":72},{"user_id":229,"name":"Nerrrd_","steam_id":76561198870129960,"connected_time":632000000000,"state":"active","ping":42},{"user_id":225,"name":"Likeia #Savetf2","steam_id":76561198005214207,"connected_time":1144000000000,"state":"active","ping":69},{"user_id":202,"name":"reddishscarf","steam_id":76561199084904694,"connected_time":3467000000000,"state":"active","ping":71},{"user_id":219,"name":"space man","steam_id":76561198066333670,"connected_time":1713000000000,"state":"active","ping":60},{"user_id":123,"name":"Chub","steam_id":76561198380637611,"connected_time":9139000000000,"state":"active","ping":86},{"user_id":236,"name":":3","steam_id":76561198120772700,"connected_time":264000000000,"state":"active","ping":84},{"user_id":218,"name":"SC|Formuoli","steam_id":76561198254354595,"connected_time":1857000000000,"state":"active","ping":59},{"user_id":226,"name":"JJames","steam_id":76561198055687973,"connected_time":1135000000000,"state":"active","ping":67},{"user_id":227,"name":"D","steam_id":76561198292908619,"connected_time":1126000000000,"state":"active","ping":86},{"user_id":232,"name":"cyberas","steam_id":76561198257092290,"connected_time":490000000000,"state":"active","ping":69}]},{"server_id":14,"name":"Uncletopia | New York City | 2 | All Maps","name_short":"nyc-2","host":"nyc-1.us.uncletopia.com","port":27025,"enabled":true,"region":"us-east","cc":"us","latitude":40.73061,"longitude":-73.93524,"reserved":0,"last_update":"0001-01-01T00:00:00Z","name_a2s":"Uncletopia | New York City | 2 | All Maps","protocol":17,"map":"koth_lakeside_final","folder":"tf","game":"Team Fortress","app_id":440,"player_count":0,"max_players":24,"Bots":0,"server_type":"Dedicated","server_os":"Linux","password":true,"vac":true,"version":"7961495","steam_id":85568392924469994,"keywords":["cp","nocrits","nodmgspread","uncletopia"],"game_id":440,"stv_port":27026,"stv_name":"Uncletopia | New York City | 2 | All Maps | STV","players":null},{"server_id":15,"name":"Uncletopia | New York City | 3 | Stopwatch Beta","name_short":"nyc-3","host":"nyc-1.us.uncletopia.com","port":27035,"enabled":true,"region":"us-east","cc":"us","latitude":40.73061,"longitude":-73.93524,"reserved":0,"last_update":"0001-01-01T00:00:00Z","name_a2s":"Uncletopia | New York City | 3 | Stopwatch Beta","protocol":17,"map":"cp_snakewater_final1","folder":"tf","game":"Team Fortress","app_id":440,"player_count":0,"max_players":24,"Bots":0,"server_type":"Dedicated","server_os":"Linux","password":true,"vac":true,"version":"7961495","steam_id":85568392924742820,"keywords":["cp","nocrits","nodmgspread","uncletopia"],"game_id":440,"stv_port":27036,"stv_name":"Uncletopia | New York City | 3 | Stopwatch Beta | STV","players":null},{"server_id":16,"name":"Uncletopia | New York City | 4 | Community","name_short":"nyc-4","host":"nyc-1.us.uncletopia.com","port":27045,"enabled":true,"region":"us-east","cc":"us","latitude":40.73061,"longitude":-73.93524,"reserved":0,"last_update":"0001-01-01T00:00:00Z","name_a2s":"Uncletopia | New York City | 4 | Community","protocol":17,"map":"workshop/koth_slaughter_rc1.ugc1712845210","folder":"tf","game":"Team Fortress","app_id":440,"player_count":0,"max_players":24,"Bots":0,"server_type":"Dedicated","server_os":"Linux","password":true,"vac":true,"version":"7961495","steam_id":85568392924742821,"keywords":["cp","nocrits","nodmgspread","uncletopia"],"game_id":440,"stv_port":27046,"stv_name":"Uncletopia | New York City | 4 | Community | STV","players":null},{"server_id":142,"name":"Uncletopia | São Paulo | 1 | All Maps","name_short":"sao-1","host":"sao-1.br.uncletopia.com","port":27015,"enabled":true,"region":"sa","cc":"br","latitude":-23.533773,"longitude":-46.62529,"reserved":0,"last_update":"0001-01-01T00:00:00Z","name_a2s":"Uncletopia | São Paulo | 1 | All Maps","protocol":17,"map":"cp_mountainlab","folder":"tf","game":"Team Fortress","app_id":440,"player_count":0,"max_players":24,"Bots":0,"server_type":"Dedicated","server_os":"Linux","password":true,"vac":true,"version":"7961495","steam_id":85568392924469996,"keywords":["cp","nocrits","nodmgspread","uncletopia"],"game_id":440,"stv_port":27016,"stv_name":"Uncletopia | São Paulo | 1 | All Maps | STV","players":null},{"server_id":143,"name":"Uncletopia | São Paulo | 2 | Community","name_short":"sao-2","host":"sao-2.br.uncletopia.com","port":27015,"enabled":true,"region":"sa","cc":"br","latitude":-23.533773,"longitude":-46.62529,"reserved":0,"last_update":"0001-01-01T00:00:00Z","name_a2s":"Uncletopia | São Paulo | 2 | Community","protocol":17,"map":"workshop/cp_glassworks_rc6a.ugc454118349","folder":"tf","game":"Team Fortress","app_id":440,"player_count":0,"max_players":24,"Bots":0,"server_type":"Dedicated","server_os":"Linux","password":true,"vac":true,"version":"7961495","steam_id":85568392924485349,"keywords":["cp","nocrits","nodmgspread","uncletopia"],"game_id":440,"stv_port":27016,"stv_name":"Uncletopia | São Paulo | 2 | Community | STV","players":null},{"server_id":7,"name":"Uncletopia | Seattle | 1 | All Maps","name_short":"sea-1","host":"sea-1.us.uncletopia.com","port":27015,"enabled":true,"region":"us-west","cc":"us","latitude":47.608013,"longitude":-122.33517,"reserved":0,"last_update":"0001-01-01T00:00:00Z","name_a2s":"Uncletopia | Seattle | 1 | All Maps","protocol":17,"map":"koth_cascade","folder":"tf","game":"Team Fortress","app_id":440,"player_count":21,"max_players":24,"Bots":0,"server_type":"Dedicated","server_os":"Linux","password":true,"vac":true,"version":"7961495","steam_id":85568392924469997,"keywords":["cp","nocrits","nodmgspread","uncletopia"],"game_id":440,"stv_port":27016,"stv_name":"Uncletopia | Seattle | 1 | All Maps | STV","players":[{"user_id":54,"name":"amagicowl","steam_id":76561199060487814,"connected_time":1853000000000,"state":"spawning","ping":80},{"user_id":82,"name":"the Sho","steam_id":76561199383245112,"connected_time":4000000000,"state":"spawning","ping":139},{"user_id":74,"name":"Gamba","steam_id":76561198069264650,"connected_time":552000000000,"state":"spawning","ping":85},{"user_id":57,"name":"Jousty","steam_id":76561199162677853,"connected_time":1536000000000,"state":"spawning","ping":114},{"user_id":55,"name":"Cloudkin","steam_id":76561198261676318,"connected_time":1835000000000,"state":"spawning","ping":46},{"user_id":40,"name":"That_Damn_Dragon","steam_id":76561198054658474,"connected_time":3039000000000,"state":"spawning","ping":35},{"user_id":58,"name":"waterbotle97","steam_id":76561199084492950,"connected_time":1390000000000,"state":"spawning","ping":59},{"user_id":59,"name":"Oldengie","steam_id":76561199074712665,"connected_time":1297000000000,"state":"spawning","ping":72},{"user_id":60,"name":"rad killl raccoon","steam_id":76561198980975595,"connected_time":1280000000000,"state":"spawning","ping":55},{"user_id":29,"name":"PurpleVoyage12804","steam_id":76561199000798818,"connected_time":3944000000000,"state":"spawning","ping":124},{"user_id":56,"name":"Wack","steam_id":76561198997689359,"connected_time":1826000000000,"state":"spawning","ping":52},{"user_id":81,"name":"[TrC] Nosy","steam_id":76561197978859310,"connected_time":20000000000,"state":"spawning","ping":53},{"user_id":75,"name":"Shroomish","steam_id":76561199109440924,"connected_time":515000000000,"state":"spawning","ping":64},{"user_id":76,"name":"Elfy","steam_id":76561199166448617,"connected_time":392000000000,"state":"spawning","ping":54},{"user_id":66,"name":"Omega","steam_id":76561198961009900,"connected_time":885000000000,"state":"spawning","ping":92},{"user_id":67,"name":"CharlieChocolatte","steam_id":76561199202003439,"connected_time":864000000000,"state":"spawning","ping":39},{"user_id":79,"name":"Kazoo","steam_id":76561199229748300,"connected_time":38000000000,"state":"spawning","ping":80},{"user_id":69,"name":"Lexabyte","steam_id":76561198065032237,"connected_time":747000000000,"state":"spawning","ping":115},{"user_id":71,"name":"anakin ballstomper","steam_id":76561198184814466,"connected_time":728000000000,"state":"spawning","ping":35},{"user_id":72,"name":"MOVEMENTPLAYER bladeefan12","steam_id":76561198274959371,"connected_time":697000000000,"state":"spawning","ping":131},{"user_id":73,"name":"Captain Bong Rips","steam_id":76561198065946939,"connected_time":684000000000,"state":"spawning","ping":78}]},{"server_id":119,"name":"Uncletopia | Seattle | 2 | All Maps","name_short":"sea-2","host":"sea-1.us.uncletopia.com","port":27025,"enabled":true,"region":"us-west","cc":"us","latitude":47.608013,"longitude":-122.33517,"reserved":0,"last_update":"0001-01-01T00:00:00Z","name_a2s":"Uncletopia | Seattle | 2 | All Maps","protocol":17,"map":"cp_mountainlab","folder":"tf","game":"Team Fortress","app_id":440,"player_count":0,"max_players":24,"Bots":0,"server_type":"Dedicated","server_os":"Linux","password":true,"vac":true,"version":"7961495","steam_id":85568392924469998,"keywords":["cp","nocrits","nodmgspread","uncletopia"],"game_id":440,"stv_port":27026,"stv_name":"Uncletopia | Seattle | 2 | All Maps | STV","players":null},{"server_id":406,"name":"Uncletopia | Seattle | 3 | Stopwatch Beta","name_short":"sea-3","host":"sea-1.us.uncletopia.com","port":27035,"enabled":true,"region":"us-west","cc":"us","latitude":47.608013,"longitude":-122.33517,"reserved":0,"last_update":"0001-01-01T00:00:00Z","name_a2s":"Uncletopia | Seattle | 3 | Stopwatch Beta","protocol":17,"map":"cp_mountainlab","folder":"tf","game":"Team Fortress","app_id":440,"player_count":0,"max_players":24,"Bots":0,"server_type":"Dedicated","server_os":"Linux","password":true,"vac":true,"version":"7961495","steam_id":85568392924515217,"keywords":["cp","nocrits","nodmgspread","uncletopia"],"game_id":440,"stv_port":27036,"stv_name":"Uncletopia | Seattle | 3 | Stopwatch Beta | STV","players":null},{"server_id":17,"name":"Uncletopia | San Francisco | 1 | All Maps","name_short":"sfo-1","host":"sfo-1.us.uncletopia.com","port":27015,"enabled":true,"region":"us-west","cc":"us","latitude":37.77397,"longitude":-122.4313,"reserved":0,"last_update":"0001-01-01T00:00:00Z","name_a2s":"Uncletopia | San Francisco | 1 | All Maps","protocol":17,"map":"cp_process_final","folder":"tf","game":"Team Fortress","app_id":440,"player_count":0,"max_players":24,"Bots":0,"server_type":"Dedicated","server_os":"Linux","password":true,"vac":true,"version":"7961495","steam_id":85568392924469999,"keywords":["cp","nocrits","nodmgspread","uncletopia"],"game_id":440,"stv_port":27016,"stv_name":"Uncletopia | San Francisco | 1 | All Maps | STV","players":null},{"server_id":18,"name":"Uncletopia | San Francisco | 2 | All Maps","name_short":"sfo-2","host":"sfo-1.us.uncletopia.com","port":27025,"enabled":true,"region":"us-west","cc":"us","latitude":37.77397,"longitude":-122.4313,"reserved":0,"last_update":"0001-01-01T00:00:00Z","name_a2s":"Uncletopia | San Francisco | 2 | All Maps","protocol":17,"map":"cp_snakewater_final1","folder":"tf","game":"Team Fortress","app_id":440,"player_count":1,"max_players":24,"Bots":0,"server_type":"Dedicated","server_os":"Linux","password":true,"vac":true,"version":"7961495","steam_id":85568392924470000,"keywords":["cp","nocrits","nodmgspread","uncletopia"],"game_id":440,"stv_port":27026,"stv_name":"Uncletopia | San Francisco | 2 | All Maps | STV","players":[{"user_id":3,"name":"meme","steam_id":76561199170771700,"connected_time":63000000000,"state":"active","ping":60}]},{"server_id":19,"name":"Uncletopia | San Francisco | 3 | Stopwatch Beta","name_short":"sfo-3","host":"sfo-1.us.uncletopia.com","port":27035,"enabled":true,"region":"us-west","cc":"us","latitude":37.77397,"longitude":-122.4313,"reserved":0,"last_update":"0001-01-01T00:00:00Z","name_a2s":"Uncletopia | San Francisco | 3 | Stopwatch Beta","protocol":17,"map":"pl_upward","folder":"tf","game":"Team Fortress","app_id":440,"player_count":0,"max_players":24,"Bots":0,"server_type":"Dedicated","server_os":"Linux","password":true,"vac":true,"version":"7961495","steam_id":85568392924742824,"keywords":["nocrits","nodmgspread","payload","uncletopia"],"game_id":440,"stv_port":27036,"stv_name":"Uncletopia | San Francisco | 3 | Stopwatch Beta | STV","players":null},{"server_id":20,"name":"Uncletopia | San Francisco | 4 | Community","name_short":"sfo-4","host":"sfo-1.us.uncletopia.com","port":27045,"enabled":true,"region":"us-west","cc":"us","latitude":37.77397,"longitude":-122.4313,"reserved":0,"last_update":"0001-01-01T00:00:00Z","name_a2s":"Uncletopia | San Francisco | 4 | Community","protocol":17,"map":"pl_snowycoast","folder":"tf","game":"Team Fortress","app_id":440,"player_count":0,"max_players":24,"Bots":0,"server_type":"Dedicated","server_os":"Linux","password":true,"vac":true,"version":"7961495","steam_id":85568392924742826,"keywords":["nocrits","nodmgspread","payload","uncletopia"],"game_id":440,"stv_port":27046,"stv_name":"Uncletopia | San Francisco | 4 | Community | STV","players":null},{"server_id":141,"name":"Uncletopia | Sydney | 1 | All Maps","name_short":"syd-1","host":"syd-1.au.uncletopia.com","port":27015,"enabled":true,"region":"au","cc":"au","latitude":-33.865143,"longitude":151.2099,"reserved":0,"last_update":"0001-01-01T00:00:00Z","name_a2s":"Uncletopia | Sydney | 1 | All Maps","protocol":17,"map":"cp_mountainlab","folder":"tf","game":"Team Fortress","app_id":440,"player_count":0,"max_players":24,"Bots":0,"server_type":"Dedicated","server_os":"Linux","password":true,"vac":true,"version":"7961495","steam_id":85568392924470001,"keywords":["cp","nocrits","nodmgspread","uncletopia"],"game_id":440,"stv_port":27016,"stv_name":"Uncletopia | Sydney | 1 | All Maps | STV","players":null},{"server_id":123,"name":"Uncletopia | Sydney | 2 | All Maps","name_short":"syd-2","host":"syd-1.au.uncletopia.com","port":27025,"enabled":true,"region":"au","cc":"au","latitude":-33.865143,"longitude":151.2099,"reserved":0,"last_update":"0001-01-01T00:00:00Z","name_a2s":"Uncletopia | Sydney | 2 | All Maps","protocol":17,"map":"koth_highpass","folder":"tf","game":"Team Fortress","app_id":440,"player_count":0,"max_players":24,"Bots":0,"server_type":"Dedicated","server_os":"Linux","password":true,"vac":true,"version":"7961495","steam_id":85568392924470002,"keywords":["cp","nocrits","nodmgspread","uncletopia"],"game_id":440,"stv_port":27026,"stv_name":"Uncletopia | Sydney | 2 | All Maps | STV","players":null},{"server_id":395,"name":"Uncletopia | Sydney | 3 | All Maps","name_short":"syd-3","host":"syd-1.au.uncletopia.com","port":27035,"enabled":true,"region":"au","cc":"au","latitude":-33.865143,"longitude":151.2099,"reserved":0,"last_update":"0001-01-01T00:00:00Z","name_a2s":"Uncletopia | Sydney | 3 | All Maps","protocol":17,"map":"koth_cascade","folder":"tf","game":"Team Fortress","app_id":440,"player_count":0,"max_players":24,"Bots":0,"server_type":"Dedicated","server_os":"Linux","password":true,"vac":true,"version":"7961495","steam_id":85568392925194467,"keywords":["cp","nocrits","nodmgspread","uncletopia"],"game_id":440,"stv_port":27036,"stv_name":"Uncletopia | Sydney | 3 | All Maps | STV","players":null},{"server_id":396,"name":"Uncletopia | Sydney | 4 | All Maps","name_short":"syd-4","host":"syd-1.au.uncletopia.com","port":27045,"enabled":true,"region":"au","cc":"au","latitude":-33.865143,"longitude":151.2099,"reserved":0,"last_update":"0001-01-01T00:00:00Z","name_a2s":"Uncletopia | Sydney | 4 | All Maps","protocol":17,"map":"koth_viaduct","folder":"tf","game":"Team Fortress","app_id":440,"player_count":0,"max_players":24,"Bots":0,"server_type":"Dedicated","server_os":"Linux","password":true,"vac":true,"version":"7961495","steam_id":85568392925397958,"keywords":["cp","nocrits","nodmgspread","uncletopia"],"game_id":440,"stv_port":27046,"stv_name":"Uncletopia | Sydney | 4 | All Maps | STV","players":null},{"server_id":58,"name":"Uncletopia | Sydney | 5 | Stopwatch Beta","name_short":"syd-5","host":"syd-1.au.uncletopia.com","port":27055,"enabled":true,"region":"au","cc":"au","latitude":-33.865143,"longitude":151.2099,"reserved":0,"last_update":"0001-01-01T00:00:00Z","name_a2s":"Uncletopia | Sydney | 5 | Stopwatch Beta","protocol":17,"map":"workshop/koth_bagel_rc6.ugc2514036946","folder":"tf","game":"Team Fortress","app_id":440,"player_count":0,"max_players":24,"Bots":0,"server_type":"Dedicated","server_os":"Linux","password":true,"vac":true,"version":"7961495","steam_id":85568392925397959,"keywords":["cp","nocrits","nodmgspread","uncletopia"],"game_id":440,"stv_port":27056,"stv_name":"Uncletopia | Sydney | 5 | Stopwatch Beta | STV","players":null},{"server_id":59,"name":"Uncletopia | Sydney | 6 | Community","name_short":"syd-6","host":"syd-1.au.uncletopia.com","port":27065,"enabled":true,"region":"au","cc":"au","latitude":-33.865143,"longitude":151.2099,"reserved":0,"last_update":"0001-01-01T00:00:00Z","name_a2s":"Uncletopia | Sydney | 6 | Community","protocol":17,"map":"workshop/koth_synthetic_rc6a.ugc1549817316","folder":"tf","game":"Team Fortress","app_id":440,"player_count":0,"max_players":24,"Bots":0,"server_type":"Dedicated","server_os":"Linux","password":true,"vac":true,"version":"7961495","steam_id":85568392925397960,"keywords":["cp","nocrits","nodmgspread","uncletopia"],"game_id":440,"stv_port":27066,"stv_name":"Uncletopia | Sydney | 6 | Community | STV","players":null},{"server_id":49,"name":"Uncletopia | Warsaw | 1 | All Maps","name_short":"waw-1","host":"waw-1.pl.uncletopia.com","port":27015,"enabled":true,"region":"eu","cc":"pl","latitude":52.2297,"longitude":21.017532,"reserved":0,"last_update":"0001-01-01T00:00:00Z","name_a2s":"Uncletopia | Warsaw | 1 | All Maps","protocol":17,"map":"cp_process_final","folder":"tf","game":"Team Fortress","app_id":440,"player_count":24,"max_players":24,"Bots":0,"server_type":"Dedicated","server_os":"Linux","password":true,"vac":true,"version":"7961495","steam_id":85568392925397850,"keywords":["cp","nocrits","nodmgspread","uncletopia"],"game_id":440,"stv_port":27016,"stv_name":"Uncletopia | Warsaw | 1 | All Maps | STV","players":[{"user_id":581,"name":"TylowStar","steam_id":76561198357107806,"connected_time":313000000000,"state":"active","ping":82},{"user_id":587,"name":"Patrick","steam_id":76561199142122538,"connected_time":56000000000,"state":"active","ping":90},{"user_id":546,"name":"JodeXtreme","steam_id":76561198044132935,"connected_time":3297000000000,"state":"active","ping":108},{"user_id":582,"name":"Jobless and Angry","steam_id":76561198160523608,"connected_time":292000000000,"state":"active","ping":245},{"user_id":563,"name":"Master Of Noob","steam_id":76561198217926783,"connected_time":1763000000000,"state":"active","ping":90},{"user_id":524,"name":"LOBZIK","steam_id":76561198114830120,"connected_time":5496000000000,"state":"active","ping":49},{"user_id":579,"name":"Welder","steam_id":76561198355300561,"connected_time":518000000000,"state":"active","ping":84},{"user_id":565,"name":"Baklava Enjoyer","steam_id":76561198990679631,"connected_time":1650000000000,"state":"active","ping":91},{"user_id":583,"name":"✞⅂Ԁxǝɹʇɹoꟽツ","steam_id":76561198360932999,"connected_time":276000000000,"state":"active","ping":54},{"user_id":561,"name":"Evil Activities","steam_id":76561198093170043,"connected_time":2210000000000,"state":"active","ping":81},{"user_id":556,"name":"Gubster","steam_id":76561198988197727,"connected_time":2760000000000,"state":"active","ping":84},{"user_id":584,"name":"SPONGE","steam_id":76561198040933472,"connected_time":251000000000,"state":"active","ping":75},{"user_id":577,"name":"Mr.Schnittlauch","steam_id":76561198295868113,"connected_time":820000000000,"state":"active","ping":68},{"user_id":548,"name":"dumb idiot moron","steam_id":76561198053929269,"connected_time":3283000000000,"state":"active","ping":104},{"user_id":469,"name":"overman","steam_id":76561198038348301,"connected_time":9803000000000,"state":"active","ping":43},{"user_id":575,"name":"7 7","steam_id":76561198190663138,"connected_time":957000000000,"state":"active","ping":114},{"user_id":567,"name":"Lucky B.🏆","steam_id":76561198077571162,"connected_time":1554000000000,"state":"active","ping":71},{"user_id":542,"name":"Kfer","steam_id":76561198809708638,"connected_time":3712000000000,"state":"active","ping":59},{"user_id":585,"name":"Bandek","steam_id":76561198448812123,"connected_time":188000000000,"state":"active","ping":89},{"user_id":573,"name":"greg's mom","steam_id":76561198050525471,"connected_time":1221000000000,"state":"active","ping":85},{"user_id":574,"name":"Rock..","steam_id":76561198004641963,"connected_time":1106000000000,"state":"active","ping":72},{"user_id":554,"name":"leonardini.w","steam_id":76561199097963071,"connected_time":2818000000000,"state":"active","ping":53},{"user_id":586,"name":"Xens","steam_id":76561198208839507,"connected_time":183000000000,"state":"active","ping":119},{"user_id":578,"name":"?TheEnd","steam_id":76561198055280327,"connected_time":807000000000,"state":"active","ping":64}]},{"server_id":50,"name":"Uncletopia | Warsaw | 2 | All Maps","name_short":"waw-2","host":"waw-1.pl.uncletopia.com","port":27025,"enabled":true,"region":"eu","cc":"pl","latitude":52.2297,"longitude":21.017532,"reserved":0,"last_update":"0001-01-01T00:00:00Z","name_a2s":"Uncletopia | Warsaw | 2 | All Maps","protocol":17,"map":"cp_dustbowl","folder":"tf","game":"Team Fortress","app_id":440,"player_count":0,"max_players":24,"Bots":0,"server_type":"Dedicated","server_os":"Linux","password":true,"vac":true,"version":"7961495","steam_id":85568392925397851,"keywords":["cp","nocrits","nodmgspread","uncletopia"],"game_id":440,"stv_port":27026,"stv_name":"Uncletopia | Warsaw | 2 | All Maps | STV","players":null},{"server_id":51,"name":"Uncletopia | Warsaw | 3 | All Maps","name_short":"waw-3","host":"waw-1.pl.uncletopia.com","port":27035,"enabled":true,"region":"eu","cc":"pl","latitude":52.2297,"longitude":21.017532,"reserved":0,"last_update":"0001-01-01T00:00:00Z","name_a2s":"Uncletopia | Warsaw | 3 | All Maps","protocol":17,"map":"koth_highpass","folder":"tf","game":"Team Fortress","app_id":440,"player_count":0,"max_players":24,"Bots":0,"server_type":"Dedicated","server_os":"Linux","password":true,"vac":true,"version":"7961495","steam_id":85568392925397852,"keywords":["cp","nocrits","nodmgspread","uncletopia"],"game_id":440,"stv_port":27036,"stv_name":"Uncletopia | Warsaw | 3 | All Maps | STV","players":null},{"server_id":52,"name":"Uncletopia | Warsaw | 4 | All Maps","name_short":"waw-4","host":"waw-1.pl.uncletopia.com","port":27045,"enabled":true,"region":"eu","cc":"pl","latitude":52.2297,"longitude":21.017532,"reserved":0,"last_update":"0001-01-01T00:00:00Z","name_a2s":"Uncletopia | Warsaw | 4 | All Maps","protocol":17,"map":"cp_snakewater_final1","folder":"tf","game":"Team Fortress","app_id":440,"player_count":0,"max_players":24,"Bots":0,"server_type":"Dedicated","server_os":"Linux","password":true,"vac":true,"version":"7961495","steam_id":85568392925397853,"keywords":["cp","nocrits","nodmgspread","uncletopia"],"game_id":440,"stv_port":27046,"stv_name":"Uncletopia | Warsaw | 4 | All Maps | STV","players":null},{"server_id":53,"name":"Uncletopia | Warsaw | 5 | Stopwatch Beta","name_short":"waw-5","host":"waw-1.pl.uncletopia.com","port":27055,"enabled":true,"region":"eu","cc":"pl","latitude":52.2297,"longitude":21.017532,"reserved":0,"last_update":"0001-01-01T00:00:00Z","name_a2s":"Uncletopia | Warsaw | 5 | Stopwatch Beta","protocol":17,"map":"workshop/pl_summercoast_rc8e.ugc1761528829","folder":"tf","game":"Team Fortress","app_id":440,"player_count":0,"max_players":24,"Bots":0,"server_type":"Dedicated","server_os":"Linux","password":true,"vac":true,"version":"7961495","steam_id":85568392925397854,"keywords":["nocrits","nodmgspread","payload","uncletopia"],"game_id":440,"stv_port":27056,"stv_name":"Uncletopia | Warsaw | 5 | Stopwatch Beta | STV","players":null},{"server_id":54,"name":"Uncletopia | Warsaw | 6 | Community","name_short":"waw-6","host":"waw-1.pl.uncletopia.com","port":27065,"enabled":true,"region":"eu","cc":"pl","latitude":52.2297,"longitude":21.017532,"reserved":0,"last_update":"0001-01-01T00:00:00Z","name_a2s":"Uncletopia | Warsaw | 6 | Community","protocol":17,"map":"workshop/koth_product_final.ugc454272353","folder":"tf","game":"Team Fortress","app_id":440,"player_count":0,"max_players":24,"Bots":0,"server_type":"Dedicated","server_os":"Linux","password":true,"vac":true,"version":"7961495","steam_id":85568392925397856,"keywords":["cp","nocrits","nodmgspread","uncletopia"],"game_id":440,"stv_port":27066,"stv_name":"Uncletopia | Warsaw | 6 | Community | STV","players":null}]}