{"status":true,"message":"","result":[{"server_id":9,"name":"Uncletopia | Atlanta | 1 | All Maps","name_short":"atl-1","host":"atl-1.us.uncletopia.com","port":27015,"enabled":true,"region":"us-east","cc":"us","latitude":33.753746,"longitude":-84.38633,"reserved":0,"last_update":"0001-01-01T00:00:00Z","name_a2s":"Uncletopia | Atlanta | 1 | All Maps","protocol":17,"map":"cp_dustbowl","folder":"tf","game":"Team Fortress","app_id":440,"player_count":24,"max_players":24,"Bots":0,"server_type":"Dedicated","server_os":"Linux","password":true,"vac":true,"version":"7757534","steam_id":85568392924469982,"keywords":["cp","nocrits","nodmgspread","uncletopia"],"game_id":440,"stv_port":27016,"stv_name":"Uncletopia | Atlanta | 1 | All Maps | STV","players":[{"user_id":125,"name":"trilobita","steam_id":76561198428215606,"connected_time":5206000000000,"state":"active","ping":66},{"user_id":153,"name":"Wrench","steam_id":76561198055879094,"connected_time":3357000000000,"state":"active","ping":70},{"user_id":187,"name":"uppercase thing","steam_id":76561199238480644,"connected_time":704000000000,"state":"active","ping":71},{"user_id":68,"name":"ShredMaan","steam_id":76561198429982138,"connected_time":9286000000000,"state":"active","ping":116},{"user_id":190,"name":"Sir Iasis","steam_id":76561198035666760,"connected_time":261000000000,"state":"active","ping":86},{"user_id":70,"name":"MSIBoys","steam_id":76561198213692935,"connected_time":9280000000000,"state":"active","ping":115},{"user_id":192,"name":"Ender","steam_id":76561198819439451,"connected_time":238000000000,"state":"active","ping":60},{"user_id":193,"name":"Aerris","steam_id":76561199178877456,"connected_time":221000000000,"state":"active","ping":69},{"user_id":194,"name":"Frank the Atomic Green Been","steam_id":76561198147300992,"connected_time":174000000000,"state":"active","ping":74},{"user_id":174,"name":"lu","steam_id":76561198080731872,"connected_time":1564000000000,"state":"active","ping":72},{"user_id":201,"name":"Alan","steam_id":76561198176618461,"connected_time":17000000000,"state":"active","ping":46},{"user_id":154,"name":"SyberBunn","steam_id":76561198287851222,"connected_time":3282000000000,"state":"active","ping":66},{"user_id":176,"name":"NovaSc6ut","steam_id":76561198277163301,"connected_time":1504000000000,"state":"active","ping":76},{"user_id":188,"name":"Dillon Planter","steam_id":76561198118903188,"connected_time":425000000000,"state":"active","ping":82},{"user_id":196,"name":"f2p| game","steam_id":76561199468766232,"connected_time":139000000000,"state":"active","ping":89},{"user_id":185,"name":"HARRY","steam_id":76561198842067238,"connected_time":1241000000000,"state":"active","ping":60},{"user_id":171,"name":"HarryjusttHarry","steam_id":76561198982810452,"connected_time":1615000000000,"state":"active","ping":79},{"user_id":198,"name":"Mug Moment Gaming","steam_id":76561198233098136,"connected_time":80000000000,"state":"active","ping":89},{"user_id":186,"name":"DJ Spit","steam_id":76561198186637025,"connected_time":860000000000,"state":"active","ping":86},{"user_id":199,"name":"THIRDPIERCE","steam_id":76561198405366314,"connected_time":75000000000,"state":"active","ping":83},{"user_id":184,"name":"Rockhead","steam_id":76561197995196535,"connected_time":1266000000000,"state":"active","ping":86},{"user_id":172,"name":"BLU1 | Flint","steam_id":76561198066547582,"connected_time":1615000000000,"state":"active","ping":105},{"user_id":181,"name":"ATL1 | LuckyZero-_-","steam_id":76561198139891051,"connected_time":1452000000000,"state":"active","ping":64},{"user_id":200,"name":"Mcfighter2","steam_id":76561198168073956,"connected_time":74000000000,"state":"active","ping":75}]},{"server_id":400,"name":"Uncletopia | Atlanta | 3 | Stopwatch Beta","name_short":"atl-3","host":"atl-1.us.uncletopia.com","port":27035,"enabled":true,"region":"us-east","cc":"us","latitude":33.753746,"longitude":-84.38633,"reserved":0,"last_update":"0001-01-01T00:00:00Z","name_a2s":"Uncletopia | Atlanta | 3 | Stopwatch Beta","protocol":17,"map":"pl_upward","folder":"tf","game":"Team Fortress","app_id":440,"player_count":0,"max_players":24,"Bots":0,"server_type":"Dedicated","server_os":"Linux","password":true,"vac":true,"version":"7757534","steam_id":85568392924515187,"keywords":["nocrits","nodmgspread","payload","uncletopia"],"game_id":440,"stv_port":27036,"stv_name":"Uncletopia | Atlanta | 3 | Stopwatch Beta | STV","players":null},{"server_id":401,"name":"Uncletopia | Atlanta | 4 | No Payload","name_short":"atl-4","host":"atl-1.us.uncletopia.com","port":27045,"enabled":true,"region":"us-east","cc":"us","latitude":33.753746,"longitude":-84.38633,"reserved":0,"last_update":"0001-01-01T00:00:00Z","name_a2s":"Uncletopia | Atlanta | 4 | No Payload","protocol":17,"map":"pl_pier","folder":"tf","game":"Team Fortress","app_id":440,"player_count":0,"max_players":24,"Bots":0,"server_type":"Dedicated","server_os":"Linux","password":true,"vac":true,"version":"7723704","steam_id":85568392924515188,"keywords":["nocrits","nodmgspread","payload","uncletopia"],"game_id":440,"stv_port":27046,"stv_name":"Uncletopia | Atlanta | 4 | No Payload | STV","players":null},{"server_id":2,"name":"Uncletopia | Chicago | 1 | All Maps","name_short":"chi-1","host":"chi-1.us.uncletopia.com","port":27015,"enabled":true,"region":"us-central","cc":"us","latitude":41.881832,"longitude":-87.62318,"reserved":0,"last_update":"0001-01-01T00:00:00Z","name_a2s":"Uncletopia | Chicago | 1 | All Maps","protocol":17,"map":"pl_snowycoast","folder":"tf","game":"Team Fortress","app_id":440,"player_count":24,"max_players":24,"Bots":0,"server_type":"Dedicated","server_os":"Linux","password":true,"vac":true,"version":"7757534","steam_id":85568392924469984,"keywords":["nocrits","nodmgspread","payload","uncletopia"],"game_id":440,"stv_port":27016,"stv_name":"Uncletopia | Chicago | 1 | All Maps | STV","players":[{"user_id":313,"name":"Bee","steam_id":76561198074681324,"connected_time":1690000000000,"state":"active","ping":71},{"user_id":331,"name":"citrus","steam_id":76561198294606679,"connected_time":723000000000,"state":"active","ping":69},{"user_id":326,"name":"Regi","steam_id":76561198271508598,"connected_time":1491000000000,"state":"active","ping":56},{"user_id":321,"name":"Duelist","steam_id":76561198415159702,"connected_time":1629000000000,"state":"active","ping":62},{"user_id":306,"name":"T.w² | 2 Hours of Sleep","steam_id":76561198128489595,"connected_time":2955000000000,"state":"active","ping":83},{"user_id":255,"name":"Kubloo","steam_id":76561198067391168,"connected_time":7719000000000,"state":"active","ping":66},{"user_id":307,"name":"elyk37","steam_id":76561198124135253,"connected_time":2935000000000,"state":"active","ping":71},{"user_id":329,"name":"MoanfulMilk","steam_id":76561199229169396,"connected_time":1272000000000,"state":"active","ping":72},{"user_id":316,"name":"Room","steam_id":76561199174579733,"connected_time":1666000000000,"state":"active","ping":67},{"user_id":332,"name":"Nic0","steam_id":76561198305690218,"connected_time":561000000000,"state":"active","ping":70},{"user_id":334,"name":"Do Moose go Moo?","steam_id":76561198073550620,"connected_time":551000000000,"state":"active","ping":48},{"user_id":325,"name":"TheAntiSocialButterfly","steam_id":76561198045505509,"connected_time":1565000000000,"state":"active","ping":59},{"user_id":267,"name":"Astoriae!","steam_id":76561199090168858,"connected_time":7138000000000,"state":"active","ping":71},{"user_id":308,"name":"superdude83","steam_id":76561198119727829,"connected_time":2881000000000,"state":"active","ping":67},{"user_id":298,"name":"Slime-san","steam_id":76561198886509660,"connected_time":4154000000000,"state":"active","ping":86},{"user_id":310,"name":"beta central","steam_id":76561198301876831,"connected_time":2402000000000,"state":"active","ping":56},{"user_id":317,"name":"Snazzi","steam_id":76561198085208276,"connected_time":1662000000000,"state":"active","ping":84},{"user_id":319,"name":"CoodleDoodle","steam_id":76561198113387068,"connected_time":1650000000000,"state":"active","ping":88},{"user_id":283,"name":"Lennu","steam_id":76561198060730154,"connected_time":5118000000000,"state":"active","ping":76},{"user_id":330,"name":"Crazy__Biscuit","steam_id":76561198399851872,"connected_time":926000000000,"state":"active","ping":58},{"user_id":304,"name":"TeeTree","steam_id":76561198862307874,"connected_time":3240000000000,"state":"active","ping":61},{"user_id":284,"name":"MEDIC!","steam_id":76561198149344029,"connected_time":5115000000000,"state":"active","ping":82},{"user_id":324,"name":"Goober","steam_id":76561198988863807,"connected_time":1586000000000,"state":"active","ping":83},{"user_id":335,"name":"Carl","steam_id":76561198103072673,"connected_time":380000000000,"state":"active","ping":94}]},{"server_id":106,"name":"Uncletopia | Chicago | 2 | All Maps","name_short":"chi-2","host":"chi-1.us.uncletopia.com","port":27025,"enabled":true,"region":"us-central","cc":"us","latitude":41.881832,"longitude":-87.62318,"reserved":0,"last_update":"0001-01-01T00:00:00Z","name_a2s":"Uncletopia | Chicago | 2 | All Maps","protocol":17,"map":"pl_badwater","folder":"tf","game":"Team Fortress","app_id":440,"player_count":24,"max_players":24,"Bots":0,"server_type":"Dedicated","server_os":"Linux","password":true,"vac":true,"version":"7757534","steam_id":85568392924469985,"keywords":["nocrits","nodmgspread","payload","uncletopia"],"game_id":440,"stv_port":27026,"stv_name":"Uncletopia | Chicago | 2 | All Maps | STV","players":[{"user_id":542,"name":"Protoshake","steam_id":76561198840276176,"connected_time":1108000000000,"state":"active","ping":61},{"user_id":506,"name":"Not_Douglas","steam_id":76561199024184136,"connected_time":4303000000000,"state":"active","ping":60},{"user_id":495,"name":"Everglade","steam_id":76561198068654532,"connected_time":4570000000000,"state":"active","ping":73},{"user_id":540,"name":"no","steam_id":76561198248853140,"connected_time":1137000000000,"state":"active","ping":47},{"user_id":551,"name":"Esteban Delsin","steam_id":76561198433519639,"connected_time":647000000000,"state":"active","ping":122},{"user_id":519,"name":"Berries","steam_id":76561198109312962,"connected_time":2640000000000,"state":"active","ping":83},{"user_id":537,"name":"Mr. Pink","steam_id":76561198065858172,"connected_time":1204000000000,"state":"active","ping":58},{"user_id":528,"name":"The Land Admiral","steam_id":76561198159356609,"connected_time":2272000000000,"state":"active","ping":75},{"user_id":529,"name":"dtnk","steam_id":76561199007189876,"connected_time":2242000000000,"state":"active","ping":47},{"user_id":496,"name":"Thog","steam_id":76561198093699060,"connected_time":4555000000000,"state":"active","ping":72},{"user_id":494,"name":"Cat_Gaben","steam_id":76561198308094558,"connected_time":4879000000000,"state":"active","ping":71},{"user_id":532,"name":"hummus in my tummus","steam_id":76561199438698036,"connected_time":1442000000000,"state":"active","ping":71},{"user_id":509,"name":"McDamage","steam_id":76561198140571306,"connected_time":3811000000000,"state":"active","ping":68},{"user_id":544,"name":"Michael Scarn","steam_id":76561198035740143,"connected_time":1082000000000,"state":"active","ping":81},{"user_id":541,"name":"RyanDCB [Real]","steam_id":76561198040138739,"connected_time":1121000000000,"state":"active","ping":65},{"user_id":546,"name":"ConnectedUser","steam_id":76561199126217062,"connected_time":1053000000000,"state":"active","ping":62},{"user_id":478,"name":"BuhByeFalecia","steam_id":76561198364710587,"connected_time":5851000000000,"state":"active","ping":74},{"user_id":520,"name":"Fobby #Savetf2","steam_id":76561198047681469,"connected_time":2610000000000,"state":"active","ping":78},{"user_id":539,"name":"totoro","steam_id":76561198210420871,"connected_time":1144000000000,"state":"active","ping":45},{"user_id":534,"name":"i hate 2fort","steam_id":76561199241619967,"connected_time":1409000000000,"state":"active","ping":70},{"user_id":516,"name":"trasho","steam_id":76561198066867150,"connected_time":2661000000000,"state":"active","ping":70},{"user_id":548,"name":"Back with the milk","steam_id":76561199020105501,"connected_time":1017000000000,"state":"active","ping":70},{"user_id":549,"name":"Qui3t_P4nda","steam_id":76561198151333655,"connected_time":1016000000000,"state":"active","ping":81},{"user_id":526,"name":"Ojen","steam_id":76561197998414482,"connected_time":2408000000000,"state":"active","ping":82}]},{"server_id":402,"name":"Uncletopia | Chicago | 3 | All Maps","name_short":"chi-3","host":"chi-1.us.uncletopia.com","port":27035,"enabled":true,"region":"us-central","cc":"us","latitude":41.881832,"longitude":-87.62318,"reserved":0,"last_update":"0001-01-01T00:00:00Z","name_a2s":"Uncletopia | Chicago | 3 | All Maps","protocol":17,"map":"koth_viaduct","folder":"tf","game":"Team Fortress","app_id":440,"player_count":0,"max_players":24,"Bots":0,"server_type":"Dedicated","server_os":"Linux","password":true,"vac":true,"version":"7757534","steam_id":85568392924515191,"keywords":["cp","nocrits","nodmgspread","uncletopia"],"game_id":440,"stv_port":27036,"stv_name":"Uncletopia | Chicago | 3 | All Maps | STV","players":null},{"server_id":403,"name":"Uncletopia | Chicago | 4 | All Maps","name_short":"chi-4","host":"chi-1.us.uncletopia.com","port":27045,"enabled":true,"region":"us-central","cc":"us","latitude":41.881832,"longitude":-87.62318,"reserved":0,"last_update":"0001-01-01T00:00:00Z","name_a2s":"Uncletopia | Chicago | 4 | All Maps","protocol":17,"map":"koth_harvest_final","folder":"tf","game":"Team Fortress","app_id":440,"player_count":24,"max_players":24,"Bots":0,"server_type":"Dedicated","server_os":"Linux","password":true,"vac":true,"version":"7757534","steam_id":85568392924515193,"keywords":["cp","nocrits","nodmgspread","uncletopia"],"game_id":440,"stv_port":27046,"stv_name":"Uncletopia | Chicago | 4 | All Maps | STV","players":[{"user_id":132,"name":"coffeeghost","steam_id":76561198155142385,"connected_time":631000000000,"state":"active","ping":74},{"user_id":143,"name":"GiraffeMan","steam_id":76561198042104084,"connected_time":169000000000,"state":"active","ping":74},{"user_id":138,"name":"weewa","steam_id":76561198064876090,"connected_time":343000000000,"state":"active","ping":74},{"user_id":123,"name":"i'm a fireball","steam_id":76561198138221795,"connected_time":823000000000,"state":"active","ping":71},{"user_id":139,"name":"pelt","steam_id":76561197993593754,"connected_time":339000000000,"state":"active","ping":47},{"user_id":97,"name":"crs22","steam_id":76561198120149196,"connected_time":3413000000000,"state":"active","ping":61},{"user_id":119,"name":"lil bro","steam_id":76561198031675881,"connected_time":1258000000000,"state":"active","ping":52},{"user_id":136,"name":"Funee","steam_id":76561198041048289,"connected_time":478000000000,"state":"active","ping":67},{"user_id":125,"name":"Dealyo","steam_id":76561198282395338,"connected_time":808000000000,"state":"active","ping":77},{"user_id":121,"name":"Moobs","steam_id":76561198215527235,"connected_time":855000000000,"state":"active","ping":122},{"user_id":128,"name":"drinkos","steam_id":76561198261556166,"connected_time":775000000000,"state":"active","ping":46},{"user_id":144,"name":"Candy Sparkles","steam_id":76561198126871264,"connected_time":83000000000,"state":"active","ping":82},{"user_id":68,"name":"phranklin","steam_id":76561198161385870,"connected_time":5775000000000,"state":"active","ping":93},{"user_id":126,"name":"Fudgely","steam_id":76561198039425862,"connected_time":807000000000,"state":"active","ping":76},{"user_id":95,"name":"shokie","steam_id":76561197997961542,"connected_time":3509000000000,"state":"active","ping":74},{"user_id":90,"name":"Remzy","steam_id":76561198272401170,"connected_time":4175000000000,"state":"active","ping":113},{"user_id":129,"name":"Larry from Pokemon SV","steam_id":76561198095245223,"connected_time":759000000000,"state":"active","ping":65},{"user_id":127,"name":"Super Noob","steam_id":76561199179611350,"connected_time":781000000000,"state":"active","ping":66},{"user_id":133,"name":"MEATBALL","steam_id":76561198028499312,"connected_time":496000000000,"state":"active","ping":66},{"user_id":145,"name":"dairy","steam_id":76561198117033273,"connected_time":73000000000,"state":"active","ping":146},{"user_id":55,"name":"Bozanimal","steam_id":76561198044096897,"connected_time":6554000000000,"state":"active","ping":62},{"user_id":135,"name":"phone","steam_id":76561198029268743,"connected_time":491000000000,"state":"active","ping":70},{"user_id":146,"name":"Sawer","steam_id":76561198034294967,"connected_time":73000000000,"state":"active","ping":54},{"user_id":148,"name":"deech","steam_id":76561198066429444,"connected_time":29000000000,"state":"active","ping":65}]},{"server_id":36,"name":"Uncletopia | Chicago | 5 | All Maps","name_short":"chi-5","host":"chi-2.us.uncletopia.com","port":27015,"enabled":true,"region":"us-central","cc":"us","latitude":41.881832,"longitude":-87.62318,"reserved":0,"last_update":"0001-01-01T00:00:00Z","name_a2s":"Uncletopia | Chicago | 5 | All Maps","protocol":17,"map":"koth_cascade","folder":"tf","game":"Team Fortress","app_id":440,"player_count":0,"max_players":24,"Bots":0,"server_type":"Dedicated","server_os":"Linux","password":true,"vac":true,"version":"7757534","steam_id":85568392924866362,"keywords":["cp","nocrits","nodmgspread","uncletopia"],"game_id":440,"stv_port":27016,"stv_name":"Uncletopia | Chicago | 5 | All Maps | STV","players":null},{"server_id":37,"name":"Uncletopia | Chicago | 6 | All Maps","name_short":"chi-6","host":"chi-2.us.uncletopia.com","port":27025,"enabled":true,"region":"us-central","cc":"us","latitude":41.881832,"longitude":-87.62318,"reserved":0,"last_update":"0001-01-01T00:00:00Z","name_a2s":"Uncletopia | Chicago | 6 | All Maps","protocol":17,"map":"koth_lakeside_final","folder":"tf","game":"Team Fortress","app_id":440,"player_count":23,"max_players":24,"Bots":0,"server_type":"Dedicated","server_os":"Linux","password":true,"vac":true,"version":"7757534","steam_id":85568392924866363,"keywords":["cp","nocrits","nodmgspread","uncletopia"],"game_id":440,"stv_port":27026,"stv_name":"Uncletopia | Chicago | 6 | All Maps | STV","players":[{"user_id":106,"name":"Dilly Pickles","steam_id":76561198312068499,"connected_time":6068000000000,"state":"active","ping":87},{"user_id":191,"name":"[chef] iron","steam_id":76561197970888616,"connected_time":6000000000,"state":"active","ping":152},{"user_id":190,"name":"sansa musa","steam_id":76561198163723555,"connected_time":62000000000,"state":"active","ping":60},{"user_id":183,"name":"Colin102004","steam_id":76561198202384334,"connected_time":258000000000,"state":"active","ping":59},{"user_id":176,"name":"Joey","steam_id":76561198211826573,"connected_time":1244000000000,"state":"active","ping":62},{"user_id":169,"name":"flappyflap2","steam_id":76561198285048973,"connected_time":1400000000000,"state":"active","ping":68},{"user_id":156,"name":"puffle fanatic","steam_id":76561198094030685,"connected_time":2259000000000,"state":"active","ping":74},{"user_id":184,"name":"Inevitable","steam_id":76561198210050169,"connected_time":251000000000,"state":"active","ping":74},{"user_id":171,"name":"majorbobfunction","steam_id":76561198042464632,"connected_time":1341000000000,"state":"active","ping":51},{"user_id":161,"name":"jturner1nm","steam_id":76561198344493652,"connected_time":2219000000000,"state":"active","ping":105},{"user_id":157,"name":"pencilneck","steam_id":76561198865971290,"connected_time":2258000000000,"state":"active","ping":99},{"user_id":158,"name":"white ray","steam_id":76561198026664629,"connected_time":2248000000000,"state":"active","ping":47},{"user_id":111,"name":"Sublime","steam_id":76561198018268623,"connected_time":5662000000000,"state":"active","ping":158},{"user_id":185,"name":"trobin120","steam_id":76561199122420273,"connected_time":240000000000,"state":"active","ping":65},{"user_id":180,"name":"YASAI JUICE","steam_id":76561198131971992,"connected_time":375000000000,"state":"active","ping":37},{"user_id":147,"name":"Pancetta's vore window","steam_id":76561198428086758,"connected_time":3084000000000,"state":"active","ping":76},{"user_id":160,"name":"sssnark","steam_id":76561198848439515,"connected_time":2245000000000,"state":"active","ping":99},{"user_id":189,"name":"Andallfor","steam_id":76561198350143349,"connected_time":217000000000,"state":"active","ping":73},{"user_id":187,"name":"jiim jaam","steam_id":76561198069814977,"connected_time":238000000000,"state":"active","ping":60},{"user_id":137,"name":"SuperFresh","steam_id":76561198200723198,"connected_time":4275000000000,"state":"active","ping":44},{"user_id":181,"name":"bog","steam_id":76561198070975491,"connected_time":375000000000,"state":"active","ping":75},{"user_id":175,"name":"skate","steam_id":76561198322312114,"connected_time":1318000000000,"state":"active","ping":82},{"user_id":188,"name":"GardenOfStone","steam_id":76561199069870534,"connected_time":237000000000,"state":"active","ping":89}]},{"server_id":38,"name":"Uncletopia | Chicago | 7 | Stopwatch Beta","name_short":"chi-7","host":"chi-2.us.uncletopia.com","port":27035,"enabled":true,"region":"us-central","cc":"us","latitude":41.881832,"longitude":-87.62318,"reserved":0,"last_update":"0001-01-01T00:00:00Z","name_a2s":"Uncletopia | Chicago | 7 | Stopwatch Beta","protocol":17,"map":"pl_borneo","folder":"tf","game":"Team Fortress","app_id":440,"player_count":0,"max_players":24,"Bots":0,"server_type":"Dedicated","server_os":"Linux","password":true,"vac":true,"version":"7757534","steam_id":85568392924866364,"keywords":["nocrits","nodmgspread","payload","uncletopia"],"game_id":440,"stv_port":27036,"stv_name":"Uncletopia | Chicago | 7 | Stopwatch Beta | STV","players":null},{"server_id":39,"name":"Uncletopia | Chicago | 8 | Community","name_short":"chi-8","host":"chi-2.us.uncletopia.com","port":27045,"enabled":true,"region":"us-central","cc":"us","latitude":41.881832,"longitude":-87.62318,"reserved":0,"last_update":"0001-01-01T00:00:00Z","name_a2s":"Uncletopia | Chicago | 8 | Community","protocol":17,"map":"workshop/koth_product_final.ugc454272353","folder":"tf","game":"Team Fortress","app_id":440,"player_count":8,"max_players":24,"Bots":0,"server_type":"Dedicated","server_os":"Linux","password":true,"vac":true,"version":"7757534","steam_id":85568392924866365,"keywords":["cp","nocrits","nodmgspread","uncletopia"],"game_id":440,"stv_port":27046,"stv_name":"Uncletopia | Chicago | 8 | Community | STV","players":[{"user_id":16,"name":"♥ ー VioletInferno ー ♥","steam_id":76561199096964288,"connected_time":2449000000000,"state":"active","ping":33},{"user_id":17,"name":"zanealcannon","steam_id":76561198409950668,"connected_time":2282000000000,"state":"active","ping":68},{"user_id":18,"name":"Crazy face","steam_id":76561198035251337,"connected_time":1489000000000,"state":"active","ping":78},{"user_id":29,"name":"yes","steam_id":76561199165980912,"connected_time":28000000000,"state":"active","ping":52},{"user_id":26,"name":"Harland","steam_id":76561198177908823,"connected_time":594000000000,"state":"active","ping":85},{"user_id":22,"name":"gotta answer the damn phone","steam_id":76561199029189825,"connected_time":1295000000000,"state":"active","ping":69},{"user_id":24,"name":"Screw and Wrench Rob","steam_id":76561198407166710,"connected_time":928000000000,"state":"active","ping":71},{"user_id":30,"name":"leumas","steam_id":76561198240408540,"connected_time":10000000000,"state":"active","ping":89}]},{"server_id":8,"name":"Uncletopia | Dallas | 1 | All Maps","name_short":"dal-1","host":"dal-1.us.uncletopia.com","port":27015,"enabled":true,"region":"us-central","cc":"us","latitude":32.779167,"longitude":-96.80889,"reserved":0,"last_update":"0001-01-01T00:00:00Z","name_a2s":"Uncletopia | Dallas | 1 | All Maps","protocol":17,"map":"pl_borneo","folder":"tf","game":"Team Fortress","app_id":440,"player_count":24,"max_players":24,"Bots":0,"server_type":"Dedicated","server_os":"Linux","password":true,"vac":true,"version":"7757534","steam_id":85568392924469986,"keywords":["nocrits","nodmgspread","payload","uncletopia"],"game_id":440,"stv_port":27016,"stv_name":"Uncletopia | Dallas | 1 | All Maps | STV","players":[{"user_id":228,"name":"Shovel","steam_id":76561198082922382,"connected_time":1337000000000,"state":"active","ping":77},{"user_id":223,"name":"Insurance Frog","steam_id":76561198067556825,"connected_time":1668000000000,"state":"active","ping":101},{"user_id":230,"name":"Koishi","steam_id":76561198054541054,"connected_time":1307000000000,"state":"active","ping":75},{"user_id":238,"name":"Playboy Carti","steam_id":76561198305836153,"connected_time":304000000000,"state":"active","ping":60},{"user_id":229,"name":"Wizard","steam_id":76561199020241769,"connected_time":1322000000000,"state":"active","ping":134},{"user_id":197,"name":"Bloodrayne","steam_id":76561198116808497,"connected_time":3545000000000,"state":"active","ping":87},{"user_id":233,"name":"wetnails","steam_id":76561198263271697,"connected_time":1082000000000,"state":"active","ping":61},{"user_id":234,"name":"radicalPolio","steam_id":76561197961561855,"connected_time":1078000000000,"state":"active","ping":42},{"user_id":205,"name":"sollarious101","steam_id":76561199086649385,"connected_time":3270000000000,"state":"active","ping":39},{"user_id":150,"name":"Foomfa","steam_id":76561198007033616,"connected_time":6130000000000,"state":"active","ping":64},{"user_id":194,"name":"XinPing","steam_id":76561198174498174,"connected_time":3853000000000,"state":"active","ping":108},{"user_id":240,"name":"Local","steam_id":76561198069537437,"connected_time":97000000000,"state":"active","ping":78},{"user_id":217,"name":"ice cream (冰淇淋)","steam_id":76561198976530881,"connected_time":2335000000000,"state":"active","ping":75},{"user_id":209,"name":"Onyx","steam_id":76561198275349640,"connected_time":3140000000000,"state":"active","ping":61},{"user_id":187,"name":"Sixrow","steam_id":76561198269289716,"connected_time":4184000000000,"state":"active","ping":31},{"user_id":186,"name":"bo scrungulus","steam_id":76561198038036122,"connected_time":4505000000000,"state":"active","ping":75},{"user_id":222,"name":"chanoc","steam_id":76561198026734746,"connected_time":1951000000000,"state":"active","ping":86},{"user_id":241,"name":"e","steam_id":76561198131245396,"connected_time":88000000000,"state":"active","ping":80},{"user_id":227,"name":"12 INCH TGIRL SCHLONG","steam_id":76561198122059018,"connected_time":1462000000000,"state":"active","ping":88},{"user_id":231,"name":"ミジンコ","steam_id":76561198083430437,"connected_time":1304000000000,"state":"active","ping":54},{"user_id":239,"name":"cAssBlaster","steam_id":76561198138488101,"connected_time":143000000000,"state":"active","ping":70},{"user_id":204,"name":"femmescout","steam_id":76561198250928638,"connected_time":3424000000000,"state":"active","ping":75},{"user_id":236,"name":"Mara Roo","steam_id":76561198279341789,"connected_time":913000000000,"state":"active","ping":110},{"user_id":235,"name":"sockman","steam_id":76561198306826566,"connected_time":971000000000,"state":"active","ping":92}]},{"server_id":108,"name":"Uncletopia | Dallas | 2 | All Maps","name_short":"dal-2","host":"dal-1.us.uncletopia.com","port":27025,"enabled":true,"region":"us-central","cc":"us","latitude":32.779167,"longitude":-96.80889,"reserved":0,"last_update":"0001-01-01T00:00:00Z","name_a2s":"Uncletopia | Dallas | 2 | All Maps","protocol":17,"map":"pl_frontier_final","folder":"tf","game":"Team Fortress","app_id":440,"player_count":24,"max_players":24,"Bots":0,"server_type":"Dedicated","server_os":"Linux","password":true,"vac":true,"version":"7757534","steam_id":85568392924469988,"keywords":["nocrits","nodmgspread","payload","uncletopia"],"game_id":440,"stv_port":27026,"stv_name":"Uncletopia | Dallas | 2 | All Maps | STV","players":[{"user_id":57,"name":"Dictator Noodle","steam_id":76561198277243768,"connected_time":434000000000,"state":"active","ping":82},{"user_id":48,"name":"Brown_Dream","steam_id":76561198975766145,"connected_time":1196000000000,"state":"active","ping":82},{"user_id":19,"name":"Pile of Spinach","steam_id":76561198043068841,"connected_time":2922000000000,"state":"active","ping":66},{"user_id":51,"name":"Bones","steam_id":76561198084646266,"connected_time":950000000000,"state":"active","ping":52},{"user_id":49,"name":"icm2008","steam_id":76561199277408836,"connected_time":1133000000000,"state":"active","ping":88},{"user_id":42,"name":"maArk","steam_id":76561198200380143,"connected_time":1277000000000,"state":"active","ping":147},{"user_id":58,"name":"doubleshare","steam_id":76561198024472046,"connected_time":378000000000,"state":"active","ping":86},{"user_id":29,"name":"McNamJam","steam_id":76561198028128686,"connected_time":1704000000000,"state":"active","ping":89},{"user_id":50,"name":"mikey | I'm Burning Bright!","steam_id":76561198985847893,"connected_time":955000000000,"state":"active","ping":45},{"user_id":53,"name":"Piper0007","steam_id":76561199056222868,"connected_time":868000000000,"state":"active","ping":83},{"user_id":56,"name":"Grandma","steam_id":76561198192419939,"connected_time":475000000000,"state":"active","ping":166},{"user_id":32,"name":"felix the grand","steam_id":76561198838822605,"connected_time":1560000000000,"state":"active","ping":106},{"user_id":52,"name":"Bronze Age GRINDSET","steam_id":76561198859118263,"connected_time":909000000000,"state":"active","ping":86},{"user_id":35,"name":"astron","steam_id":76561198058546328,"connected_time":1515000000000,"state":"active","ping":89},{"user_id":36,"name":"spooky","steam_id":76561198122964663,"connected_time":1510000000000,"state":"active","ping":71},{"user_id":37,"name":"Icaruss","steam_id":76561199087157705,"connected_time":1495000000000,"state":"active","ping":100},{"user_id":38,"name":"differentElk","steam_id":76561199167985720,"connected_time":1469000000000,"state":"active","ping":90},{"user_id":39,"name":"JerlBays","steam_id":76561198096773292,"connected_time":1446000000000,"state":"active","ping":66},{"user_id":54,"name":"pablo","steam_id":76561199190247198,"connected_time":844000000000,"state":"active","ping":126},{"user_id":59,"name":"sxl v39393939393939393939","steam_id":76561198150627999,"connected_time":377000000000,"state":"active","ping":97},{"user_id":44,"name":"Morphy_02","steam_id":76561199066220458,"connected_time":1259000000000,"state":"active","ping":142},{"user_id":45,"name":"lilcool100","steam_id":76561198093927437,"connected_time":1253000000000,"state":"active","ping":69},{"user_id":46,"name":"Salmon","steam_id":76561198285883040,"connected_time":1248000000000,"state":"active","ping":106},{"user_id":47,"name":"RandomPixels","steam_id":76561198844646074,"connected_time":1245000000000,"state":"active","ping":85}]},{"server_id":5,"name":"Uncletopia | Frankfurt | 1 | All Maps","name_short":"frk-1","host":"frk-1.de.uncletopia.com","port":27015,"enabled":true,"region":"eu","cc":"de","latitude":50.110924,"longitude":8.682127,"reserved":0,"last_update":"0001-01-01T00:00:00Z","name_a2s":"Uncletopia | Frankfurt | 1 | All Maps","protocol":17,"map":"cp_process_final","folder":"tf","game":"Team Fortress","app_id":440,"player_count":24,"max_players":24,"Bots":0,"server_type":"Dedicated","server_os":"Linux","password":true,"vac":true,"version":"7757534","steam_id":85568392924469989,"keywords":["cp","nocrits","nodmgspread","uncletopia"],"game_id":440,"stv_port":27016,"stv_name":"Uncletopia | Frankfurt | 1 | All Maps | STV","players":[{"user_id":473,"name":"DiracDeltaFunction","steam_id":76561199201624841,"connected_time":1984000000000,"state":"active","ping":102},{"user_id":479,"name":"MAJAX","steam_id":76561198254828632,"connected_time":1939000000000,"state":"active","ping":54},{"user_id":471,"name":"Zero (Orbital Gear Mastermind)","steam_id":76561198017416816,"connected_time":2382000000000,"state":"active","ping":60},{"user_id":467,"name":"Rops","steam_id":76561198031608011,"connected_time":2550000000000,"state":"active","ping":92},{"user_id":500,"name":"на мне тыща тенге","steam_id":76561199277727142,"connected_time":329000000000,"state":"active","ping":105},{"user_id":439,"name":"mohemmedmokhter2005","steam_id":76561199197650506,"connected_time":6467000000000,"state":"active","ping":106},{"user_id":483,"name":"Steven AssMaster","steam_id":76561198083489951,"connected_time":1793000000000,"state":"active","ping":65},{"user_id":496,"name":"Oskuri","steam_id":76561198155956047,"connected_time":865000000000,"state":"active","ping":74},{"user_id":477,"name":"cinny","steam_id":76561198832112629,"connected_time":1952000000000,"state":"active","ping":75},{"user_id":392,"name":"Albino Jellyfish","steam_id":76561198208561097,"connected_time":9755000000000,"state":"active","ping":134},{"user_id":371,"name":"Fat Pigeon","steam_id":76561198817940142,"connected_time":11090000000000,"state":"active","ping":48},{"user_id":433,"name":"Udinese Dion","steam_id":76561198067931573,"connected_time":7071000000000,"state":"active","ping":48},{"user_id":495,"name":"Gety0","steam_id":76561198044387185,"connected_time":927000000000,"state":"active","ping":85},{"user_id":484,"name":"Fujiye","steam_id":76561198097713633,"connected_time":1783000000000,"state":"active","ping":73},{"user_id":440,"name":"CRWND","steam_id":76561198329810027,"connected_time":6461000000000,"state":"active","ping":59},{"user_id":493,"name":"Ron3n","steam_id":76561198143732364,"connected_time":986000000000,"state":"active","ping":129},{"user_id":498,"name":"MS","steam_id":76561198037560108,"connected_time":671000000000,"state":"active","ping":46},{"user_id":497,"name":"Grigori Rasputin","steam_id":76561198070810812,"connected_time":858000000000,"state":"active","ping":146},{"user_id":456,"name":"nedilya","steam_id":76561198039692077,"connected_time":4752000000000,"state":"active","ping":60},{"user_id":480,"name":"Bl_ue2th","steam_id":76561198804551869,"connected_time":1936000000000,"state":"active","ping":107},{"user_id":489,"name":"DarthPaul8181","steam_id":76561198373050455,"connected_time":1482000000000,"state":"active","ping":63},{"user_id":482,"name":"Mondy","steam_id":76561198081196528,"connected_time":1826000000000,"state":"active","ping":46},{"user_id":474,"name":"medick","steam_id":76561199380849468,"connected_time":1982000000000,"state":"active","ping":62},{"user_id":499,"name":"anime drug dealer","steam_id":76561198235739036,"connected_time":358000000000,"state":"active","ping":78}]},{"server_id":110,"name":"Uncletopia | Frankfurt | 2 | All Maps","name_short":"frk-2","host":"frk-1.de.uncletopia.com","port":27025,"enabled":true,"region":"eu","cc":"de","latitude":50.110924,"longitude":8.682127,"reserved":0,"last_update":"0001-01-01T00:00:00Z","name_a2s":"Uncletopia | Frankfurt | 2 | All Maps","protocol":17,"map":"pl_barnblitz","folder":"tf","game":"Team Fortress","app_id":440,"player_count":23,"max_players":24,"Bots":0,"server_type":"Dedicated","server_os":"Linux","password":true,"vac":true,"version":"7757534","steam_id":85568392924469990,"keywords":["nocrits","nodmgspread","payload","uncletopia"],"game_id":440,"stv_port":27026,"stv_name":"Uncletopia | Frankfurt | 2 | All Maps | STV","players":[{"user_id":447,"name":"Cosmetic brain","steam_id":76561198055936410,"connected_time":1803000000000,"state":"active","ping":86},{"user_id":475,"name":"rummy","steam_id":76561197997573379,"connected_time":576000000000,"state":"active","ping":54},{"user_id":474,"name":"300h scout chad","steam_id":76561198095179553,"connected_time":641000000000,"state":"active","ping":92},{"user_id":400,"name":"Negative Rodger","steam_id":76561198030956814,"connected_time":4628000000000,"state":"active","ping":96},{"user_id":461,"name":"Jerry","steam_id":76561198320897424,"connected_time":1139000000000,"state":"active","ping":53},{"user_id":444,"name":"XeniasPimp","steam_id":76561198126398022,"connected_time":1937000000000,"state":"active","ping":65},{"user_id":469,"name":"Choruptian","steam_id":76561198017686366,"connected_time":900000000000,"state":"active","ping":60},{"user_id":402,"name":"Old Man Winter","steam_id":76561198007653168,"connected_time":4622000000000,"state":"active","ping":67},{"user_id":455,"name":"Lignis","steam_id":76561198363052240,"connected_time":1564000000000,"state":"active","ping":80},{"user_id":457,"name":"Banana Dispenser","steam_id":76561198446549451,"connected_time":1513000000000,"state":"active","ping":70},{"user_id":451,"name":"Brainlet","steam_id":76561198862617163,"connected_time":1758000000000,"state":"active","ping":64},{"user_id":452,"name":"Insain Bolt!","steam_id":76561198025687726,"connected_time":1737000000000,"state":"active","ping":64},{"user_id":481,"name":"Ptahotep","steam_id":76561198008708645,"connected_time":159000000000,"state":"active","ping":58},{"user_id":473,"name":"Nish","steam_id":76561197996068735,"connected_time":683000000000,"state":"active","ping":86},{"user_id":471,"name":"jameso","steam_id":76561198064042970,"connected_time":840000000000,"state":"active","ping":65},{"user_id":426,"name":"paguro","steam_id":76561198119560871,"connected_time":3056000000000,"state":"active","ping":72},{"user_id":472,"name":"Vitamin Weee","steam_id":76561199183937747,"connected_time":838000000000,"state":"active","ping":77},{"user_id":427,"name":"Spieller","steam_id":76561198057197847,"connected_time":2963000000000,"state":"active","ping":73},{"user_id":477,"name":"jt7","steam_id":76561198073655162,"connected_time":564000000000,"state":"active","ping":70},{"user_id":453,"name":"Cocoa","steam_id":76561198078438879,"connected_time":1731000000000,"state":"active","ping":68},{"user_id":428,"name":"SuntanPikachu","steam_id":76561198121242476,"connected_time":2962000000000,"state":"active","ping":70},{"user_id":454,"name":"Cheyaoshi","steam_id":76561198141121996,"connected_time":1700000000000,"state":"active","ping":58},{"user_id":430,"name":"restloud","steam_id":76561198265722644,"connected_time":2901000000000,"state":"active","ping":89}]},{"server_id":308,"name":"Uncletopia | Frankfurt | 3 | All Maps","name_short":"frk-3","host":"frk-1.de.uncletopia.com","port":27035,"enabled":true,"region":"eu","cc":"de","latitude":50.110924,"longitude":8.682127,"reserved":0,"last_update":"0001-01-01T00:00:00Z","name_a2s":"Uncletopia | Frankfurt | 3 | All Maps","protocol":17,"map":"pl_frontier_final","folder":"tf","game":"Team Fortress","app_id":440,"player_count":19,"max_players":24,"Bots":0,"server_type":"Dedicated","server_os":"Linux","password":true,"vac":true,"version":"7757534","steam_id":85568392924504274,"keywords":["nocrits","nodmgspread","payload","uncletopia"],"game_id":440,"stv_port":27036,"stv_name":"Uncletopia | Frankfurt | 3 | All Maps | STV","players":[{"user_id":370,"name":"thussu","steam_id":76561198890409949,"connected_time":2509000000000,"state":"active","ping":88},{"user_id":366,"name":"Gilob","steam_id":76561198392490566,"connected_time":2885000000000,"state":"active","ping":90},{"user_id":349,"name":"Truck-Sama's Victim","steam_id":76561198826861582,"connected_time":4507000000000,"state":"active","ping":83},{"user_id":371,"name":"CommanderX","steam_id":76561197991425069,"connected_time":2424000000000,"state":"active","ping":61},{"user_id":396,"name":"Hydnhof","steam_id":76561198120989805,"connected_time":834000000000,"state":"active","ping":69},{"user_id":351,"name":"Djingis Khan","steam_id":76561197967864460,"connected_time":4454000000000,"state":"active","ping":45},{"user_id":403,"name":"let me cook","steam_id":76561198010380786,"connected_time":555000000000,"state":"active","ping":55},{"user_id":375,"name":"STiNGHAN","steam_id":76561198023989090,"connected_time":1684000000000,"state":"active","ping":77},{"user_id":344,"name":"gOnzaLOXX2005","steam_id":76561198056744152,"connected_time":4798000000000,"state":"active","ping":92},{"user_id":352,"name":"Banal Destroyer","steam_id":76561198299570372,"connected_time":4447000000000,"state":"active","ping":60},{"user_id":364,"name":"jo","steam_id":76561198109074418,"connected_time":3139000000000,"state":"active","ping":60},{"user_id":405,"name":"manKe","steam_id":76561198008564860,"connected_time":331000000000,"state":"active","ping":54},{"user_id":380,"name":"basiL","steam_id":76561197961768272,"connected_time":1412000000000,"state":"active","ping":68},{"user_id":322,"name":"MagicTITIKAKA","steam_id":76561198129509548,"connected_time":6262000000000,"state":"active","ping":98},{"user_id":391,"name":"Unexpected","steam_id":76561198944781914,"connected_time":1046000000000,"state":"active","ping":75},{"user_id":381,"name":"born to shit forced to wipe","steam_id":76561198053116096,"connected_time":1404000000000,"state":"active","ping":83},{"user_id":393,"name":"8 Ball","steam_id":76561197960988736,"connected_time":1004000000000,"state":"active","ping":60},{"user_id":404,"name":"FoOzTV","steam_id":76561197998636728,"connected_time":510000000000,"state":"active","ping":70},{"user_id":399,"name":"Bilaterial Newt","steam_id":76561198074655679,"connected_time":781000000000,"state":"active","ping":77}]},{"server_id":309,"name":"Uncletopia | Frankfurt | 4 | All Maps","name_short":"frk-4","host":"frk-1.de.uncletopia.com","port":27045,"enabled":true,"region":"eu","cc":"de","latitude":50.110924,"longitude":8.682127,"reserved":0,"last_update":"0001-01-01T00:00:00Z","name_a2s":"Uncletopia | Frankfurt | 4 | All Maps","protocol":17,"map":"koth_highpass","folder":"tf","game":"Team Fortress","app_id":440,"player_count":0,"max_players":24,"Bots":0,"server_type":"Dedicated","server_os":"Linux","password":true,"vac":true,"version":"7757534","steam_id":85568392924504275,"keywords":["cp","nocrits","nodmgspread","uncletopia"],"game_id":440,"stv_port":27046,"stv_name":"Uncletopia | Frankfurt | 4 | All Maps | STV","players":null},{"server_id":310,"name":"Uncletopia | Frankfurt | 5 | All Maps","name_short":"frk-5","host":"frk-1.de.uncletopia.com","port":27055,"enabled":true,"region":"eu","cc":"de","latitude":50.110924,"longitude":8.682127,"reserved":0,"last_update":"0001-01-01T00:00:00Z","name_a2s":"Uncletopia | Frankfurt | 5 | All Maps","protocol":17,"map":"pl_frontier_final","folder":"tf","game":"Team Fortress","app_id":440,"player_count":24,"max_players":24,"Bots":0,"server_type":"Dedicated","server_os":"Linux","password":true,"vac":true,"version":"7757534","steam_id":85568392924504277,"keywords":["nocrits","nodmgspread","payload","uncletopia"],"game_id":440,"stv_port":27056,"stv_name":"Uncletopia | Frankfurt | 5 | All Maps | STV","players":[{"user_id":273,"name":"NRC","steam_id":76561198136403335,"connected_time":2152000000000,"state":"active","ping":64},{"user_id":308,"name":"gjhkgfkjfh","steam_id":76561198031181349,"connected_time":61000000000,"state":"active","ping":81},{"user_id":292,"name":"JohnnyRakieta","steam_id":76561198855789287,"connected_time":668000000000,"state":"active","ping":65},{"user_id":294,"name":"tralalaOuiOui","steam_id":76561197963471507,"connected_time":626000000000,"state":"active","ping":55},{"user_id":295,"name":"Economic crisis","steam_id":76561198063562843,"connected_time":553000000000,"state":"active","ping":55},{"user_id":185,"name":"Nyoelle","steam_id":76561198041717890,"connected_time":8541000000000,"state":"active","ping":77},{"user_id":260,"name":"Volcyy","steam_id":76561198063979124,"connected_time":2488000000000,"state":"active","ping":37},{"user_id":272,"name":"Bruski","steam_id":76561198053589119,"connected_time":2255000000000,"state":"active","ping":97},{"user_id":304,"name":"Bonk my Balls","steam_id":76561198070154445,"connected_time":345000000000,"state":"active","ping":166},{"user_id":296,"name":"triangle","steam_id":76561198046838168,"connected_time":537000000000,"state":"active","ping":54},{"user_id":305,"name":"Phil","steam_id":76561198056877069,"connected_time":310000000000,"state":"active","ping":54},{"user_id":298,"name":"Pancakes","steam_id":76561198196259989,"connected_time":503000000000,"state":"active","ping":61},{"user_id":306,"name":"Average coloniser","steam_id":76561198122441674,"connected_time":288000000000,"state":"active","ping":72},{"user_id":310,"name":"frozenwasanokmovie","steam_id":76561198157407952,"connected_time":6000000000,"state":"spawning","ping":209},{"user_id":283,"name":"Il y a","steam_id":76561198100943482,"connected_time":1779000000000,"state":"active","ping":76},{"user_id":280,"name":"Manekrit","steam_id":76561198269497846,"connected_time":1984000000000,"state":"active","ping":79},{"user_id":303,"name":"etc","steam_id":76561197998394797,"connected_time":409000000000,"state":"active","ping":58},{"user_id":264,"name":"Kron Krian","steam_id":76561198122541754,"connected_time":2442000000000,"state":"active","ping":64},{"user_id":307,"name":"s a i","steam_id":76561197970379754,"connected_time":256000000000,"state":"active","ping":58},{"user_id":265,"name":"robitamoft","steam_id":76561198315903156,"connected_time":2438000000000,"state":"active","ping":83},{"user_id":240,"name":"simn","steam_id":76561198159182269,"connected_time":3498000000000,"state":"active","ping":53},{"user_id":181,"name":"Simoh The Swoob","steam_id":76561198058078322,"connected_time":8762000000000,"state":"active","ping":86},{"user_id":290,"name":"KeanuCheems","steam_id":76561198145580689,"connected_time":1046000000000,"state":"active","ping":74},{"user_id":302,"name":"you now breathe by manual","steam_id":76561198808819694,"connected_time":452000000000,"state":"active","ping":39}]},{"server_id":311,"name":"Uncletopia | Frankfurt | 6 | All Maps","name_short":"frk-6","host":"frk-1.de.uncletopia.com","port":27065,"enabled":true,"region":"eu","cc":"de","latitude":50.110924,"longitude":8.682127,"reserved":0,"last_update":"0001-01-01T00:00:00Z","name_a2s":"Uncletopia | Frankfurt | 6 | All Maps","protocol":17,"map":"koth_viaduct","folder":"tf","game":"Team Fortress","app_id":440,"player_count":24,"max_players":24,"Bots":0,"server_type":"Dedicated","server_os":"Linux","password":true,"vac":true,"version":"7757534","steam_id":85568392924504278,"keywords":["cp","nocrits","nodmgspread","uncletopia"],"game_id":440,"stv_port":27066,"stv_name":"Uncletopia | Frankfurt | 6 | All Maps | STV","players":[{"user_id":313,"name":"I'm high on crack","steam_id":76561198175433731,"connected_time":622000000000,"state":"active","ping":61},{"user_id":258,"name":"LinkOfAsgard","steam_id":76561198845682529,"connected_time":4709000000000,"state":"active","ping":88},{"user_id":246,"name":"lazoboy","steam_id":76561199074095198,"connected_time":4948000000000,"state":"active","ping":126},{"user_id":302,"name":"MR.BLOTTO","steam_id":76561198067920111,"connected_time":1035000000000,"state":"active","ping":52},{"user_id":304,"name":"General Antifascista","steam_id":76561198194714570,"connected_time":1011000000000,"state":"active","ping":50},{"user_id":273,"name":"crsld","steam_id":76561198281682473,"connected_time":3851000000000,"state":"active","ping":131},{"user_id":307,"name":"Laxslow","steam_id":76561198065361846,"connected_time":813000000000,"state":"active","ping":60},{"user_id":274,"name":"❀snorlax","steam_id":76561198051629288,"connected_time":3842000000000,"state":"active","ping":55},{"user_id":308,"name":"ijustsmokeandcry","steam_id":76561198044189114,"connected_time":794000000000,"state":"active","ping":61},{"user_id":298,"name":"x3o","steam_id":76561198335302319,"connected_time":1475000000000,"state":"active","ping":121},{"user_id":256,"name":"ciaraaxox","steam_id":76561198273912610,"connected_time":4748000000000,"state":"active","ping":88},{"user_id":290,"name":"a black bishop from chess","steam_id":76561199226943577,"connected_time":2136000000000,"state":"active","ping":72},{"user_id":254,"name":"Danger Noodle","steam_id":76561198874093656,"connected_time":4774000000000,"state":"active","ping":65},{"user_id":319,"name":"WHAALLEE","steam_id":76561199452819866,"connected_time":1000000000,"state":"spawning","ping":38},{"user_id":277,"name":"fucking vargas","steam_id":76561198012652176,"connected_time":3321000000000,"state":"active","ping":84},{"user_id":281,"name":"Deckard","steam_id":76561198004704647,"connected_time":2979000000000,"state":"active","ping":80},{"user_id":317,"name":"Juiceydough","steam_id":76561197997323419,"connected_time":212000000000,"state":"active","ping":91},{"user_id":309,"name":"schaffi","steam_id":76561198061369274,"connected_time":740000000000,"state":"active","ping":85},{"user_id":311,"name":"The Original Aboriginal","steam_id":76561198341886313,"connected_time":663000000000,"state":"active","ping":89},{"user_id":299,"name":"DesmondTheBear","steam_id":76561198038847568,"connected_time":1293000000000,"state":"active","ping":61},{"user_id":312,"name":"ceeblues","steam_id":76561198197203519,"connected_time":643000000000,"state":"active","ping":108},{"user_id":314,"name":"Leituga","steam_id":76561198051127598,"connected_time":617000000000,"state":"active","ping":101},{"user_id":315,"name":"Sweetcheesus","steam_id":76561198022299033,"connected_time":602000000000,"state":"active","ping":61},{"user_id":318,"name":"クマ","steam_id":76561197993892057,"connected_time":192000000000,"state":"active","ping":88}]},{"server_id":23,"name":"Uncletopia | Frankfurt | 7 | Stopwatch Beta","name_short":"frk-7","host":"frk-1.de.uncletopia.com","port":27075,"enabled":true,"region":"eu","cc":"de","latitude":50.110924,"longitude":8.682127,"reserved":0,"last_update":"0001-01-01T00:00:00Z","name_a2s":"Uncletopia | Frankfurt | 7 | Stopwatch Beta","protocol":17,"map":"pl_borneo","folder":"tf","game":"Team Fortress","app_id":440,"player_count":0,"max_players":24,"Bots":0,"server_type":"Dedicated","server_os":"Linux","password":true,"vac":true,"version":"7757534","steam_id":85568392924742827,"keywords":["nocrits","nodmgspread","payload","uncletopia"],"game_id":440,"stv_port":27076,"stv_name":"Uncletopia | Frankfurt | 7 | Stopwatch Beta | STV","players":null},{"server_id":24,"name":"Uncletopia | Frankfurt | 8 | Community","name_short":"frk-8","host":"frk-1.de.uncletopia.com","port":27085,"enabled":true,"region":"eu","cc":"de","latitude":50.110924,"longitude":8.682127,"reserved":0,"last_update":"0001-01-01T00:00:00Z","name_a2s":"Uncletopia | Frankfurt | 8 | Community","protocol":17,"map":"workshop/koth_bagel_rc5.ugc2514036946","folder":"tf","game":"Team Fortress","app_id":440,"player_count":0,"max_players":24,"Bots":0,"server_type":"Dedicated","server_os":"Linux","password":true,"vac":true,"version":"7757534","steam_id":85568392924742828,"keywords":["cp","nocrits","nodmgspread","uncletopia"],"game_id":440,"stv_port":27086,"stv_name":"Uncletopia | Frankfurt | 8 | Community | STV","players":null},{"server_id":202,"name":"Uncletopia | Hong Kong | 1 | All Maps","name_short":"hgk-1","host":"hgk-1.hk.uncletopia.com","port":27015,"enabled":true,"region":"asia","cc":"hk","latitude":22.302711,"longitude":114.177216,"reserved":0,"last_update":"0001-01-01T00:00:00Z","name_a2s":"Uncletopia | Hong Kong | 1 | All Maps","protocol":17,"map":"pl_frontier_final","folder":"tf","game":"Team Fortress","app_id":440,"player_count":0,"max_players":24,"Bots":0,"server_type":"Dedicated","server_os":"Linux","password":true,"vac":true,"version":"7757534","steam_id":85568392924494504,"keywords":["nocrits","nodmgspread","payload","uncletopia"],"game_id":440,"stv_port":27016,"stv_name":"Uncletopia | Hong Kong | 1 | All Maps | STV","players":null},{"server_id":1,"name":"Uncletopia | Los Angeles | 1 | All Maps","name_short":"lax-1","host":"lax-1.us.uncletopia.com","port":27015,"enabled":true,"region":"us-west","cc":"us","latitude":33.94279,"longitude":-118.41004,"reserved":0,"last_update":"0001-01-01T00:00:00Z","name_a2s":"Uncletopia | Los Angeles | 1 | All Maps","protocol":17,"map":"cp_mountainlab","folder":"tf","game":"Team Fortress","app_id":440,"player_count":0,"max_players":24,"Bots":0,"server_type":"Dedicated","server_os":"Linux","password":true,"vac":true,"version":"7757534","steam_id":85568392924469991,"keywords":["cp","nocrits","nodmgspread","uncletopia"],"game_id":440,"stv_port":27016,"stv_name":"Uncletopia | Los Angeles | 1 | All Maps | STV","players":null},{"server_id":112,"name":"Uncletopia | Los Angeles | 2 | All Maps","name_short":"lax-2","host":"lax-1.us.uncletopia.com","port":27025,"enabled":true,"region":"us-west","cc":"us","latitude":33.94279,"longitude":-118.41004,"reserved":0,"last_update":"0001-01-01T00:00:00Z","name_a2s":"Uncletopia | Los Angeles | 2 | All Maps","protocol":17,"map":"koth_cascade","folder":"tf","game":"Team Fortress","app_id":440,"player_count":0,"max_players":24,"Bots":0,"server_type":"Dedicated","server_os":"Linux","password":true,"vac":true,"version":"7757534","steam_id":85568392924469992,"keywords":["cp","nocrits","nodmgspread","uncletopia"],"game_id":440,"stv_port":27026,"stv_name":"Uncletopia | Los Angeles | 2 | All Maps | STV","players":null},{"server_id":324,"name":"Uncletopia | Los Angeles | 3 | All Maps","name_short":"lax-3","host":"lax-1.us.uncletopia.com","port":27035,"enabled":true,"region":"us-west","cc":"us","latitude":33.94279,"longitude":-118.41004,"reserved":0,"last_update":"0001-01-01T00:00:00Z","name_a2s":"Uncletopia | Los Angeles | 3 | All Maps","protocol":17,"map":"koth_highpass","folder":"tf","game":"Team Fortress","app_id":440,"player_count":0,"max_players":24,"Bots":0,"server_type":"Dedicated","server_os":"Linux","password":true,"vac":true,"version":"7757534","steam_id":85568392924510198,"keywords":["cp","nocrits","nodmgspread","uncletopia"],"game_id":440,"stv_port":27036,"stv_name":"Uncletopia | Los Angeles | 3 | All Maps | STV","players":null},{"server_id":25,"name":"Uncletopia | Los Angeles | 4 | Stopwatch Beta","name_short":"lax-4","host":"lax-1.us.uncletopia.com","port":27045,"enabled":true,"region":"us-west","cc":"us","latitude":33.94279,"longitude":-118.41004,"reserved":0,"last_update":"0001-01-01T00:00:00Z","name_a2s":"Uncletopia | Los Angeles | 4 | Stopwatch Beta","protocol":17,"map":"koth_viaduct","folder":"tf","game":"Team Fortress","app_id":440,"player_count":0,"max_players":24,"Bots":0,"server_type":"Dedicated","server_os":"Linux","password":true,"vac":true,"version":"7757534","steam_id":85568392924510199,"keywords":["cp","nocrits","nodmgspread","uncletopia"],"game_id":440,"stv_port":27046,"stv_name":"Uncletopia | Los Angeles | 4 | Stopwatch Beta | STV","players":null},{"server_id":11,"name":"Uncletopia | London | 1 | All Maps","name_short":"lon-1","host":"lon-1.uk.uncletopia.com","port":27015,"enabled":true,"region":"eu","cc":"gb","latitude":51.509865,"longitude":-0.118092,"reserved":0,"last_update":"0001-01-01T00:00:00Z","name_a2s":"Uncletopia | London | 1 | All Maps","protocol":17,"map":"pl_thundermountain","folder":"tf","game":"Team Fortress","app_id":440,"player_count":24,"max_players":24,"Bots":0,"server_type":"Dedicated","server_os":"Linux","password":true,"vac":true,"version":"7757534","steam_id":85568392924367362,"keywords":["nocrits","nodmgspread","payload","uncletopia"],"game_id":440,"stv_port":27016,"stv_name":"Uncletopia | London | 1 | All Maps | STV","players":[{"user_id":379,"name":"Uncle Owen","steam_id":76561198157999291,"connected_time":21000000000,"state":"active","ping":79},{"user_id":370,"name":"Eco","steam_id":76561199201938256,"connected_time":614000000000,"state":"active","ping":83},{"user_id":376,"name":"Christmas Ham","steam_id":76561198119601623,"connected_time":559000000000,"state":"active","ping":51},{"user_id":359,"name":"✪ Danny","steam_id":76561198104483241,"connected_time":1940000000000,"state":"active","ping":56},{"user_id":343,"name":"tmac","steam_id":76561198047685716,"connected_time":3480000000000,"state":"active","ping":47},{"user_id":377,"name":"that fat croc from donkey kong","steam_id":76561198159172495,"connected_time":382000000000,"state":"active","ping":76},{"user_id":321,"name":"Chaz","steam_id":76561198077292814,"connected_time":4424000000000,"state":"active","ping":61},{"user_id":363,"name":"No Status","steam_id":76561198119526557,"connected_time":1624000000000,"state":"active","ping":44},{"user_id":361,"name":"Videogamer","steam_id":76561198106012909,"connected_time":1924000000000,"state":"active","ping":76},{"user_id":349,"name":"Wolfy","steam_id":76561198077232111,"connected_time":2495000000000,"state":"active","ping":93},{"user_id":365,"name":"Pringles","steam_id":76561198042667407,"connected_time":1614000000000,"state":"active","ping":84},{"user_id":250,"name":"dce","steam_id":76561198009660168,"connected_time":9087000000000,"state":"active","ping":59},{"user_id":347,"name":"sora","steam_id":76561198096547662,"connected_time":3197000000000,"state":"active","ping":53},{"user_id":320,"name":"IceDreamer","steam_id":76561197997569989,"connected_time":4464000000000,"state":"active","ping":45},{"user_id":344,"name":"HIYA","steam_id":76561198047544122,"connected_time":3474000000000,"state":"active","ping":73},{"user_id":280,"name":"teddy","steam_id":76561198007436837,"connected_time":6928000000000,"state":"active","ping":33},{"user_id":306,"name":"Posho","steam_id":76561198062396436,"connected_time":5393000000000,"state":"active","ping":45},{"user_id":327,"name":"Bounter","steam_id":76561198072614188,"connected_time":4229000000000,"state":"active","ping":74},{"user_id":374,"name":"halo_66","steam_id":76561198085471286,"connected_time":586000000000,"state":"active","ping":78},{"user_id":371,"name":"BreadBubbles","steam_id":76561198174332826,"connected_time":611000000000,"state":"active","ping":54},{"user_id":342,"name":"Dom.","steam_id":76561199065917088,"connected_time":3588000000000,"state":"active","ping":62},{"user_id":351,"name":"Pinkchup","steam_id":76561198106802803,"connected_time":2493000000000,"state":"active","ping":75},{"user_id":362,"name":"poopoocum","steam_id":76561198180641206,"connected_time":1866000000000,"state":"active","ping":57},{"user_id":367,"name":"Lolipop120","steam_id":76561199001403237,"connected_time":1551000000000,"state":"active","ping":67}]},{"server_id":114,"name":"Uncletopia | London | 2 | All Maps","name_short":"lon-2","host":"lon-1.uk.uncletopia.com","port":27025,"enabled":true,"region":"eu","cc":"gb","latitude":51.509865,"longitude":-0.118092,"reserved":0,"last_update":"0001-01-01T00:00:00Z","name_a2s":"Uncletopia | London | 2 | All Maps","protocol":17,"map":"pl_upward","folder":"tf","game":"Team Fortress","app_id":440,"player_count":24,"max_players":24,"Bots":0,"server_type":"Dedicated","server_os":"Linux","password":true,"vac":true,"version":"7757534","steam_id":85568392924470941,"keywords":["nocrits","nodmgspread","payload","uncletopia"],"game_id":440,"stv_port":27026,"stv_name":"Uncletopia | London | 2 | All Maps | STV","players":[{"user_id":362,"name":"-TA- skai :3","steam_id":76561198184881255,"connected_time":30000000000,"state":"active","ping":75},{"user_id":341,"name":"Thunder_Chief","steam_id":76561198086858957,"connected_time":1046000000000,"state":"active","ping":55},{"user_id":361,"name":"Athomix","steam_id":76561198170108402,"connected_time":36000000000,"state":"active","ping":45},{"user_id":342,"name":"systematic aim","steam_id":76561198141744030,"connected_time":1043000000000,"state":"active","ping":59},{"user_id":344,"name":"sabaka jebanoia","steam_id":76561198147249160,"connected_time":992000000000,"state":"active","ping":109},{"user_id":288,"name":"0","steam_id":76561198267909207,"connected_time":5371000000000,"state":"active","ping":101},{"user_id":317,"name":"RoXeUr-KaMiKaZe","steam_id":76561197998204782,"connected_time":3311000000000,"state":"active","ping":54},{"user_id":319,"name":"Sam","steam_id":76561198203070687,"connected_time":2760000000000,"state":"active","ping":56},{"user_id":350,"name":"Fluffed up Maverick","steam_id":76561198843516708,"connected_time":476000000000,"state":"active","ping":74},{"user_id":337,"name":"iuSDIB8+ ň7","steam_id":76561198363768590,"connected_time":1572000000000,"state":"active","ping":116},{"user_id":302,"name":"big al","steam_id":76561198800662675,"connected_time":4577000000000,"state":"active","ping":59},{"user_id":351,"name":"alex","steam_id":76561197995857448,"connected_time":445000000000,"state":"active","ping":45},{"user_id":346,"name":"ike","steam_id":76561198039573338,"connected_time":950000000000,"state":"active","ping":83},{"user_id":328,"name":"KlevukaS™","steam_id":76561198312867604,"connected_time":2138000000000,"state":"active","ping":90},{"user_id":278,"name":"PrimaryComet","steam_id":76561198085505932,"connected_time":6218000000000,"state":"active","ping":58},{"user_id":311,"name":"fregaropa","steam_id":76561198150806166,"connected_time":4114000000000,"state":"active","ping":85},{"user_id":354,"name":"Rek-9","steam_id":76561198070344910,"connected_time":372000000000,"state":"active","ping":57},{"user_id":347,"name":"Demonstrate","steam_id":76561198198581079,"connected_time":943000000000,"state":"active","ping":89},{"user_id":353,"name":"dotdotdot","steam_id":76561198057628751,"connected_time":426000000000,"state":"active","ping":63},{"user_id":280,"name":"mercedes ben","steam_id":76561198000147423,"connected_time":6215000000000,"state":"active","ping":44},{"user_id":331,"name":"❄ Kami ❄","steam_id":76561198158209651,"connected_time":2057000000000,"state":"active","ping":63},{"user_id":332,"name":"homeinvasion$","steam_id":76561199111905021,"connected_time":2052000000000,"state":"active","ping":127},{"user_id":324,"name":"TrevorLaRata","steam_id":76561198090874778,"connected_time":2317000000000,"state":"active","ping":55},{"user_id":364,"name":"jaMie","steam_id":76561198170148783,"connected_time":28000000000,"state":"active","ping":33}]},{"server_id":320,"name":"Uncletopia | London | 3 | All Maps","name_short":"lon-3","host":"lon-1.uk.uncletopia.com","port":27035,"enabled":true,"region":"eu","cc":"gb","latitude":51.509865,"longitude":-0.118092,"reserved":0,"last_update":"0001-01-01T00:00:00Z","name_a2s":"Uncletopia | London | 3 | All Maps","protocol":17,"map":"pl_frontier_final","folder":"tf","game":"Team Fortress","app_id":440,"player_count":24,"max_players":24,"Bots":0,"server_type":"Dedicated","server_os":"Linux","password":true,"vac":true,"version":"7757534","steam_id":85568392924510192,"keywords":["nocrits","nodmgspread","payload","uncletopia"],"game_id":440,"stv_port":27036,"stv_name":"Uncletopia | London | 3 | All Maps | STV","players":[{"user_id":253,"name":"spy gaming","steam_id":76561198410955546,"connected_time":947000000000,"state":"active","ping":78},{"user_id":230,"name":"Rolprev","steam_id":76561198047275939,"connected_time":1534000000000,"state":"active","ping":88},{"user_id":249,"name":"psychogoat101","steam_id":76561198156146805,"connected_time":1071000000000,"state":"active","ping":40},{"user_id":222,"name":"Raulca25","steam_id":76561199068256964,"connected_time":1948000000000,"state":"active","ping":79},{"user_id":269,"name":"AFerociousTeddyBearSlayer","steam_id":76561198247447256,"connected_time":448000000000,"state":"active","ping":50},{"user_id":223,"name":"Benzo Fury","steam_id":76561198025259336,"connected_time":1893000000000,"state":"active","ping":39},{"user_id":224,"name":"Junko","steam_id":76561198248239796,"connected_time":1890000000000,"state":"active","ping":54},{"user_id":254,"name":"tactical783","steam_id":76561199051688560,"connected_time":917000000000,"state":"active","ping":68},{"user_id":225,"name":"Rocadinis","steam_id":76561198095910616,"connected_time":1854000000000,"state":"active","ping":106},{"user_id":175,"name":"Arturias","steam_id":76561198188720263,"connected_time":6080000000000,"state":"active","ping":49},{"user_id":255,"name":"AMBATUKAM","steam_id":76561198051861583,"connected_time":914000000000,"state":"active","ping":46},{"user_id":256,"name":"meriones","steam_id":76561198034234373,"connected_time":834000000000,"state":"active","ping":43},{"user_id":227,"name":"Ninkazai Learning stick","steam_id":76561198297107931,"connected_time":1638000000000,"state":"active","ping":43},{"user_id":228,"name":"иван","steam_id":76561198072730591,"connected_time":1628000000000,"state":"active","ping":64},{"user_id":270,"name":"soil.dirt.earth","steam_id":76561198014377623,"connected_time":393000000000,"state":"active","ping":52},{"user_id":259,"name":"Blade the vampire (bisexual)","steam_id":76561198074097655,"connected_time":757000000000,"state":"active","ping":43},{"user_id":268,"name":"43291842381","steam_id":76561198038160325,"connected_time":489000000000,"state":"active","ping":75},{"user_id":262,"name":"Mr.Narwhal","steam_id":76561198077712601,"connected_time":663000000000,"state":"active","ping":46},{"user_id":235,"name":"Tort","steam_id":76561198329646769,"connected_time":1303000000000,"state":"active","ping":55},{"user_id":263,"name":"Anatoly Karpov","steam_id":76561199014030634,"connected_time":645000000000,"state":"active","ping":54},{"user_id":271,"name":"Whizzo the Clown","steam_id":76561197995910627,"connected_time":342000000000,"state":"active","ping":136},{"user_id":265,"name":"yota","steam_id":76561198041751926,"connected_time":645000000000,"state":"active","ping":57},{"user_id":243,"name":"risco1bolota","steam_id":76561198323074603,"connected_time":1254000000000,"state":"active","ping":85},{"user_id":250,"name":"MarsCream","steam_id":76561198069037449,"connected_time":1070000000000,"state":"active","ping":42}]},{"server_id":321,"name":"Uncletopia | London | 4 | All Maps","name_short":"lon-4","host":"lon-1.uk.uncletopia.com","port":27045,"enabled":true,"region":"eu","cc":"gb","latitude":51.509865,"longitude":-0.118092,"reserved":0,"last_update":"0001-01-01T00:00:00Z","name_a2s":"Uncletopia | London | 4 | All Maps","protocol":17,"map":"pl_barnblitz","folder":"tf","game":"Team Fortress","app_id":440,"player_count":23,"max_players":24,"Bots":0,"server_type":"Dedicated","server_os":"Linux","password":true,"vac":true,"version":"7757534","steam_id":85568392924510193,"keywords":["nocrits","nodmgspread","payload","uncletopia"],"game_id":440,"stv_port":27046,"stv_name":"Uncletopia | London | 4 | All Maps | STV","players":[{"user_id":763,"name":"Qosmo","steam_id":76561197980806182,"connected_time":445000000000,"state":"active","ping":67},{"user_id":752,"name":"Craig Crusade","steam_id":76561199225918086,"connected_time":1492000000000,"state":"active","ping":55},{"user_id":738,"name":"MAKENTAKEN","steam_id":76561199127359587,"connected_time":1921000000000,"state":"active","ping":100},{"user_id":764,"name":"FairlyFatFungus","steam_id":76561199152828854,"connected_time":396000000000,"state":"active","ping":55},{"user_id":766,"name":"_Context_","steam_id":76561199163359312,"connected_time":340000000000,"state":"active","ping":63},{"user_id":767,"name":"fuego","steam_id":76561198054162681,"connected_time":292000000000,"state":"active","ping":62},{"user_id":768,"name":"traudinix","steam_id":76561198061363420,"connected_time":274000000000,"state":"active","ping":60},{"user_id":700,"name":"Hotgamerdad","steam_id":76561198085940613,"connected_time":4683000000000,"state":"active","ping":59},{"user_id":769,"name":"Jimbob3s1","steam_id":76561198984209965,"connected_time":234000000000,"state":"active","ping":50},{"user_id":755,"name":"Bob.","steam_id":76561198330093822,"connected_time":1141000000000,"state":"active","ping":83},{"user_id":701,"name":"The Bean Man","steam_id":76561198046932811,"connected_time":4681000000000,"state":"active","ping":59},{"user_id":771,"name":"ego944","steam_id":76561197999290923,"connected_time":197000000000,"state":"active","ping":63},{"user_id":759,"name":"nynon","steam_id":76561197998432126,"connected_time":588000000000,"state":"active","ping":95},{"user_id":773,"name":"Homicidal Tendencies","steam_id":76561198828681043,"connected_time":172000000000,"state":"active","ping":43},{"user_id":539,"name":"FELHEEE","steam_id":76561197987151150,"connected_time":16559000000000,"state":"active","ping":101},{"user_id":715,"name":"DooWooD","steam_id":76561198335810106,"connected_time":3516000000000,"state":"active","ping":73},{"user_id":750,"name":"★ sat1ra","steam_id":76561198011382701,"connected_time":1637000000000,"state":"active","ping":78},{"user_id":774,"name":"Raatel","steam_id":76561198370703651,"connected_time":154000000000,"state":"active","ping":60},{"user_id":736,"name":"The Proclaimers","steam_id":76561198934886665,"connected_time":2016000000000,"state":"active","ping":89},{"user_id":775,"name":"DeleteTrickster","steam_id":76561198397120242,"connected_time":109000000000,"state":"active","ping":85},{"user_id":704,"name":"joe","steam_id":76561198026484403,"connected_time":4614000000000,"state":"active","ping":60},{"user_id":731,"name":"DREADNAWGHT","steam_id":76561198000973506,"connected_time":2474000000000,"state":"active","ping":66},{"user_id":776,"name":"Red_Dragonz","steam_id":76561198087432465,"connected_time":91000000000,"state":"active","ping":45}]},{"server_id":21,"name":"Uncletopia | London | 5 | All Maps","name_short":"lon-5","host":"lon-1.uk.uncletopia.com","port":27055,"enabled":true,"region":"eu","cc":"gb","latitude":51.509865,"longitude":-0.118092,"reserved":0,"last_update":"0001-01-01T00:00:00Z","name_a2s":"Uncletopia | London | 5 | All Maps","protocol":17,"map":"cp_snakewater_final1","folder":"tf","game":"Team Fortress","app_id":440,"player_count":0,"max_players":24,"Bots":0,"server_type":"Dedicated","server_os":"Linux","password":true,"vac":true,"version":"7757534","steam_id":85568392924742829,"keywords":["cp","nocrits","nodmgspread","uncletopia"],"game_id":440,"stv_port":27056,"stv_name":"Uncletopia | London | 5 | All Maps | STV","players":null},{"server_id":22,"name":"Uncletopia | London | 6 | All Maps","name_short":"lon-6","host":"lon-1.uk.uncletopia.com","port":27065,"enabled":true,"region":"eu","cc":"gb","latitude":51.509865,"longitude":-0.118092,"reserved":0,"last_update":"0001-01-01T00:00:00Z","name_a2s":"Uncletopia | London | 6 | All Maps","protocol":17,"map":"cp_dustbowl","folder":"tf","game":"Team Fortress","app_id":440,"player_count":6,"max_players":24,"Bots":0,"server_type":"Dedicated","server_os":"Linux","password":true,"vac":true,"version":"7757534","steam_id":85568392924742830,"keywords":["cp","nocrits","nodmgspread","uncletopia"],"game_id":440,"stv_port":27066,"stv_name":"Uncletopia | London | 6 | All Maps | STV","players":[{"user_id":143,"name":"firefox8546","steam_id":76561199467999091,"connected_time":133000000000,"state":"active","ping":140},{"user_id":120,"name":"R A S M U S","steam_id":76561198279799226,"connected_time":2685000000000,"state":"active","ping":75},{"user_id":127,"name":"Baguette","steam_id":76561199069435825,"connected_time":2556000000000,"state":"active","ping":55},{"user_id":86,"name":"JoelTheMoel","steam_id":76561198326357465,"connected_time":5187000000000,"state":"active","ping":47},{"user_id":142,"name":"Blehr","steam_id":76561198059349465,"connected_time":550000000000,"state":"active","ping":62},{"user_id":133,"name":"Leonor Bolek","steam_id":76561198295052334,"connected_time":1891000000000,"state":"active","ping":85}]},{"server_id":40,"name":"Uncletopia | London | 7 | No Payload","name_short":"lon-7","host":"lon-1.uk.uncletopia.com","port":27075,"enabled":true,"region":"eu","cc":"gb","latitude":51.509865,"longitude":-0.118092,"reserved":0,"last_update":"0001-01-01T00:00:00Z","name_a2s":"Uncletopia | London | 7 | No Payload","protocol":17,"map":"cp_granary","folder":"tf","game":"Team Fortress","app_id":440,"player_count":0,"max_players":24,"Bots":0,"server_type":"Dedicated","server_os":"Linux","password":true,"vac":true,"version":"7757534","steam_id":85568392924964314,"keywords":["cp","nocrits","nodmgspread","uncletopia"],"game_id":440,"stv_port":27076,"stv_name":"Uncletopia | London | 7 | No Payload | STV","players":null},{"server_id":41,"name":"Uncletopia | London | 8 | Community","name_short":"lon-8","host":"lon-1.uk.uncletopia.com","port":27085,"enabled":true,"region":"eu","cc":"gb","latitude":51.509865,"longitude":-0.118092,"reserved":0,"last_update":"0001-01-01T00:00:00Z","name_a2s":"Uncletopia | London | 8 | Community","protocol":17,"map":"workshop/koth_synthetic_rc6a.ugc1549817316","folder":"tf","game":"Team Fortress","app_id":440,"player_count":0,"max_players":24,"Bots":0,"server_type":"Dedicated","server_os":"Linux","password":true,"vac":true,"version":"7757534","steam_id":85568392924964315,"keywords":["cp","nocrits","nodmgspread","uncletopia"],"game_id":440,"stv_port":27086,"stv_name":"Uncletopia | London | 8 | Community | STV","players":null},{"server_id":300,"name":"Uncletopia | Montréal | 1 | All Maps","name_short":"mtl-1","host":"mtl-1.ca.uncletopia.com","port":27015,"enabled":true,"region":"us-east","cc":"ca","latitude":45.50889,"longitude":-73.56167,"reserved":0,"last_update":"0001-01-01T00:00:00Z","name_a2s":"Uncletopia | Montréal | 1 | All Maps","protocol":17,"map":"koth_cascade","folder":"tf","game":"Team Fortress","app_id":440,"player_count":0,"max_players":24,"Bots":0,"server_type":"Dedicated","server_os":"Linux","password":true,"vac":true,"version":"7757534","steam_id":85568392924500087,"keywords":["cp","nocrits","nodmgspread","uncletopia"],"game_id":440,"stv_port":27016,"stv_name":"Uncletopia | Montréal | 1 | All Maps | STV","players":null},{"server_id":301,"name":"Uncletopia | Montréal | 2 | All Maps","name_short":"mtl-2","host":"mtl-1.ca.uncletopia.com","port":27025,"enabled":true,"region":"us-east","cc":"ca","latitude":45.50889,"longitude":-73.56167,"reserved":0,"last_update":"0001-01-01T00:00:00Z","name_a2s":"Uncletopia | Montréal | 2 | All Maps","protocol":17,"map":"pl_borneo","folder":"tf","game":"Team Fortress","app_id":440,"player_count":0,"max_players":24,"Bots":0,"server_type":"Dedicated","server_os":"Linux","password":true,"vac":true,"version":"7757534","steam_id":85568392924500088,"keywords":["nocrits","nodmgspread","payload","uncletopia"],"game_id":440,"stv_port":27026,"stv_name":"Uncletopia | Montréal | 2 | All Maps | STV","players":null},{"server_id":302,"name":"Uncletopia | Montréal | 3 | All Maps","name_short":"mtl-3","host":"mtl-1.ca.uncletopia.com","port":27035,"enabled":true,"region":"us-east","cc":"ca","latitude":45.50889,"longitude":-73.56167,"reserved":0,"last_update":"0001-01-01T00:00:00Z","name_a2s":"Uncletopia | Montréal | 3 | All Maps","protocol":17,"map":"koth_viaduct","folder":"tf","game":"Team Fortress","app_id":440,"player_count":0,"max_players":24,"Bots":0,"server_type":"Dedicated","server_os":"Linux","password":true,"vac":true,"version":"7757534","steam_id":85568392924500089,"keywords":["cp","nocrits","nodmgspread","uncletopia"],"game_id":440,"stv_port":27036,"stv_name":"Uncletopia | Montréal | 3 | All Maps | STV","players":null},{"server_id":303,"name":"Uncletopia | Montréal | 4 | No Payload","name_short":"mtl-4","host":"mtl-1.ca.uncletopia.com","port":27045,"enabled":true,"region":"us-east","cc":"ca","latitude":45.50889,"longitude":-73.56167,"reserved":0,"last_update":"0001-01-01T00:00:00Z","name_a2s":"Uncletopia | Montréal | 4 | No Payload","protocol":17,"map":"koth_lakeside_final","folder":"tf","game":"Team Fortress","app_id":440,"player_count":0,"max_players":24,"Bots":0,"server_type":"Dedicated","server_os":"Linux","password":true,"vac":true,"version":"7757534","steam_id":85568392924500090,"keywords":["cp","nocrits","nodmgspread","uncletopia"],"game_id":440,"stv_port":27046,"stv_name":"Uncletopia | Montréal | 4 | No Payload | STV","players":null},{"server_id":13,"name":"Uncletopia | New York City | 1 | All Maps","name_short":"nyc-1","host":"nyc-1.us.uncletopia.com","port":27015,"enabled":true,"region":"us-east","cc":"us","latitude":40.73061,"longitude":-73.93524,"reserved":0,"last_update":"0001-01-01T00:00:00Z","name_a2s":"Uncletopia | New York City | 1 | All Maps","protocol":17,"map":"pl_badwater","folder":"tf","game":"Team Fortress","app_id":440,"player_count":24,"max_players":24,"Bots":0,"server_type":"Dedicated","server_os":"Linux","password":true,"vac":true,"version":"7757534","steam_id":85568392924469993,"keywords":["nocrits","nodmgspread","payload","uncletopia"],"game_id":440,"stv_port":27016,"stv_name":"Uncletopia | New York City | 1 | All Maps | STV","players":[{"user_id":314,"name":"bigmax0258","steam_id":76561198085012722,"connected_time":177000000000,"state":"active","ping":75},{"user_id":312,"name":"blademiss","steam_id":76561198062083019,"connected_time":204000000000,"state":"active","ping":113},{"user_id":296,"name":"Master-e","steam_id":76561198173044685,"connected_time":1204000000000,"state":"active","ping":59},{"user_id":278,"name":"Nolan (Femboy)","steam_id":76561198082534795,"connected_time":2523000000000,"state":"active","ping":81},{"user_id":298,"name":"MidnightBagel","steam_id":76561198108160453,"connected_time":1125000000000,"state":"active","ping":56},{"user_id":286,"name":"Congcrab","steam_id":76561198078687685,"connected_time":1596000000000,"state":"active","ping":110},{"user_id":313,"name":"Banshee","steam_id":76561198055377428,"connected_time":198000000000,"state":"active","ping":77},{"user_id":309,"name":"Kanye is my Biggest Fan","steam_id":76561198162363747,"connected_time":284000000000,"state":"active","ping":63},{"user_id":315,"name":"Mario2109","steam_id":76561198431842219,"connected_time":125000000000,"state":"spawning","ping":56},{"user_id":289,"name":"trippingbull419","steam_id":76561199111639935,"connected_time":1531000000000,"state":"active","ping":78},{"user_id":308,"name":"koob","steam_id":76561198987464129,"connected_time":322000000000,"state":"active","ping":53},{"user_id":275,"name":"fast","steam_id":76561198311704368,"connected_time":2770000000000,"state":"active","ping":60},{"user_id":284,"name":"Kritzburgh","steam_id":76561198149466938,"connected_time":1718000000000,"state":"active","ping":49},{"user_id":311,"name":"quint","steam_id":76561198046797995,"connected_time":242000000000,"state":"active","ping":80},{"user_id":316,"name":"ADreamyDrone","steam_id":76561199080830985,"connected_time":124000000000,"state":"active","ping":71},{"user_id":301,"name":"jzplr 🎷🐛","steam_id":76561198091901520,"connected_time":1055000000000,"state":"active","ping":46},{"user_id":251,"name":"Ironfyn","steam_id":76561198256850182,"connected_time":3965000000000,"state":"active","ping":57},{"user_id":288,"name":"JimmySquid","steam_id":76561198254242530,"connected_time":1567000000000,"state":"active","ping":88},{"user_id":291,"name":"The Horselords and Animal Gods","steam_id":76561197975094050,"connected_time":1511000000000,"state":"active","ping":124},{"user_id":307,"name":"Wattle","steam_id":76561198036756626,"connected_time":520000000000,"state":"active","ping":58},{"user_id":256,"name":"ndvr","steam_id":76561199379200102,"connected_time":3918000000000,"state":"active","ping":54},{"user_id":317,"name":"poiuytrewqwqwqwqwqwqwqwqwqwqwqw","steam_id":76561199105253001,"connected_time":105000000000,"state":"active","ping":48},{"user_id":260,"name":"vintage","steam_id":76561198253382579,"connected_time":3852000000000,"state":"active","ping":74},{"user_id":225,"name":"mcslam","steam_id":76561198056261882,"connected_time":5755000000000,"state":"active","ping":48}]},{"server_id":14,"name":"Uncletopia | New York City | 2 | All Maps","name_short":"nyc-2","host":"nyc-1.us.uncletopia.com","port":27025,"enabled":true,"region":"us-east","cc":"us","latitude":40.73061,"longitude":-73.93524,"reserved":0,"last_update":"0001-01-01T00:00:00Z","name_a2s":"Uncletopia | New York City | 2 | All Maps","protocol":17,"map":"cp_process_final","folder":"tf","game":"Team Fortress","app_id":440,"player_count":0,"max_players":24,"Bots":0,"server_type":"Dedicated","server_os":"Linux","password":true,"vac":true,"version":"7757534","steam_id":85568392924469994,"keywords":["cp","nocrits","nodmgspread","uncletopia"],"game_id":440,"stv_port":27026,"stv_name":"Uncletopia | New York City | 2 | All Maps | STV","players":null},{"server_id":15,"name":"Uncletopia | New York City | 3 | Stopwatch Beta","name_short":"nyc-3","host":"nyc-1.us.uncletopia.com","port":27035,"enabled":true,"region":"us-east","cc":"us","latitude":40.73061,"longitude":-73.93524,"reserved":0,"last_update":"0001-01-01T00:00:00Z","name_a2s":"Uncletopia | New York City | 3 | Stopwatch Beta","protocol":17,"map":"koth_lakeside_final","folder":"tf","game":"Team Fortress","app_id":440,"player_count":0,"max_players":24,"Bots":0,"server_type":"Dedicated","server_os":"Linux","password":true,"vac":true,"version":"7757534","steam_id":85568392924742820,"keywords":["cp","nocrits","nodmgspread","uncletopia"],"game_id":440,"stv_port":27036,"stv_name":"Uncletopia | New York City | 3 | Stopwatch Beta | STV","players":null},{"server_id":16,"name":"Uncletopia | New York City | 4 | Community","name_short":"nyc-4","host":"nyc-1.us.uncletopia.com","port":27045,"enabled":true,"region":"us-east","cc":"us","latitude":40.73061,"longitude":-73.93524,"reserved":0,"last_update":"0001-01-01T00:00:00Z","name_a2s":"Uncletopia | New York City | 4 | Community","protocol":17,"map":"workshop/pl_vigil_rc9.ugc1266210012","folder":"tf","game":"Team Fortress","app_id":440,"player_count":0,"max_players":24,"Bots":0,"server_type":"Dedicated","server_os":"Linux","password":true,"vac":true,"version":"7757534","steam_id":85568392924742821,"keywords":["nocrits","nodmgspread","payload","uncletopia"],"game_id":440,"stv_port":27046,"stv_name":"Uncletopia | New York City | 4 | Community | STV","players":null},{"server_id":142,"name":"Uncletopia | São Paulo | 1 | All Maps","name_short":"sao-1","host":"sao-1.br.uncletopia.com","port":27015,"enabled":true,"region":"sa","cc":"br","latitude":-23.533773,"longitude":-46.62529,"reserved":0,"last_update":"0001-01-01T00:00:00Z","name_a2s":"Uncletopia | São Paulo | 1 | All Maps","protocol":17,"map":"cp_altitude","folder":"tf","game":"Team Fortress","app_id":440,"player_count":0,"max_players":24,"Bots":0,"server_type":"Dedicated","server_os":"Linux","password":true,"vac":true,"version":"7757534","steam_id":85568392924469996,"keywords":["cp","nocrits","nodmgspread","uncletopia"],"game_id":440,"stv_port":27016,"stv_name":"Uncletopia | São Paulo | 1 | All Maps | STV","players":null},{"server_id":143,"name":"Uncletopia | São Paulo | 2 | All Maps","name_short":"sao-2","host":"sao-2.br.uncletopia.com","port":27015,"enabled":true,"region":"sa","cc":"br","latitude":-23.533773,"longitude":-46.62529,"reserved":0,"last_update":"0001-01-01T00:00:00Z","name_a2s":"Uncletopia | São Paulo | 2 | All Maps","protocol":17,"map":"pl_upward","folder":"tf","game":"Team Fortress","app_id":440,"player_count":0,"max_players":24,"Bots":0,"server_type":"Dedicated","server_os":"Linux","password":true,"vac":true,"version":"7757534","steam_id":85568392924485349,"keywords":["nocrits","nodmgspread","payload","uncletopia"],"game_id":440,"stv_port":27016,"stv_name":"Uncletopia | São Paulo | 2 | All Maps | STV","players":null},{"server_id":7,"name":"Uncletopia | Seattle | 1 | All Maps","name_short":"sea-1","host":"sea-1.us.uncletopia.com","port":27015,"enabled":true,"region":"us-west","cc":"us","latitude":47.608013,"longitude":-122.33517,"reserved":0,"last_update":"0001-01-01T00:00:00Z","name_a2s":"Uncletopia | Seattle | 1 | All Maps","protocol":17,"map":"pl_thundermountain","folder":"tf","game":"Team Fortress","app_id":440,"player_count":24,"max_players":24,"Bots":0,"server_type":"Dedicated","server_os":"Linux","password":true,"vac":true,"version":"7757534","steam_id":85568392924469997,"keywords":["nocrits","nodmgspread","payload","uncletopia"],"game_id":440,"stv_port":27016,"stv_name":"Uncletopia | Seattle | 1 | All Maps | STV","players":[{"user_id":352,"name":"i am ethan","steam_id":76561198128868891,"connected_time":751000000000,"state":"active","ping":60},{"user_id":348,"name":"ToxicPossum","steam_id":76561198071420746,"connected_time":1050000000000,"state":"active","ping":69},{"user_id":332,"name":"[TrC] Dackstrus","steam_id":76561197973518509,"connected_time":2629000000000,"state":"active","ping":58},{"user_id":340,"name":"T","steam_id":76561198065709361,"connected_time":1715000000000,"state":"active","ping":55},{"user_id":359,"name":"Patio","steam_id":76561197986082608,"connected_time":161000000000,"state":"active","ping":55},{"user_id":355,"name":"resting neutral face","steam_id":76561197999259502,"connected_time":364000000000,"state":"active","ping":60},{"user_id":311,"name":"yup","steam_id":76561199190800520,"connected_time":4885000000000,"state":"active","ping":39},{"user_id":305,"name":"Classic Muzz","steam_id":76561198835514043,"connected_time":5813000000000,"state":"active","ping":85},{"user_id":354,"name":"Wongo","steam_id":76561198886000396,"connected_time":463000000000,"state":"active","ping":54},{"user_id":356,"name":"Amogous Supreme","steam_id":76561198025476774,"connected_time":339000000000,"state":"active","ping":74},{"user_id":320,"name":"bronk","steam_id":76561198181109553,"connected_time":3949000000000,"state":"active","ping":69},{"user_id":342,"name":"LordMorphesus","steam_id":76561198026995104,"connected_time":1629000000000,"state":"active","ping":47},{"user_id":263,"name":"TheMagicMrWaffle","steam_id":76561198104357256,"connected_time":9230000000000,"state":"active","ping":75},{"user_id":336,"name":"Blink","steam_id":76561197996051178,"connected_time":2559000000000,"state":"active","ping":55},{"user_id":350,"name":"Tom Skirrett","steam_id":76561198014600788,"connected_time":984000000000,"state":"active","ping":60},{"user_id":358,"name":"lag","steam_id":76561197963872739,"connected_time":215000000000,"state":"active","ping":54},{"user_id":362,"name":"nappyzappy","steam_id":76561198095118953,"connected_time":34000000000,"state":"active","ping":109},{"user_id":331,"name":"Igrium","steam_id":76561198119549811,"connected_time":2856000000000,"state":"active","ping":82},{"user_id":46,"name":"THE NUT","steam_id":76561198067813626,"connected_time":25439000000000,"state":"active","ping":49},{"user_id":282,"name":"Deku Scrublord","steam_id":76561198036602402,"connected_time":6681000000000,"state":"active","ping":106},{"user_id":361,"name":"✿ PoutyBun ✿","steam_id":76561197965762847,"connected_time":124000000000,"state":"active","ping":44},{"user_id":341,"name":"Danny Fentanyl","steam_id":76561197970791798,"connected_time":1694000000000,"state":"active","ping":39},{"user_id":304,"name":"pipe","steam_id":76561198115269587,"connected_time":5844000000000,"state":"active","ping":115},{"user_id":347,"name":"[TrC] Nosy","steam_id":76561197978859310,"connected_time":1146000000000,"state":"active","ping":58}]},{"server_id":119,"name":"Uncletopia | Seattle | 2 | All Maps","name_short":"sea-2","host":"sea-1.us.uncletopia.com","port":27025,"enabled":true,"region":"us-west","cc":"us","latitude":47.608013,"longitude":-122.33517,"reserved":0,"last_update":"0001-01-01T00:00:00Z","name_a2s":"Uncletopia | Seattle | 2 | All Maps","protocol":17,"map":"pl_swiftwater_final1","folder":"tf","game":"Team Fortress","app_id":440,"player_count":0,"max_players":24,"Bots":0,"server_type":"Dedicated","server_os":"Linux","password":true,"vac":true,"version":"7757534","steam_id":85568392924469998,"keywords":["nocrits","nodmgspread","payload","uncletopia"],"game_id":440,"stv_port":27026,"stv_name":"Uncletopia | Seattle | 2 | All Maps | STV","players":null},{"server_id":406,"name":"Uncletopia | Seattle | 3 | Stopwatch Beta","name_short":"sea-3","host":"sea-1.us.uncletopia.com","port":27035,"enabled":true,"region":"us-west","cc":"us","latitude":47.608013,"longitude":-122.33517,"reserved":0,"last_update":"0001-01-01T00:00:00Z","name_a2s":"Uncletopia | Seattle | 3 | Stopwatch Beta","protocol":17,"map":"workshop/pl_summercoast_rc8e.ugc1761528829","folder":"tf","game":"Team Fortress","app_id":440,"player_count":0,"max_players":24,"Bots":0,"server_type":"Dedicated","server_os":"Linux","password":true,"vac":true,"version":"7757534","steam_id":85568392924515217,"keywords":["nocrits","nodmgspread","payload","uncletopia"],"game_id":440,"stv_port":27036,"stv_name":"Uncletopia | Seattle | 3 | Stopwatch Beta | STV","players":null},{"server_id":17,"name":"Uncletopia | San Francisco | 1 | All Maps","name_short":"sfo-1","host":"sfo-1.us.uncletopia.com","port":27015,"enabled":true,"region":"us-west","cc":"us","latitude":37.77397,"longitude":-122.4313,"reserved":0,"last_update":"0001-01-01T00:00:00Z","name_a2s":"Uncletopia | San Francisco | 1 | All Maps","protocol":17,"map":"pl_pier","folder":"tf","game":"Team Fortress","app_id":440,"player_count":0,"max_players":24,"Bots":0,"server_type":"Dedicated","server_os":"Linux","password":true,"vac":true,"version":"7757534","steam_id":85568392924469999,"keywords":["nocrits","nodmgspread","payload","uncletopia"],"game_id":440,"stv_port":27016,"stv_name":"Uncletopia | San Francisco | 1 | All Maps | STV","players":null},{"server_id":18,"name":"Uncletopia | San Francisco | 2 | All Maps","name_short":"sfo-2","host":"sfo-1.us.uncletopia.com","port":27025,"enabled":true,"region":"us-west","cc":"us","latitude":37.77397,"longitude":-122.4313,"reserved":0,"last_update":"0001-01-01T00:00:00Z","name_a2s":"Uncletopia | San Francisco | 2 | All Maps","protocol":17,"map":"cp_mountainlab","folder":"tf","game":"Team Fortress","app_id":440,"player_count":0,"max_players":24,"Bots":0,"server_type":"Dedicated","server_os":"Linux","password":true,"vac":true,"version":"7757534","steam_id":85568392924470000,"keywords":["cp","nocrits","nodmgspread","uncletopia"],"game_id":440,"stv_port":27026,"stv_name":"Uncletopia | San Francisco | 2 | All Maps | STV","players":null},{"server_id":19,"name":"Uncletopia | San Francisco | 3 | Stopwatch Beta","name_short":"sfo-3","host":"sfo-1.us.uncletopia.com","port":27035,"enabled":true,"region":"us-west","cc":"us","latitude":37.77397,"longitude":-122.4313,"reserved":0,"last_update":"0001-01-01T00:00:00Z","name_a2s":"Uncletopia | San Francisco | 3 | Stopwatch Beta","protocol":17,"map":"koth_viaduct","folder":"tf","game":"Team Fortress","app_id":440,"player_count":0,"max_players":24,"Bots":0,"server_type":"Dedicated","server_os":"Linux","password":true,"vac":true,"version":"7757534","steam_id":85568392924742824,"keywords":["cp","nocrits","nodmgspread","uncletopia"],"game_id":440,"stv_port":27036,"stv_name":"Uncletopia | San Francisco | 3 | Stopwatch Beta | STV","players":null},{"server_id":20,"name":"Uncletopia | San Francisco | 4 | Community","name_short":"sfo-4","host":"sfo-1.us.uncletopia.com","port":27045,"enabled":true,"region":"us-west","cc":"us","latitude":37.77397,"longitude":-122.4313,"reserved":0,"last_update":"0001-01-01T00:00:00Z","name_a2s":"Uncletopia | San Francisco | 4 | Community","protocol":17,"map":"workshop/pl_fifthcurve_rc1.ugc648227046","folder":"tf","game":"Team Fortress","app_id":440,"player_count":1,"max_players":24,"Bots":0,"server_type":"Dedicated","server_os":"Linux","password":true,"vac":true,"version":"7757534","steam_id":85568392924742826,"keywords":["nocrits","nodmgspread","payload","uncletopia"],"game_id":440,"stv_port":27046,"stv_name":"Uncletopia | San Francisco | 4 | Community | STV","players":[{"user_id":4,"name":"Risky","steam_id":76561198231029328,"connected_time":120000000000,"state":"active","ping":30}]},{"server_id":141,"name":"Uncletopia | Sydney | 1 | All Maps","name_short":"syd-1","host":"syd-1.au.uncletopia.com","port":27015,"enabled":true,"region":"au","cc":"au","latitude":-33.865143,"longitude":151.2099,"reserved":0,"last_update":"0001-01-01T00:00:00Z","name_a2s":"Uncletopia | Sydney | 1 | All Maps","protocol":17,"map":"koth_lakeside_final","folder":"tf","game":"Team Fortress","app_id":440,"player_count":0,"max_players":24,"Bots":0,"server_type":"Dedicated","server_os":"Linux","password":true,"vac":true,"version":"7757534","steam_id":85568392924470001,"keywords":["cp","nocrits","nodmgspread","uncletopia"],"game_id":440,"stv_port":27016,"stv_name":"Uncletopia | Sydney | 1 | All Maps | STV","players":null},{"server_id":123,"name":"Uncletopia | Sydney | 2 | All Maps","name_short":"syd-2","host":"syd-1.au.uncletopia.com","port":27025,"enabled":true,"region":"au","cc":"au","latitude":-33.865143,"longitude":151.2099,"reserved":0,"last_update":"0001-01-01T00:00:00Z","name_a2s":"Uncletopia | Sydney | 2 | All Maps","protocol":17,"map":"koth_viaduct","folder":"tf","game":"Team Fortress","app_id":440,"player_count":0,"max_players":24,"Bots":0,"server_type":"Dedicated","server_os":"Linux","password":true,"vac":true,"version":"7757534","steam_id":85568392924470002,"keywords":["cp","nocrits","nodmgspread","uncletopia"],"game_id":440,"stv_port":27026,"stv_name":"Uncletopia | Sydney | 2 | All Maps | STV","players":null},{"server_id":395,"name":"Uncletopia | Sydney | 3 | All Maps","name_short":"syd-3","host":"syd-1.au.uncletopia.com","port":27035,"enabled":true,"region":"au","cc":"au","latitude":-33.865143,"longitude":151.2099,"reserved":0,"last_update":"0001-01-01T00:00:00Z","name_a2s":"Uncletopia | Sydney | 3 | All Maps","protocol":17,"map":"koth_viaduct","folder":"tf","game":"Team Fortress","app_id":440,"player_count":0,"max_players":24,"Bots":0,"server_type":"Dedicated","server_os":"Linux","password":true,"vac":true,"version":"7757534","steam_id":85568392925194467,"keywords":["cp","nocrits","nodmgspread","uncletopia"],"game_id":440,"stv_port":27036,"stv_name":"Uncletopia | Sydney | 3 | All Maps | STV","players":null},{"server_id":396,"name":"Uncletopia | Sydney | 4 | All Maps","name_short":"syd-4","host":"syd-1.au.uncletopia.com","port":27045,"enabled":true,"region":"au","cc":"au","latitude":-33.865143,"longitude":151.2099,"reserved":0,"last_update":"0001-01-01T00:00:00Z","name_a2s":"Uncletopia | Sydney | 4 | All Maps","protocol":17,"map":"koth_lakeside_final","folder":"tf","game":"Team Fortress","app_id":440,"player_count":0,"max_players":24,"Bots":0,"server_type":"Dedicated","server_os":"Linux","password":true,"vac":true,"version":"7757534","steam_id":85568392925397958,"keywords":["cp","nocrits","nodmgspread","uncletopia"],"game_id":440,"stv_port":27046,"stv_name":"Uncletopia | Sydney | 4 | All Maps | STV","players":null},{"server_id":58,"name":"Uncletopia | Sydney | 5 | Stopwatch Beta","name_short":"syd-5","host":"syd-1.au.uncletopia.com","port":27055,"enabled":true,"region":"au","cc":"au","latitude":-33.865143,"longitude":151.2099,"reserved":0,"last_update":"0001-01-01T00:00:00Z","name_a2s":"Uncletopia | Sydney | 5 | Stopwatch Beta","protocol":17,"map":"pl_barnblitz","folder":"tf","game":"Team Fortress","app_id":440,"player_count":0,"max_players":24,"Bots":0,"server_type":"Dedicated","server_os":"Linux","password":true,"vac":true,"version":"7757534","steam_id":85568392925397959,"keywords":["nocrits","nodmgspread","payload","uncletopia"],"game_id":440,"stv_port":27056,"stv_name":"Uncletopia | Sydney | 5 | Stopwatch Beta | STV","players":null},{"server_id":59,"name":"Uncletopia | Sydney | 6 | Community","name_short":"syd-6","host":"syd-1.au.uncletopia.com","port":27065,"enabled":true,"region":"au","cc":"au","latitude":-33.865143,"longitude":151.2099,"reserved":0,"last_update":"0001-01-01T00:00:00Z","name_a2s":"Uncletopia | Sydney | 6 | Community","protocol":17,"map":"cp_mountainlab","folder":"tf","game":"Team Fortress","app_id":440,"player_count":0,"max_players":24,"Bots":0,"server_type":"Dedicated","server_os":"Linux","password":true,"vac":true,"version":"7757534","steam_id":85568392925397960,"keywords":["cp","nocrits","nodmgspread","uncletopia"],"game_id":440,"stv_port":27066,"stv_name":"Uncletopia | Sydney | 6 | Community | STV","players":null},{"server_id":49,"name":"Uncletopia | Warsaw | 1 | All Maps","name_short":"waw-1","host":"waw-1.pl.uncletopia.com","port":27015,"enabled":true,"region":"eu","cc":"pl","latitude":52.2297,"longitude":21.017532,"reserved":0,"last_update":"0001-01-01T00:00:00Z","name_a2s":"","protocol":0,"map":"","folder":"","game":"","app_id":0,"player_count":0,"max_players":0,"Bots":0,"server_type":"","server_os":"","password":false,"vac":false,"version":"","steam_id":0,"keywords":null,"game_id":0,"stv_port":0,"stv_name":"","players":null},{"server_id":50,"name":"Uncletopia | Warsaw | 2 | All Maps","name_short":"waw-2","host":"waw-1.pl.uncletopia.com","port":27025,"enabled":true,"region":"eu","cc":"pl","latitude":52.2297,"longitude":21.017532,"reserved":0,"last_update":"0001-01-01T00:00:00Z","name_a2s":"Uncletopia | Warsaw | 2 | All Maps","protocol":17,"map":"koth_highpass","folder":"tf","game":"Team Fortress","app_id":440,"player_count":0,"max_players":24,"Bots":0,"server_type":"Dedicated","server_os":"Linux","password":true,"vac":true,"version":"7757534","steam_id":85568392925397851,"keywords":["cp","nocrits","nodmgspread","uncletopia"],"game_id":440,"stv_port":27026,"stv_name":"Uncletopia | Warsaw | 2 | All Maps | STV","players":null},{"server_id":51,"name":"Uncletopia | Warsaw | 3 | All Maps","name_short":"waw-3","host":"waw-1.pl.uncletopia.com","port":27035,"enabled":true,"region":"eu","cc":"pl","latitude":52.2297,"longitude":21.017532,"reserved":0,"last_update":"0001-01-01T00:00:00Z","name_a2s":"Uncletopia | Warsaw | 3 | All Maps","protocol":17,"map":"pl_upward","folder":"tf","game":"Team Fortress","app_id":440,"player_count":0,"max_players":24,"Bots":0,"server_type":"Dedicated","server_os":"Linux","password":true,"vac":true,"version":"7757534","steam_id":85568392925397852,"keywords":["nocrits","nodmgspread","payload","uncletopia"],"game_id":440,"stv_port":27036,"stv_name":"Uncletopia | Warsaw | 3 | All Maps | STV","players":null},{"server_id":52,"name":"Uncletopia | Warsaw | 4 | All Maps","name_short":"waw-4","host":"waw-1.pl.uncletopia.com","port":27045,"enabled":true,"region":"eu","cc":"pl","latitude":52.2297,"longitude":21.017532,"reserved":0,"last_update":"0001-01-01T00:00:00Z","name_a2s":"Uncletopia | Warsaw | 4 | All Maps","protocol":17,"map":"koth_lakeside_final","folder":"tf","game":"Team Fortress","app_id":440,"player_count":0,"max_players":24,"Bots":0,"server_type":"Dedicated","server_os":"Linux","password":true,"vac":true,"version":"7757534","steam_id":85568392925397853,"keywords":["cp","nocrits","nodmgspread","uncletopia"],"game_id":440,"stv_port":27046,"stv_name":"Uncletopia | Warsaw | 4 | All Maps | STV","players":null},{"server_id":53,"name":"Uncletopia | Warsaw | 5 | Stopwatch Beta","name_short":"waw-5","host":"waw-1.pl.uncletopia.com","port":27055,"enabled":true,"region":"eu","cc":"pl","latitude":52.2297,"longitude":21.017532,"reserved":0,"last_update":"0001-01-01T00:00:00Z","name_a2s":"Uncletopia | Warsaw | 5 | Stopwatch Beta","protocol":17,"map":"pl_upward","folder":"tf","game":"Team Fortress","app_id":440,"player_count":0,"max_players":24,"Bots":0,"server_type":"Dedicated","server_os":"Linux","password":true,"vac":true,"version":"7757534","steam_id":85568392925397854,"keywords":["nocrits","nodmgspread","payload","uncletopia"],"game_id":440,"stv_port":27056,"stv_name":"Uncletopia | Warsaw | 5 | Stopwatch Beta | STV","players":null},{"server_id":54,"name":"Uncletopia | Warsaw | 6 | Community","name_short":"waw-6","host":"waw-1.pl.uncletopia.com","port":27065,"enabled":true,"region":"eu","cc":"pl","latitude":52.2297,"longitude":21.017532,"reserved":0,"last_update":"0001-01-01T00:00:00Z","name_a2s":"Uncletopia | Warsaw | 6 | Community","protocol":17,"map":"workshop/cp_overgrown_rc7b.ugc503939302","folder":"tf","game":"Team Fortress","app_id":440,"player_count":0,"max_players":24,"Bots":0,"server_type":"Dedicated","server_os":"Linux","password":true,"vac":true,"version":"7757534","steam_id":85568392925397856,"keywords":["cp","nocrits","nodmgspread","uncletopia"],"game_id":440,"stv_port":27066,"stv_name":"Uncletopia | Warsaw | 6 | Community | STV","players":null}]}