{"status":true,"message":"","result":[{"server_id":9,"name":"Uncletopia | Atlanta | 1 | All Maps","name_short":"atl-1","host":"atl-1.us.uncletopia.com","port":27015,"enabled":true,"region":"us-east","cc":"us","latitude":33.753746,"longitude":-84.38633,"reserved":0,"last_update":"0001-01-01T00:00:00Z","name_a2s":"Uncletopia | Atlanta | 1 | All Maps","protocol":17,"map":"cp_mountainlab","folder":"tf","game":"Team Fortress","app_id":440,"player_count":0,"max_players":24,"Bots":0,"server_type":"Dedicated","server_os":"Linux","password":true,"vac":true,"version":"7932396","steam_id":85568392924469982,"keywords":["cp","nocrits","nodmgspread","uncletopia"],"game_id":440,"stv_port":27016,"stv_name":"Uncletopia | Atlanta | 1 | All Maps | STV","players":null},{"server_id":104,"name":"Uncletopia | Atlanta | 2 | All Maps","name_short":"atl-2","host":"atl-1.us.uncletopia.com","port":27025,"enabled":true,"region":"us-east","cc":"us","latitude":33.753746,"longitude":-84.38633,"reserved":0,"last_update":"0001-01-01T00:00:00Z","name_a2s":"Uncletopia | Atlanta | 2 | All Maps","protocol":17,"map":"cp_snakewater_final1","folder":"tf","game":"Team Fortress","app_id":440,"player_count":0,"max_players":24,"Bots":0,"server_type":"Dedicated","server_os":"Linux","password":true,"vac":true,"version":"7932396","steam_id":85568392924469983,"keywords":["cp","nocrits","nodmgspread","uncletopia"],"game_id":440,"stv_port":27026,"stv_name":"Uncletopia | Atlanta | 2 | All Maps | STV","players":null},{"server_id":400,"name":"Uncletopia | Atlanta | 3 | Community","name_short":"atl-3","host":"atl-1.us.uncletopia.com","port":27035,"enabled":true,"region":"us-east","cc":"us","latitude":33.753746,"longitude":-84.38633,"reserved":0,"last_update":"0001-01-01T00:00:00Z","name_a2s":"Uncletopia | Atlanta | 3 | Community","protocol":17,"map":"workshop/cp_bruhstbowl_b5.ugc2878604990","folder":"tf","game":"Team Fortress","app_id":440,"player_count":0,"max_players":24,"Bots":0,"server_type":"Dedicated","server_os":"Linux","password":true,"vac":true,"version":"7932396","steam_id":85568392924515187,"keywords":["cp","nocrits","nodmgspread","uncletopia"],"game_id":440,"stv_port":27036,"stv_name":"Uncletopia | Atlanta | 3 | Community | STV","players":null},{"server_id":401,"name":"Uncletopia | Atlanta | 4 | No Payload","name_short":"atl-4","host":"atl-1.us.uncletopia.com","port":27045,"enabled":true,"region":"us-east","cc":"us","latitude":33.753746,"longitude":-84.38633,"reserved":0,"last_update":"0001-01-01T00:00:00Z","name_a2s":"","protocol":0,"map":"","folder":"","game":"","app_id":0,"player_count":0,"max_players":0,"Bots":0,"server_type":"","server_os":"","password":false,"vac":false,"version":"","steam_id":0,"keywords":null,"game_id":0,"stv_port":0,"stv_name":"","players":null},{"server_id":2,"name":"Uncletopia | Chicago | 1 | All Maps","name_short":"chi-1","host":"chi-1.us.uncletopia.com","port":27015,"enabled":true,"region":"us-central","cc":"us","latitude":41.881832,"longitude":-87.62318,"reserved":0,"last_update":"0001-01-01T00:00:00Z","name_a2s":"Uncletopia | Chicago | 1 | All Maps","protocol":17,"map":"koth_highpass","folder":"tf","game":"Team Fortress","app_id":440,"player_count":0,"max_players":24,"Bots":0,"server_type":"Dedicated","server_os":"Linux","password":true,"vac":true,"version":"7932396","steam_id":85568392924469984,"keywords":["cp","nocrits","nodmgspread","uncletopia"],"game_id":440,"stv_port":27016,"stv_name":"Uncletopia | Chicago | 1 | All Maps | STV","players":null},{"server_id":106,"name":"Uncletopia | Chicago | 2 | All Maps","name_short":"chi-2","host":"chi-1.us.uncletopia.com","port":27025,"enabled":true,"region":"us-central","cc":"us","latitude":41.881832,"longitude":-87.62318,"reserved":0,"last_update":"0001-01-01T00:00:00Z","name_a2s":"Uncletopia | Chicago | 2 | All Maps","protocol":17,"map":"cp_process_final","folder":"tf","game":"Team Fortress","app_id":440,"player_count":0,"max_players":24,"Bots":0,"server_type":"Dedicated","server_os":"Linux","password":true,"vac":true,"version":"7932396","steam_id":85568392924469985,"keywords":["cp","nocrits","nodmgspread","uncletopia"],"game_id":440,"stv_port":27026,"stv_name":"Uncletopia | Chicago | 2 | All Maps | STV","players":null},{"server_id":402,"name":"Uncletopia | Chicago | 3 | All Maps","name_short":"chi-3","host":"chi-1.us.uncletopia.com","port":27035,"enabled":true,"region":"us-central","cc":"us","latitude":41.881832,"longitude":-87.62318,"reserved":0,"last_update":"0001-01-01T00:00:00Z","name_a2s":"Uncletopia | Chicago | 3 | All Maps","protocol":17,"map":"pl_snowycoast","folder":"tf","game":"Team Fortress","app_id":440,"player_count":0,"max_players":24,"Bots":0,"server_type":"Dedicated","server_os":"Linux","password":true,"vac":true,"version":"7932396","steam_id":85568392924515191,"keywords":["nocrits","nodmgspread","payload","uncletopia"],"game_id":440,"stv_port":27036,"stv_name":"Uncletopia | Chicago | 3 | All Maps | STV","players":null},{"server_id":403,"name":"Uncletopia | Chicago | 4 | All Maps","name_short":"chi-4","host":"chi-1.us.uncletopia.com","port":27045,"enabled":true,"region":"us-central","cc":"us","latitude":41.881832,"longitude":-87.62318,"reserved":0,"last_update":"0001-01-01T00:00:00Z","name_a2s":"Uncletopia | Chicago | 4 | All Maps","protocol":17,"map":"koth_highpass","folder":"tf","game":"Team Fortress","app_id":440,"player_count":0,"max_players":24,"Bots":0,"server_type":"Dedicated","server_os":"Linux","password":true,"vac":true,"version":"7932396","steam_id":85568392924515193,"keywords":["cp","nocrits","nodmgspread","uncletopia"],"game_id":440,"stv_port":27046,"stv_name":"Uncletopia | Chicago | 4 | All Maps | STV","players":null},{"server_id":36,"name":"Uncletopia | Chicago | 5 | All Maps","name_short":"chi-5","host":"chi-2.us.uncletopia.com","port":27015,"enabled":true,"region":"us-central","cc":"us","latitude":41.881832,"longitude":-87.62318,"reserved":0,"last_update":"0001-01-01T00:00:00Z","name_a2s":"Uncletopia | Chicago | 5 | All Maps","protocol":17,"map":"cp_mountainlab","folder":"tf","game":"Team Fortress","app_id":440,"player_count":0,"max_players":24,"Bots":0,"server_type":"Dedicated","server_os":"Linux","password":true,"vac":true,"version":"7932396","steam_id":85568392924866362,"keywords":["cp","nocrits","nodmgspread","uncletopia"],"game_id":440,"stv_port":27016,"stv_name":"Uncletopia | Chicago | 5 | All Maps | STV","players":null},{"server_id":37,"name":"Uncletopia | Chicago | 6 | All Maps","name_short":"chi-6","host":"chi-2.us.uncletopia.com","port":27025,"enabled":true,"region":"us-central","cc":"us","latitude":41.881832,"longitude":-87.62318,"reserved":0,"last_update":"0001-01-01T00:00:00Z","name_a2s":"Uncletopia | Chicago | 6 | All Maps","protocol":17,"map":"pl_badwater","folder":"tf","game":"Team Fortress","app_id":440,"player_count":24,"max_players":24,"Bots":0,"server_type":"Dedicated","server_os":"Linux","password":true,"vac":true,"version":"7932396","steam_id":85568392924866363,"keywords":["nocrits","nodmgspread","payload","uncletopia"],"game_id":440,"stv_port":27026,"stv_name":"Uncletopia | Chicago | 6 | All Maps | STV","players":[{"user_id":607,"name":"The Foolish Samurai","steam_id":76561198094494945,"connected_time":131000000000,"state":"active","ping":105},{"user_id":580,"name":"(◎﹏◎)","steam_id":76561198007464245,"connected_time":2194000000000,"state":"active","ping":74},{"user_id":601,"name":"Atsans","steam_id":76561198132370705,"connected_time":248000000000,"state":"active","ping":85},{"user_id":600,"name":"SiphonFIre","steam_id":76561198305327992,"connected_time":532000000000,"state":"active","ping":81},{"user_id":596,"name":"Panda Loser","steam_id":76561198828745176,"connected_time":1083000000000,"state":"active","ping":95},{"user_id":595,"name":"sweaterfan","steam_id":76561199389567214,"connected_time":1107000000000,"state":"active","ping":69},{"user_id":556,"name":"Cpl Coomer","steam_id":76561199143310951,"connected_time":4496000000000,"state":"active","ping":58},{"user_id":603,"name":"Cordial_Lump","steam_id":76561198027777950,"connected_time":222000000000,"state":"active","ping":81},{"user_id":593,"name":"azure","steam_id":76561198067497459,"connected_time":1359000000000,"state":"active","ping":71},{"user_id":516,"name":"shitass | troutsupply.net","steam_id":76561198210572481,"connected_time":8266000000000,"state":"active","ping":75},{"user_id":587,"name":"Ruins","steam_id":76561198140372785,"connected_time":1631000000000,"state":"active","ping":50},{"user_id":597,"name":"Reilly","steam_id":76561198218911131,"connected_time":1058000000000,"state":"active","ping":69},{"user_id":594,"name":"magocpotat (gortmas arc)","steam_id":76561198116136297,"connected_time":1157000000000,"state":"active","ping":121},{"user_id":604,"name":"Super Ghostbusters (Full Album)","steam_id":76561198057415490,"connected_time":205000000000,"state":"active","ping":57},{"user_id":599,"name":"Nudgie","steam_id":76561198034744477,"connected_time":876000000000,"state":"active","ping":77},{"user_id":590,"name":"Coinclever","steam_id":76561198099972692,"connected_time":1501000000000,"state":"active","ping":60},{"user_id":584,"name":"StevenSpectacle","steam_id":76561198070587773,"connected_time":1697000000000,"state":"active","ping":64},{"user_id":546,"name":"Mastermind","steam_id":76561198127783432,"connected_time":5818000000000,"state":"active","ping":67},{"user_id":585,"name":"Mori","steam_id":76561198118205495,"connected_time":1696000000000,"state":"active","ping":57},{"user_id":605,"name":"Lizardman","steam_id":76561198022410505,"connected_time":174000000000,"state":"active","ping":74},{"user_id":586,"name":"Mighty","steam_id":76561198096569755,"connected_time":1653000000000,"state":"active","ping":90},{"user_id":588,"name":"how to fly?","steam_id":76561198064255155,"connected_time":1593000000000,"state":"active","ping":65},{"user_id":589,"name":"Jack from Jack in The Box","steam_id":76561199083594971,"connected_time":1593000000000,"state":"active","ping":86},{"user_id":592,"name":"marshmallowmacdaddy","steam_id":76561199195396689,"connected_time":1421000000000,"state":"active","ping":62}]},{"server_id":38,"name":"Uncletopia | Chicago | 7 | Stopwatch Beta","name_short":"chi-7","host":"chi-2.us.uncletopia.com","port":27035,"enabled":true,"region":"us-central","cc":"us","latitude":41.881832,"longitude":-87.62318,"reserved":0,"last_update":"0001-01-01T00:00:00Z","name_a2s":"Uncletopia | Chicago | 7 | Stopwatch Beta","protocol":17,"map":"workshop/koth_ashville_final.ugc2130459942","folder":"tf","game":"Team Fortress","app_id":440,"player_count":0,"max_players":24,"Bots":0,"server_type":"Dedicated","server_os":"Linux","password":true,"vac":true,"version":"7932396","steam_id":85568392924866364,"keywords":["cp","nocrits","nodmgspread","uncletopia"],"game_id":440,"stv_port":27036,"stv_name":"Uncletopia | Chicago | 7 | Stopwatch Beta | STV","players":null},{"server_id":39,"name":"Uncletopia | Chicago | 8 | Community","name_short":"chi-8","host":"chi-2.us.uncletopia.com","port":27045,"enabled":true,"region":"us-central","cc":"us","latitude":41.881832,"longitude":-87.62318,"reserved":0,"last_update":"0001-01-01T00:00:00Z","name_a2s":"Uncletopia | Chicago | 8 | Community","protocol":17,"map":"workshop/cp_indulge.ugc528106646","folder":"tf","game":"Team Fortress","app_id":440,"player_count":0,"max_players":24,"Bots":0,"server_type":"Dedicated","server_os":"Linux","password":true,"vac":true,"version":"7932396","steam_id":85568392924866365,"keywords":["cp","nocrits","nodmgspread","uncletopia"],"game_id":440,"stv_port":27046,"stv_name":"Uncletopia | Chicago | 8 | Community | STV","players":null},{"server_id":8,"name":"Uncletopia | Dallas | 1 | All Maps","name_short":"dal-1","host":"dal-1.us.uncletopia.com","port":27015,"enabled":true,"region":"us-central","cc":"us","latitude":32.779167,"longitude":-96.80889,"reserved":0,"last_update":"0001-01-01T00:00:00Z","name_a2s":"Uncletopia | Dallas | 1 | All Maps","protocol":17,"map":"cp_powerhouse","folder":"tf","game":"Team Fortress","app_id":440,"player_count":24,"max_players":24,"Bots":0,"server_type":"Dedicated","server_os":"Linux","password":true,"vac":true,"version":"7932396","steam_id":85568392924469986,"keywords":["cp","nocrits","nodmgspread","uncletopia"],"game_id":440,"stv_port":27016,"stv_name":"Uncletopia | Dallas | 1 | All Maps | STV","players":[{"user_id":794,"name":"ReDiculous22","steam_id":76561198038391383,"connected_time":1517000000000,"state":"active","ping":36},{"user_id":762,"name":"Arrythmia","steam_id":76561198093748123,"connected_time":3488000000000,"state":"active","ping":91},{"user_id":763,"name":"Nightwalker","steam_id":76561198078672640,"connected_time":3427000000000,"state":"active","ping":70},{"user_id":777,"name":"Pitch is a Stick","steam_id":76561198800287853,"connected_time":2998000000000,"state":"active","ping":113},{"user_id":751,"name":"puppy :3","steam_id":76561198011196264,"connected_time":5296000000000,"state":"active","ping":92},{"user_id":791,"name":"DapperRobot","steam_id":76561198050531559,"connected_time":1991000000000,"state":"active","ping":75},{"user_id":795,"name":"realhedgehog2082","steam_id":76561198168931330,"connected_time":1504000000000,"state":"active","ping":61},{"user_id":799,"name":"Angel Trash","steam_id":76561198062168451,"connected_time":1116000000000,"state":"active","ping":91},{"user_id":775,"name":"The Observer","steam_id":76561198830360058,"connected_time":3029000000000,"state":"active","ping":79},{"user_id":806,"name":"amjugan","steam_id":76561198018488216,"connected_time":602000000000,"state":"active","ping":90},{"user_id":807,"name":"bamf","steam_id":76561197982986121,"connected_time":574000000000,"state":"active","ping":77},{"user_id":739,"name":"Gooter","steam_id":76561198185268445,"connected_time":6194000000000,"state":"active","ping":59},{"user_id":800,"name":"—◀▮▮▶《《","steam_id":76561198115467946,"connected_time":1099000000000,"state":"active","ping":91},{"user_id":810,"name":"LongTimeNoSiege","steam_id":76561198010203035,"connected_time":520000000000,"state":"active","ping":77},{"user_id":805,"name":"Atlas","steam_id":76561198127975050,"connected_time":611000000000,"state":"active","ping":79},{"user_id":786,"name":"⚣ Horny Femboy ⚣","steam_id":76561199043463646,"connected_time":2189000000000,"state":"active","ping":136},{"user_id":715,"name":"Dot.","steam_id":76561198149463984,"connected_time":8427000000000,"state":"active","ping":66},{"user_id":771,"name":"creat0r","steam_id":76561198274012572,"connected_time":3117000000000,"state":"active","ping":83},{"user_id":801,"name":"seats","steam_id":76561197998756039,"connected_time":1017000000000,"state":"active","ping":76},{"user_id":808,"name":"Glontch","steam_id":76561198155294045,"connected_time":564000000000,"state":"active","ping":108},{"user_id":787,"name":"erf","steam_id":76561198078203677,"connected_time":2189000000000,"state":"active","ping":88},{"user_id":809,"name":"St. Michael","steam_id":76561198037611052,"connected_time":535000000000,"state":"active","ping":46},{"user_id":788,"name":"⚣ Horny(er) Femboy ⚣","steam_id":76561197998789730,"connected_time":2177000000000,"state":"active","ping":82},{"user_id":804,"name":"JJ","steam_id":76561198040955086,"connected_time":762000000000,"state":"active","ping":57}]},{"server_id":108,"name":"Uncletopia | Dallas | 2 | All Maps","name_short":"dal-2","host":"dal-1.us.uncletopia.com","port":27025,"enabled":true,"region":"us-central","cc":"us","latitude":32.779167,"longitude":-96.80889,"reserved":0,"last_update":"0001-01-01T00:00:00Z","name_a2s":"Uncletopia | Dallas | 2 | All Maps","protocol":17,"map":"koth_lakeside_final","folder":"tf","game":"Team Fortress","app_id":440,"player_count":4,"max_players":24,"Bots":0,"server_type":"Dedicated","server_os":"Linux","password":true,"vac":true,"version":"7932396","steam_id":85568392924469988,"keywords":["cp","nocrits","nodmgspread","uncletopia"],"game_id":440,"stv_port":27026,"stv_name":"Uncletopia | Dallas | 2 | All Maps | STV","players":[{"user_id":668,"name":"DungeonMaster Van","steam_id":76561197981954308,"connected_time":3380000000000,"state":"active","ping":92},{"user_id":671,"name":"MelonMiner1","steam_id":76561198097200032,"connected_time":3335000000000,"state":"active","ping":104},{"user_id":672,"name":"Your Wurst Fear!","steam_id":76561198302785041,"connected_time":3329000000000,"state":"active","ping":134},{"user_id":673,"name":"Galacticgovener","steam_id":76561198357409443,"connected_time":3304000000000,"state":"active","ping":103}]},{"server_id":5,"name":"Uncletopia | Frankfurt | 1 | All Maps","name_short":"frk-1","host":"frk-1.de.uncletopia.com","port":27015,"enabled":true,"region":"eu","cc":"de","latitude":50.110924,"longitude":8.682127,"reserved":0,"last_update":"0001-01-01T00:00:00Z","name_a2s":"Uncletopia | Frankfurt | 1 | All Maps","protocol":17,"map":"pl_thundermountain","folder":"tf","game":"Team Fortress","app_id":440,"player_count":24,"max_players":24,"Bots":0,"server_type":"Dedicated","server_os":"Linux","password":true,"vac":true,"version":"7932396","steam_id":85568392924469989,"keywords":["nocrits","nodmgspread","payload","uncletopia"],"game_id":440,"stv_port":27016,"stv_name":"Uncletopia | Frankfurt | 1 | All Maps | STV","players":[{"user_id":7,"name":"ympo","steam_id":76561198202441870,"connected_time":3542000000000,"state":"active","ping":59},{"user_id":9,"name":"just_adhenz1284 #SaveTF2","steam_id":76561198293654671,"connected_time":3330000000000,"state":"active","ping":154},{"user_id":10,"name":"ja","steam_id":76561199228540618,"connected_time":3112000000000,"state":"active","ping":59},{"user_id":11,"name":"Hedge Knight","steam_id":76561198989449047,"connected_time":3101000000000,"state":"active","ping":147},{"user_id":55,"name":"JAZZ COMMANDO","steam_id":76561198031766068,"connected_time":746000000000,"state":"active","ping":53},{"user_id":61,"name":"griba64","steam_id":76561198008120424,"connected_time":528000000000,"state":"active","ping":90},{"user_id":40,"name":"liu","steam_id":76561198269154534,"connected_time":2341000000000,"state":"active","ping":58},{"user_id":49,"name":"Diogenes of Swagus","steam_id":76561198006293325,"connected_time":1263000000000,"state":"active","ping":87},{"user_id":51,"name":"zee","steam_id":76561197994492154,"connected_time":1186000000000,"state":"active","ping":74},{"user_id":63,"name":"Jack_26","steam_id":76561198034566531,"connected_time":477000000000,"state":"active","ping":95},{"user_id":65,"name":"gangster","steam_id":76561198033524151,"connected_time":384000000000,"state":"active","ping":51},{"user_id":53,"name":"pidgeonlord","steam_id":76561198297290160,"connected_time":1150000000000,"state":"active","ping":70},{"user_id":59,"name":"Cookies and Bakies","steam_id":76561198017442928,"connected_time":666000000000,"state":"active","ping":56},{"user_id":62,"name":"BALLS ITCH","steam_id":76561199078330622,"connected_time":509000000000,"state":"active","ping":92},{"user_id":24,"name":"Dolcelatte","steam_id":76561198038501770,"connected_time":2688000000000,"state":"active","ping":46},{"user_id":32,"name":"Momovsky","steam_id":76561198005738407,"connected_time":2521000000000,"state":"active","ping":82},{"user_id":43,"name":"Falcon","steam_id":76561198211463916,"connected_time":2118000000000,"state":"active","ping":101},{"user_id":66,"name":"FrostToros","steam_id":76561199052948884,"connected_time":192000000000,"state":"active","ping":105},{"user_id":33,"name":"the indomitable human spirit","steam_id":76561198718760200,"connected_time":2485000000000,"state":"active","ping":68},{"user_id":64,"name":"sad","steam_id":76561198067524060,"connected_time":467000000000,"state":"active","ping":102},{"user_id":54,"name":"Lorelei","steam_id":76561198056341754,"connected_time":1049000000000,"state":"active","ping":53},{"user_id":37,"name":"Zedifo","steam_id":76561198044032070,"connected_time":2403000000000,"state":"active","ping":56},{"user_id":38,"name":"STILLZ","steam_id":76561198131892406,"connected_time":2350000000000,"state":"active","ping":170},{"user_id":57,"name":"Bagingi","steam_id":76561198052197810,"connected_time":677000000000,"state":"active","ping":75}]},{"server_id":110,"name":"Uncletopia | Frankfurt | 2 | All Maps","name_short":"frk-2","host":"frk-1.de.uncletopia.com","port":27025,"enabled":true,"region":"eu","cc":"de","latitude":50.110924,"longitude":8.682127,"reserved":0,"last_update":"0001-01-01T00:00:00Z","name_a2s":"Uncletopia | Frankfurt | 2 | All Maps","protocol":17,"map":"cp_mountainlab","folder":"tf","game":"Team Fortress","app_id":440,"player_count":2,"max_players":24,"Bots":0,"server_type":"Dedicated","server_os":"Linux","password":true,"vac":true,"version":"7932396","steam_id":85568392924469990,"keywords":["cp","nocrits","nodmgspread","uncletopia"],"game_id":440,"stv_port":27026,"stv_name":"Uncletopia | Frankfurt | 2 | All Maps | STV","players":[{"user_id":3,"name":":::::::::::::::::::::::::::","steam_id":76561198093458326,"connected_time":1769000000000,"state":"active","ping":46},{"user_id":4,"name":"63756d","steam_id":76561198808699024,"connected_time":1751000000000,"state":"active","ping":55}]},{"server_id":308,"name":"Uncletopia | Frankfurt | 3 | All Maps","name_short":"frk-3","host":"frk-1.de.uncletopia.com","port":27035,"enabled":true,"region":"eu","cc":"de","latitude":50.110924,"longitude":8.682127,"reserved":0,"last_update":"0001-01-01T00:00:00Z","name_a2s":"Uncletopia | Frankfurt | 3 | All Maps","protocol":17,"map":"cp_mountainlab","folder":"tf","game":"Team Fortress","app_id":440,"player_count":0,"max_players":24,"Bots":0,"server_type":"Dedicated","server_os":"Linux","password":true,"vac":true,"version":"7932396","steam_id":85568392924504274,"keywords":["cp","nocrits","nodmgspread","uncletopia"],"game_id":440,"stv_port":27036,"stv_name":"Uncletopia | Frankfurt | 3 | All Maps | STV","players":null},{"server_id":309,"name":"Uncletopia | Frankfurt | 4 | All Maps","name_short":"frk-4","host":"frk-1.de.uncletopia.com","port":27045,"enabled":true,"region":"eu","cc":"de","latitude":50.110924,"longitude":8.682127,"reserved":0,"last_update":"0001-01-01T00:00:00Z","name_a2s":"Uncletopia | Frankfurt | 4 | All Maps","protocol":17,"map":"koth_lakeside_final","folder":"tf","game":"Team Fortress","app_id":440,"player_count":0,"max_players":24,"Bots":0,"server_type":"Dedicated","server_os":"Linux","password":true,"vac":true,"version":"7932396","steam_id":85568392924504275,"keywords":["cp","nocrits","nodmgspread","uncletopia"],"game_id":440,"stv_port":27046,"stv_name":"Uncletopia | Frankfurt | 4 | All Maps | STV","players":null},{"server_id":310,"name":"Uncletopia | Frankfurt | 5 | All Maps","name_short":"frk-5","host":"frk-1.de.uncletopia.com","port":27055,"enabled":true,"region":"eu","cc":"de","latitude":50.110924,"longitude":8.682127,"reserved":0,"last_update":"0001-01-01T00:00:00Z","name_a2s":"Uncletopia | Frankfurt | 5 | All Maps","protocol":17,"map":"pl_swiftwater_final1","folder":"tf","game":"Team Fortress","app_id":440,"player_count":0,"max_players":24,"Bots":0,"server_type":"Dedicated","server_os":"Linux","password":true,"vac":true,"version":"7932396","steam_id":85568392924504277,"keywords":["nocrits","nodmgspread","payload","uncletopia"],"game_id":440,"stv_port":27056,"stv_name":"Uncletopia | Frankfurt | 5 | All Maps | STV","players":null},{"server_id":311,"name":"Uncletopia | Frankfurt | 6 | All Maps","name_short":"frk-6","host":"frk-1.de.uncletopia.com","port":27065,"enabled":true,"region":"eu","cc":"de","latitude":50.110924,"longitude":8.682127,"reserved":0,"last_update":"0001-01-01T00:00:00Z","name_a2s":"Uncletopia | Frankfurt | 6 | All Maps","protocol":17,"map":"pl_badwater","folder":"tf","game":"Team Fortress","app_id":440,"player_count":0,"max_players":24,"Bots":0,"server_type":"Dedicated","server_os":"Linux","password":true,"vac":true,"version":"7932396","steam_id":85568392924504278,"keywords":["nocrits","nodmgspread","payload","uncletopia"],"game_id":440,"stv_port":27066,"stv_name":"Uncletopia | Frankfurt | 6 | All Maps | STV","players":null},{"server_id":23,"name":"Uncletopia | Frankfurt | 7 | Stopwatch Beta","name_short":"frk-7","host":"frk-1.de.uncletopia.com","port":27075,"enabled":true,"region":"eu","cc":"de","latitude":50.110924,"longitude":8.682127,"reserved":0,"last_update":"0001-01-01T00:00:00Z","name_a2s":"Uncletopia | Frankfurt | 7 | Stopwatch Beta","protocol":17,"map":"pl_snowycoast","folder":"tf","game":"Team Fortress","app_id":440,"player_count":0,"max_players":24,"Bots":0,"server_type":"Dedicated","server_os":"Linux","password":true,"vac":true,"version":"7932396","steam_id":85568392924742827,"keywords":["nocrits","nodmgspread","payload","uncletopia"],"game_id":440,"stv_port":27076,"stv_name":"Uncletopia | Frankfurt | 7 | Stopwatch Beta | STV","players":null},{"server_id":24,"name":"Uncletopia | Frankfurt | 8 | Community","name_short":"frk-8","host":"frk-1.de.uncletopia.com","port":27085,"enabled":true,"region":"eu","cc":"de","latitude":50.110924,"longitude":8.682127,"reserved":0,"last_update":"0001-01-01T00:00:00Z","name_a2s":"Uncletopia | Frankfurt | 8 | Community","protocol":17,"map":"workshop/cp_logjam_rc12.ugc454812035","folder":"tf","game":"Team Fortress","app_id":440,"player_count":0,"max_players":24,"Bots":0,"server_type":"Dedicated","server_os":"Linux","password":true,"vac":true,"version":"7932396","steam_id":85568392924742828,"keywords":["cp","nocrits","nodmgspread","uncletopia"],"game_id":440,"stv_port":27086,"stv_name":"Uncletopia | Frankfurt | 8 | Community | STV","players":null},{"server_id":202,"name":"Uncletopia | Hong Kong | 1 | All Maps","name_short":"hgk-1","host":"hgk-1.hk.uncletopia.com","port":27015,"enabled":true,"region":"asia","cc":"hk","latitude":22.302711,"longitude":114.177216,"reserved":0,"last_update":"0001-01-01T00:00:00Z","name_a2s":"Uncletopia | Hong Kong | 1 | All Maps","protocol":17,"map":"koth_lakeside_final","folder":"tf","game":"Team Fortress","app_id":440,"player_count":24,"max_players":24,"Bots":0,"server_type":"Dedicated","server_os":"Linux","password":true,"vac":true,"version":"7932396","steam_id":85568392924494504,"keywords":["cp","nocrits","nodmgspread","uncletopia"],"game_id":440,"stv_port":27016,"stv_name":"Uncletopia | Hong Kong | 1 | All Maps | STV","players":[{"user_id":113,"name":"tiden2000","steam_id":76561198092969425,"connected_time":1573000000000,"state":"active","ping":105},{"user_id":106,"name":"Creaserg","steam_id":76561198827951097,"connected_time":2223000000000,"state":"active","ping":85},{"user_id":132,"name":"sierra","steam_id":76561197969873415,"connected_time":197000000000,"state":"active","ping":96},{"user_id":84,"name":"BAD PYRO PLAYER","steam_id":76561198074339034,"connected_time":3872000000000,"state":"active","ping":69},{"user_id":127,"name":"infra","steam_id":76561198924576271,"connected_time":813000000000,"state":"active","ping":144},{"user_id":82,"name":"It broke, it really did","steam_id":76561199466006054,"connected_time":3956000000000,"state":"active","ping":70},{"user_id":115,"name":"detf2oxification","steam_id":76561199077602424,"connected_time":1509000000000,"state":"active","ping":60},{"user_id":21,"name":"huh :-)","steam_id":76561198293775978,"connected_time":8422000000000,"state":"active","ping":94},{"user_id":125,"name":"TheChainsaw","steam_id":76561198312001455,"connected_time":1038000000000,"state":"active","ping":115},{"user_id":101,"name":"screw it","steam_id":76561198188905629,"connected_time":2848000000000,"state":"active","ping":57},{"user_id":110,"name":"sloth of the fragment clan","steam_id":76561198214192048,"connected_time":1747000000000,"state":"active","ping":90},{"user_id":108,"name":"lalo","steam_id":76561198074020067,"connected_time":2126000000000,"state":"active","ping":88},{"user_id":123,"name":".HareYarko","steam_id":76561197972617632,"connected_time":1203000000000,"state":"active","ping":98},{"user_id":129,"name":"Water Weed Dune Hair","steam_id":76561198090087072,"connected_time":537000000000,"state":"active","ping":126},{"user_id":133,"name":"questionable oppai healer","steam_id":76561198008307645,"connected_time":196000000000,"state":"active","ping":131},{"user_id":119,"name":". ᴗ.","steam_id":76561198208632261,"connected_time":1353000000000,"state":"active","ping":44},{"user_id":111,"name":"brizzard","steam_id":76561198048438653,"connected_time":1634000000000,"state":"active","ping":55},{"user_id":45,"name":"dax.","steam_id":76561198321885643,"connected_time":6228000000000,"state":"active","ping":43},{"user_id":85,"name":"Crystèle","steam_id":76561198026030175,"connected_time":3832000000000,"state":"active","ping":84},{"user_id":50,"name":"Michael Scott","steam_id":76561198023082794,"connected_time":6063000000000,"state":"active","ping":52},{"user_id":48,"name":"Noyour","steam_id":76561198323259830,"connected_time":6116000000000,"state":"active","ping":115},{"user_id":70,"name":"s1nner","steam_id":76561198225715416,"connected_time":4632000000000,"state":"active","ping":36},{"user_id":120,"name":"Green","steam_id":76561198391718463,"connected_time":1298000000000,"state":"active","ping":60},{"user_id":98,"name":"IHS","steam_id":76561198048065303,"connected_time":3237000000000,"state":"active","ping":136}]},{"server_id":1,"name":"Uncletopia | Los Angeles | 1 | All Maps","name_short":"lax-1","host":"lax-1.us.uncletopia.com","port":27015,"enabled":true,"region":"us-west","cc":"us","latitude":33.94279,"longitude":-118.41004,"reserved":0,"last_update":"0001-01-01T00:00:00Z","name_a2s":"Uncletopia | Los Angeles | 1 | All Maps","protocol":17,"map":"cp_sunshine","folder":"tf","game":"Team Fortress","app_id":440,"player_count":18,"max_players":24,"Bots":0,"server_type":"Dedicated","server_os":"Linux","password":true,"vac":true,"version":"7932396","steam_id":85568392924469991,"keywords":["cp","nocrits","nodmgspread","uncletopia"],"game_id":440,"stv_port":27016,"stv_name":"Uncletopia | Los Angeles | 1 | All Maps | STV","players":[{"user_id":587,"name":"Boris The Judge","steam_id":76561198108041883,"connected_time":1330000000000,"state":"active","ping":113},{"user_id":564,"name":"SorcererMinty","steam_id":76561199185659553,"connected_time":4603000000000,"state":"active","ping":100},{"user_id":585,"name":"Silver Spoon's Canon Husband","steam_id":76561198101505695,"connected_time":1901000000000,"state":"active","ping":45},{"user_id":589,"name":"a 1930","steam_id":76561198320639814,"connected_time":936000000000,"state":"active","ping":84},{"user_id":596,"name":"Prez Pineapple","steam_id":76561198253755258,"connected_time":325000000000,"state":"active","ping":72},{"user_id":590,"name":"Compress Dong","steam_id":76561198018950826,"connected_time":823000000000,"state":"active","ping":45},{"user_id":599,"name":"nic","steam_id":76561198030654668,"connected_time":233000000000,"state":"active","ping":79},{"user_id":598,"name":"Torigan","steam_id":76561198058150064,"connected_time":310000000000,"state":"active","ping":92},{"user_id":593,"name":"Your Local Karen Hunter","steam_id":76561199469410668,"connected_time":673000000000,"state":"active","ping":242},{"user_id":594,"name":"Queso","steam_id":76561198081221384,"connected_time":605000000000,"state":"active","ping":70},{"user_id":600,"name":"℘ The King in Yellow","steam_id":76561198022262825,"connected_time":202000000000,"state":"active","ping":104},{"user_id":601,"name":"Nahvee","steam_id":76561198119759695,"connected_time":169000000000,"state":"active","ping":75},{"user_id":602,"name":"Active Aggression","steam_id":76561198066619792,"connected_time":160000000000,"state":"active","ping":70},{"user_id":608,"name":"black hair tan skin brain dead","steam_id":76561198102681457,"connected_time":66000000000,"state":"active","ping":117},{"user_id":604,"name":"Caster","steam_id":76561198131592341,"connected_time":134000000000,"state":"active","ping":70},{"user_id":605,"name":"starry","steam_id":76561198989740125,"connected_time":131000000000,"state":"active","ping":116},{"user_id":607,"name":"Yummy Kabobz","steam_id":76561198067661705,"connected_time":73000000000,"state":"active","ping":94},{"user_id":609,"name":"DANCINGWALKINGREARANGINGFURNITU","steam_id":76561198072563815,"connected_time":65000000000,"state":"active","ping":60}]},{"server_id":112,"name":"Uncletopia | Los Angeles | 2 | All Maps","name_short":"lax-2","host":"lax-1.us.uncletopia.com","port":27025,"enabled":true,"region":"us-west","cc":"us","latitude":33.94279,"longitude":-118.41004,"reserved":0,"last_update":"0001-01-01T00:00:00Z","name_a2s":"Uncletopia | Los Angeles | 2 | All Maps","protocol":17,"map":"koth_viaduct","folder":"tf","game":"Team Fortress","app_id":440,"player_count":24,"max_players":24,"Bots":0,"server_type":"Dedicated","server_os":"Linux","password":true,"vac":true,"version":"7932396","steam_id":85568392924469992,"keywords":["cp","nocrits","nodmgspread","uncletopia"],"game_id":440,"stv_port":27026,"stv_name":"Uncletopia | Los Angeles | 2 | All Maps | STV","players":[{"user_id":534,"name":"Antzen","steam_id":76561198041343470,"connected_time":2088000000000,"state":"active","ping":54},{"user_id":478,"name":"FaceLaces","steam_id":76561198194417725,"connected_time":4054000000000,"state":"active","ping":48},{"user_id":479,"name":"Locked in the bathroom","steam_id":76561198206394503,"connected_time":4026000000000,"state":"active","ping":84},{"user_id":535,"name":"wizard","steam_id":76561197974871380,"connected_time":2070000000000,"state":"active","ping":74},{"user_id":552,"name":"Rustyorion","steam_id":76561198439186347,"connected_time":440000000000,"state":"active","ping":70},{"user_id":544,"name":"eminixx","steam_id":76561198962857708,"connected_time":1471000000000,"state":"active","ping":103},{"user_id":529,"name":"zuna","steam_id":76561199038981515,"connected_time":3104000000000,"state":"active","ping":47},{"user_id":536,"name":"meowdy","steam_id":76561199371694361,"connected_time":2015000000000,"state":"active","ping":44},{"user_id":482,"name":"WildRose","steam_id":76561199198872694,"connected_time":3984000000000,"state":"active","ping":114},{"user_id":465,"name":"Jack1125","steam_id":76561198142745882,"connected_time":5440000000000,"state":"active","ping":65},{"user_id":545,"name":"MayaBon","steam_id":76561198797968261,"connected_time":1396000000000,"state":"active","ping":79},{"user_id":551,"name":"24 carat hamster","steam_id":76561198081238227,"connected_time":483000000000,"state":"active","ping":85},{"user_id":549,"name":"drrockso20[MicS]","steam_id":76561198001003987,"connected_time":712000000000,"state":"active","ping":56},{"user_id":541,"name":"skao","steam_id":76561198133360797,"connected_time":1819000000000,"state":"active","ping":55},{"user_id":547,"name":"Amazing476","steam_id":76561198103937489,"connected_time":1254000000000,"state":"active","ping":89},{"user_id":471,"name":"fitotutus","steam_id":76561197974993253,"connected_time":5115000000000,"state":"active","ping":126},{"user_id":538,"name":"ProKriby","steam_id":76561198057616221,"connected_time":1859000000000,"state":"active","ping":120},{"user_id":546,"name":"pt","steam_id":76561198143023330,"connected_time":1319000000000,"state":"active","ping":45},{"user_id":553,"name":"n64stillkiksass","steam_id":76561198051383850,"connected_time":13000000000,"state":"spawning","ping":44},{"user_id":548,"name":"hotguy6pack","steam_id":76561198881665250,"connected_time":982000000000,"state":"active","ping":74},{"user_id":542,"name":"SneekiCheekiQbone","steam_id":76561198045077980,"connected_time":1486000000000,"state":"active","ping":42},{"user_id":539,"name":"chocky","steam_id":76561198057491296,"connected_time":1847000000000,"state":"active","ping":62},{"user_id":468,"name":"PaletteCat","steam_id":76561198200449002,"connected_time":5418000000000,"state":"active","ping":66},{"user_id":472,"name":"MrRobbins","steam_id":76561199171169987,"connected_time":4999000000000,"state":"active","ping":125}]},{"server_id":324,"name":"Uncletopia | Los Angeles | 3 | All Maps","name_short":"lax-3","host":"lax-1.us.uncletopia.com","port":27035,"enabled":true,"region":"us-west","cc":"us","latitude":33.94279,"longitude":-118.41004,"reserved":0,"last_update":"0001-01-01T00:00:00Z","name_a2s":"Uncletopia | Los Angeles | 3 | All Maps","protocol":17,"map":"cp_mountainlab","folder":"tf","game":"Team Fortress","app_id":440,"player_count":0,"max_players":24,"Bots":0,"server_type":"Dedicated","server_os":"Linux","password":true,"vac":true,"version":"7932396","steam_id":85568392924510198,"keywords":["cp","nocrits","nodmgspread","uncletopia"],"game_id":440,"stv_port":27036,"stv_name":"Uncletopia | Los Angeles | 3 | All Maps | STV","players":null},{"server_id":25,"name":"Uncletopia | Los Angeles | 4 | Stopwatch Beta","name_short":"lax-4","host":"lax-1.us.uncletopia.com","port":27045,"enabled":true,"region":"us-west","cc":"us","latitude":33.94279,"longitude":-118.41004,"reserved":0,"last_update":"0001-01-01T00:00:00Z","name_a2s":"Uncletopia | Los Angeles | 4 | Stopwatch Beta","protocol":17,"map":"pl_swiftwater_final1","folder":"tf","game":"Team Fortress","app_id":440,"player_count":0,"max_players":24,"Bots":0,"server_type":"Dedicated","server_os":"Linux","password":true,"vac":true,"version":"7932396","steam_id":85568392924510199,"keywords":["nocrits","nodmgspread","payload","uncletopia"],"game_id":440,"stv_port":27046,"stv_name":"Uncletopia | Los Angeles | 4 | Stopwatch Beta | STV","players":null},{"server_id":11,"name":"Uncletopia | London | 1 | All Maps","name_short":"lon-1","host":"lon-1.uk.uncletopia.com","port":27015,"enabled":true,"region":"eu","cc":"gb","latitude":51.509865,"longitude":-0.118092,"reserved":0,"last_update":"0001-01-01T00:00:00Z","name_a2s":"Uncletopia | London | 1 | All Maps","protocol":17,"map":"koth_nucleus","folder":"tf","game":"Team Fortress","app_id":440,"player_count":4,"max_players":24,"Bots":0,"server_type":"Dedicated","server_os":"Linux","password":true,"vac":true,"version":"7932396","steam_id":85568392924367362,"keywords":["cp","nocrits","nodmgspread","uncletopia"],"game_id":440,"stv_port":27016,"stv_name":"Uncletopia | London | 1 | All Maps | STV","players":[{"user_id":7,"name":"snowycoast","steam_id":76561198346638308,"connected_time":1261000000000,"state":"active","ping":53},{"user_id":16,"name":"mentally disabled","steam_id":76561198163362186,"connected_time":111000000000,"state":"active","ping":190},{"user_id":13,"name":"TheFancy","steam_id":76561198967675289,"connected_time":323000000000,"state":"active","ping":141},{"user_id":15,"name":"[SSRB] Kiri","steam_id":76561198193983787,"connected_time":221000000000,"state":"active","ping":159}]},{"server_id":114,"name":"Uncletopia | London | 2 | All Maps","name_short":"lon-2","host":"lon-1.uk.uncletopia.com","port":27025,"enabled":true,"region":"eu","cc":"gb","latitude":51.509865,"longitude":-0.118092,"reserved":0,"last_update":"0001-01-01T00:00:00Z","name_a2s":"Uncletopia | London | 2 | All Maps","protocol":17,"map":"cp_dustbowl","folder":"tf","game":"Team Fortress","app_id":440,"player_count":0,"max_players":24,"Bots":0,"server_type":"Dedicated","server_os":"Linux","password":true,"vac":true,"version":"7932396","steam_id":85568392924470941,"keywords":["cp","nocrits","nodmgspread","uncletopia"],"game_id":440,"stv_port":27026,"stv_name":"Uncletopia | London | 2 | All Maps | STV","players":null},{"server_id":320,"name":"Uncletopia | London | 3 | All Maps","name_short":"lon-3","host":"lon-1.uk.uncletopia.com","port":27035,"enabled":true,"region":"eu","cc":"gb","latitude":51.509865,"longitude":-0.118092,"reserved":0,"last_update":"0001-01-01T00:00:00Z","name_a2s":"Uncletopia | London | 3 | All Maps","protocol":17,"map":"koth_highpass","folder":"tf","game":"Team Fortress","app_id":440,"player_count":0,"max_players":24,"Bots":0,"server_type":"Dedicated","server_os":"Linux","password":true,"vac":true,"version":"7932396","steam_id":85568392924510192,"keywords":["cp","nocrits","nodmgspread","uncletopia"],"game_id":440,"stv_port":27036,"stv_name":"Uncletopia | London | 3 | All Maps | STV","players":null},{"server_id":321,"name":"Uncletopia | London | 4 | All Maps","name_short":"lon-4","host":"lon-1.uk.uncletopia.com","port":27045,"enabled":true,"region":"eu","cc":"gb","latitude":51.509865,"longitude":-0.118092,"reserved":0,"last_update":"0001-01-01T00:00:00Z","name_a2s":"Uncletopia | London | 4 | All Maps","protocol":17,"map":"pl_snowycoast","folder":"tf","game":"Team Fortress","app_id":440,"player_count":0,"max_players":24,"Bots":0,"server_type":"Dedicated","server_os":"Linux","password":true,"vac":true,"version":"7932396","steam_id":85568392924510193,"keywords":["nocrits","nodmgspread","payload","uncletopia"],"game_id":440,"stv_port":27046,"stv_name":"Uncletopia | London | 4 | All Maps | STV","players":null},{"server_id":21,"name":"Uncletopia | London | 5 | All Maps","name_short":"lon-5","host":"lon-1.uk.uncletopia.com","port":27055,"enabled":true,"region":"eu","cc":"gb","latitude":51.509865,"longitude":-0.118092,"reserved":0,"last_update":"0001-01-01T00:00:00Z","name_a2s":"Uncletopia | London | 5 | All Maps","protocol":17,"map":"cp_altitude","folder":"tf","game":"Team Fortress","app_id":440,"player_count":0,"max_players":24,"Bots":0,"server_type":"Dedicated","server_os":"Linux","password":true,"vac":true,"version":"7932396","steam_id":85568392924742829,"keywords":["cp","nocrits","nodmgspread","uncletopia"],"game_id":440,"stv_port":27056,"stv_name":"Uncletopia | London | 5 | All Maps | STV","players":null},{"server_id":22,"name":"Uncletopia | London | 6 | All Maps","name_short":"lon-6","host":"lon-1.uk.uncletopia.com","port":27065,"enabled":true,"region":"eu","cc":"gb","latitude":51.509865,"longitude":-0.118092,"reserved":0,"last_update":"0001-01-01T00:00:00Z","name_a2s":"Uncletopia | London | 6 | All Maps","protocol":17,"map":"cp_mountainlab","folder":"tf","game":"Team Fortress","app_id":440,"player_count":0,"max_players":24,"Bots":0,"server_type":"Dedicated","server_os":"Linux","password":true,"vac":true,"version":"7932396","steam_id":85568392924742830,"keywords":["cp","nocrits","nodmgspread","uncletopia"],"game_id":440,"stv_port":27066,"stv_name":"Uncletopia | London | 6 | All Maps | STV","players":null},{"server_id":40,"name":"Uncletopia | London | 7 | No Payload","name_short":"lon-7","host":"lon-1.uk.uncletopia.com","port":27075,"enabled":true,"region":"eu","cc":"gb","latitude":51.509865,"longitude":-0.118092,"reserved":0,"last_update":"0001-01-01T00:00:00Z","name_a2s":"Uncletopia | London | 7 | No Payload","protocol":17,"map":"koth_cascade","folder":"tf","game":"Team Fortress","app_id":440,"player_count":0,"max_players":24,"Bots":0,"server_type":"Dedicated","server_os":"Linux","password":true,"vac":true,"version":"7932396","steam_id":85568392924964314,"keywords":["cp","nocrits","nodmgspread","uncletopia"],"game_id":440,"stv_port":27076,"stv_name":"Uncletopia | London | 7 | No Payload | STV","players":null},{"server_id":41,"name":"Uncletopia | London | 8 | Community","name_short":"lon-8","host":"lon-1.uk.uncletopia.com","port":27085,"enabled":true,"region":"eu","cc":"gb","latitude":51.509865,"longitude":-0.118092,"reserved":0,"last_update":"0001-01-01T00:00:00Z","name_a2s":"Uncletopia | London | 8 | Community","protocol":17,"map":"cp_process_final","folder":"tf","game":"Team Fortress","app_id":440,"player_count":0,"max_players":24,"Bots":0,"server_type":"Dedicated","server_os":"Linux","password":true,"vac":true,"version":"7932396","steam_id":85568392924964315,"keywords":["cp","nocrits","nodmgspread","uncletopia"],"game_id":440,"stv_port":27086,"stv_name":"Uncletopia | London | 8 | Community | STV","players":null},{"server_id":300,"name":"Uncletopia | Montréal | 1 | All Maps","name_short":"mtl-1","host":"mtl-1.ca.uncletopia.com","port":27015,"enabled":true,"region":"us-east","cc":"ca","latitude":45.50889,"longitude":-73.56167,"reserved":0,"last_update":"0001-01-01T00:00:00Z","name_a2s":"Uncletopia | Montréal | 1 | All Maps","protocol":17,"map":"pl_upward","folder":"tf","game":"Team Fortress","app_id":440,"player_count":0,"max_players":24,"Bots":0,"server_type":"Dedicated","server_os":"Linux","password":true,"vac":true,"version":"7932396","steam_id":85568392924500087,"keywords":["nocrits","nodmgspread","payload","uncletopia"],"game_id":440,"stv_port":27016,"stv_name":"Uncletopia | Montréal | 1 | All Maps | STV","players":null},{"server_id":301,"name":"Uncletopia | Montréal | 2 | All Maps","name_short":"mtl-2","host":"mtl-1.ca.uncletopia.com","port":27025,"enabled":true,"region":"us-east","cc":"ca","latitude":45.50889,"longitude":-73.56167,"reserved":0,"last_update":"0001-01-01T00:00:00Z","name_a2s":"Uncletopia | Montréal | 2 | All Maps","protocol":17,"map":"koth_highpass","folder":"tf","game":"Team Fortress","app_id":440,"player_count":0,"max_players":24,"Bots":0,"server_type":"Dedicated","server_os":"Linux","password":true,"vac":true,"version":"7932396","steam_id":85568392924500088,"keywords":["cp","nocrits","nodmgspread","uncletopia"],"game_id":440,"stv_port":27026,"stv_name":"Uncletopia | Montréal | 2 | All Maps | STV","players":null},{"server_id":302,"name":"Uncletopia | Montréal | 3 | All Maps","name_short":"mtl-3","host":"mtl-1.ca.uncletopia.com","port":27035,"enabled":true,"region":"us-east","cc":"ca","latitude":45.50889,"longitude":-73.56167,"reserved":0,"last_update":"0001-01-01T00:00:00Z","name_a2s":"Uncletopia | Montréal | 3 | All Maps","protocol":17,"map":"koth_lakeside_final","folder":"tf","game":"Team Fortress","app_id":440,"player_count":0,"max_players":24,"Bots":0,"server_type":"Dedicated","server_os":"Linux","password":true,"vac":true,"version":"7932396","steam_id":85568392924500089,"keywords":["cp","nocrits","nodmgspread","uncletopia"],"game_id":440,"stv_port":27036,"stv_name":"Uncletopia | Montréal | 3 | All Maps | STV","players":null},{"server_id":303,"name":"Uncletopia | Montréal | 4 | No Payload","name_short":"mtl-4","host":"mtl-1.ca.uncletopia.com","port":27045,"enabled":true,"region":"us-east","cc":"ca","latitude":45.50889,"longitude":-73.56167,"reserved":0,"last_update":"0001-01-01T00:00:00Z","name_a2s":"Uncletopia | Montréal | 4 | No Payload","protocol":17,"map":"cp_gullywash_final1","folder":"tf","game":"Team Fortress","app_id":440,"player_count":0,"max_players":24,"Bots":0,"server_type":"Dedicated","server_os":"Linux","password":true,"vac":true,"version":"7932396","steam_id":85568392924500090,"keywords":["cp","nocrits","nodmgspread","uncletopia"],"game_id":440,"stv_port":27046,"stv_name":"Uncletopia | Montréal | 4 | No Payload | STV","players":null},{"server_id":13,"name":"Uncletopia | New York City | 1 | All Maps","name_short":"nyc-1","host":"nyc-1.us.uncletopia.com","port":27015,"enabled":true,"region":"us-east","cc":"us","latitude":40.73061,"longitude":-73.93524,"reserved":0,"last_update":"0001-01-01T00:00:00Z","name_a2s":"Uncletopia | New York City | 1 | All Maps","protocol":17,"map":"koth_lakeside_final","folder":"tf","game":"Team Fortress","app_id":440,"player_count":3,"max_players":24,"Bots":0,"server_type":"Dedicated","server_os":"Linux","password":true,"vac":true,"version":"7932396","steam_id":85568392924469993,"keywords":["cp","nocrits","nodmgspread","uncletopia"],"game_id":440,"stv_port":27016,"stv_name":"Uncletopia | New York City | 1 | All Maps | STV","players":[{"user_id":466,"name":"qq","steam_id":76561198060942750,"connected_time":299000000000,"state":"active","ping":85},{"user_id":467,"name":"dismal","steam_id":76561198084763105,"connected_time":88000000000,"state":"active","ping":74},{"user_id":453,"name":"Soz","steam_id":76561198111352064,"connected_time":3102000000000,"state":"active","ping":74}]},{"server_id":14,"name":"Uncletopia | New York City | 2 | All Maps","name_short":"nyc-2","host":"nyc-1.us.uncletopia.com","port":27025,"enabled":true,"region":"us-east","cc":"us","latitude":40.73061,"longitude":-73.93524,"reserved":0,"last_update":"0001-01-01T00:00:00Z","name_a2s":"Uncletopia | New York City | 2 | All Maps","protocol":17,"map":"cp_snakewater_final1","folder":"tf","game":"Team Fortress","app_id":440,"player_count":0,"max_players":24,"Bots":0,"server_type":"Dedicated","server_os":"Linux","password":true,"vac":true,"version":"7932396","steam_id":85568392924469994,"keywords":["cp","nocrits","nodmgspread","uncletopia"],"game_id":440,"stv_port":27026,"stv_name":"Uncletopia | New York City | 2 | All Maps | STV","players":null},{"server_id":15,"name":"Uncletopia | New York City | 3 | Stopwatch Beta","name_short":"nyc-3","host":"nyc-1.us.uncletopia.com","port":27035,"enabled":true,"region":"us-east","cc":"us","latitude":40.73061,"longitude":-73.93524,"reserved":0,"last_update":"0001-01-01T00:00:00Z","name_a2s":"Uncletopia | New York City | 3 | Stopwatch Beta","protocol":17,"map":"workshop/koth_product_final.ugc454272353","folder":"tf","game":"Team Fortress","app_id":440,"player_count":0,"max_players":24,"Bots":0,"server_type":"Dedicated","server_os":"Linux","password":true,"vac":true,"version":"7932396","steam_id":85568392924742820,"keywords":["cp","nocrits","nodmgspread","uncletopia"],"game_id":440,"stv_port":27036,"stv_name":"Uncletopia | New York City | 3 | Stopwatch Beta | STV","players":null},{"server_id":16,"name":"Uncletopia | New York City | 4 | Community","name_short":"nyc-4","host":"nyc-1.us.uncletopia.com","port":27045,"enabled":true,"region":"us-east","cc":"us","latitude":40.73061,"longitude":-73.93524,"reserved":0,"last_update":"0001-01-01T00:00:00Z","name_a2s":"Uncletopia | New York City | 4 | Community","protocol":17,"map":"workshop/pl_emerge_rc2.ugc888027758","folder":"tf","game":"Team Fortress","app_id":440,"player_count":0,"max_players":24,"Bots":0,"server_type":"Dedicated","server_os":"Linux","password":true,"vac":true,"version":"7932396","steam_id":85568392924742821,"keywords":["nocrits","nodmgspread","payload","uncletopia"],"game_id":440,"stv_port":27046,"stv_name":"Uncletopia | New York City | 4 | Community | STV","players":null},{"server_id":142,"name":"Uncletopia | São Paulo | 1 | All Maps","name_short":"sao-1","host":"sao-1.br.uncletopia.com","port":27015,"enabled":true,"region":"sa","cc":"br","latitude":-23.533773,"longitude":-46.62529,"reserved":0,"last_update":"0001-01-01T00:00:00Z","name_a2s":"Uncletopia | São Paulo | 1 | All Maps","protocol":17,"map":"koth_lakeside_final","folder":"tf","game":"Team Fortress","app_id":440,"player_count":0,"max_players":24,"Bots":0,"server_type":"Dedicated","server_os":"Linux","password":true,"vac":true,"version":"7932396","steam_id":85568392924469996,"keywords":["cp","nocrits","nodmgspread","uncletopia"],"game_id":440,"stv_port":27016,"stv_name":"Uncletopia | São Paulo | 1 | All Maps | STV","players":null},{"server_id":143,"name":"Uncletopia | São Paulo | 2 | All Maps","name_short":"sao-2","host":"sao-2.br.uncletopia.com","port":27015,"enabled":true,"region":"sa","cc":"br","latitude":-23.533773,"longitude":-46.62529,"reserved":0,"last_update":"0001-01-01T00:00:00Z","name_a2s":"Uncletopia | São Paulo | 2 | All Maps","protocol":17,"map":"plr_nightfall_final","folder":"tf","game":"Team Fortress","app_id":440,"player_count":0,"max_players":24,"Bots":0,"server_type":"Dedicated","server_os":"Linux","password":true,"vac":true,"version":"7932396","steam_id":85568392924485349,"keywords":["nocrits","nodmgspread","payload","uncletopia"],"game_id":440,"stv_port":27016,"stv_name":"Uncletopia | São Paulo | 2 | All Maps | STV","players":null},{"server_id":7,"name":"Uncletopia | Seattle | 1 | All Maps","name_short":"sea-1","host":"sea-1.us.uncletopia.com","port":27015,"enabled":true,"region":"us-west","cc":"us","latitude":47.608013,"longitude":-122.33517,"reserved":0,"last_update":"0001-01-01T00:00:00Z","name_a2s":"Uncletopia | Seattle | 1 | All Maps","protocol":17,"map":"pl_swiftwater_final1","folder":"tf","game":"Team Fortress","app_id":440,"player_count":22,"max_players":24,"Bots":0,"server_type":"Dedicated","server_os":"Linux","password":true,"vac":true,"version":"7932396","steam_id":85568392924469997,"keywords":["nocrits","nodmgspread","payload","uncletopia"],"game_id":440,"stv_port":27016,"stv_name":"Uncletopia | Seattle | 1 | All Maps | STV","players":[{"user_id":568,"name":"The Horselords and Animal Gods","steam_id":76561197975094050,"connected_time":471000000000,"state":"active","ping":83},{"user_id":564,"name":"Thotyana","steam_id":76561198078984982,"connected_time":521000000000,"state":"active","ping":89},{"user_id":567,"name":"resh","steam_id":76561198239598834,"connected_time":484000000000,"state":"active","ping":131},{"user_id":518,"name":"Stolas","steam_id":76561199207776727,"connected_time":3913000000000,"state":"active","ping":58},{"user_id":526,"name":"rat gets the cheese","steam_id":76561198031234032,"connected_time":2790000000000,"state":"active","ping":94},{"user_id":563,"name":"zeal","steam_id":76561198088665810,"connected_time":529000000000,"state":"active","ping":62},{"user_id":539,"name":"s","steam_id":76561198149443710,"connected_time":1689000000000,"state":"active","ping":88},{"user_id":570,"name":"Faerun_F","steam_id":76561198443906094,"connected_time":230000000000,"state":"active","ping":107},{"user_id":483,"name":"delight","steam_id":76561197980280272,"connected_time":7462000000000,"state":"active","ping":47},{"user_id":571,"name":"Hurtgeta","steam_id":76561198208381812,"connected_time":42000000000,"state":"active","ping":49},{"user_id":542,"name":"SHADOW WIZARD MONEY GANG","steam_id":76561198028612613,"connected_time":1548000000000,"state":"active","ping":45},{"user_id":557,"name":"Distraction","steam_id":76561199445895882,"connected_time":552000000000,"state":"active","ping":100},{"user_id":548,"name":"Col. RizzCheese","steam_id":76561198269459945,"connected_time":1389000000000,"state":"active","ping":52},{"user_id":409,"name":"oil","steam_id":76561198099980149,"connected_time":13799000000000,"state":"active","ping":76},{"user_id":544,"name":"BIG HOG","steam_id":76561198079923652,"connected_time":1507000000000,"state":"active","ping":104},{"user_id":565,"name":"dunkin'","steam_id":76561198066114874,"connected_time":506000000000,"state":"active","ping":59},{"user_id":554,"name":"Mozz","steam_id":76561198132892873,"connected_time":1259000000000,"state":"active","ping":99},{"user_id":558,"name":"rorywashere /ᐠ - ˕ -マ Ⳋ","steam_id":76561198065825165,"connected_time":550000000000,"state":"active","ping":113},{"user_id":550,"name":"Smeagolhoss","steam_id":76561198361514063,"connected_time":1321000000000,"state":"active","ping":91},{"user_id":551,"name":"We believe in you!","steam_id":76561198219252313,"connected_time":1292000000000,"state":"active","ping":120},{"user_id":559,"name":"Hypoxia","steam_id":76561198087831234,"connected_time":549000000000,"state":"active","ping":57},{"user_id":555,"name":"Chin","steam_id":76561198141225199,"connected_time":1259000000000,"state":"active","ping":50}]},{"server_id":119,"name":"Uncletopia | Seattle | 2 | All Maps","name_short":"sea-2","host":"sea-1.us.uncletopia.com","port":27025,"enabled":true,"region":"us-west","cc":"us","latitude":47.608013,"longitude":-122.33517,"reserved":0,"last_update":"0001-01-01T00:00:00Z","name_a2s":"Uncletopia | Seattle | 2 | All Maps","protocol":17,"map":"koth_lakeside_final","folder":"tf","game":"Team Fortress","app_id":440,"player_count":0,"max_players":24,"Bots":0,"server_type":"Dedicated","server_os":"Linux","password":true,"vac":true,"version":"7932396","steam_id":85568392924469998,"keywords":["cp","nocrits","nodmgspread","uncletopia"],"game_id":440,"stv_port":27026,"stv_name":"Uncletopia | Seattle | 2 | All Maps | STV","players":null},{"server_id":406,"name":"Uncletopia | Seattle | 3 | Stopwatch Beta","name_short":"sea-3","host":"sea-1.us.uncletopia.com","port":27035,"enabled":true,"region":"us-west","cc":"us","latitude":47.608013,"longitude":-122.33517,"reserved":0,"last_update":"0001-01-01T00:00:00Z","name_a2s":"Uncletopia | Seattle | 3 | Stopwatch Beta","protocol":17,"map":"workshop/koth_clearcut_b15.ugc2107050255","folder":"tf","game":"Team Fortress","app_id":440,"player_count":0,"max_players":24,"Bots":0,"server_type":"Dedicated","server_os":"Linux","password":true,"vac":true,"version":"7932396","steam_id":85568392924515217,"keywords":["cp","nocrits","nodmgspread","uncletopia"],"game_id":440,"stv_port":27036,"stv_name":"Uncletopia | Seattle | 3 | Stopwatch Beta | STV","players":null},{"server_id":17,"name":"Uncletopia | San Francisco | 1 | All Maps","name_short":"sfo-1","host":"sfo-1.us.uncletopia.com","port":27015,"enabled":true,"region":"us-west","cc":"us","latitude":37.77397,"longitude":-122.4313,"reserved":0,"last_update":"0001-01-01T00:00:00Z","name_a2s":"Uncletopia | San Francisco | 1 | All Maps","protocol":17,"map":"pl_swiftwater_final1","folder":"tf","game":"Team Fortress","app_id":440,"player_count":0,"max_players":24,"Bots":0,"server_type":"Dedicated","server_os":"Linux","password":true,"vac":true,"version":"7932396","steam_id":85568392924469999,"keywords":["nocrits","nodmgspread","payload","uncletopia"],"game_id":440,"stv_port":27016,"stv_name":"Uncletopia | San Francisco | 1 | All Maps | STV","players":null},{"server_id":18,"name":"Uncletopia | San Francisco | 2 | All Maps","name_short":"sfo-2","host":"sfo-1.us.uncletopia.com","port":27025,"enabled":true,"region":"us-west","cc":"us","latitude":37.77397,"longitude":-122.4313,"reserved":0,"last_update":"0001-01-01T00:00:00Z","name_a2s":"Uncletopia | San Francisco | 2 | All Maps","protocol":17,"map":"pl_upward","folder":"tf","game":"Team Fortress","app_id":440,"player_count":24,"max_players":24,"Bots":0,"server_type":"Dedicated","server_os":"Linux","password":true,"vac":true,"version":"7932396","steam_id":85568392924470000,"keywords":["nocrits","nodmgspread","payload","uncletopia"],"game_id":440,"stv_port":27026,"stv_name":"Uncletopia | San Francisco | 2 | All Maps | STV","players":[{"user_id":310,"name":"Acolyte of Goatse","steam_id":76561198046526036,"connected_time":1440000000000,"state":"active","ping":54},{"user_id":294,"name":"Paul Gaming","steam_id":76561198065538229,"connected_time":2495000000000,"state":"active","ping":62},{"user_id":255,"name":"naturia","steam_id":76561198092317849,"connected_time":7191000000000,"state":"active","ping":56},{"user_id":263,"name":"-_-","steam_id":76561198048754646,"connected_time":6596000000000,"state":"active","ping":56},{"user_id":281,"name":"Buffalo Gold","steam_id":76561198119693806,"connected_time":4331000000000,"state":"active","ping":60},{"user_id":283,"name":"Bugs Bunny Cholo","steam_id":76561198918374700,"connected_time":4261000000000,"state":"active","ping":57},{"user_id":306,"name":"DarkForce8","steam_id":76561198853892261,"connected_time":2106000000000,"state":"active","ping":65},{"user_id":320,"name":"00","steam_id":76561198041700636,"connected_time":70000000000,"state":"active","ping":45},{"user_id":312,"name":"C∅RVUS","steam_id":76561198100640019,"connected_time":1352000000000,"state":"active","ping":72},{"user_id":285,"name":"CARCASS","steam_id":76561198155262483,"connected_time":4049000000000,"state":"active","ping":81},{"user_id":319,"name":"Night of the Living Boobs™","steam_id":76561198086447265,"connected_time":774000000000,"state":"active","ping":61},{"user_id":299,"name":"HIDEN","steam_id":76561199024853268,"connected_time":2192000000000,"state":"active","ping":93},{"user_id":309,"name":"Mr. Carfox","steam_id":76561198041664428,"connected_time":1922000000000,"state":"active","ping":60},{"user_id":257,"name":"Zion Chavez","steam_id":76561198178536999,"connected_time":7166000000000,"state":"active","ping":58},{"user_id":301,"name":"ThePlagueDucktor","steam_id":76561198155884968,"connected_time":2186000000000,"state":"active","ping":136},{"user_id":318,"name":"chief bongo","steam_id":76561198069229523,"connected_time":1196000000000,"state":"active","ping":70},{"user_id":304,"name":"Fajita Master","steam_id":76561198329150962,"connected_time":2156000000000,"state":"active","ping":83},{"user_id":314,"name":"No Dwarf Left Behind","steam_id":76561199011894606,"connected_time":1289000000000,"state":"active","ping":61},{"user_id":288,"name":"UsefulNevada01","steam_id":76561198391885431,"connected_time":3965000000000,"state":"active","ping":79},{"user_id":302,"name":"Saucy Boy","steam_id":76561198178332031,"connected_time":2181000000000,"state":"active","ping":105},{"user_id":303,"name":"Alex Narex","steam_id":76561198814364412,"connected_time":2178000000000,"state":"active","ping":56},{"user_id":315,"name":"badas smoking camol","steam_id":76561198043732416,"connected_time":1285000000000,"state":"active","ping":96},{"user_id":307,"name":"genuine reaction","steam_id":76561199007703661,"connected_time":2102000000000,"state":"active","ping":99},{"user_id":317,"name":"K4le","steam_id":76561198747668363,"connected_time":1271000000000,"state":"active","ping":62}]},{"server_id":19,"name":"Uncletopia | San Francisco | 3 | Stopwatch Beta","name_short":"sfo-3","host":"sfo-1.us.uncletopia.com","port":27035,"enabled":true,"region":"us-west","cc":"us","latitude":37.77397,"longitude":-122.4313,"reserved":0,"last_update":"0001-01-01T00:00:00Z","name_a2s":"Uncletopia | San Francisco | 3 | Stopwatch Beta","protocol":17,"map":"koth_highpass","folder":"tf","game":"Team Fortress","app_id":440,"player_count":0,"max_players":24,"Bots":0,"server_type":"Dedicated","server_os":"Linux","password":true,"vac":true,"version":"7932396","steam_id":85568392924742824,"keywords":["cp","nocrits","nodmgspread","uncletopia"],"game_id":440,"stv_port":27036,"stv_name":"Uncletopia | San Francisco | 3 | Stopwatch Beta | STV","players":null},{"server_id":20,"name":"Uncletopia | San Francisco | 4 | Community","name_short":"sfo-4","host":"sfo-1.us.uncletopia.com","port":27045,"enabled":true,"region":"us-west","cc":"us","latitude":37.77397,"longitude":-122.4313,"reserved":0,"last_update":"0001-01-01T00:00:00Z","name_a2s":"Uncletopia | San Francisco | 4 | Community","protocol":17,"map":"workshop/koth_slaughter_rc1.ugc1712845210","folder":"tf","game":"Team Fortress","app_id":440,"player_count":0,"max_players":24,"Bots":0,"server_type":"Dedicated","server_os":"Linux","password":true,"vac":true,"version":"7932396","steam_id":85568392924742826,"keywords":["cp","nocrits","nodmgspread","uncletopia"],"game_id":440,"stv_port":27046,"stv_name":"Uncletopia | San Francisco | 4 | Community | STV","players":null},{"server_id":141,"name":"Uncletopia | Sydney | 1 | All Maps","name_short":"syd-1","host":"syd-1.au.uncletopia.com","port":27015,"enabled":true,"region":"au","cc":"au","latitude":-33.865143,"longitude":151.2099,"reserved":0,"last_update":"0001-01-01T00:00:00Z","name_a2s":"Uncletopia | Sydney | 1 | All Maps","protocol":17,"map":"pl_goldrush","folder":"tf","game":"Team Fortress","app_id":440,"player_count":19,"max_players":24,"Bots":0,"server_type":"Dedicated","server_os":"Linux","password":true,"vac":true,"version":"7932396","steam_id":85568392924470001,"keywords":["nocrits","nodmgspread","payload","uncletopia"],"game_id":440,"stv_port":27016,"stv_name":"Uncletopia | Sydney | 1 | All Maps | STV","players":[{"user_id":210,"name":"Jodelkönig Franzl Lang","steam_id":76561198007667830,"connected_time":7340000000000,"state":"active","ping":53},{"user_id":315,"name":"R","steam_id":76561197996963023,"connected_time":97000000000,"state":"active","ping":77},{"user_id":254,"name":"Madallar","steam_id":76561198379635302,"connected_time":4064000000000,"state":"active","ping":87},{"user_id":317,"name":"Sexy Turtle","steam_id":76561198256865969,"connected_time":37000000000,"state":"active","ping":45},{"user_id":314,"name":"fart slave","steam_id":76561198945045514,"connected_time":119000000000,"state":"active","ping":41},{"user_id":308,"name":"Mr Doctor","steam_id":76561198081415999,"connected_time":319000000000,"state":"active","ping":60},{"user_id":318,"name":"Yeat","steam_id":76561198202555552,"connected_time":9000000000,"state":"spawning","ping":85},{"user_id":273,"name":"Marzell","steam_id":76561198151276153,"connected_time":2607000000000,"state":"active","ping":93},{"user_id":291,"name":"Gnat","steam_id":76561198109747863,"connected_time":1588000000000,"state":"active","ping":101},{"user_id":312,"name":"Cyan","steam_id":76561199123867057,"connected_time":169000000000,"state":"active","ping":54},{"user_id":295,"name":"cjconstantine73","steam_id":76561198848953291,"connected_time":1389000000000,"state":"active","ping":54},{"user_id":300,"name":"NSWAS","steam_id":76561199055877233,"connected_time":1003000000000,"state":"active","ping":66},{"user_id":307,"name":"go! mango mango","steam_id":76561198069941287,"connected_time":374000000000,"state":"active","ping":94},{"user_id":171,"name":"infernoraz","steam_id":76561198117582261,"connected_time":10103000000000,"state":"active","ping":45},{"user_id":305,"name":"Fyre Rose","steam_id":76561198000527551,"connected_time":758000000000,"state":"active","ping":92},{"user_id":286,"name":"Das Ist Scheisse","steam_id":76561198886094239,"connected_time":1965000000000,"state":"active","ping":54},{"user_id":297,"name":"Hawk","steam_id":76561198135164277,"connected_time":1224000000000,"state":"active","ping":58},{"user_id":294,"name":"bleed for me","steam_id":76561198016686295,"connected_time":1465000000000,"state":"active","ping":71},{"user_id":287,"name":"uven","steam_id":76561198080981482,"connected_time":1745000000000,"state":"active","ping":35}]},{"server_id":123,"name":"Uncletopia | Sydney | 2 | All Maps","name_short":"syd-2","host":"syd-1.au.uncletopia.com","port":27025,"enabled":true,"region":"au","cc":"au","latitude":-33.865143,"longitude":151.2099,"reserved":0,"last_update":"0001-01-01T00:00:00Z","name_a2s":"Uncletopia | Sydney | 2 | All Maps","protocol":17,"map":"koth_highpass","folder":"tf","game":"Team Fortress","app_id":440,"player_count":8,"max_players":24,"Bots":0,"server_type":"Dedicated","server_os":"Linux","password":true,"vac":true,"version":"7932396","steam_id":85568392924470002,"keywords":["cp","nocrits","nodmgspread","uncletopia"],"game_id":440,"stv_port":27026,"stv_name":"Uncletopia | Sydney | 2 | All Maps | STV","players":[{"user_id":30,"name":"B3LL0W","steam_id":76561198124559298,"connected_time":125000000000,"state":"active","ping":77},{"user_id":31,"name":"lugig","steam_id":76561198264839805,"connected_time":108000000000,"state":"active","ping":59},{"user_id":32,"name":"Mario","steam_id":76561198828095685,"connected_time":94000000000,"state":"active","ping":60},{"user_id":29,"name":"blaze","steam_id":76561198241303512,"connected_time":397000000000,"state":"active","ping":54},{"user_id":33,"name":"covenofbats","steam_id":76561198152117315,"connected_time":77000000000,"state":"active","ping":37},{"user_id":22,"name":"NotKomori","steam_id":76561198845165975,"connected_time":1191000000000,"state":"active","ping":174},{"user_id":24,"name":"TheInfiniteK","steam_id":76561198353173330,"connected_time":1167000000000,"state":"active","ping":83},{"user_id":27,"name":"sweet","steam_id":76561198075311236,"connected_time":557000000000,"state":"active","ping":41}]},{"server_id":395,"name":"Uncletopia | Sydney | 3 | All Maps","name_short":"syd-3","host":"syd-1.au.uncletopia.com","port":27035,"enabled":true,"region":"au","cc":"au","latitude":-33.865143,"longitude":151.2099,"reserved":0,"last_update":"0001-01-01T00:00:00Z","name_a2s":"Uncletopia | Sydney | 3 | All Maps","protocol":17,"map":"koth_lakeside_final","folder":"tf","game":"Team Fortress","app_id":440,"player_count":0,"max_players":24,"Bots":0,"server_type":"Dedicated","server_os":"Linux","password":true,"vac":true,"version":"7932396","steam_id":85568392925194467,"keywords":["cp","nocrits","nodmgspread","uncletopia"],"game_id":440,"stv_port":27036,"stv_name":"Uncletopia | Sydney | 3 | All Maps | STV","players":null},{"server_id":396,"name":"Uncletopia | Sydney | 4 | All Maps","name_short":"syd-4","host":"syd-1.au.uncletopia.com","port":27045,"enabled":true,"region":"au","cc":"au","latitude":-33.865143,"longitude":151.2099,"reserved":0,"last_update":"0001-01-01T00:00:00Z","name_a2s":"Uncletopia | Sydney | 4 | All Maps","protocol":17,"map":"pl_pier","folder":"tf","game":"Team Fortress","app_id":440,"player_count":0,"max_players":24,"Bots":0,"server_type":"Dedicated","server_os":"Linux","password":true,"vac":true,"version":"7932396","steam_id":85568392925397958,"keywords":["nocrits","nodmgspread","payload","uncletopia"],"game_id":440,"stv_port":27046,"stv_name":"Uncletopia | Sydney | 4 | All Maps | STV","players":null},{"server_id":58,"name":"Uncletopia | Sydney | 5 | Stopwatch Beta","name_short":"syd-5","host":"syd-1.au.uncletopia.com","port":27055,"enabled":true,"region":"au","cc":"au","latitude":-33.865143,"longitude":151.2099,"reserved":0,"last_update":"0001-01-01T00:00:00Z","name_a2s":"Uncletopia | Sydney | 5 | Stopwatch Beta","protocol":17,"map":"pl_pier","folder":"tf","game":"Team Fortress","app_id":440,"player_count":0,"max_players":24,"Bots":0,"server_type":"Dedicated","server_os":"Linux","password":true,"vac":true,"version":"7932396","steam_id":85568392925397959,"keywords":["nocrits","nodmgspread","payload","uncletopia"],"game_id":440,"stv_port":27056,"stv_name":"Uncletopia | Sydney | 5 | Stopwatch Beta | STV","players":null},{"server_id":59,"name":"Uncletopia | Sydney | 6 | Community","name_short":"syd-6","host":"syd-1.au.uncletopia.com","port":27065,"enabled":true,"region":"au","cc":"au","latitude":-33.865143,"longitude":151.2099,"reserved":0,"last_update":"0001-01-01T00:00:00Z","name_a2s":"Uncletopia | Sydney | 6 | Community","protocol":17,"map":"pl_frontier_final","folder":"tf","game":"Team Fortress","app_id":440,"player_count":0,"max_players":24,"Bots":0,"server_type":"Dedicated","server_os":"Linux","password":true,"vac":true,"version":"7932396","steam_id":85568392925397960,"keywords":["nocrits","nodmgspread","payload","uncletopia"],"game_id":440,"stv_port":27066,"stv_name":"Uncletopia | Sydney | 6 | Community | STV","players":null},{"server_id":49,"name":"Uncletopia | Warsaw | 1 | All Maps","name_short":"waw-1","host":"waw-1.pl.uncletopia.com","port":27015,"enabled":true,"region":"eu","cc":"pl","latitude":52.2297,"longitude":21.017532,"reserved":0,"last_update":"0001-01-01T00:00:00Z","name_a2s":"","protocol":0,"map":"","folder":"","game":"","app_id":0,"player_count":0,"max_players":0,"Bots":0,"server_type":"","server_os":"","password":false,"vac":false,"version":"","steam_id":0,"keywords":null,"game_id":0,"stv_port":0,"stv_name":"","players":null},{"server_id":50,"name":"Uncletopia | Warsaw | 2 | All Maps","name_short":"waw-2","host":"waw-1.pl.uncletopia.com","port":27025,"enabled":true,"region":"eu","cc":"pl","latitude":52.2297,"longitude":21.017532,"reserved":0,"last_update":"0001-01-01T00:00:00Z","name_a2s":"Uncletopia | Warsaw | 2 | All Maps","protocol":17,"map":"koth_highpass","folder":"tf","game":"Team Fortress","app_id":440,"player_count":0,"max_players":24,"Bots":0,"server_type":"Dedicated","server_os":"Linux","password":true,"vac":true,"version":"7932396","steam_id":85568392925397851,"keywords":["cp","nocrits","nodmgspread","uncletopia"],"game_id":440,"stv_port":27026,"stv_name":"Uncletopia | Warsaw | 2 | All Maps | STV","players":null},{"server_id":51,"name":"Uncletopia | Warsaw | 3 | All Maps","name_short":"waw-3","host":"waw-1.pl.uncletopia.com","port":27035,"enabled":true,"region":"eu","cc":"pl","latitude":52.2297,"longitude":21.017532,"reserved":0,"last_update":"0001-01-01T00:00:00Z","name_a2s":"Uncletopia | Warsaw | 3 | All Maps","protocol":17,"map":"pl_badwater","folder":"tf","game":"Team Fortress","app_id":440,"player_count":0,"max_players":24,"Bots":0,"server_type":"Dedicated","server_os":"Linux","password":true,"vac":true,"version":"7932396","steam_id":85568392925397852,"keywords":["nocrits","nodmgspread","payload","uncletopia"],"game_id":440,"stv_port":27036,"stv_name":"Uncletopia | Warsaw | 3 | All Maps | STV","players":null},{"server_id":52,"name":"Uncletopia | Warsaw | 4 | All Maps","name_short":"waw-4","host":"waw-1.pl.uncletopia.com","port":27045,"enabled":true,"region":"eu","cc":"pl","latitude":52.2297,"longitude":21.017532,"reserved":0,"last_update":"0001-01-01T00:00:00Z","name_a2s":"Uncletopia | Warsaw | 4 | All Maps","protocol":17,"map":"koth_cascade","folder":"tf","game":"Team Fortress","app_id":440,"player_count":0,"max_players":24,"Bots":0,"server_type":"Dedicated","server_os":"Linux","password":true,"vac":true,"version":"7932396","steam_id":85568392925397853,"keywords":["cp","nocrits","nodmgspread","uncletopia"],"game_id":440,"stv_port":27046,"stv_name":"Uncletopia | Warsaw | 4 | All Maps | STV","players":null},{"server_id":53,"name":"Uncletopia | Warsaw | 5 | Stopwatch Beta","name_short":"waw-5","host":"waw-1.pl.uncletopia.com","port":27055,"enabled":true,"region":"eu","cc":"pl","latitude":52.2297,"longitude":21.017532,"reserved":0,"last_update":"0001-01-01T00:00:00Z","name_a2s":"Uncletopia | Warsaw | 5 | Stopwatch Beta","protocol":17,"map":"cp_altitude","folder":"tf","game":"Team Fortress","app_id":440,"player_count":0,"max_players":24,"Bots":0,"server_type":"Dedicated","server_os":"Linux","password":true,"vac":true,"version":"7932396","steam_id":85568392925397854,"keywords":["cp","nocrits","nodmgspread","uncletopia"],"game_id":440,"stv_port":27056,"stv_name":"Uncletopia | Warsaw | 5 | Stopwatch Beta | STV","players":null},{"server_id":54,"name":"Uncletopia | Warsaw | 6 | Community","name_short":"waw-6","host":"waw-1.pl.uncletopia.com","port":27065,"enabled":true,"region":"eu","cc":"pl","latitude":52.2297,"longitude":21.017532,"reserved":0,"last_update":"0001-01-01T00:00:00Z","name_a2s":"Uncletopia | Warsaw | 6 | Community","protocol":17,"map":"pl_upward","folder":"tf","game":"Team Fortress","app_id":440,"player_count":0,"max_players":24,"Bots":0,"server_type":"Dedicated","server_os":"Linux","password":true,"vac":true,"version":"7932396","steam_id":85568392925397856,"keywords":["nocrits","nodmgspread","payload","uncletopia"],"game_id":440,"stv_port":27066,"stv_name":"Uncletopia | Warsaw | 6 | Community | STV","players":null}]}