{"status":true,"message":"","result":[{"server_id":9,"name":"Uncletopia | Atlanta | 1 | All Maps","name_short":"atl-1","host":"atl-1.us.uncletopia.com","port":27015,"enabled":true,"region":"us-east","cc":"us","latitude":33.753746,"longitude":-84.38633,"reserved":0,"last_update":"0001-01-01T00:00:00Z","name_a2s":"Uncletopia | Atlanta | 1 | All Maps","protocol":17,"map":"pl_barnblitz","folder":"tf","game":"Team Fortress","app_id":440,"player_count":24,"max_players":24,"Bots":0,"server_type":"Dedicated","server_os":"Linux","password":true,"vac":true,"version":"7961495","steam_id":85568392924469982,"keywords":["nocrits","nodmgspread","payload","uncletopia"],"game_id":440,"stv_port":27016,"stv_name":"Uncletopia | Atlanta | 1 | All Maps | STV","players":[{"user_id":660,"name":"FireQuiz","steam_id":76561198107357249,"connected_time":2403000000000,"state":"active","ping":121},{"user_id":648,"name":"Zanartan","steam_id":76561198050528902,"connected_time":3477000000000,"state":"active","ping":175},{"user_id":686,"name":"DethSQRL","steam_id":76561199149628610,"connected_time":216000000000,"state":"active","ping":68},{"user_id":649,"name":"Average JoJo Fan","steam_id":76561198863432523,"connected_time":3388000000000,"state":"active","ping":104},{"user_id":585,"name":"Squanchy","steam_id":76561198036319676,"connected_time":8539000000000,"state":"active","ping":41},{"user_id":599,"name":"AKK0","steam_id":76561199063194145,"connected_time":7864000000000,"state":"active","ping":85},{"user_id":680,"name":"juanjoesc","steam_id":76561198186368430,"connected_time":1017000000000,"state":"active","ping":119},{"user_id":657,"name":"FRANKY!!!","steam_id":76561199211305343,"connected_time":2750000000000,"state":"active","ping":109},{"user_id":655,"name":"Jin","steam_id":76561198119873148,"connected_time":3121000000000,"state":"active","ping":63},{"user_id":681,"name":"Onyx","steam_id":76561198275349640,"connected_time":855000000000,"state":"active","ping":79},{"user_id":661,"name":"why","steam_id":76561199059732212,"connected_time":2393000000000,"state":"active","ping":58},{"user_id":653,"name":"Platypuspenguin","steam_id":76561198212228081,"connected_time":3328000000000,"state":"active","ping":75},{"user_id":667,"name":"(∩'-´)⊃ ☆ Lezbean Cat","steam_id":76561199500664171,"connected_time":1764000000000,"state":"active","ping":60},{"user_id":665,"name":"RoseaVenefica","steam_id":76561198020660560,"connected_time":1906000000000,"state":"active","ping":73},{"user_id":662,"name":"shaderoses","steam_id":76561198070800500,"connected_time":2383000000000,"state":"active","ping":78},{"user_id":679,"name":"the rock","steam_id":76561198046251318,"connected_time":1064000000000,"state":"active","ping":60},{"user_id":668,"name":"frank","steam_id":76561198137777483,"connected_time":1576000000000,"state":"active","ping":80},{"user_id":682,"name":"BrownMemeSter","steam_id":76561198113745020,"connected_time":790000000000,"state":"active","ping":82},{"user_id":685,"name":"Mooksie","steam_id":76561198073074064,"connected_time":292000000000,"state":"active","ping":75},{"user_id":683,"name":"Rudy","steam_id":76561198013456828,"connected_time":764000000000,"state":"active","ping":69},{"user_id":671,"name":"Sheep","steam_id":76561198161218914,"connected_time":1561000000000,"state":"active","ping":106},{"user_id":673,"name":"Decapitation Station","steam_id":76561198201796098,"connected_time":1524000000000,"state":"active","ping":71},{"user_id":674,"name":"Shrebbie","steam_id":76561198875230824,"connected_time":1503000000000,"state":"active","ping":61},{"user_id":678,"name":"Nobody","steam_id":76561198160544586,"connected_time":1124000000000,"state":"active","ping":92}]},{"server_id":104,"name":"Uncletopia | Atlanta | 2 | All Maps","name_short":"atl-2","host":"atl-1.us.uncletopia.com","port":27025,"enabled":true,"region":"us-east","cc":"us","latitude":33.753746,"longitude":-84.38633,"reserved":0,"last_update":"0001-01-01T00:00:00Z","name_a2s":"Uncletopia | Atlanta | 2 | All Maps","protocol":17,"map":"pl_upward","folder":"tf","game":"Team Fortress","app_id":440,"player_count":0,"max_players":24,"Bots":0,"server_type":"Dedicated","server_os":"Linux","password":true,"vac":true,"version":"7961495","steam_id":85568392924469983,"keywords":["nocrits","nodmgspread","payload","uncletopia"],"game_id":440,"stv_port":27026,"stv_name":"Uncletopia | Atlanta | 2 | All Maps | STV","players":null},{"server_id":400,"name":"Uncletopia | Atlanta | 3 | Stopwatch","name_short":"atl-3","host":"atl-1.us.uncletopia.com","port":27035,"enabled":true,"region":"us-east","cc":"us","latitude":33.753746,"longitude":-84.38633,"reserved":0,"last_update":"0001-01-01T00:00:00Z","name_a2s":"Uncletopia | Atlanta | 3 | Stopwatch","protocol":17,"map":"workshop/koth_ramjam_rc1.ugc459778887","folder":"tf","game":"Team Fortress","app_id":440,"player_count":0,"max_players":24,"Bots":0,"server_type":"Dedicated","server_os":"Linux","password":true,"vac":true,"version":"7961495","steam_id":85568392924515187,"keywords":["cp","nocrits","nodmgspread","uncletopia"],"game_id":440,"stv_port":27036,"stv_name":"Uncletopia | Atlanta | 3 | Stopwatch | STV","players":null},{"server_id":401,"name":"Uncletopia | Atlanta | 4 | Community","name_short":"atl-4","host":"atl-1.us.uncletopia.com","port":27045,"enabled":true,"region":"us-east","cc":"us","latitude":33.753746,"longitude":-84.38633,"reserved":0,"last_update":"0001-01-01T00:00:00Z","name_a2s":"Uncletopia | Atlanta | 4 | Community","protocol":17,"map":"workshop/koth_product_final.ugc454272353","folder":"tf","game":"Team Fortress","app_id":440,"player_count":6,"max_players":24,"Bots":0,"server_type":"Dedicated","server_os":"Linux","password":true,"vac":true,"version":"7961495","steam_id":85568392924515188,"keywords":["cp","nocrits","nodmgspread","uncletopia"],"game_id":440,"stv_port":27046,"stv_name":"Uncletopia | Atlanta | 4 | Community | STV","players":[{"user_id":135,"name":"Orchid","steam_id":76561198990643973,"connected_time":3687000000000,"state":"active","ping":44},{"user_id":136,"name":"cajun thotsauce","steam_id":76561198101636066,"connected_time":3618000000000,"state":"active","ping":85},{"user_id":141,"name":"vebr","steam_id":76561199189391772,"connected_time":569000000000,"state":"active","ping":78},{"user_id":143,"name":"Thequirka","steam_id":76561198968058652,"connected_time":125000000000,"state":"active","ping":102},{"user_id":137,"name":"Mom","steam_id":76561198207936000,"connected_time":2154000000000,"state":"active","ping":102},{"user_id":138,"name":"Dr. Medic","steam_id":76561199086414252,"connected_time":1913000000000,"state":"active","ping":66}]},{"server_id":2,"name":"Uncletopia | Chicago | 1 | All Maps","name_short":"chi-1","host":"chi-1.us.uncletopia.com","port":27015,"enabled":true,"region":"us-central","cc":"us","latitude":41.881832,"longitude":-87.62318,"reserved":0,"last_update":"0001-01-01T00:00:00Z","name_a2s":"Uncletopia | Chicago | 1 | All Maps","protocol":17,"map":"koth_cascade","folder":"tf","game":"Team Fortress","app_id":440,"player_count":0,"max_players":24,"Bots":0,"server_type":"Dedicated","server_os":"Linux","password":true,"vac":true,"version":"7961495","steam_id":85568392924469984,"keywords":["cp","nocrits","nodmgspread","uncletopia"],"game_id":440,"stv_port":27016,"stv_name":"Uncletopia | Chicago | 1 | All Maps | STV","players":null},{"server_id":106,"name":"Uncletopia | Chicago | 2 | All Maps","name_short":"chi-2","host":"chi-1.us.uncletopia.com","port":27025,"enabled":true,"region":"us-central","cc":"us","latitude":41.881832,"longitude":-87.62318,"reserved":0,"last_update":"0001-01-01T00:00:00Z","name_a2s":"Uncletopia | Chicago | 2 | All Maps","protocol":17,"map":"pl_borneo","folder":"tf","game":"Team Fortress","app_id":440,"player_count":24,"max_players":24,"Bots":0,"server_type":"Dedicated","server_os":"Linux","password":true,"vac":true,"version":"7961495","steam_id":85568392924469985,"keywords":["nocrits","nodmgspread","payload","uncletopia"],"game_id":440,"stv_port":27026,"stv_name":"Uncletopia | Chicago | 2 | All Maps | STV","players":[{"user_id":952,"name":"LVL","steam_id":76561198334403617,"connected_time":583000000000,"state":"active","ping":54},{"user_id":955,"name":"Klip","steam_id":76561198316254429,"connected_time":184000000000,"state":"active","ping":75},{"user_id":932,"name":"WhoAteMyDonut1","steam_id":76561198353757530,"connected_time":2726000000000,"state":"active","ping":83},{"user_id":931,"name":"Klitz Penischmidt","steam_id":76561198050582941,"connected_time":2744000000000,"state":"active","ping":59},{"user_id":950,"name":"GoldtoothFour","steam_id":76561198055529332,"connected_time":1073000000000,"state":"active","ping":53},{"user_id":937,"name":"krebex","steam_id":76561198004660630,"connected_time":1665000000000,"state":"active","ping":78},{"user_id":941,"name":"Anus Stretcher","steam_id":76561198028304695,"connected_time":1425000000000,"state":"active","ping":135},{"user_id":930,"name":"Seija NUTS","steam_id":76561198357437908,"connected_time":2790000000000,"state":"active","ping":70},{"user_id":908,"name":"Microsoft Excel","steam_id":76561199216713634,"connected_time":3852000000000,"state":"active","ping":58},{"user_id":909,"name":"CynForSin","steam_id":76561198094739849,"connected_time":3848000000000,"state":"active","ping":60},{"user_id":942,"name":"G78Viper","steam_id":76561199246056664,"connected_time":1423000000000,"state":"active","ping":70},{"user_id":943,"name":"pie","steam_id":76561198012945016,"connected_time":1407000000000,"state":"active","ping":56},{"user_id":910,"name":"aofi the flat tgirl","steam_id":76561199172110503,"connected_time":3847000000000,"state":"active","ping":64},{"user_id":911,"name":"bilbobaggins7","steam_id":76561198343650653,"connected_time":3844000000000,"state":"active","ping":62},{"user_id":944,"name":"this is meg","steam_id":76561198057382683,"connected_time":1371000000000,"state":"active","ping":78},{"user_id":947,"name":"Drapph","steam_id":76561199384213314,"connected_time":1257000000000,"state":"active","ping":68},{"user_id":958,"name":"BackToSchoolAds","steam_id":76561198870281128,"connected_time":47000000000,"state":"active","ping":92},{"user_id":954,"name":"Penrose42","steam_id":76561198288577396,"connected_time":363000000000,"state":"active","ping":87},{"user_id":912,"name":"apeman","steam_id":76561198040737975,"connected_time":3741000000000,"state":"active","ping":53},{"user_id":933,"name":"AveMoSwag","steam_id":76561198261701911,"connected_time":2623000000000,"state":"active","ping":50},{"user_id":957,"name":"ultralisk52","steam_id":76561198051666604,"connected_time":85000000000,"state":"active","ping":64},{"user_id":953,"name":"badboy6996 #TRUMP2024","steam_id":76561197969386201,"connected_time":583000000000,"state":"active","ping":55},{"user_id":951,"name":"JtsRes","steam_id":76561197994809241,"connected_time":1042000000000,"state":"active","ping":67},{"user_id":946,"name":"k8o","steam_id":76561198042481882,"connected_time":1308000000000,"state":"active","ping":47}]},{"server_id":402,"name":"Uncletopia | Chicago | 3 | All Maps","name_short":"chi-3","host":"chi-1.us.uncletopia.com","port":27035,"enabled":true,"region":"us-central","cc":"us","latitude":41.881832,"longitude":-87.62318,"reserved":0,"last_update":"0001-01-01T00:00:00Z","name_a2s":"Uncletopia | Chicago | 3 | All Maps","protocol":17,"map":"pl_badwater","folder":"tf","game":"Team Fortress","app_id":440,"player_count":5,"max_players":24,"Bots":0,"server_type":"Dedicated","server_os":"Linux","password":true,"vac":true,"version":"7961495","steam_id":85568392924515191,"keywords":["nocrits","nodmgspread","payload","uncletopia"],"game_id":440,"stv_port":27036,"stv_name":"Uncletopia | Chicago | 3 | All Maps | STV","players":[{"user_id":681,"name":"Snipin","steam_id":76561199093614263,"connected_time":1669000000000,"state":"active","ping":75},{"user_id":693,"name":"crippling depression","steam_id":76561199045874230,"connected_time":890000000000,"state":"active","ping":69},{"user_id":688,"name":"Spinch","steam_id":76561198296224166,"connected_time":1132000000000,"state":"active","ping":97},{"user_id":689,"name":"Publo","steam_id":76561198161777140,"connected_time":1125000000000,"state":"active","ping":75},{"user_id":691,"name":"Hamz","steam_id":76561199287459211,"connected_time":1102000000000,"state":"active","ping":63}]},{"server_id":403,"name":"Uncletopia | Chicago | 4 | All Maps","name_short":"chi-4","host":"chi-1.us.uncletopia.com","port":27045,"enabled":true,"region":"us-central","cc":"us","latitude":41.881832,"longitude":-87.62318,"reserved":0,"last_update":"0001-01-01T00:00:00Z","name_a2s":"Uncletopia | Chicago | 4 | All Maps","protocol":17,"map":"koth_cascade","folder":"tf","game":"Team Fortress","app_id":440,"player_count":0,"max_players":24,"Bots":0,"server_type":"Dedicated","server_os":"Linux","password":true,"vac":true,"version":"7961495","steam_id":85568392924515193,"keywords":["cp","nocrits","nodmgspread","uncletopia"],"game_id":440,"stv_port":27046,"stv_name":"Uncletopia | Chicago | 4 | All Maps | STV","players":null},{"server_id":36,"name":"Uncletopia | Chicago | 5 | All Maps","name_short":"chi-5","host":"chi-2.us.uncletopia.com","port":27015,"enabled":true,"region":"us-central","cc":"us","latitude":41.881832,"longitude":-87.62318,"reserved":0,"last_update":"0001-01-01T00:00:00Z","name_a2s":"Uncletopia | Chicago | 5 | All Maps","protocol":17,"map":"pl_borneo","folder":"tf","game":"Team Fortress","app_id":440,"player_count":1,"max_players":24,"Bots":0,"server_type":"Dedicated","server_os":"Linux","password":true,"vac":true,"version":"7961495","steam_id":85568392924866362,"keywords":["nocrits","nodmgspread","payload","uncletopia"],"game_id":440,"stv_port":27016,"stv_name":"Uncletopia | Chicago | 5 | All Maps | STV","players":[{"user_id":556,"name":"Kenny Gaming","steam_id":76561199382783363,"connected_time":272000000000,"state":"active","ping":97}]},{"server_id":37,"name":"Uncletopia | Chicago | 6 | All Maps","name_short":"chi-6","host":"chi-2.us.uncletopia.com","port":27025,"enabled":true,"region":"us-central","cc":"us","latitude":41.881832,"longitude":-87.62318,"reserved":0,"last_update":"0001-01-01T00:00:00Z","name_a2s":"Uncletopia | Chicago | 6 | All Maps","protocol":17,"map":"pl_swiftwater_final1","folder":"tf","game":"Team Fortress","app_id":440,"player_count":24,"max_players":24,"Bots":0,"server_type":"Dedicated","server_os":"Linux","password":true,"vac":true,"version":"7961495","steam_id":85568392924866363,"keywords":["nocrits","nodmgspread","payload","uncletopia"],"game_id":440,"stv_port":27026,"stv_name":"Uncletopia | Chicago | 6 | All Maps | STV","players":[{"user_id":398,"name":"Toaster","steam_id":76561198290922494,"connected_time":4360000000000,"state":"active","ping":84},{"user_id":382,"name":"Azure","steam_id":76561198260328183,"connected_time":5115000000000,"state":"active","ping":60},{"user_id":444,"name":"YellowSQUID","steam_id":76561198123259414,"connected_time":975000000000,"state":"active","ping":106},{"user_id":430,"name":"Weebmcgee","steam_id":76561198081231557,"connected_time":2792000000000,"state":"active","ping":64},{"user_id":455,"name":"Mr. E","steam_id":76561198060381147,"connected_time":551000000000,"state":"active","ping":125},{"user_id":456,"name":"guardian angel","steam_id":76561198148282278,"connected_time":317000000000,"state":"active","ping":69},{"user_id":446,"name":"y0","steam_id":76561198143894333,"connected_time":939000000000,"state":"active","ping":56},{"user_id":451,"name":"mothra","steam_id":76561198028444359,"connected_time":756000000000,"state":"active","ping":137},{"user_id":452,"name":"C0D3_MOG","steam_id":76561198975861666,"connected_time":716000000000,"state":"active","ping":79},{"user_id":423,"name":"American Dad","steam_id":76561198059711448,"connected_time":3451000000000,"state":"active","ping":71},{"user_id":454,"name":"bog003","steam_id":76561197987243470,"connected_time":604000000000,"state":"active","ping":74},{"user_id":424,"name":"Gason Homoa","steam_id":76561199000180522,"connected_time":3426000000000,"state":"active","ping":70},{"user_id":431,"name":"Sailor Galaxy Planet Man","steam_id":76561198039569373,"connected_time":2666000000000,"state":"active","ping":59},{"user_id":448,"name":"Ket","steam_id":76561198241951244,"connected_time":858000000000,"state":"active","ping":68},{"user_id":447,"name":"Yongle","steam_id":76561198068591156,"connected_time":938000000000,"state":"active","ping":55},{"user_id":438,"name":"Katy","steam_id":76561198079395814,"connected_time":1718000000000,"state":"active","ping":77},{"user_id":426,"name":"David Hasseloof","steam_id":76561198070864553,"connected_time":3375000000000,"state":"active","ping":79},{"user_id":457,"name":"Ddonut gamer","steam_id":76561198858852245,"connected_time":290000000000,"state":"active","ping":120},{"user_id":428,"name":"Lord_Manship","steam_id":76561198045168765,"connected_time":3284000000000,"state":"active","ping":86},{"user_id":440,"name":"SoldMyKidneyForCollege","steam_id":76561198096329559,"connected_time":1150000000000,"state":"active","ping":97},{"user_id":401,"name":"Kragg Main","steam_id":76561198035512373,"connected_time":4298000000000,"state":"active","ping":89},{"user_id":460,"name":"gagobears","steam_id":76561198086008437,"connected_time":21000000000,"state":"active","ping":75},{"user_id":453,"name":"Muselk","steam_id":76561199289676387,"connected_time":658000000000,"state":"active","ping":89},{"user_id":459,"name":"kaputon","steam_id":76561198146299782,"connected_time":201000000000,"state":"active","ping":54}]},{"server_id":38,"name":"Uncletopia | Chicago | 7 | Stopwatch","name_short":"chi-7","host":"chi-2.us.uncletopia.com","port":27035,"enabled":true,"region":"us-central","cc":"us","latitude":41.881832,"longitude":-87.62318,"reserved":0,"last_update":"0001-01-01T00:00:00Z","name_a2s":"Uncletopia | Chicago | 7 | Stopwatch","protocol":17,"map":"workshop/koth_clearcut_b15.ugc2107050255","folder":"tf","game":"Team Fortress","app_id":440,"player_count":0,"max_players":24,"Bots":0,"server_type":"Dedicated","server_os":"Linux","password":true,"vac":true,"version":"7961495","steam_id":85568392924866364,"keywords":["cp","nocrits","nodmgspread","uncletopia"],"game_id":440,"stv_port":27036,"stv_name":"Uncletopia | Chicago | 7 | Stopwatch | STV","players":null},{"server_id":39,"name":"Uncletopia | Chicago | 8 | Community","name_short":"chi-8","host":"chi-2.us.uncletopia.com","port":27045,"enabled":true,"region":"us-central","cc":"us","latitude":41.881832,"longitude":-87.62318,"reserved":0,"last_update":"0001-01-01T00:00:00Z","name_a2s":"Uncletopia | Chicago | 8 | Community","protocol":17,"map":"workshop/pl_vigil_rc10.ugc1266210012","folder":"tf","game":"Team Fortress","app_id":440,"player_count":0,"max_players":24,"Bots":0,"server_type":"Dedicated","server_os":"Linux","password":true,"vac":true,"version":"7961495","steam_id":85568392924866365,"keywords":["nocrits","nodmgspread","payload","uncletopia"],"game_id":440,"stv_port":27046,"stv_name":"Uncletopia | Chicago | 8 | Community | STV","players":null},{"server_id":8,"name":"Uncletopia | Dallas | 1 | All Maps","name_short":"dal-1","host":"dal-1.us.uncletopia.com","port":27015,"enabled":true,"region":"us-central","cc":"us","latitude":32.779167,"longitude":-96.80889,"reserved":0,"last_update":"0001-01-01T00:00:00Z","name_a2s":"Uncletopia | Dallas | 1 | All Maps","protocol":17,"map":"pl_borneo","folder":"tf","game":"Team Fortress","app_id":440,"player_count":24,"max_players":24,"Bots":0,"server_type":"Dedicated","server_os":"Linux","password":true,"vac":true,"version":"7961495","steam_id":85568392924469986,"keywords":["nocrits","nodmgspread","payload","uncletopia"],"game_id":440,"stv_port":27016,"stv_name":"Uncletopia | Dallas | 1 | All Maps | STV","players":[{"user_id":461,"name":"e doctor","steam_id":76561198081851446,"connected_time":3147000000000,"state":"active","ping":62},{"user_id":493,"name":"meow","steam_id":76561198046948758,"connected_time":481000000000,"state":"active","ping":61},{"user_id":489,"name":"MirrorsAreScary","steam_id":76561198860505587,"connected_time":511000000000,"state":"active","ping":154},{"user_id":491,"name":"Cowboyfos","steam_id":76561199055740230,"connected_time":494000000000,"state":"active","ping":77},{"user_id":494,"name":"pigswill","steam_id":76561197999081865,"connected_time":465000000000,"state":"active","ping":105},{"user_id":475,"name":"Giorno Giovanna","steam_id":76561198044106874,"connected_time":2543000000000,"state":"active","ping":79},{"user_id":469,"name":"GoblinActual","steam_id":76561198330743199,"connected_time":2706000000000,"state":"active","ping":103},{"user_id":462,"name":"Пвт Динго","steam_id":76561198119683217,"connected_time":3008000000000,"state":"active","ping":102},{"user_id":497,"name":"im the beef","steam_id":76561198069506128,"connected_time":220000000000,"state":"active","ping":82},{"user_id":496,"name":"Hank Scorpio","steam_id":76561198084094221,"connected_time":436000000000,"state":"active","ping":97},{"user_id":480,"name":"Person","steam_id":76561198093244204,"connected_time":1786000000000,"state":"active","ping":94},{"user_id":413,"name":"CeLeb144","steam_id":76561199089907740,"connected_time":9179000000000,"state":"active","ping":68},{"user_id":482,"name":"ZILICON","steam_id":76561199044705592,"connected_time":1638000000000,"state":"active","ping":117},{"user_id":487,"name":"gooch_masta","steam_id":76561198151578423,"connected_time":954000000000,"state":"active","ping":59},{"user_id":485,"name":"Fake21","steam_id":76561198282065071,"connected_time":1183000000000,"state":"active","ping":53},{"user_id":477,"name":"celery","steam_id":76561199004451589,"connected_time":2024000000000,"state":"active","ping":54},{"user_id":483,"name":"Professor","steam_id":76561198097038169,"connected_time":1595000000000,"state":"active","ping":85},{"user_id":465,"name":"james_bondage","steam_id":76561199476062624,"connected_time":2907000000000,"state":"active","ping":114},{"user_id":436,"name":"rexelfhcir","steam_id":76561199018207049,"connected_time":4874000000000,"state":"active","ping":73},{"user_id":457,"name":"GangstaPuddin","steam_id":76561198045414782,"connected_time":3936000000000,"state":"active","ping":81},{"user_id":460,"name":"Tommy Provolone","steam_id":76561198170062377,"connected_time":3185000000000,"state":"active","ping":73},{"user_id":498,"name":"c0wmanglr","steam_id":76561198025342064,"connected_time":37000000000,"state":"active","ping":76},{"user_id":484,"name":"Mint Jelly","steam_id":76561197991286751,"connected_time":1589000000000,"state":"active","ping":67},{"user_id":478,"name":"shirtless eddie","steam_id":76561198074838093,"connected_time":2019000000000,"state":"active","ping":61}]},{"server_id":108,"name":"Uncletopia | Dallas | 2 | All Maps","name_short":"dal-2","host":"dal-1.us.uncletopia.com","port":27025,"enabled":true,"region":"us-central","cc":"us","latitude":32.779167,"longitude":-96.80889,"reserved":0,"last_update":"0001-01-01T00:00:00Z","name_a2s":"Uncletopia | Dallas | 2 | All Maps","protocol":17,"map":"pl_badwater","folder":"tf","game":"Team Fortress","app_id":440,"player_count":22,"max_players":24,"Bots":0,"server_type":"Dedicated","server_os":"Linux","password":true,"vac":true,"version":"7961495","steam_id":85568392924469988,"keywords":["nocrits","nodmgspread","payload","uncletopia"],"game_id":440,"stv_port":27026,"stv_name":"Uncletopia | Dallas | 2 | All Maps | STV","players":[{"user_id":418,"name":"Mithrildo","steam_id":76561198000564263,"connected_time":4309000000000,"state":"active","ping":63},{"user_id":442,"name":"Stick","steam_id":76561198001509374,"connected_time":160000000000,"state":"active","ping":45},{"user_id":385,"name":"munching charcoal","steam_id":76561198150803812,"connected_time":6690000000000,"state":"active","ping":88},{"user_id":426,"name":"basil","steam_id":76561198075758026,"connected_time":3525000000000,"state":"active","ping":87},{"user_id":449,"name":"Coolcat","steam_id":76561198180933957,"connected_time":7000000000,"state":"spawning","ping":41},{"user_id":444,"name":"ballsniffer985","steam_id":76561199077027954,"connected_time":130000000000,"state":"active","ping":63},{"user_id":428,"name":"silvr :3","steam_id":76561198069368377,"connected_time":2739000000000,"state":"active","ping":92},{"user_id":437,"name":"EMBRYOGLYPH","steam_id":76561198167583291,"connected_time":2059000000000,"state":"active","ping":120},{"user_id":445,"name":"HelyalK2W","steam_id":76561198988159701,"connected_time":121000000000,"state":"active","ping":123},{"user_id":450,"name":"18 Brass Men of Shaolin","steam_id":76561199011754303,"connected_time":2000000000,"state":"spawning","ping":206},{"user_id":420,"name":"lanoc","steam_id":76561198055415367,"connected_time":4302000000000,"state":"active","ping":60},{"user_id":447,"name":"BLØRG","steam_id":76561198036126673,"connected_time":52000000000,"state":"active","ping":76},{"user_id":448,"name":"Styx","steam_id":76561198158334494,"connected_time":46000000000,"state":"active","ping":86},{"user_id":367,"name":"Tang","steam_id":76561198121340574,"connected_time":8862000000000,"state":"active","ping":71},{"user_id":341,"name":"stuffedidiot","steam_id":76561199181513019,"connected_time":12531000000000,"state":"active","ping":118},{"user_id":342,"name":"Rat Smacker","steam_id":76561198043629646,"connected_time":12527000000000,"state":"active","ping":56},{"user_id":354,"name":"anonEDM","steam_id":76561197976560316,"connected_time":10527000000000,"state":"active","ping":95},{"user_id":435,"name":"checkswing","steam_id":76561198999816132,"connected_time":2172000000000,"state":"active","ping":99},{"user_id":407,"name":"poggerchamp","steam_id":76561199145124973,"connected_time":5261000000000,"state":"active","ping":52},{"user_id":431,"name":"unfortunatexd","steam_id":76561199500710251,"connected_time":2663000000000,"state":"active","ping":100},{"user_id":411,"name":"hi","steam_id":76561198809577048,"connected_time":5218000000000,"state":"active","ping":91},{"user_id":348,"name":"Gelisor","steam_id":76561198001581101,"connected_time":12412000000000,"state":"active","ping":117}]},{"server_id":404,"name":"Uncletopia | Dallas | 3 | All Maps","name_short":"dal-3","host":"dal-1.us.uncletopia.com","port":27035,"enabled":true,"region":"us-central","cc":"us","latitude":32.779167,"longitude":-96.80889,"reserved":0,"last_update":"0001-01-01T00:00:00Z","name_a2s":"Uncletopia | Dallas | 3 | All Maps","protocol":17,"map":"pl_barnblitz","folder":"tf","game":"Team Fortress","app_id":440,"player_count":24,"max_players":24,"Bots":0,"server_type":"Dedicated","server_os":"Linux","password":true,"vac":true,"version":"7961495","steam_id":85568392924515219,"keywords":["nocrits","nodmgspread","payload","uncletopia"],"game_id":440,"stv_port":27036,"stv_name":"Uncletopia | Dallas | 3 | All Maps | STV","players":[{"user_id":360,"name":"Not Slavoj Žižek","steam_id":76561198004619616,"connected_time":186000000000,"state":"active","ping":87},{"user_id":334,"name":"Yeti","steam_id":76561199226373771,"connected_time":2532000000000,"state":"active","ping":48},{"user_id":344,"name":"Burny Sanders","steam_id":76561197961879048,"connected_time":1459000000000,"state":"active","ping":45},{"user_id":356,"name":"BigBubble42","steam_id":76561198136286123,"connected_time":721000000000,"state":"active","ping":50},{"user_id":323,"name":"Bimbes McFly","steam_id":76561197993331182,"connected_time":3801000000000,"state":"active","ping":52},{"user_id":347,"name":"gerg","steam_id":76561197997127387,"connected_time":896000000000,"state":"active","ping":92},{"user_id":348,"name":"Under an Unquiet Skull","steam_id":76561198164782653,"connected_time":895000000000,"state":"active","ping":90},{"user_id":309,"name":"LJRicochet","steam_id":76561198109125997,"connected_time":4684000000000,"state":"active","ping":70},{"user_id":351,"name":"Breach","steam_id":76561198045060392,"connected_time":873000000000,"state":"active","ping":61},{"user_id":324,"name":"Karen Araragi","steam_id":76561198001369054,"connected_time":3796000000000,"state":"active","ping":50},{"user_id":350,"name":"gwen","steam_id":76561198046815360,"connected_time":892000000000,"state":"active","ping":76},{"user_id":292,"name":"zpalmtree","steam_id":76561198134307620,"connected_time":5747000000000,"state":"active","ping":75},{"user_id":326,"name":"Satori Komeiji","steam_id":76561198158211423,"connected_time":3743000000000,"state":"active","ping":81},{"user_id":317,"name":"killstreak451","steam_id":76561198189671403,"connected_time":4487000000000,"state":"active","ping":67},{"user_id":343,"name":"Meathouse","steam_id":76561198169966346,"connected_time":1650000000000,"state":"active","ping":104},{"user_id":293,"name":"Lane","steam_id":76561197965828506,"connected_time":5712000000000,"state":"active","ping":60},{"user_id":345,"name":"Cerebral","steam_id":76561198408258313,"connected_time":1364000000000,"state":"active","ping":77},{"user_id":355,"name":"Mike Bean Burritos","steam_id":76561198173430607,"connected_time":779000000000,"state":"active","ping":107},{"user_id":357,"name":"social distance warrior","steam_id":76561198128992994,"connected_time":623000000000,"state":"active","ping":90},{"user_id":346,"name":"Umbra","steam_id":76561198122650609,"connected_time":1357000000000,"state":"active","ping":61},{"user_id":361,"name":"[COS] CrazyLasagna","steam_id":76561198138421534,"connected_time":173000000000,"state":"active","ping":61},{"user_id":295,"name":"Mufalito","steam_id":76561198951889482,"connected_time":5117000000000,"state":"active","ping":135},{"user_id":359,"name":"A Blender","steam_id":76561198085439451,"connected_time":541000000000,"state":"active","ping":75},{"user_id":340,"name":"Snoopist","steam_id":76561198144023761,"connected_time":2338000000000,"state":"active","ping":59}]},{"server_id":405,"name":"Uncletopia | Dallas | 4 | Community","name_short":"dal-4","host":"dal-1.us.uncletopia.com","port":27045,"enabled":true,"region":"us-central","cc":"us","latitude":32.779167,"longitude":-96.80889,"reserved":0,"last_update":"0001-01-01T00:00:00Z","name_a2s":"Uncletopia | Dallas | 4 | Community","protocol":17,"map":"workshop/pl_highwood_b13.ugc1769496557","folder":"tf","game":"Team Fortress","app_id":440,"player_count":0,"max_players":24,"Bots":0,"server_type":"Dedicated","server_os":"Linux","password":true,"vac":true,"version":"7961495","steam_id":85568392924515220,"keywords":["nocrits","nodmgspread","payload","uncletopia"],"game_id":440,"stv_port":27046,"stv_name":"Uncletopia | Dallas | 4 | Community | STV","players":null},{"server_id":5,"name":"Uncletopia | Frankfurt | 1 | All Maps","name_short":"frk-1","host":"frk-1.de.uncletopia.com","port":27015,"enabled":true,"region":"eu","cc":"de","latitude":50.110924,"longitude":8.682127,"reserved":0,"last_update":"0001-01-01T00:00:00Z","name_a2s":"Uncletopia | Frankfurt | 1 | All Maps","protocol":17,"map":"koth_highpass","folder":"tf","game":"Team Fortress","app_id":440,"player_count":0,"max_players":24,"Bots":0,"server_type":"Dedicated","server_os":"Linux","password":true,"vac":true,"version":"7961495","steam_id":85568392924469989,"keywords":["cp","nocrits","nodmgspread","uncletopia"],"game_id":440,"stv_port":27016,"stv_name":"Uncletopia | Frankfurt | 1 | All Maps | STV","players":null},{"server_id":110,"name":"Uncletopia | Frankfurt | 2 | All Maps","name_short":"frk-2","host":"frk-1.de.uncletopia.com","port":27025,"enabled":true,"region":"eu","cc":"de","latitude":50.110924,"longitude":8.682127,"reserved":0,"last_update":"0001-01-01T00:00:00Z","name_a2s":"Uncletopia | Frankfurt | 2 | All Maps","protocol":17,"map":"cp_dustbowl","folder":"tf","game":"Team Fortress","app_id":440,"player_count":0,"max_players":24,"Bots":0,"server_type":"Dedicated","server_os":"Linux","password":true,"vac":true,"version":"7961495","steam_id":85568392924469990,"keywords":["cp","nocrits","nodmgspread","uncletopia"],"game_id":440,"stv_port":27026,"stv_name":"Uncletopia | Frankfurt | 2 | All Maps | STV","players":null},{"server_id":308,"name":"Uncletopia | Frankfurt | 3 | All Maps","name_short":"frk-3","host":"frk-1.de.uncletopia.com","port":27035,"enabled":true,"region":"eu","cc":"de","latitude":50.110924,"longitude":8.682127,"reserved":0,"last_update":"0001-01-01T00:00:00Z","name_a2s":"Uncletopia | Frankfurt | 3 | All Maps","protocol":17,"map":"pl_borneo","folder":"tf","game":"Team Fortress","app_id":440,"player_count":0,"max_players":24,"Bots":0,"server_type":"Dedicated","server_os":"Linux","password":true,"vac":true,"version":"7961495","steam_id":85568392924504274,"keywords":["nocrits","nodmgspread","payload","uncletopia"],"game_id":440,"stv_port":27036,"stv_name":"Uncletopia | Frankfurt | 3 | All Maps | STV","players":null},{"server_id":309,"name":"Uncletopia | Frankfurt | 4 | All Maps","name_short":"frk-4","host":"frk-1.de.uncletopia.com","port":27045,"enabled":true,"region":"eu","cc":"de","latitude":50.110924,"longitude":8.682127,"reserved":0,"last_update":"0001-01-01T00:00:00Z","name_a2s":"Uncletopia | Frankfurt | 4 | All Maps","protocol":17,"map":"koth_highpass","folder":"tf","game":"Team Fortress","app_id":440,"player_count":0,"max_players":24,"Bots":0,"server_type":"Dedicated","server_os":"Linux","password":true,"vac":true,"version":"7961495","steam_id":85568392924504275,"keywords":["cp","nocrits","nodmgspread","uncletopia"],"game_id":440,"stv_port":27046,"stv_name":"Uncletopia | Frankfurt | 4 | All Maps | STV","players":null},{"server_id":310,"name":"Uncletopia | Frankfurt | 5 | All Maps","name_short":"frk-5","host":"frk-1.de.uncletopia.com","port":27055,"enabled":true,"region":"eu","cc":"de","latitude":50.110924,"longitude":8.682127,"reserved":0,"last_update":"0001-01-01T00:00:00Z","name_a2s":"Uncletopia | Frankfurt | 5 | All Maps","protocol":17,"map":"pl_badwater","folder":"tf","game":"Team Fortress","app_id":440,"player_count":0,"max_players":24,"Bots":0,"server_type":"Dedicated","server_os":"Linux","password":true,"vac":true,"version":"7961495","steam_id":85568392924504277,"keywords":["nocrits","nodmgspread","payload","uncletopia"],"game_id":440,"stv_port":27056,"stv_name":"Uncletopia | Frankfurt | 5 | All Maps | STV","players":null},{"server_id":311,"name":"Uncletopia | Frankfurt | 6 | All Maps","name_short":"frk-6","host":"frk-1.de.uncletopia.com","port":27065,"enabled":true,"region":"eu","cc":"de","latitude":50.110924,"longitude":8.682127,"reserved":0,"last_update":"0001-01-01T00:00:00Z","name_a2s":"Uncletopia | Frankfurt | 6 | All Maps","protocol":17,"map":"cp_altitude","folder":"tf","game":"Team Fortress","app_id":440,"player_count":0,"max_players":24,"Bots":0,"server_type":"Dedicated","server_os":"Linux","password":true,"vac":true,"version":"7961495","steam_id":85568392924504278,"keywords":["cp","nocrits","nodmgspread","uncletopia"],"game_id":440,"stv_port":27066,"stv_name":"Uncletopia | Frankfurt | 6 | All Maps | STV","players":null},{"server_id":23,"name":"Uncletopia | Frankfurt | 7 | Stopwatch","name_short":"frk-7","host":"frk-1.de.uncletopia.com","port":27075,"enabled":true,"region":"eu","cc":"de","latitude":50.110924,"longitude":8.682127,"reserved":0,"last_update":"0001-01-01T00:00:00Z","name_a2s":"Uncletopia | Frankfurt | 7 | Stopwatch","protocol":17,"map":"pl_frontier_final","folder":"tf","game":"Team Fortress","app_id":440,"player_count":0,"max_players":24,"Bots":0,"server_type":"Dedicated","server_os":"Linux","password":true,"vac":true,"version":"7961495","steam_id":85568392924742827,"keywords":["nocrits","nodmgspread","payload","uncletopia"],"game_id":440,"stv_port":27076,"stv_name":"Uncletopia | Frankfurt | 7 | Stopwatch | STV","players":null},{"server_id":24,"name":"Uncletopia | Frankfurt | 8 | Community","name_short":"frk-8","host":"frk-1.de.uncletopia.com","port":27085,"enabled":true,"region":"eu","cc":"de","latitude":50.110924,"longitude":8.682127,"reserved":0,"last_update":"0001-01-01T00:00:00Z","name_a2s":"Uncletopia | Frankfurt | 8 | Community","protocol":17,"map":"cp_mountainlab","folder":"tf","game":"Team Fortress","app_id":440,"player_count":0,"max_players":24,"Bots":0,"server_type":"Dedicated","server_os":"Linux","password":true,"vac":true,"version":"7961495","steam_id":85568392924742828,"keywords":["cp","nocrits","nodmgspread","uncletopia"],"game_id":440,"stv_port":27086,"stv_name":"Uncletopia | Frankfurt | 8 | Community | STV","players":null},{"server_id":202,"name":"Uncletopia | Hong Kong | 1 | All Maps","name_short":"hgk-1","host":"hgk-1.hk.uncletopia.com","port":27015,"enabled":true,"region":"asia","cc":"hk","latitude":22.302711,"longitude":114.177216,"reserved":0,"last_update":"0001-01-01T00:00:00Z","name_a2s":"Uncletopia | Hong Kong | 1 | All Maps","protocol":17,"map":"cp_sunshine","folder":"tf","game":"Team Fortress","app_id":440,"player_count":24,"max_players":24,"Bots":0,"server_type":"Dedicated","server_os":"Linux","password":true,"vac":true,"version":"7961495","steam_id":85568392924494504,"keywords":["cp","nocrits","nodmgspread","uncletopia"],"game_id":440,"stv_port":27016,"stv_name":"Uncletopia | Hong Kong | 1 | All Maps | STV","players":[{"user_id":23,"name":"MS PowerPoint","steam_id":76561198369523192,"connected_time":11115000000000,"state":"active","ping":63},{"user_id":116,"name":"2746","steam_id":76561199390507975,"connected_time":2769000000000,"state":"active","ping":52},{"user_id":98,"name":"JDSFE","steam_id":76561198975490851,"connected_time":5164000000000,"state":"active","ping":152},{"user_id":80,"name":"BAzooKA","steam_id":76561198061628689,"connected_time":7257000000000,"state":"active","ping":51},{"user_id":137,"name":"GRim","steam_id":76561197998422082,"connected_time":138000000000,"state":"active","ping":105},{"user_id":47,"name":"ihavenomouthandimustscream","steam_id":76561198172874097,"connected_time":9624000000000,"state":"active","ping":60},{"user_id":135,"name":"14","steam_id":76561198113401862,"connected_time":151000000000,"state":"active","ping":92},{"user_id":96,"name":"Alice (artificial)","steam_id":76561198052410860,"connected_time":6104000000000,"state":"active","ping":111},{"user_id":125,"name":"Corn_Archer","steam_id":76561199185044554,"connected_time":1966000000000,"state":"active","ping":94},{"user_id":109,"name":"killman47","steam_id":76561198348487408,"connected_time":3412000000000,"state":"active","ping":40},{"user_id":67,"name":"Lu","steam_id":76561198320532821,"connected_time":8066000000000,"state":"active","ping":72},{"user_id":104,"name":"Jun-char","steam_id":76561198126774704,"connected_time":4256000000000,"state":"active","ping":87},{"user_id":126,"name":"sex","steam_id":76561199146847474,"connected_time":1945000000000,"state":"active","ping":46},{"user_id":115,"name":"Telekhine","steam_id":76561198387120618,"connected_time":2785000000000,"state":"active","ping":59},{"user_id":138,"name":"Dits","steam_id":76561198283833960,"connected_time":133000000000,"state":"active","ping":41},{"user_id":111,"name":"marisaloses","steam_id":76561199033032870,"connected_time":3391000000000,"state":"active","ping":120},{"user_id":65,"name":"the NYN mass producer","steam_id":76561198214192048,"connected_time":8458000000000,"state":"active","ping":102},{"user_id":124,"name":"force","steam_id":76561199109339247,"connected_time":1983000000000,"state":"active","ping":77},{"user_id":133,"name":"Trom-BONER","steam_id":76561199174449723,"connected_time":1031000000000,"state":"active","ping":119},{"user_id":123,"name":"ArcticDolphin","steam_id":76561198203626319,"connected_time":2122000000000,"state":"active","ping":131},{"user_id":90,"name":"spinach (old mouse)","steam_id":76561198042539541,"connected_time":6663000000000,"state":"active","ping":76},{"user_id":127,"name":"Cheesey","steam_id":76561198975684137,"connected_time":1944000000000,"state":"active","ping":88},{"user_id":101,"name":"[Sicky] I twin-charged your kid","steam_id":76561198228084940,"connected_time":4743000000000,"state":"active","ping":46},{"user_id":128,"name":"ZeniaPY (Playing on Wacom)","steam_id":76561198404352831,"connected_time":1936000000000,"state":"active","ping":73}]},{"server_id":1,"name":"Uncletopia | Los Angeles | 1 | All Maps","name_short":"lax-1","host":"lax-1.us.uncletopia.com","port":27015,"enabled":true,"region":"us-west","cc":"us","latitude":33.94279,"longitude":-118.41004,"reserved":0,"last_update":"0001-01-01T00:00:00Z","name_a2s":"Uncletopia | Los Angeles | 1 | All Maps","protocol":17,"map":"cp_dustbowl","folder":"tf","game":"Team Fortress","app_id":440,"player_count":24,"max_players":24,"Bots":0,"server_type":"Dedicated","server_os":"Linux","password":true,"vac":true,"version":"7961495","steam_id":85568392924469991,"keywords":["cp","nocrits","nodmgspread","uncletopia"],"game_id":440,"stv_port":27016,"stv_name":"Uncletopia | Los Angeles | 1 | All Maps | STV","players":[{"user_id":535,"name":"Marcy","steam_id":76561198122136432,"connected_time":1445000000000,"state":"active","ping":72},{"user_id":544,"name":"sadlaxx","steam_id":76561198061354919,"connected_time":37000000000,"state":"active","ping":70},{"user_id":492,"name":"lol","steam_id":76561198026491738,"connected_time":5938000000000,"state":"active","ping":68},{"user_id":500,"name":"beezer","steam_id":76561199049160726,"connected_time":4661000000000,"state":"active","ping":60},{"user_id":497,"name":"A class hero","steam_id":76561198066091050,"connected_time":5566000000000,"state":"active","ping":73},{"user_id":493,"name":"TüCold","steam_id":76561198111278197,"connected_time":5929000000000,"state":"active","ping":60},{"user_id":528,"name":"An00bis","steam_id":76561198044084508,"connected_time":1833000000000,"state":"active","ping":51},{"user_id":446,"name":"filtered by cp_steel","steam_id":76561198031409921,"connected_time":10280000000000,"state":"active","ping":51},{"user_id":503,"name":"Syrup","steam_id":76561198055850531,"connected_time":4121000000000,"state":"active","ping":49},{"user_id":494,"name":"meph","steam_id":76561198149683030,"connected_time":5906000000000,"state":"active","ping":74},{"user_id":541,"name":"June","steam_id":76561198141803658,"connected_time":254000000000,"state":"active","ping":44},{"user_id":522,"name":"Seshreb","steam_id":76561198846614634,"connected_time":2222000000000,"state":"active","ping":59},{"user_id":485,"name":"Bodhisattva","steam_id":76561198085228896,"connected_time":6422000000000,"state":"active","ping":51},{"user_id":537,"name":"Whisper!","steam_id":76561198119609795,"connected_time":1052000000000,"state":"active","ping":56},{"user_id":524,"name":"TheDoctorIsIn","steam_id":76561198322058639,"connected_time":1974000000000,"state":"active","ping":91},{"user_id":427,"name":"Keth","steam_id":76561198155903648,"connected_time":11815000000000,"state":"active","ping":76},{"user_id":543,"name":"Rabblerouser","steam_id":76561198127930963,"connected_time":176000000000,"state":"active","ping":90},{"user_id":530,"name":"caRat","steam_id":76561198859267372,"connected_time":1792000000000,"state":"active","ping":101},{"user_id":533,"name":"child labor","steam_id":76561198982415497,"connected_time":1607000000000,"state":"active","ping":60},{"user_id":426,"name":"Robotguy9","steam_id":76561198147429617,"connected_time":11869000000000,"state":"active","ping":100},{"user_id":531,"name":"Echo","steam_id":76561198103342230,"connected_time":1789000000000,"state":"active","ping":67},{"user_id":539,"name":"Fachedin","steam_id":76561198041850415,"connected_time":769000000000,"state":"active","ping":54},{"user_id":534,"name":"Amogous Supreme","steam_id":76561198025476774,"connected_time":1568000000000,"state":"active","ping":65},{"user_id":473,"name":"Mr. Noodle","steam_id":76561198025280658,"connected_time":7634000000000,"state":"active","ping":59}]},{"server_id":112,"name":"Uncletopia | Los Angeles | 2 | All Maps","name_short":"lax-2","host":"lax-1.us.uncletopia.com","port":27025,"enabled":true,"region":"us-west","cc":"us","latitude":33.94279,"longitude":-118.41004,"reserved":0,"last_update":"0001-01-01T00:00:00Z","name_a2s":"Uncletopia | Los Angeles | 2 | All Maps","protocol":17,"map":"ctf_2fort","folder":"tf","game":"Team Fortress","app_id":440,"player_count":5,"max_players":24,"Bots":0,"server_type":"Dedicated","server_os":"Linux","password":true,"vac":true,"version":"7961495","steam_id":85568392924469992,"keywords":["ctf","nocrits","nodmgspread","uncletopia"],"game_id":440,"stv_port":27026,"stv_name":"Uncletopia | Los Angeles | 2 | All Maps | STV","players":[{"user_id":278,"name":"CEO of sex","steam_id":76561199122915452,"connected_time":36000000000,"state":"active","ping":72},{"user_id":279,"name":"Rommel2007","steam_id":76561198041744631,"connected_time":36000000000,"state":"active","ping":55},{"user_id":267,"name":"Family Guy Im Peter","steam_id":76561198084885479,"connected_time":1244000000000,"state":"active","ping":76},{"user_id":236,"name":"Pels","steam_id":76561198039580161,"connected_time":3294000000000,"state":"active","ping":93},{"user_id":234,"name":"0","steam_id":76561199213011924,"connected_time":3437000000000,"state":"active","ping":63}]},{"server_id":324,"name":"Uncletopia | Los Angeles | 3 | All Maps","name_short":"lax-3","host":"lax-1.us.uncletopia.com","port":27035,"enabled":true,"region":"us-west","cc":"us","latitude":33.94279,"longitude":-118.41004,"reserved":0,"last_update":"0001-01-01T00:00:00Z","name_a2s":"Uncletopia | Los Angeles | 3 | All Maps","protocol":17,"map":"pl_upward","folder":"tf","game":"Team Fortress","app_id":440,"player_count":24,"max_players":24,"Bots":0,"server_type":"Dedicated","server_os":"Linux","password":true,"vac":true,"version":"7961495","steam_id":85568392924510198,"keywords":["nocrits","nodmgspread","payload","uncletopia"],"game_id":440,"stv_port":27036,"stv_name":"Uncletopia | Los Angeles | 3 | All Maps | STV","players":[{"user_id":138,"name":"Naughty Nurses 2","steam_id":76561198083032219,"connected_time":2823000000000,"state":"active","ping":74},{"user_id":158,"name":"goopgrabber","steam_id":76561199029951083,"connected_time":67000000000,"state":"active","ping":48},{"user_id":157,"name":"samantha","steam_id":76561198049258493,"connected_time":274000000000,"state":"active","ping":89},{"user_id":145,"name":"Bolbi","steam_id":76561198051811597,"connected_time":1811000000000,"state":"active","ping":63},{"user_id":148,"name":"SHANE","steam_id":76561198113500520,"connected_time":1371000000000,"state":"active","ping":71},{"user_id":154,"name":"KickButtNess","steam_id":76561198093986236,"connected_time":1047000000000,"state":"active","ping":47},{"user_id":146,"name":"lightsword24","steam_id":76561198227552556,"connected_time":1425000000000,"state":"active","ping":72},{"user_id":33,"name":"tomandjerry085","steam_id":76561198800789071,"connected_time":10248000000000,"state":"active","ping":166},{"user_id":149,"name":"ĐïɐȐɹɦɆa","steam_id":76561198981411945,"connected_time":1345000000000,"state":"active","ping":63},{"user_id":34,"name":"Harry Rage!!","steam_id":76561198873895549,"connected_time":10242000000000,"state":"active","ping":253},{"user_id":132,"name":"Nato #ClashGG","steam_id":76561198161062837,"connected_time":3285000000000,"state":"active","ping":55},{"user_id":156,"name":"Your angry stepdad","steam_id":76561199148273340,"connected_time":307000000000,"state":"active","ping":180},{"user_id":155,"name":"grim","steam_id":76561198836644182,"connected_time":433000000000,"state":"active","ping":45},{"user_id":133,"name":"A UsedNom","steam_id":76561198402832756,"connected_time":3246000000000,"state":"active","ping":45},{"user_id":140,"name":"Orange Mann Bad","steam_id":76561198021126964,"connected_time":2203000000000,"state":"active","ping":62},{"user_id":124,"name":"cjetson","steam_id":76561198074482272,"connected_time":3812000000000,"state":"active","ping":63},{"user_id":152,"name":"Casper Colorlight","steam_id":76561198065921725,"connected_time":1183000000000,"state":"active","ping":124},{"user_id":150,"name":"Vitreus","steam_id":76561198091059218,"connected_time":1315000000000,"state":"active","ping":72},{"user_id":151,"name":"SirMitziMagee","steam_id":76561197996613556,"connected_time":1298000000000,"state":"active","ping":66},{"user_id":77,"name":"Eden","steam_id":76561198081284664,"connected_time":7743000000000,"state":"active","ping":55},{"user_id":139,"name":"The Horny","steam_id":76561198863639459,"connected_time":2677000000000,"state":"active","ping":174},{"user_id":137,"name":"Freyja","steam_id":76561198207412177,"connected_time":3180000000000,"state":"active","ping":85},{"user_id":64,"name":"Incredible Donk","steam_id":76561198427360423,"connected_time":8566000000000,"state":"active","ping":76},{"user_id":153,"name":"Mattie43","steam_id":76561198012053433,"connected_time":1142000000000,"state":"active","ping":96}]},{"server_id":25,"name":"Uncletopia | Los Angeles | 4 | Stopwatch","name_short":"lax-4","host":"lax-1.us.uncletopia.com","port":27045,"enabled":true,"region":"us-west","cc":"us","latitude":33.94279,"longitude":-118.41004,"reserved":0,"last_update":"0001-01-01T00:00:00Z","name_a2s":"Uncletopia | Los Angeles | 4 | Stopwatch","protocol":17,"map":"workshop/cp_process_f12.ugc2302948105","folder":"tf","game":"Team Fortress","app_id":440,"player_count":1,"max_players":24,"Bots":0,"server_type":"Dedicated","server_os":"Linux","password":true,"vac":true,"version":"7961495","steam_id":85568392924510199,"keywords":["cp","nocrits","nodmgspread","uncletopia"],"game_id":440,"stv_port":27046,"stv_name":"Uncletopia | Los Angeles | 4 | Stopwatch | STV","players":[{"user_id":10,"name":"Jcc989","steam_id":76561198443682389,"connected_time":94000000000,"state":"active","ping":55}]},{"server_id":11,"name":"Uncletopia | London | 1 | All Maps","name_short":"lon-1","host":"lon-1.uk.uncletopia.com","port":27015,"enabled":true,"region":"eu","cc":"gb","latitude":51.509865,"longitude":-0.118092,"reserved":0,"last_update":"0001-01-01T00:00:00Z","name_a2s":"Uncletopia | London | 1 | All Maps","protocol":17,"map":"koth_harvest_final","folder":"tf","game":"Team Fortress","app_id":440,"player_count":24,"max_players":24,"Bots":0,"server_type":"Dedicated","server_os":"Linux","password":true,"vac":true,"version":"7961495","steam_id":85568392924367362,"keywords":["cp","nocrits","nodmgspread","uncletopia"],"game_id":440,"stv_port":27016,"stv_name":"Uncletopia | London | 1 | All Maps | STV","players":[{"user_id":18,"name":"vert2spooky / / 月読命","steam_id":76561198914976373,"connected_time":1536000000000,"state":"active","ping":35},{"user_id":20,"name":"Balls","steam_id":76561198086400484,"connected_time":1342000000000,"state":"active","ping":66},{"user_id":12,"name":"FROG IndigoJones","steam_id":76561198050284262,"connected_time":2115000000000,"state":"active","ping":43},{"user_id":24,"name":"Dot","steam_id":76561198047299145,"connected_time":1132000000000,"state":"active","ping":79},{"user_id":14,"name":"yuno appreciator","steam_id":76561198083286511,"connected_time":2027000000000,"state":"active","ping":33},{"user_id":15,"name":"Neimon","steam_id":76561198343485710,"connected_time":1726000000000,"state":"active","ping":128},{"user_id":44,"name":"jaime","steam_id":76561197980590671,"connected_time":362000000000,"state":"active","ping":75},{"user_id":21,"name":"Ziomek","steam_id":76561199131735098,"connected_time":1331000000000,"state":"active","ping":87},{"user_id":26,"name":"Churre Murre","steam_id":76561199013316825,"connected_time":1072000000000,"state":"active","ping":75},{"user_id":42,"name":"Mika","steam_id":76561199183780280,"connected_time":551000000000,"state":"active","ping":55},{"user_id":27,"name":"Ｍａｃｉｎｔｏｓｈ","steam_id":76561198074294565,"connected_time":968000000000,"state":"active","ping":88},{"user_id":53,"name":"Rudoss","steam_id":76561198018415787,"connected_time":14000000000,"state":"spawning","ping":129},{"user_id":29,"name":"Papa Cheese","steam_id":76561198276351496,"connected_time":916000000000,"state":"active","ping":68},{"user_id":33,"name":"the ball stealer","steam_id":76561198851197980,"connected_time":886000000000,"state":"active","ping":107},{"user_id":34,"name":"Coca162","steam_id":76561198230656540,"connected_time":846000000000,"state":"active","ping":44},{"user_id":36,"name":"murderwow","steam_id":76561198024566944,"connected_time":685000000000,"state":"active","ping":105},{"user_id":37,"name":"Proud Owner of a Sittable Face","steam_id":76561198060735383,"connected_time":653000000000,"state":"active","ping":99},{"user_id":38,"name":"cyber ksiądz","steam_id":76561198092917792,"connected_time":637000000000,"state":"active","ping":91},{"user_id":45,"name":"Purple Soup :D","steam_id":76561198985100366,"connected_time":324000000000,"state":"active","ping":95},{"user_id":51,"name":"concussion gaming","steam_id":76561198425494530,"connected_time":93000000000,"state":"active","ping":170},{"user_id":47,"name":"Yves","steam_id":76561198359804640,"connected_time":316000000000,"state":"active","ping":51},{"user_id":48,"name":"r_mellow","steam_id":76561199185068546,"connected_time":307000000000,"state":"active","ping":128},{"user_id":52,"name":"Soya Suki","steam_id":76561197998106435,"connected_time":65000000000,"state":"spawning","ping":94},{"user_id":54,"name":"yeldad","steam_id":76561198447264153,"connected_time":4000000000,"state":"spawning","ping":109}]},{"server_id":114,"name":"Uncletopia | London | 2 | All Maps","name_short":"lon-2","host":"lon-1.uk.uncletopia.com","port":27025,"enabled":true,"region":"eu","cc":"gb","latitude":51.509865,"longitude":-0.118092,"reserved":0,"last_update":"0001-01-01T00:00:00Z","name_a2s":"Uncletopia | London | 2 | All Maps","protocol":17,"map":"koth_lakeside_final","folder":"tf","game":"Team Fortress","app_id":440,"player_count":0,"max_players":24,"Bots":0,"server_type":"Dedicated","server_os":"Linux","password":true,"vac":true,"version":"7961495","steam_id":85568392924470941,"keywords":["cp","nocrits","nodmgspread","uncletopia"],"game_id":440,"stv_port":27026,"stv_name":"Uncletopia | London | 2 | All Maps | STV","players":null},{"server_id":320,"name":"Uncletopia | London | 3 | All Maps","name_short":"lon-3","host":"lon-1.uk.uncletopia.com","port":27035,"enabled":true,"region":"eu","cc":"gb","latitude":51.509865,"longitude":-0.118092,"reserved":0,"last_update":"0001-01-01T00:00:00Z","name_a2s":"Uncletopia | London | 3 | All Maps","protocol":17,"map":"cp_process_final","folder":"tf","game":"Team Fortress","app_id":440,"player_count":0,"max_players":24,"Bots":0,"server_type":"Dedicated","server_os":"Linux","password":true,"vac":true,"version":"7961495","steam_id":85568392924510192,"keywords":["cp","nocrits","nodmgspread","uncletopia"],"game_id":440,"stv_port":27036,"stv_name":"Uncletopia | London | 3 | All Maps | STV","players":null},{"server_id":321,"name":"Uncletopia | London | 4 | All Maps","name_short":"lon-4","host":"lon-1.uk.uncletopia.com","port":27045,"enabled":true,"region":"eu","cc":"gb","latitude":51.509865,"longitude":-0.118092,"reserved":0,"last_update":"0001-01-01T00:00:00Z","name_a2s":"Uncletopia | London | 4 | All Maps","protocol":17,"map":"koth_cascade","folder":"tf","game":"Team Fortress","app_id":440,"player_count":0,"max_players":24,"Bots":0,"server_type":"Dedicated","server_os":"Linux","password":true,"vac":true,"version":"7961495","steam_id":85568392924510193,"keywords":["cp","nocrits","nodmgspread","uncletopia"],"game_id":440,"stv_port":27046,"stv_name":"Uncletopia | London | 4 | All Maps | STV","players":null},{"server_id":21,"name":"Uncletopia | London | 5 | All Maps","name_short":"lon-5","host":"lon-1.uk.uncletopia.com","port":27055,"enabled":true,"region":"eu","cc":"gb","latitude":51.509865,"longitude":-0.118092,"reserved":0,"last_update":"0001-01-01T00:00:00Z","name_a2s":"Uncletopia | London | 5 | All Maps","protocol":17,"map":"koth_lakeside_final","folder":"tf","game":"Team Fortress","app_id":440,"player_count":0,"max_players":24,"Bots":0,"server_type":"Dedicated","server_os":"Linux","password":true,"vac":true,"version":"7961495","steam_id":85568392924742829,"keywords":["cp","nocrits","nodmgspread","uncletopia"],"game_id":440,"stv_port":27056,"stv_name":"Uncletopia | London | 5 | All Maps | STV","players":null},{"server_id":22,"name":"Uncletopia | London | 6 | All Maps","name_short":"lon-6","host":"lon-1.uk.uncletopia.com","port":27065,"enabled":true,"region":"eu","cc":"gb","latitude":51.509865,"longitude":-0.118092,"reserved":0,"last_update":"0001-01-01T00:00:00Z","name_a2s":"Uncletopia | London | 6 | All Maps","protocol":17,"map":"cp_dustbowl","folder":"tf","game":"Team Fortress","app_id":440,"player_count":0,"max_players":24,"Bots":0,"server_type":"Dedicated","server_os":"Linux","password":true,"vac":true,"version":"7961495","steam_id":85568392924742830,"keywords":["cp","nocrits","nodmgspread","uncletopia"],"game_id":440,"stv_port":27066,"stv_name":"Uncletopia | London | 6 | All Maps | STV","players":null},{"server_id":40,"name":"Uncletopia | London | 7 | Stopwatch","name_short":"lon-7","host":"lon-1.uk.uncletopia.com","port":27075,"enabled":true,"region":"eu","cc":"gb","latitude":51.509865,"longitude":-0.118092,"reserved":0,"last_update":"0001-01-01T00:00:00Z","name_a2s":"Uncletopia | London | 7 | Stopwatch","protocol":17,"map":"koth_lakeside_final","folder":"tf","game":"Team Fortress","app_id":440,"player_count":0,"max_players":24,"Bots":0,"server_type":"Dedicated","server_os":"Linux","password":true,"vac":true,"version":"7961495","steam_id":85568392924964314,"keywords":["cp","nocrits","nodmgspread","uncletopia"],"game_id":440,"stv_port":27076,"stv_name":"Uncletopia | London | 7 | Stopwatch | STV","players":null},{"server_id":41,"name":"Uncletopia | London | 8 | Community","name_short":"lon-8","host":"lon-1.uk.uncletopia.com","port":27085,"enabled":true,"region":"eu","cc":"gb","latitude":51.509865,"longitude":-0.118092,"reserved":0,"last_update":"0001-01-01T00:00:00Z","name_a2s":"Uncletopia | London | 8 | Community","protocol":17,"map":"cp_snakewater_final1","folder":"tf","game":"Team Fortress","app_id":440,"player_count":0,"max_players":24,"Bots":0,"server_type":"Dedicated","server_os":"Linux","password":true,"vac":true,"version":"7961495","steam_id":85568392924964315,"keywords":["cp","nocrits","nodmgspread","uncletopia"],"game_id":440,"stv_port":27086,"stv_name":"Uncletopia | London | 8 | Community | STV","players":null},{"server_id":300,"name":"Uncletopia | Montréal | 1 | One Thousand Uncles","name_short":"mtl-1","host":"mtl-1.ca.uncletopia.com","port":27015,"enabled":true,"region":"us-east","cc":"ca","latitude":45.50889,"longitude":-73.56167,"reserved":0,"last_update":"0001-01-01T00:00:00Z","name_a2s":"","protocol":0,"map":"","folder":"","game":"","app_id":0,"player_count":0,"max_players":0,"Bots":0,"server_type":"","server_os":"","password":false,"vac":false,"version":"","steam_id":0,"keywords":null,"game_id":0,"stv_port":0,"stv_name":"","players":null},{"server_id":301,"name":"Uncletopia | Montréal | 2 | One Thousand Uncles","name_short":"mtl-2","host":"mtl-1.ca.uncletopia.com","port":27025,"enabled":true,"region":"us-east","cc":"ca","latitude":45.50889,"longitude":-73.56167,"reserved":0,"last_update":"0001-01-01T00:00:00Z","name_a2s":"","protocol":0,"map":"","folder":"","game":"","app_id":0,"player_count":0,"max_players":0,"Bots":0,"server_type":"","server_os":"","password":false,"vac":false,"version":"","steam_id":0,"keywords":null,"game_id":0,"stv_port":0,"stv_name":"","players":null},{"server_id":302,"name":"Uncletopia | Montréal | 3 | One Thousand Uncles","name_short":"mtl-3","host":"mtl-1.ca.uncletopia.com","port":27035,"enabled":true,"region":"us-east","cc":"ca","latitude":45.50889,"longitude":-73.56167,"reserved":0,"last_update":"0001-01-01T00:00:00Z","name_a2s":"","protocol":0,"map":"","folder":"","game":"","app_id":0,"player_count":0,"max_players":0,"Bots":0,"server_type":"","server_os":"","password":false,"vac":false,"version":"","steam_id":0,"keywords":null,"game_id":0,"stv_port":0,"stv_name":"","players":null},{"server_id":13,"name":"Uncletopia | New York City | 1 | All Maps","name_short":"nyc-1","host":"nyc-1.us.uncletopia.com","port":27015,"enabled":true,"region":"us-east","cc":"us","latitude":40.73061,"longitude":-73.93524,"reserved":0,"last_update":"0001-01-01T00:00:00Z","name_a2s":"Uncletopia | New York City | 1 | All Maps","protocol":17,"map":"pl_goldrush","folder":"tf","game":"Team Fortress","app_id":440,"player_count":19,"max_players":24,"Bots":0,"server_type":"Dedicated","server_os":"Linux","password":true,"vac":true,"version":"7961495","steam_id":85568392924469993,"keywords":["nocrits","nodmgspread","payload","uncletopia"],"game_id":440,"stv_port":27016,"stv_name":"Uncletopia | New York City | 1 | All Maps | STV","players":[{"user_id":844,"name":"Iamclueless","steam_id":76561199502181327,"connected_time":1408000000000,"state":"active","ping":70},{"user_id":849,"name":"KADE1 23 1","steam_id":76561199473954357,"connected_time":1115000000000,"state":"active","ping":164},{"user_id":791,"name":"CRAZY engineer","steam_id":76561198887937902,"connected_time":4820000000000,"state":"active","ping":58},{"user_id":846,"name":"nyan cat (official)","steam_id":76561198869675719,"connected_time":1212000000000,"state":"active","ping":46},{"user_id":860,"name":"Neapolitan(Elysium)","steam_id":76561199093398934,"connected_time":228000000000,"state":"active","ping":57},{"user_id":771,"name":"Chicken Burger","steam_id":76561198358529311,"connected_time":5735000000000,"state":"active","ping":92},{"user_id":847,"name":"oo7craigmc","steam_id":76561197963910862,"connected_time":1205000000000,"state":"active","ping":55},{"user_id":827,"name":"Samrizo el Chorizo","steam_id":76561198009838162,"connected_time":2006000000000,"state":"active","ping":60},{"user_id":853,"name":"Spy has a gun","steam_id":76561198061610985,"connected_time":899000000000,"state":"active","ping":75},{"user_id":854,"name":"Nanope","steam_id":76561198040056071,"connected_time":887000000000,"state":"active","ping":127},{"user_id":855,"name":"Tonedeft","steam_id":76561198145220502,"connected_time":865000000000,"state":"active","ping":102},{"user_id":798,"name":"isaacn311","steam_id":76561198854372577,"connected_time":3868000000000,"state":"active","ping":54},{"user_id":826,"name":"AlmondMilk","steam_id":76561198151229725,"connected_time":2148000000000,"state":"active","ping":42},{"user_id":858,"name":"Jon Arbuckle","steam_id":76561198153295874,"connected_time":490000000000,"state":"active","ping":130},{"user_id":845,"name":"Noskah","steam_id":76561198065751966,"connected_time":1402000000000,"state":"active","ping":84},{"user_id":766,"name":"tacofever","steam_id":76561198010966507,"connected_time":6491000000000,"state":"active","ping":111},{"user_id":739,"name":"Filthy Hobo","steam_id":76561198174373015,"connected_time":8957000000000,"state":"active","ping":126},{"user_id":835,"name":"[weedgang]XX GODSLAYER XX","steam_id":76561198008332777,"connected_time":1851000000000,"state":"active","ping":61},{"user_id":850,"name":"Hatchitis","steam_id":76561198320346037,"connected_time":1102000000000,"state":"active","ping":132}]},{"server_id":14,"name":"Uncletopia | New York City | 2 | All Maps","name_short":"nyc-2","host":"nyc-1.us.uncletopia.com","port":27025,"enabled":true,"region":"us-east","cc":"us","latitude":40.73061,"longitude":-73.93524,"reserved":0,"last_update":"0001-01-01T00:00:00Z","name_a2s":"Uncletopia | New York City | 2 | All Maps","protocol":17,"map":"plr_hightower","folder":"tf","game":"Team Fortress","app_id":440,"player_count":14,"max_players":24,"Bots":0,"server_type":"Dedicated","server_os":"Linux","password":true,"vac":true,"version":"7961495","steam_id":85568392924469994,"keywords":["nocrits","nodmgspread","payload","uncletopia"],"game_id":440,"stv_port":27026,"stv_name":"Uncletopia | New York City | 2 | All Maps | STV","players":[{"user_id":610,"name":"tac","steam_id":76561198408477421,"connected_time":4756000000000,"state":"active","ping":94},{"user_id":612,"name":"SpaceSanctum","steam_id":76561198805242305,"connected_time":3354000000000,"state":"active","ping":44},{"user_id":613,"name":"googa","steam_id":76561198133130452,"connected_time":3201000000000,"state":"active","ping":44},{"user_id":614,"name":"De","steam_id":76561198206728044,"connected_time":3187000000000,"state":"active","ping":72},{"user_id":632,"name":"Vernas","steam_id":76561198118897256,"connected_time":1310000000000,"state":"active","ping":78},{"user_id":617,"name":"PeePeeMann69","steam_id":76561198170887727,"connected_time":2898000000000,"state":"active","ping":117},{"user_id":618,"name":"Hero","steam_id":76561199239997936,"connected_time":2873000000000,"state":"active","ping":57},{"user_id":637,"name":"Elite_Friendly","steam_id":76561198819972127,"connected_time":400000000000,"state":"active","ping":104},{"user_id":620,"name":"Yoshimelon","steam_id":76561198253054325,"connected_time":2687000000000,"state":"active","ping":76},{"user_id":639,"name":"CatMasterLegendary","steam_id":76561199084867394,"connected_time":84000000000,"state":"active","ping":315},{"user_id":622,"name":"Reisen","steam_id":76561199058442399,"connected_time":2551000000000,"state":"active","ping":44},{"user_id":623,"name":"Tj9107","steam_id":76561199091263700,"connected_time":2500000000000,"state":"active","ping":95},{"user_id":624,"name":"SK Boi","steam_id":76561199041571876,"connected_time":2279000000000,"state":"active","ping":112},{"user_id":626,"name":"LaChancla","steam_id":76561198971528917,"connected_time":2103000000000,"state":"active","ping":89}]},{"server_id":15,"name":"Uncletopia | New York City | 3 | Stopwatch","name_short":"nyc-3","host":"nyc-1.us.uncletopia.com","port":27035,"enabled":true,"region":"us-east","cc":"us","latitude":40.73061,"longitude":-73.93524,"reserved":0,"last_update":"0001-01-01T00:00:00Z","name_a2s":"Uncletopia | New York City | 3 | Stopwatch","protocol":17,"map":"workshop/koth_ashville_final.ugc2130459942","folder":"tf","game":"Team Fortress","app_id":440,"player_count":0,"max_players":24,"Bots":0,"server_type":"Dedicated","server_os":"Linux","password":true,"vac":true,"version":"7961495","steam_id":85568392924742820,"keywords":["cp","nocrits","nodmgspread","uncletopia"],"game_id":440,"stv_port":27036,"stv_name":"Uncletopia | New York City | 3 | Stopwatch | STV","players":null},{"server_id":16,"name":"Uncletopia | New York City | 4 | Community","name_short":"nyc-4","host":"nyc-1.us.uncletopia.com","port":27045,"enabled":true,"region":"us-east","cc":"us","latitude":40.73061,"longitude":-73.93524,"reserved":0,"last_update":"0001-01-01T00:00:00Z","name_a2s":"Uncletopia | New York City | 4 | Community","protocol":17,"map":"workshop/cp_coilblaze_rc7.ugc1272700588","folder":"tf","game":"Team Fortress","app_id":440,"player_count":0,"max_players":24,"Bots":0,"server_type":"Dedicated","server_os":"Linux","password":true,"vac":true,"version":"7961495","steam_id":85568392924742821,"keywords":["cp","nocrits","nodmgspread","uncletopia"],"game_id":440,"stv_port":27046,"stv_name":"Uncletopia | New York City | 4 | Community | STV","players":null},{"server_id":142,"name":"Uncletopia | São Paulo | 1 | All Maps","name_short":"sao-1","host":"sao-1.br.uncletopia.com","port":27015,"enabled":true,"region":"sa","cc":"br","latitude":-23.533773,"longitude":-46.62529,"reserved":0,"last_update":"0001-01-01T00:00:00Z","name_a2s":"Uncletopia | São Paulo | 1 | All Maps","protocol":17,"map":"cp_altitude","folder":"tf","game":"Team Fortress","app_id":440,"player_count":0,"max_players":24,"Bots":0,"server_type":"Dedicated","server_os":"Linux","password":true,"vac":true,"version":"7961495","steam_id":85568392924469996,"keywords":["cp","nocrits","nodmgspread","uncletopia"],"game_id":440,"stv_port":27016,"stv_name":"Uncletopia | São Paulo | 1 | All Maps | STV","players":null},{"server_id":143,"name":"Uncletopia | São Paulo | 2 | Community","name_short":"sao-2","host":"sao-2.br.uncletopia.com","port":27015,"enabled":true,"region":"sa","cc":"br","latitude":-23.533773,"longitude":-46.62529,"reserved":0,"last_update":"0001-01-01T00:00:00Z","name_a2s":"Uncletopia | São Paulo | 2 | Community","protocol":17,"map":"workshop/pl_corrode_rc2.ugc546577989","folder":"tf","game":"Team Fortress","app_id":440,"player_count":0,"max_players":24,"Bots":0,"server_type":"Dedicated","server_os":"Linux","password":true,"vac":true,"version":"7961495","steam_id":85568392924485349,"keywords":["nocrits","nodmgspread","payload","uncletopia"],"game_id":440,"stv_port":27016,"stv_name":"Uncletopia | São Paulo | 2 | Community | STV","players":null},{"server_id":7,"name":"Uncletopia | Seattle | 1 | All Maps","name_short":"sea-1","host":"sea-1.us.uncletopia.com","port":27015,"enabled":true,"region":"us-west","cc":"us","latitude":47.608013,"longitude":-122.33517,"reserved":0,"last_update":"0001-01-01T00:00:00Z","name_a2s":"Uncletopia | Seattle | 1 | All Maps","protocol":17,"map":"pl_pier","folder":"tf","game":"Team Fortress","app_id":440,"player_count":25,"max_players":24,"Bots":0,"server_type":"Dedicated","server_os":"Linux","password":true,"vac":true,"version":"7961495","steam_id":85568392924469997,"keywords":["nocrits","nodmgspread","payload","uncletopia"],"game_id":440,"stv_port":27016,"stv_name":"Uncletopia | Seattle | 1 | All Maps | STV","players":[{"user_id":712,"name":"delight","steam_id":76561197980280272,"connected_time":1042000000000,"state":"active","ping":48},{"user_id":714,"name":"Henchie!","steam_id":76561198047567464,"connected_time":553000000000,"state":"active","ping":81},{"user_id":646,"name":"NEBULA","steam_id":76561198086878595,"connected_time":10888000000000,"state":"active","ping":71},{"user_id":640,"name":"Daz","steam_id":76561198041431938,"connected_time":11587000000000,"state":"active","ping":52},{"user_id":698,"name":"ctap 2 the Jewler","steam_id":76561198169755734,"connected_time":2406000000000,"state":"active","ping":57},{"user_id":717,"name":"*forges your documents* :3","steam_id":76561198134309750,"connected_time":442000000000,"state":"active","ping":219},{"user_id":656,"name":"evilOlive","steam_id":76561198106222025,"connected_time":9884000000000,"state":"active","ping":79},{"user_id":660,"name":"Attrition","steam_id":76561197969881916,"connected_time":9051000000000,"state":"active","ping":56},{"user_id":699,"name":"Toaster (Hamilton Beach)","steam_id":76561198039891934,"connected_time":2405000000000,"state":"active","ping":65},{"user_id":719,"name":"jorts v intoxicated","steam_id":76561199041179985,"connected_time":318000000000,"state":"active","ping":59},{"user_id":695,"name":"kill me","steam_id":76561198032625036,"connected_time":3231000000000,"state":"active","ping":60},{"user_id":722,"name":"roryistheburfdaygorl :))","steam_id":76561198065825165,"connected_time":99000000000,"state":"active","ping":50},{"user_id":666,"name":"Sniff","steam_id":76561198010270922,"connected_time":8575000000000,"state":"active","ping":75},{"user_id":707,"name":"Arsonist Goose","steam_id":76561198147441830,"connected_time":1126000000000,"state":"active","ping":76},{"user_id":700,"name":"jadeite","steam_id":76561198022298676,"connected_time":2404000000000,"state":"active","ping":34},{"user_id":715,"name":"b","steam_id":76561198059604047,"connected_time":551000000000,"state":"active","ping":44},{"user_id":697,"name":"squash","steam_id":76561198150281353,"connected_time":2959000000000,"state":"active","ping":58},{"user_id":692,"name":"fwoov","steam_id":76561198129166260,"connected_time":3728000000000,"state":"active","ping":83},{"user_id":716,"name":"yenseii","steam_id":76561198304265800,"connected_time":548000000000,"state":"active","ping":90},{"user_id":711,"name":"smokin that shit again","steam_id":76561198095480838,"connected_time":1072000000000,"state":"active","ping":46},{"user_id":597,"name":"Sweets","steam_id":76561198998446307,"connected_time":15337000000000,"state":"active","ping":69},{"user_id":588,"name":"Gm_Sweet","steam_id":76561199445091548,"connected_time":16557000000000,"state":"active","ping":60},{"user_id":685,"name":"car crash compilation #34","steam_id":76561198042773724,"connected_time":4614000000000,"state":"active","ping":94},{"user_id":670,"name":"John Calibur","steam_id":76561197999986606,"connected_time":7426000000000,"state":"active","ping":77},{"user_id":703,"name":"Dog","steam_id":76561198041841128,"connected_time":2017000000000,"state":"active","ping":81}]},{"server_id":119,"name":"Uncletopia | Seattle | 2 | All Maps","name_short":"sea-2","host":"sea-1.us.uncletopia.com","port":27025,"enabled":true,"region":"us-west","cc":"us","latitude":47.608013,"longitude":-122.33517,"reserved":0,"last_update":"0001-01-01T00:00:00Z","name_a2s":"Uncletopia | Seattle | 2 | All Maps","protocol":17,"map":"pl_upward","folder":"tf","game":"Team Fortress","app_id":440,"player_count":23,"max_players":24,"Bots":0,"server_type":"Dedicated","server_os":"Linux","password":true,"vac":true,"version":"7961495","steam_id":85568392924469998,"keywords":["nocrits","nodmgspread","payload","uncletopia"],"game_id":440,"stv_port":27026,"stv_name":"Uncletopia | Seattle | 2 | All Maps | STV","players":[{"user_id":350,"name":"DaddyGalaxy","steam_id":76561198139697796,"connected_time":3455000000000,"state":"active","ping":52},{"user_id":348,"name":"Be Gay, Do Crimes, Smoke Weed!","steam_id":76561198092419868,"connected_time":3701000000000,"state":"active","ping":85},{"user_id":381,"name":"fragadelphia","steam_id":76561198066116363,"connected_time":968000000000,"state":"active","ping":50},{"user_id":283,"name":"\u0026Femboy Friday (they/them)","steam_id":76561198027321950,"connected_time":8884000000000,"state":"active","ping":389},{"user_id":342,"name":"MarioLuigi0404","steam_id":76561198252513650,"connected_time":4095000000000,"state":"active","ping":61},{"user_id":357,"name":"mooney","steam_id":76561199110622484,"connected_time":3197000000000,"state":"active","ping":54},{"user_id":376,"name":"IonicMist","steam_id":76561198047105563,"connected_time":1395000000000,"state":"active","ping":45},{"user_id":403,"name":"ッ SStickyrice","steam_id":76561198278306483,"connected_time":139000000000,"state":"active","ping":40},{"user_id":398,"name":"Year Old Bong Water","steam_id":76561198323298672,"connected_time":427000000000,"state":"active","ping":52},{"user_id":377,"name":"Zenire","steam_id":76561199087298510,"connected_time":1332000000000,"state":"active","ping":58},{"user_id":379,"name":"trackpad gaming | f2p","steam_id":76561198840414371,"connected_time":1170000000000,"state":"active","ping":70},{"user_id":371,"name":"orbisg","steam_id":76561198004133638,"connected_time":1980000000000,"state":"active","ping":60},{"user_id":320,"name":"top 10 sidewalks","steam_id":76561198844273999,"connected_time":5478000000000,"state":"active","ping":44},{"user_id":374,"name":"fancyfreak","steam_id":76561198326466375,"connected_time":1482000000000,"state":"active","ping":78},{"user_id":401,"name":"♥butter dog♥ (real)","steam_id":76561198844648825,"connected_time":193000000000,"state":"active","ping":55},{"user_id":362,"name":"Spam The Alien","steam_id":76561199122290968,"connected_time":2697000000000,"state":"active","ping":63},{"user_id":370,"name":"Creeping Python","steam_id":76561198041636923,"connected_time":2135000000000,"state":"active","ping":55},{"user_id":361,"name":"arse77","steam_id":76561198169613105,"connected_time":2948000000000,"state":"active","ping":109},{"user_id":321,"name":"Seriously Bruh","steam_id":76561198070408485,"connected_time":5473000000000,"state":"active","ping":49},{"user_id":402,"name":"Nom Skirrett","steam_id":76561198014600788,"connected_time":192000000000,"state":"active","ping":62},{"user_id":400,"name":"hosewater","steam_id":76561198023383126,"connected_time":203000000000,"state":"active","ping":52},{"user_id":366,"name":"M E M E  M A N","steam_id":76561198103179061,"connected_time":2238000000000,"state":"active","ping":123},{"user_id":386,"name":"doe-mestic terrorist","steam_id":76561198086475372,"connected_time":918000000000,"state":"active","ping":34}]},{"server_id":406,"name":"Uncletopia | Seattle | 3 | Stopwatch","name_short":"sea-3","host":"sea-1.us.uncletopia.com","port":27035,"enabled":true,"region":"us-west","cc":"us","latitude":47.608013,"longitude":-122.33517,"reserved":0,"last_update":"0001-01-01T00:00:00Z","name_a2s":"Uncletopia | Seattle | 3 | Stopwatch","protocol":17,"map":"workshop/cp_reckoner_rc6.ugc674719999","folder":"tf","game":"Team Fortress","app_id":440,"player_count":0,"max_players":24,"Bots":0,"server_type":"Dedicated","server_os":"Linux","password":true,"vac":true,"version":"7961495","steam_id":85568392924515217,"keywords":["cp","nocrits","nodmgspread","uncletopia"],"game_id":440,"stv_port":27036,"stv_name":"Uncletopia | Seattle | 3 | Stopwatch | STV","players":null},{"server_id":17,"name":"Uncletopia | San Francisco | 1 | All Maps","name_short":"sfo-1","host":"sfo-1.us.uncletopia.com","port":27015,"enabled":true,"region":"us-west","cc":"us","latitude":37.77397,"longitude":-122.4313,"reserved":0,"last_update":"0001-01-01T00:00:00Z","name_a2s":"Uncletopia | San Francisco | 1 | All Maps","protocol":17,"map":"cp_gorge","folder":"tf","game":"Team Fortress","app_id":440,"player_count":24,"max_players":24,"Bots":0,"server_type":"Dedicated","server_os":"Linux","password":true,"vac":true,"version":"7961495","steam_id":85568392924469999,"keywords":["cp","nocrits","nodmgspread","uncletopia"],"game_id":440,"stv_port":27016,"stv_name":"Uncletopia | San Francisco | 1 | All Maps | STV","players":[{"user_id":355,"name":"etc_gaming","steam_id":76561199105116172,"connected_time":2863000000000,"state":"active","ping":105},{"user_id":394,"name":"Ace_Bitter","steam_id":76561199446349147,"connected_time":504000000000,"state":"active","ping":78},{"user_id":371,"name":"Mr.Pecklectric","steam_id":76561198115931854,"connected_time":1795000000000,"state":"active","ping":65},{"user_id":339,"name":"Inkora","steam_id":76561198351622498,"connected_time":3845000000000,"state":"active","ping":53},{"user_id":398,"name":"Swifgz","steam_id":76561198162875756,"connected_time":364000000000,"state":"active","ping":112},{"user_id":337,"name":"pat","steam_id":76561198040595468,"connected_time":4022000000000,"state":"active","ping":74},{"user_id":341,"name":"Dr. Bubs","steam_id":76561198011696595,"connected_time":3809000000000,"state":"active","ping":59},{"user_id":399,"name":"josie","steam_id":76561198170848553,"connected_time":355000000000,"state":"active","ping":62},{"user_id":375,"name":"Kasufert","steam_id":76561198068851740,"connected_time":1584000000000,"state":"active","ping":57},{"user_id":396,"name":"Mighty Morphin Flower Arrangers","steam_id":76561198133158032,"connected_time":469000000000,"state":"active","ping":79},{"user_id":390,"name":"JustaTroll","steam_id":76561198351004116,"connected_time":795000000000,"state":"active","ping":58},{"user_id":342,"name":"modal","steam_id":76561198089959935,"connected_time":3724000000000,"state":"active","ping":55},{"user_id":378,"name":"GLIMP","steam_id":76561198094429335,"connected_time":1487000000000,"state":"active","ping":49},{"user_id":386,"name":"Joseph","steam_id":76561199275830628,"connected_time":1347000000000,"state":"active","ping":69},{"user_id":356,"name":"Laventhey","steam_id":76561198977523626,"connected_time":2805000000000,"state":"active","ping":65},{"user_id":400,"name":"Gardangle","steam_id":76561198394173831,"connected_time":348000000000,"state":"active","ping":53},{"user_id":344,"name":"Lemonade Juice","steam_id":76561198402892608,"connected_time":3686000000000,"state":"active","ping":51},{"user_id":387,"name":"090-nsalih","steam_id":76561199467467873,"connected_time":1271000000000,"state":"active","ping":169},{"user_id":366,"name":"caca sniffer","steam_id":76561199099914725,"connected_time":2144000000000,"state":"active","ping":68},{"user_id":381,"name":"Zerodian115","steam_id":76561198273719764,"connected_time":1420000000000,"state":"active","ping":113},{"user_id":333,"name":"Some Dood on the Internet","steam_id":76561198054657687,"connected_time":4844000000000,"state":"active","ping":78},{"user_id":357,"name":"purple hatsune miku","steam_id":76561198108844158,"connected_time":2545000000000,"state":"active","ping":73},{"user_id":401,"name":"bungus99","steam_id":76561198334977151,"connected_time":80000000000,"state":"active","ping":47},{"user_id":353,"name":"lker","steam_id":76561197976975075,"connected_time":3273000000000,"state":"active","ping":96}]},{"server_id":18,"name":"Uncletopia | San Francisco | 2 | All Maps","name_short":"sfo-2","host":"sfo-1.us.uncletopia.com","port":27025,"enabled":true,"region":"us-west","cc":"us","latitude":37.77397,"longitude":-122.4313,"reserved":0,"last_update":"0001-01-01T00:00:00Z","name_a2s":"Uncletopia | San Francisco | 2 | All Maps","protocol":17,"map":"pl_swiftwater_final1","folder":"tf","game":"Team Fortress","app_id":440,"player_count":0,"max_players":24,"Bots":0,"server_type":"Dedicated","server_os":"Linux","password":true,"vac":true,"version":"7961495","steam_id":85568392924470000,"keywords":["nocrits","nodmgspread","payload","uncletopia"],"game_id":440,"stv_port":27026,"stv_name":"Uncletopia | San Francisco | 2 | All Maps | STV","players":null},{"server_id":19,"name":"Uncletopia | San Francisco | 3 | Stopwatch","name_short":"sfo-3","host":"sfo-1.us.uncletopia.com","port":27035,"enabled":true,"region":"us-west","cc":"us","latitude":37.77397,"longitude":-122.4313,"reserved":0,"last_update":"0001-01-01T00:00:00Z","name_a2s":"Uncletopia | San Francisco | 3 | Stopwatch","protocol":17,"map":"koth_highpass","folder":"tf","game":"Team Fortress","app_id":440,"player_count":0,"max_players":24,"Bots":0,"server_type":"Dedicated","server_os":"Linux","password":true,"vac":true,"version":"7961495","steam_id":85568392924742824,"keywords":["cp","nocrits","nodmgspread","uncletopia"],"game_id":440,"stv_port":27036,"stv_name":"Uncletopia | San Francisco | 3 | Stopwatch | STV","players":null},{"server_id":20,"name":"Uncletopia | San Francisco | 4 | Community","name_short":"sfo-4","host":"sfo-1.us.uncletopia.com","port":27045,"enabled":true,"region":"us-west","cc":"us","latitude":37.77397,"longitude":-122.4313,"reserved":0,"last_update":"0001-01-01T00:00:00Z","name_a2s":"Uncletopia | San Francisco | 4 | Community","protocol":17,"map":"workshop/koth_ashville_final.ugc2130459942","folder":"tf","game":"Team Fortress","app_id":440,"player_count":0,"max_players":24,"Bots":0,"server_type":"Dedicated","server_os":"Linux","password":true,"vac":true,"version":"7961495","steam_id":85568392924742826,"keywords":["cp","nocrits","nodmgspread","uncletopia"],"game_id":440,"stv_port":27046,"stv_name":"Uncletopia | San Francisco | 4 | Community | STV","players":null},{"server_id":141,"name":"Uncletopia | Sydney | 1 | All Maps","name_short":"syd-1","host":"syd-1.au.uncletopia.com","port":27015,"enabled":true,"region":"au","cc":"au","latitude":-33.865143,"longitude":151.2099,"reserved":0,"last_update":"0001-01-01T00:00:00Z","name_a2s":"Uncletopia | Sydney | 1 | All Maps","protocol":17,"map":"pl_frontier_final","folder":"tf","game":"Team Fortress","app_id":440,"player_count":20,"max_players":24,"Bots":0,"server_type":"Dedicated","server_os":"Linux","password":true,"vac":true,"version":"7961495","steam_id":85568392924470001,"keywords":["nocrits","nodmgspread","payload","uncletopia"],"game_id":440,"stv_port":27016,"stv_name":"Uncletopia | Sydney | 1 | All Maps | STV","players":[{"user_id":154,"name":"Glockenspe (She/Her)","steam_id":76561199184115241,"connected_time":4050000000000,"state":"active","ping":53},{"user_id":177,"name":"Crazybean","steam_id":76561198042181980,"connected_time":2908000000000,"state":"active","ping":66},{"user_id":210,"name":"Mr Doctor","steam_id":76561198081415999,"connected_time":110000000000,"state":"active","ping":64},{"user_id":169,"name":"{Azura Sarah}","steam_id":76561197989210208,"connected_time":3350000000000,"state":"active","ping":32},{"user_id":197,"name":"Mikey","steam_id":76561198438203131,"connected_time":1235000000000,"state":"active","ping":60},{"user_id":180,"name":"GattlingGoose","steam_id":76561199021498300,"connected_time":2366000000000,"state":"active","ping":60},{"user_id":23,"name":"voxii","steam_id":76561198099698281,"connected_time":17386000000000,"state":"active","ping":71},{"user_id":146,"name":"Pompadouraus","steam_id":76561198327530525,"connected_time":5090000000000,"state":"active","ping":75},{"user_id":198,"name":"Pengegg","steam_id":76561198069941287,"connected_time":1166000000000,"state":"active","ping":97},{"user_id":204,"name":"ok","steam_id":76561199502260307,"connected_time":719000000000,"state":"active","ping":100},{"user_id":187,"name":"LilCringe","steam_id":76561198171135461,"connected_time":1822000000000,"state":"active","ping":53},{"user_id":200,"name":"unlivedbelt5136","steam_id":76561199482577102,"connected_time":1076000000000,"state":"active","ping":68},{"user_id":207,"name":"using a laptop","steam_id":76561199445302425,"connected_time":513000000000,"state":"active","ping":159},{"user_id":202,"name":"Witchus Bitchus","steam_id":76561198068655726,"connected_time":1022000000000,"state":"active","ping":109},{"user_id":195,"name":"Australia","steam_id":76561198182883810,"connected_time":1250000000000,"state":"active","ping":59},{"user_id":209,"name":"Sinister80s","steam_id":76561198343540472,"connected_time":309000000000,"state":"active","ping":69},{"user_id":199,"name":"OOGA","steam_id":76561199332729835,"connected_time":1138000000000,"state":"active","ping":78},{"user_id":185,"name":"♥ BILL!!! ♥","steam_id":76561198066726621,"connected_time":1956000000000,"state":"active","ping":46},{"user_id":205,"name":"da fox in da box","steam_id":76561199190532952,"connected_time":575000000000,"state":"active","ping":68},{"user_id":206,"name":"JGuy_850","steam_id":76561199157185906,"connected_time":527000000000,"state":"active","ping":55}]},{"server_id":123,"name":"Uncletopia | Sydney | 2 | All Maps","name_short":"syd-2","host":"syd-1.au.uncletopia.com","port":27025,"enabled":true,"region":"au","cc":"au","latitude":-33.865143,"longitude":151.2099,"reserved":0,"last_update":"0001-01-01T00:00:00Z","name_a2s":"Uncletopia | Sydney | 2 | All Maps","protocol":17,"map":"pl_frontier_final","folder":"tf","game":"Team Fortress","app_id":440,"player_count":23,"max_players":24,"Bots":0,"server_type":"Dedicated","server_os":"Linux","password":true,"vac":true,"version":"7961495","steam_id":85568392924470002,"keywords":["nocrits","nodmgspread","payload","uncletopia"],"game_id":440,"stv_port":27026,"stv_name":"Uncletopia | Sydney | 2 | All Maps | STV","players":[{"user_id":82,"name":"Reefo","steam_id":76561198161626796,"connected_time":4521000000000,"state":"active","ping":68},{"user_id":106,"name":"The Hall","steam_id":76561198059129270,"connected_time":2712000000000,"state":"active","ping":67},{"user_id":35,"name":"Dadszoo","steam_id":76561198296611122,"connected_time":6891000000000,"state":"active","ping":69},{"user_id":128,"name":"John Pork","steam_id":76561198291410614,"connected_time":804000000000,"state":"active","ping":109},{"user_id":122,"name":"pathway","steam_id":76561198346674092,"connected_time":1811000000000,"state":"active","ping":84},{"user_id":131,"name":"jor","steam_id":76561198027585180,"connected_time":137000000000,"state":"active","ping":46},{"user_id":114,"name":"Fey","steam_id":76561198057682041,"connected_time":2131000000000,"state":"active","ping":68},{"user_id":127,"name":"King Stan II","steam_id":76561198890742309,"connected_time":882000000000,"state":"active","ping":70},{"user_id":109,"name":"Warren","steam_id":76561198120350917,"connected_time":2411000000000,"state":"active","ping":44},{"user_id":73,"name":"Dr Joe Rogan","steam_id":76561198249435392,"connected_time":4728000000000,"state":"active","ping":96},{"user_id":107,"name":"Money Man Jones","steam_id":76561199161637215,"connected_time":2655000000000,"state":"active","ping":92},{"user_id":113,"name":"doctor morbin' (official)","steam_id":76561199365241695,"connected_time":2172000000000,"state":"active","ping":122},{"user_id":80,"name":"Brud","steam_id":76561198123542239,"connected_time":4561000000000,"state":"active","ping":43},{"user_id":112,"name":"F.R.O.G Friend","steam_id":76561198054505772,"connected_time":2180000000000,"state":"active","ping":57},{"user_id":125,"name":"McCrab","steam_id":76561199088821963,"connected_time":1038000000000,"state":"active","ping":83},{"user_id":102,"name":"gamer ;)","steam_id":76561198042826035,"connected_time":3021000000000,"state":"active","ping":91},{"user_id":129,"name":"Malphas","steam_id":76561198011425371,"connected_time":764000000000,"state":"active","ping":61},{"user_id":110,"name":"Mouse Balls","steam_id":76561199037470627,"connected_time":2402000000000,"state":"active","ping":113},{"user_id":119,"name":"I'm using a controller","steam_id":76561198152210509,"connected_time":1946000000000,"state":"active","ping":41},{"user_id":130,"name":"Pug","steam_id":76561198136794372,"connected_time":603000000000,"state":"active","ping":90},{"user_id":111,"name":"Anii","steam_id":76561198257419047,"connected_time":2361000000000,"state":"active","ping":67},{"user_id":126,"name":"TW_light2022","steam_id":76561199393566784,"connected_time":1026000000000,"state":"active","ping":59},{"user_id":116,"name":"United Flow","steam_id":76561198312027554,"connected_time":2088000000000,"state":"active","ping":54}]},{"server_id":395,"name":"Uncletopia | Sydney | 3 | All Maps","name_short":"syd-3","host":"syd-1.au.uncletopia.com","port":27035,"enabled":true,"region":"au","cc":"au","latitude":-33.865143,"longitude":151.2099,"reserved":0,"last_update":"0001-01-01T00:00:00Z","name_a2s":"Uncletopia | Sydney | 3 | All Maps","protocol":17,"map":"koth_lakeside_final","folder":"tf","game":"Team Fortress","app_id":440,"player_count":3,"max_players":24,"Bots":0,"server_type":"Dedicated","server_os":"Linux","password":true,"vac":true,"version":"7961495","steam_id":85568392925194467,"keywords":["cp","nocrits","nodmgspread","uncletopia"],"game_id":440,"stv_port":27036,"stv_name":"Uncletopia | Sydney | 3 | All Maps | STV","players":[{"user_id":24,"name":"monkey (with spoon)","steam_id":76561198301254663,"connected_time":471000000000,"state":"active","ping":60},{"user_id":21,"name":"NastySauce","steam_id":76561198824978577,"connected_time":1537000000000,"state":"active","ping":70},{"user_id":23,"name":"Frøken Ferje","steam_id":76561198948183007,"connected_time":818000000000,"state":"active","ping":59}]},{"server_id":396,"name":"Uncletopia | Sydney | 4 | All Maps","name_short":"syd-4","host":"syd-1.au.uncletopia.com","port":27045,"enabled":true,"region":"au","cc":"au","latitude":-33.865143,"longitude":151.2099,"reserved":0,"last_update":"0001-01-01T00:00:00Z","name_a2s":"Uncletopia | Sydney | 4 | All Maps","protocol":17,"map":"cp_process_final","folder":"tf","game":"Team Fortress","app_id":440,"player_count":0,"max_players":24,"Bots":0,"server_type":"Dedicated","server_os":"Linux","password":true,"vac":true,"version":"7961495","steam_id":85568392925397958,"keywords":["cp","nocrits","nodmgspread","uncletopia"],"game_id":440,"stv_port":27046,"stv_name":"Uncletopia | Sydney | 4 | All Maps | STV","players":null},{"server_id":58,"name":"Uncletopia | Sydney | 5 | Stopwatch","name_short":"syd-5","host":"syd-1.au.uncletopia.com","port":27055,"enabled":true,"region":"au","cc":"au","latitude":-33.865143,"longitude":151.2099,"reserved":0,"last_update":"0001-01-01T00:00:00Z","name_a2s":"Uncletopia | Sydney | 5 | Stopwatch","protocol":17,"map":"pl_frontier_final","folder":"tf","game":"Team Fortress","app_id":440,"player_count":0,"max_players":24,"Bots":0,"server_type":"Dedicated","server_os":"Linux","password":true,"vac":true,"version":"7961495","steam_id":85568392925397959,"keywords":["nocrits","nodmgspread","payload","uncletopia"],"game_id":440,"stv_port":27056,"stv_name":"Uncletopia | Sydney | 5 | Stopwatch | STV","players":null},{"server_id":59,"name":"Uncletopia | Sydney | 6 | Community","name_short":"syd-6","host":"syd-1.au.uncletopia.com","port":27065,"enabled":true,"region":"au","cc":"au","latitude":-33.865143,"longitude":151.2099,"reserved":0,"last_update":"0001-01-01T00:00:00Z","name_a2s":"Uncletopia | Sydney | 6 | Community","protocol":17,"map":"cp_sunshine","folder":"tf","game":"Team Fortress","app_id":440,"player_count":0,"max_players":24,"Bots":0,"server_type":"Dedicated","server_os":"Linux","password":true,"vac":true,"version":"7961495","steam_id":85568392925397960,"keywords":["cp","nocrits","nodmgspread","uncletopia"],"game_id":440,"stv_port":27066,"stv_name":"Uncletopia | Sydney | 6 | Community | STV","players":null},{"server_id":49,"name":"Uncletopia | Warsaw | 1 | One Thousand Uncles","name_short":"waw-1","host":"waw-1.pl.uncletopia.com","port":27015,"enabled":true,"region":"eu","cc":"pl","latitude":52.2297,"longitude":21.017532,"reserved":0,"last_update":"0001-01-01T00:00:00Z","name_a2s":"Uncletopia | Warsaw | 1 | One Thousand Uncles","protocol":17,"map":"cp_mossrock","folder":"tf","game":"Team Fortress","app_id":440,"player_count":24,"max_players":32,"Bots":16,"server_type":"Dedicated","server_os":"Linux","password":true,"vac":true,"version":"7961495","steam_id":85568392925397850,"keywords":["alltalk","bots","cp","danepve","increased_maxplayers","nocrits","norespawntime","uncletopia"],"game_id":440,"stv_port":0,"stv_name":"","players":[{"user_id":42,"name":"froglids","steam_id":76561198045466919,"connected_time":1620000000000,"state":"active","ping":41},{"user_id":20,"name":"Uranus","steam_id":76561198183998715,"connected_time":3106000000000,"state":"active","ping":138},{"user_id":21,"name":"Doctor Sex","steam_id":76561199403229056,"connected_time":3033000000000,"state":"active","ping":80},{"user_id":46,"name":"DaBoi","steam_id":76561199235171429,"connected_time":299000000000,"state":"active","ping":188},{"user_id":44,"name":"korea","steam_id":76561198120520111,"connected_time":853000000000,"state":"active","ping":71},{"user_id":24,"name":"HarmlessCanine2","steam_id":76561198389475312,"connected_time":2508000000000,"state":"active","ping":73},{"user_id":50,"name":"irtaminu","steam_id":76561198388297030,"connected_time":78000000000,"state":"active","ping":102},{"user_id":49,"name":"Artha","steam_id":76561198198453253,"connected_time":141000000000,"state":"active","ping":45}]},{"server_id":50,"name":"Uncletopia | Warsaw | 2 | One Thousand Uncles","name_short":"waw-2","host":"waw-1.pl.uncletopia.com","port":27025,"enabled":true,"region":"eu","cc":"pl","latitude":52.2297,"longitude":21.017532,"reserved":0,"last_update":"0001-01-01T00:00:00Z","name_a2s":"Uncletopia | Warsaw | 2 | One Thousand Uncles","protocol":17,"map":"pl_goldrush","folder":"tf","game":"Team Fortress","app_id":440,"player_count":0,"max_players":32,"Bots":0,"server_type":"Dedicated","server_os":"Linux","password":true,"vac":true,"version":"7961495","steam_id":85568392925397851,"keywords":["alltalk","danepve","increased_maxplayers","nocrits","norespawntime","payload","uncletopia"],"game_id":440,"stv_port":0,"stv_name":"","players":null},{"server_id":51,"name":"Uncletopia | Warsaw | 3 | All Maps","name_short":"waw-3","host":"waw-1.pl.uncletopia.com","port":27035,"enabled":true,"region":"eu","cc":"pl","latitude":52.2297,"longitude":21.017532,"reserved":0,"last_update":"0001-01-01T00:00:00Z","name_a2s":"Uncletopia | Warsaw | 3 | All Maps","protocol":17,"map":"plr_pipeline","folder":"tf","game":"Team Fortress","app_id":440,"player_count":0,"max_players":24,"Bots":0,"server_type":"Dedicated","server_os":"Linux","password":true,"vac":true,"version":"7961495","steam_id":85568392925397852,"keywords":["nocrits","nodmgspread","payload","uncletopia"],"game_id":440,"stv_port":27036,"stv_name":"Uncletopia | Warsaw | 3 | All Maps | STV","players":null},{"server_id":52,"name":"Uncletopia | Warsaw | 4 | All Maps","name_short":"waw-4","host":"waw-1.pl.uncletopia.com","port":27045,"enabled":true,"region":"eu","cc":"pl","latitude":52.2297,"longitude":21.017532,"reserved":0,"last_update":"0001-01-01T00:00:00Z","name_a2s":"Uncletopia | Warsaw | 4 | All Maps","protocol":17,"map":"cp_coldfront","folder":"tf","game":"Team Fortress","app_id":440,"player_count":0,"max_players":24,"Bots":0,"server_type":"Dedicated","server_os":"Linux","password":true,"vac":true,"version":"7961495","steam_id":85568392925397853,"keywords":["cp","nocrits","nodmgspread","uncletopia"],"game_id":440,"stv_port":27046,"stv_name":"Uncletopia | Warsaw | 4 | All Maps | STV","players":null},{"server_id":53,"name":"Uncletopia | Warsaw | 5 | Stopwatch","name_short":"waw-5","host":"waw-1.pl.uncletopia.com","port":27055,"enabled":true,"region":"eu","cc":"pl","latitude":52.2297,"longitude":21.017532,"reserved":0,"last_update":"0001-01-01T00:00:00Z","name_a2s":"Uncletopia | Warsaw | 5 | Stopwatch","protocol":17,"map":"workshop/cp_reckoner_rc6.ugc674719999","folder":"tf","game":"Team Fortress","app_id":440,"player_count":0,"max_players":24,"Bots":0,"server_type":"Dedicated","server_os":"Linux","password":true,"vac":true,"version":"7961495","steam_id":85568392925397854,"keywords":["cp","nocrits","nodmgspread","uncletopia"],"game_id":440,"stv_port":27056,"stv_name":"Uncletopia | Warsaw | 5 | Stopwatch | STV","players":null},{"server_id":54,"name":"Uncletopia | Warsaw | 6 | Community","name_short":"waw-6","host":"waw-1.pl.uncletopia.com","port":27065,"enabled":true,"region":"eu","cc":"pl","latitude":52.2297,"longitude":21.017532,"reserved":0,"last_update":"0001-01-01T00:00:00Z","name_a2s":"Uncletopia | Warsaw | 6 | Community","protocol":17,"map":"workshop/rd_asteroid_redux_b1.ugc2154902912","folder":"tf","game":"Team Fortress","app_id":440,"player_count":0,"max_players":24,"Bots":0,"server_type":"Dedicated","server_os":"Linux","password":true,"vac":true,"version":"7961495","steam_id":85568392925397856,"keywords":["beta","nocrits","nodmgspread","rd","uncletopia"],"game_id":440,"stv_port":27066,"stv_name":"Uncletopia | Warsaw | 6 | Community | STV","players":null}]}