{"status":true,"message":"","result":[{"server_id":9,"name":"Uncletopia | Atlanta | 1 | All Maps","name_short":"atl-1","host":"atl-1.us.uncletopia.com","port":27015,"enabled":true,"region":"us-east","cc":"us","latitude":33.753746,"longitude":-84.38633,"reserved":0,"last_update":"0001-01-01T00:00:00Z","name_a2s":"Uncletopia | Atlanta | 1 | All Maps","protocol":17,"map":"cp_steel","folder":"tf","game":"Team Fortress","app_id":440,"player_count":24,"max_players":24,"Bots":0,"server_type":"Dedicated","server_os":"Linux","password":true,"vac":true,"version":"7961495","steam_id":85568392924469982,"keywords":["cp","nocrits","nodmgspread","uncletopia"],"game_id":440,"stv_port":27016,"stv_name":"Uncletopia | Atlanta | 1 | All Maps | STV","players":null},{"server_id":104,"name":"Uncletopia | Atlanta | 2 | All Maps","name_short":"atl-2","host":"atl-1.us.uncletopia.com","port":27025,"enabled":true,"region":"us-east","cc":"us","latitude":33.753746,"longitude":-84.38633,"reserved":0,"last_update":"0001-01-01T00:00:00Z","name_a2s":"Uncletopia | Atlanta | 2 | All Maps","protocol":17,"map":"koth_cascade","folder":"tf","game":"Team Fortress","app_id":440,"player_count":0,"max_players":24,"Bots":0,"server_type":"Dedicated","server_os":"Linux","password":true,"vac":true,"version":"7961495","steam_id":85568392924469983,"keywords":["cp","nocrits","nodmgspread","uncletopia"],"game_id":440,"stv_port":27026,"stv_name":"Uncletopia | Atlanta | 2 | All Maps | STV","players":null},{"server_id":400,"name":"Uncletopia | Atlanta | 3 | Stopwatch","name_short":"atl-3","host":"atl-1.us.uncletopia.com","port":27035,"enabled":true,"region":"us-east","cc":"us","latitude":33.753746,"longitude":-84.38633,"reserved":0,"last_update":"0001-01-01T00:00:00Z","name_a2s":"Uncletopia | Atlanta | 3 | Stopwatch","protocol":17,"map":"koth_clearcut_b15","folder":"tf","game":"Team Fortress","app_id":440,"player_count":0,"max_players":24,"Bots":0,"server_type":"Dedicated","server_os":"Linux","password":true,"vac":true,"version":"7961495","steam_id":85568392924515187,"keywords":["cp","nocrits","nodmgspread","uncletopia"],"game_id":440,"stv_port":27036,"stv_name":"Uncletopia | Atlanta | 3 | Stopwatch | STV","players":null},{"server_id":401,"name":"Uncletopia | Atlanta | 4 | Community","name_short":"atl-4","host":"atl-1.us.uncletopia.com","port":27045,"enabled":true,"region":"us-east","cc":"us","latitude":33.753746,"longitude":-84.38633,"reserved":0,"last_update":"0001-01-01T00:00:00Z","name_a2s":"Uncletopia | Atlanta | 4 | Community","protocol":17,"map":"koth_bagel_rc6","folder":"tf","game":"Team Fortress","app_id":440,"player_count":0,"max_players":24,"Bots":0,"server_type":"Dedicated","server_os":"Linux","password":true,"vac":true,"version":"7961495","steam_id":85568392924515188,"keywords":["cp","nocrits","nodmgspread","uncletopia"],"game_id":440,"stv_port":27046,"stv_name":"Uncletopia | Atlanta | 4 | Community | STV","players":null},{"server_id":2,"name":"Uncletopia | Chicago | 1 | All Maps","name_short":"chi-1","host":"chi-1.us.uncletopia.com","port":27015,"enabled":true,"region":"us-central","cc":"us","latitude":41.881832,"longitude":-87.62318,"reserved":0,"last_update":"0001-01-01T00:00:00Z","name_a2s":"Uncletopia | Chicago | 1 | All Maps","protocol":17,"map":"pl_badwater","folder":"tf","game":"Team Fortress","app_id":440,"player_count":24,"max_players":24,"Bots":0,"server_type":"Dedicated","server_os":"Linux","password":true,"vac":true,"version":"7961495","steam_id":85568392924469984,"keywords":["nocrits","nodmgspread","payload","uncletopia"],"game_id":440,"stv_port":27016,"stv_name":"Uncletopia | Chicago | 1 | All Maps | STV","players":[{"user_id":32,"name":"Milkmur","steam_id":76561198210043821,"connected_time":4469000000000,"state":"active","ping":68},{"user_id":59,"name":"lexi","steam_id":76561198176299759,"connected_time":3825000000000,"state":"active","ping":75},{"user_id":82,"name":"Broadsword #LGM","steam_id":76561198011160411,"connected_time":2559000000000,"state":"active","ping":92},{"user_id":88,"name":"Pixel","steam_id":76561198129243055,"connected_time":1572000000000,"state":"active","ping":48},{"user_id":43,"name":"cotton","steam_id":76561198018652890,"connected_time":4095000000000,"state":"active","ping":63},{"user_id":96,"name":"Green Mario","steam_id":76561198922644496,"connected_time":640000000000,"state":"active","ping":86},{"user_id":38,"name":"Defragmented","steam_id":76561198854210081,"connected_time":4183000000000,"state":"active","ping":73},{"user_id":39,"name":"Ras","steam_id":76561198123546775,"connected_time":4164000000000,"state":"active","ping":60},{"user_id":70,"name":"Yam Jazzy Jim","steam_id":76561198000788950,"connected_time":3494000000000,"state":"active","ping":68},{"user_id":83,"name":"Hylic","steam_id":76561199051314589,"connected_time":2501000000000,"state":"active","ping":61},{"user_id":81,"name":"Genetic Komodo (He/Him)","steam_id":76561198174806758,"connected_time":2571000000000,"state":"active","ping":64},{"user_id":44,"name":"blob","steam_id":76561198122375328,"connected_time":4061000000000,"state":"active","ping":52},{"user_id":89,"name":"Brown_Dream","steam_id":76561198975766145,"connected_time":1571000000000,"state":"active","ping":83},{"user_id":97,"name":"Mat","steam_id":76561198251432556,"connected_time":639000000000,"state":"active","ping":49},{"user_id":98,"name":"LordOfTheNoobs","steam_id":76561197962697523,"connected_time":638000000000,"state":"active","ping":66},{"user_id":66,"name":"SaaxoM","steam_id":76561198208256603,"connected_time":3642000000000,"state":"active","ping":103},{"user_id":50,"name":"BLÃ˜RG","steam_id":76561198036126673,"connected_time":3961000000000,"state":"active","ping":83},{"user_id":62,"name":"TinyTator","steam_id":76561198799282234,"connected_time":3732000000000,"state":"active","ping":83},{"user_id":94,"name":"Salt","steam_id":76561198418001135,"connected_time":1257000000000,"state":"active","ping":60},{"user_id":86,"name":"Red_Hatkins","steam_id":76561198214004105,"connected_time":2006000000000,"state":"active","ping":89},{"user_id":54,"name":"really hot pocket","steam_id":76561198239297686,"connected_time":3939000000000,"state":"active","ping":66},{"user_id":84,"name":"Lord GabeN","steam_id":76561198140862723,"connected_time":2203000000000,"state":"active","ping":67},{"user_id":95,"name":"loscemo","steam_id":76561197994884609,"connected_time":771000000000,"state":"active","ping":69},{"user_id":92,"name":"[El Fail] MR.BadassMCLee","steam_id":76561198043787818,"connected_time":1555000000000,"state":"active","ping":119}]},{"server_id":106,"name":"Uncletopia | Chicago | 2 | All Maps","name_short":"chi-2","host":"chi-1.us.uncletopia.com","port":27025,"enabled":true,"region":"us-central","cc":"us","latitude":41.881832,"longitude":-87.62318,"reserved":0,"last_update":"0001-01-01T00:00:00Z","name_a2s":"Uncletopia | Chicago | 2 | All Maps","protocol":17,"map":"pl_frontier_final","folder":"tf","game":"Team Fortress","app_id":440,"player_count":24,"max_players":24,"Bots":0,"server_type":"Dedicated","server_os":"Linux","password":true,"vac":true,"version":"7961495","steam_id":85568392924469985,"keywords":["nocrits","nodmgspread","payload","uncletopia"],"game_id":440,"stv_port":27026,"stv_name":"Uncletopia | Chicago | 2 | All Maps | STV","players":[{"user_id":296,"name":"FazeCumShot69â„¢","steam_id":76561199248475270,"connected_time":893000000000,"state":"active","ping":73},{"user_id":260,"name":"Mario","steam_id":76561198053838936,"connected_time":3689000000000,"state":"active","ping":165},{"user_id":297,"name":"Hood Milk","steam_id":76561198049562788,"connected_time":859000000000,"state":"active","ping":76},{"user_id":257,"name":"Hexadecatrack","steam_id":76561198044480181,"connected_time":3821000000000,"state":"active","ping":46},{"user_id":258,"name":"Â¡No te entiendo inglÃ©s!","steam_id":76561198298364415,"connected_time":3820000000000,"state":"active","ping":116},{"user_id":273,"name":"GlingGlop95","steam_id":76561198386865528,"connected_time":2831000000000,"state":"active","ping":76},{"user_id":298,"name":"Fanatic","steam_id":76561198036960509,"connected_time":856000000000,"state":"active","ping":62},{"user_id":299,"name":"It's Me your Father","steam_id":76561198455703197,"connected_time":808000000000,"state":"active","ping":51},{"user_id":308,"name":"Shirm","steam_id":76561198068455981,"connected_time":42000000000,"state":"active","ping":74},{"user_id":269,"name":"Azure","steam_id":76561198260328183,"connected_time":2903000000000,"state":"active","ping":63},{"user_id":277,"name":"furrykiller42069","steam_id":76561198073176682,"connected_time":1996000000000,"state":"active","ping":60},{"user_id":187,"name":"Rornir","steam_id":76561198081829615,"connected_time":9988000000000,"state":"active","ping":32},{"user_id":309,"name":"Whoplops","steam_id":76561197977188933,"connected_time":11000000000,"state":"spawning","ping":61},{"user_id":302,"name":"jack_airshots","steam_id":76561198252328518,"connected_time":774000000000,"state":"active","ping":102},{"user_id":307,"name":"Chicken Nugget","steam_id":76561198152437646,"connected_time":64000000000,"state":"active","ping":59},{"user_id":272,"name":"real gamer hours","steam_id":76561198169329362,"connected_time":2884000000000,"state":"active","ping":54},{"user_id":275,"name":"Terry Crews from Brooklyn 99","steam_id":76561198357806819,"connected_time":2762000000000,"state":"active","ping":81},{"user_id":310,"name":"ravens","steam_id":76561199489391928,"connected_time":7000000000,"state":"spawning","ping":57},{"user_id":284,"name":"QwipQwop","steam_id":76561198019028725,"connected_time":1902000000000,"state":"active","ping":84},{"user_id":292,"name":"QuarticalPhysics","steam_id":76561198061386266,"connected_time":984000000000,"state":"active","ping":74},{"user_id":306,"name":"Charlie","steam_id":76561198798127908,"connected_time":336000000000,"state":"active","ping":74},{"user_id":304,"name":"Hey","steam_id":76561198447517893,"connected_time":724000000000,"state":"active","ping":74},{"user_id":294,"name":"me","steam_id":76561198268654031,"connected_time":952000000000,"state":"active","ping":50},{"user_id":305,"name":"malcute","steam_id":76561198046055673,"connected_time":659000000000,"state":"active","ping":73}]},{"server_id":402,"name":"Uncletopia | Chicago | 3 | All Maps","name_short":"chi-3","host":"chi-1.us.uncletopia.com","port":27035,"enabled":true,"region":"us-central","cc":"us","latitude":41.881832,"longitude":-87.62318,"reserved":0,"last_update":"0001-01-01T00:00:00Z","name_a2s":"Uncletopia | Chicago | 3 | All Maps","protocol":17,"map":"pl_swiftwater_final1","folder":"tf","game":"Team Fortress","app_id":440,"player_count":24,"max_players":24,"Bots":0,"server_type":"Dedicated","server_os":"Linux","password":true,"vac":true,"version":"7961495","steam_id":85568392924515191,"keywords":["nocrits","nodmgspread","payload","uncletopia"],"game_id":440,"stv_port":27036,"stv_name":"Uncletopia | Chicago | 3 | All Maps | STV","players":[{"user_id":196,"name":"the keebler","steam_id":76561199486326945,"connected_time":246000000000,"state":"active","ping":74},{"user_id":194,"name":"The Laptop Situation","steam_id":76561198139174433,"connected_time":276000000000,"state":"active","ping":90},{"user_id":167,"name":"JP\u003c3","steam_id":76561198126686695,"connected_time":2268000000000,"state":"active","ping":66},{"user_id":193,"name":"Amazingamerhawk","steam_id":76561199064935924,"connected_time":320000000000,"state":"active","ping":71},{"user_id":190,"name":"ultralisk52","steam_id":76561198051666604,"connected_time":528000000000,"state":"active","ping":56},{"user_id":181,"name":"YourTypicalG1TTV","steam_id":76561198259443113,"connected_time":900000000000,"state":"active","ping":71},{"user_id":155,"name":"og biden pack cart","steam_id":76561198253731826,"connected_time":3325000000000,"state":"active","ping":59},{"user_id":162,"name":"Lord Cutler Beckett","steam_id":76561198091356047,"connected_time":2640000000000,"state":"active","ping":54},{"user_id":179,"name":"dark108","steam_id":76561198030052475,"connected_time":936000000000,"state":"active","ping":90},{"user_id":189,"name":"Wild_Rumpus","steam_id":76561198066393719,"connected_time":552000000000,"state":"active","ping":45},{"user_id":192,"name":"Torensz64(But weezer)","steam_id":76561198239036482,"connected_time":330000000000,"state":"active","ping":48},{"user_id":198,"name":"Owl Pacino","steam_id":76561197979970666,"connected_time":106000000000,"state":"active","ping":55},{"user_id":139,"name":"chikin.sauce","steam_id":76561198042464635,"connected_time":4895000000000,"state":"active","ping":84},{"user_id":197,"name":"yes daddy","steam_id":76561198166100997,"connected_time":244000000000,"state":"active","ping":73},{"user_id":180,"name":"medic enthusiast","steam_id":76561198323031964,"connected_time":935000000000,"state":"active","ping":66},{"user_id":182,"name":"[NAME-REDACTED]","steam_id":76561198035682975,"connected_time":900000000000,"state":"active","ping":68},{"user_id":151,"name":"Box of Plague","steam_id":76561198051887047,"connected_time":3491000000000,"state":"active","ping":69},{"user_id":183,"name":"Pussy Slambasket","steam_id":76561198093694322,"connected_time":883000000000,"state":"active","ping":52},{"user_id":158,"name":"wroh2801","steam_id":76561199103292218,"connected_time":3257000000000,"state":"active","ping":58},{"user_id":191,"name":"sibling bane ðŸŸ  ãƒ„","steam_id":76561198196769297,"connected_time":400000000000,"state":"active","ping":60},{"user_id":135,"name":"hobo","steam_id":76561198044107141,"connected_time":5238000000000,"state":"active","ping":75},{"user_id":136,"name":"I shat your pants","steam_id":76561198852938533,"connected_time":5200000000000,"state":"active","ping":62},{"user_id":164,"name":"Primal","steam_id":76561197983118203,"connected_time":2303000000000,"state":"active","ping":78},{"user_id":186,"name":"NataKilar","steam_id":76561198041274441,"connected_time":660000000000,"state":"active","ping":64}]},{"server_id":403,"name":"Uncletopia | Chicago | 4 | All Maps","name_short":"chi-4","host":"chi-1.us.uncletopia.com","port":27045,"enabled":true,"region":"us-central","cc":"us","latitude":41.881832,"longitude":-87.62318,"reserved":0,"last_update":"0001-01-01T00:00:00Z","name_a2s":"Uncletopia | Chicago | 4 | All Maps","protocol":17,"map":"pl_barnblitz","folder":"tf","game":"Team Fortress","app_id":440,"player_count":25,"max_players":24,"Bots":0,"server_type":"Dedicated","server_os":"Linux","password":true,"vac":true,"version":"7961495","steam_id":85568392924515193,"keywords":["nocrits","nodmgspread","payload","uncletopia"],"game_id":440,"stv_port":27046,"stv_name":"Uncletopia | Chicago | 4 | All Maps | STV","players":[{"user_id":110,"name":"Clean Lines","steam_id":76561197960691518,"connected_time":1463000000000,"state":"active","ping":53},{"user_id":126,"name":"purple diesel","steam_id":76561197976548449,"connected_time":196000000000,"state":"active","ping":91},{"user_id":106,"name":"Travorski","steam_id":76561198072493142,"connected_time":1723000000000,"state":"active","ping":91},{"user_id":109,"name":"Yongle","steam_id":76561198068591156,"connected_time":1494000000000,"state":"active","ping":52},{"user_id":127,"name":"hoos","steam_id":76561198045985910,"connected_time":138000000000,"state":"active","ping":63},{"user_id":124,"name":"dunker","steam_id":76561198066114874,"connected_time":467000000000,"state":"active","ping":102},{"user_id":97,"name":"Can't Get Right","steam_id":76561198060185301,"connected_time":2481000000000,"state":"active","ping":74},{"user_id":121,"name":"Flyinglab","steam_id":76561198042161408,"connected_time":642000000000,"state":"active","ping":70},{"user_id":128,"name":"The Notorious RBG","steam_id":76561198014275148,"connected_time":122000000000,"state":"active","ping":72},{"user_id":107,"name":"wunkem","steam_id":76561198055948497,"connected_time":1521000000000,"state":"active","ping":59},{"user_id":129,"name":"Cottoneyes","steam_id":76561197994730627,"connected_time":116000000000,"state":"active","ping":77},{"user_id":108,"name":"discopenguin12","steam_id":76561198121959303,"connected_time":1517000000000,"state":"active","ping":77},{"user_id":137,"name":"Dr Nefario","steam_id":76561198254646194,"connected_time":18000000000,"state":"active","ping":61},{"user_id":131,"name":"Greasy Guavas","steam_id":76561198089650428,"connected_time":99000000000,"state":"active","ping":86},{"user_id":132,"name":"Rat Bastard","steam_id":76561198153443658,"connected_time":99000000000,"state":"active","ping":84},{"user_id":42,"name":"Blitzy","steam_id":76561198149472890,"connected_time":6690000000000,"state":"active","ping":74},{"user_id":125,"name":"Verathragna","steam_id":76561198067215453,"connected_time":290000000000,"state":"active","ping":74},{"user_id":122,"name":"ratie","steam_id":76561198059399661,"connected_time":569000000000,"state":"active","ping":75},{"user_id":134,"name":"Mathatguy","steam_id":76561198225432188,"connected_time":66000000000,"state":"active","ping":97},{"user_id":138,"name":"wooba_doobaman","steam_id":76561199390243008,"connected_time":18000000000,"state":"spawning","ping":43},{"user_id":67,"name":"ðŸ…œðŸ…”ðŸ…”ðŸ…šðŸ…¢ðŸ…£ðŸ…”\ufffd\ufffd\ufffd","steam_id":76561197999748343,"connected_time":4945000000000,"state":"active","ping":60},{"user_id":114,"name":"Discourse","steam_id":76561198984286678,"connected_time":1416000000000,"state":"active","ping":59},{"user_id":119,"name":"killerpi","steam_id":76561198007786114,"connected_time":908000000000,"state":"active","ping":82},{"user_id":139,"name":"Enkephalin","steam_id":76561197961857291,"connected_time":3000000000,"state":"spawning","ping":58},{"user_id":136,"name":"yomommasabitch","steam_id":76561198323217150,"connected_time":57000000000,"state":"active","ping":73}]},{"server_id":36,"name":"Uncletopia | Chicago | 5 | All Maps","name_short":"chi-5","host":"chi-2.us.uncletopia.com","port":27015,"enabled":true,"region":"us-central","cc":"us","latitude":41.881832,"longitude":-87.62318,"reserved":0,"last_update":"0001-01-01T00:00:00Z","name_a2s":"Uncletopia | Chicago | 5 | All Maps","protocol":17,"map":"koth_viaduct","folder":"tf","game":"Team Fortress","app_id":440,"player_count":0,"max_players":24,"Bots":0,"server_type":"Dedicated","server_os":"Linux","password":true,"vac":true,"version":"7961495","steam_id":85568392924866362,"keywords":["cp","nocrits","nodmgspread","uncletopia"],"game_id":440,"stv_port":27016,"stv_name":"Uncletopia | Chicago | 5 | All Maps | STV","players":null},{"server_id":37,"name":"Uncletopia | Chicago | 6 | All Maps","name_short":"chi-6","host":"chi-2.us.uncletopia.com","port":27025,"enabled":true,"region":"us-central","cc":"us","latitude":41.881832,"longitude":-87.62318,"reserved":0,"last_update":"0001-01-01T00:00:00Z","name_a2s":"Uncletopia | Chicago | 6 | All Maps","protocol":17,"map":"pl_frontier_final","folder":"tf","game":"Team Fortress","app_id":440,"player_count":24,"max_players":24,"Bots":0,"server_type":"Dedicated","server_os":"Linux","password":true,"vac":true,"version":"7961495","steam_id":85568392924866363,"keywords":["nocrits","nodmgspread","payload","uncletopia"],"game_id":440,"stv_port":27026,"stv_name":"Uncletopia | Chicago | 6 | All Maps | STV","players":[{"user_id":542,"name":"Kollateral","steam_id":76561198845860800,"connected_time":676000000000,"state":"active","ping":115},{"user_id":543,"name":"qFrontier","steam_id":76561199103766971,"connected_time":570000000000,"state":"active","ping":56},{"user_id":527,"name":"Argo","steam_id":76561198353725622,"connected_time":2587000000000,"state":"active","ping":75},{"user_id":544,"name":"Garfelf","steam_id":76561198419850129,"connected_time":566000000000,"state":"active","ping":128},{"user_id":528,"name":"Bounter","steam_id":76561198072614188,"connected_time":1923000000000,"state":"active","ping":146},{"user_id":557,"name":"jinxxedbyu2","steam_id":76561198341045051,"connected_time":348000000000,"state":"active","ping":65},{"user_id":545,"name":"TransPuppygirl","steam_id":76561198085813708,"connected_time":557000000000,"state":"active","ping":60},{"user_id":534,"name":"Antwan","steam_id":76561198246200638,"connected_time":1407000000000,"state":"active","ping":73},{"user_id":519,"name":"Smashy","steam_id":76561198030704307,"connected_time":3136000000000,"state":"active","ping":74},{"user_id":547,"name":"Sparse","steam_id":76561198865084441,"connected_time":548000000000,"state":"active","ping":76},{"user_id":541,"name":"Zawg","steam_id":76561198346423306,"connected_time":781000000000,"state":"active","ping":66},{"user_id":535,"name":"Lex","steam_id":76561198069948353,"connected_time":1214000000000,"state":"active","ping":80},{"user_id":548,"name":"TinnCann","steam_id":76561198370910909,"connected_time":523000000000,"state":"active","ping":101},{"user_id":530,"name":"riSygneD","steam_id":76561198331618687,"connected_time":1804000000000,"state":"active","ping":95},{"user_id":456,"name":"soymilksteak","steam_id":76561198001488041,"connected_time":7040000000000,"state":"active","ping":89},{"user_id":549,"name":"Dracodemus","steam_id":76561198079518597,"connected_time":516000000000,"state":"active","ping":58},{"user_id":550,"name":"John Knox","steam_id":76561198097579897,"connected_time":493000000000,"state":"active","ping":90},{"user_id":551,"name":"Kaluka","steam_id":76561198036861445,"connected_time":491000000000,"state":"active","ping":76},{"user_id":560,"name":"ZombieSlayer77","steam_id":76561199023974356,"connected_time":66000000000,"state":"active","ping":86},{"user_id":559,"name":"Hubert, The Elder God","steam_id":76561198858302015,"connected_time":162000000000,"state":"active","ping":88},{"user_id":558,"name":"Robot Rocker","steam_id":76561198050718267,"connected_time":339000000000,"state":"active","ping":57},{"user_id":555,"name":"Noid","steam_id":76561198227804500,"connected_time":434000000000,"state":"active","ping":80},{"user_id":556,"name":"Mury","steam_id":76561198069743049,"connected_time":430000000000,"state":"active","ping":116},{"user_id":506,"name":"Chloemew","steam_id":76561198042071762,"connected_time":3917000000000,"state":"active","ping":151}]},{"server_id":38,"name":"Uncletopia | Chicago | 7 | Stopwatch","name_short":"chi-7","host":"chi-2.us.uncletopia.com","port":27035,"enabled":true,"region":"us-central","cc":"us","latitude":41.881832,"longitude":-87.62318,"reserved":0,"last_update":"0001-01-01T00:00:00Z","name_a2s":"Uncletopia | Chicago | 7 | Stopwatch","protocol":17,"map":"pl_borneo","folder":"tf","game":"Team Fortress","app_id":440,"player_count":0,"max_players":24,"Bots":0,"server_type":"Dedicated","server_os":"Linux","password":true,"vac":true,"version":"7961495","steam_id":85568392924866364,"keywords":["nocrits","nodmgspread","payload","uncletopia"],"game_id":440,"stv_port":27036,"stv_name":"Uncletopia | Chicago | 7 | Stopwatch | STV","players":null},{"server_id":39,"name":"Uncletopia | Chicago | 8 | Community","name_short":"chi-8","host":"chi-2.us.uncletopia.com","port":27045,"enabled":true,"region":"us-central","cc":"us","latitude":41.881832,"longitude":-87.62318,"reserved":0,"last_update":"0001-01-01T00:00:00Z","name_a2s":"Uncletopia | Chicago | 8 | Community","protocol":17,"map":"pl_pier","folder":"tf","game":"Team Fortress","app_id":440,"player_count":0,"max_players":24,"Bots":0,"server_type":"Dedicated","server_os":"Linux","password":true,"vac":true,"version":"7961495","steam_id":85568392924866365,"keywords":["nocrits","nodmgspread","payload","uncletopia"],"game_id":440,"stv_port":27046,"stv_name":"Uncletopia | Chicago | 8 | Community | STV","players":null},{"server_id":8,"name":"Uncletopia | Dallas | 1 | All Maps","name_short":"dal-1","host":"dal-1.us.uncletopia.com","port":27015,"enabled":true,"region":"us-central","cc":"us","latitude":32.779167,"longitude":-96.80889,"reserved":0,"last_update":"0001-01-01T00:00:00Z","name_a2s":"Uncletopia | Dallas | 1 | All Maps","protocol":17,"map":"pl_badwater","folder":"tf","game":"Team Fortress","app_id":440,"player_count":24,"max_players":24,"Bots":0,"server_type":"Dedicated","server_os":"Linux","password":true,"vac":true,"version":"7961495","steam_id":85568392924469986,"keywords":["nocrits","nodmgspread","payload","uncletopia"],"game_id":440,"stv_port":27016,"stv_name":"Uncletopia | Dallas | 1 | All Maps | STV","players":[{"user_id":97,"name":"Aerobro","steam_id":76561198033530996,"connected_time":171000000000,"state":"active","ping":67},{"user_id":90,"name":"Suburban Wolf Dad","steam_id":76561198069234954,"connected_time":888000000000,"state":"active","ping":70},{"user_id":77,"name":"mata","steam_id":76561198083884120,"connected_time":1535000000000,"state":"active","ping":69},{"user_id":87,"name":"FearTheJynx","steam_id":76561198136487957,"connected_time":964000000000,"state":"active","ping":60},{"user_id":74,"name":"firefly","steam_id":76561198151308698,"connected_time":1610000000000,"state":"active","ping":49},{"user_id":31,"name":"bup","steam_id":76561198082915756,"connected_time":3977000000000,"state":"active","ping":66},{"user_id":93,"name":"Levi","steam_id":76561198089832776,"connected_time":807000000000,"state":"active","ping":56},{"user_id":96,"name":"Donkski","steam_id":76561198406895347,"connected_time":202000000000,"state":"active","ping":62},{"user_id":34,"name":"GROOMER KILLER","steam_id":76561198059500571,"connected_time":3851000000000,"state":"active","ping":71},{"user_id":35,"name":"Artgrendadier","steam_id":76561198063305359,"connected_time":3836000000000,"state":"active","ping":91},{"user_id":36,"name":"Gerard","steam_id":76561198053456194,"connected_time":3828000000000,"state":"active","ping":60},{"user_id":92,"name":"Spaceman","steam_id":76561198098025074,"connected_time":874000000000,"state":"active","ping":56},{"user_id":101,"name":"Hiryuu","steam_id":76561198025267260,"connected_time":118000000000,"state":"active","ping":85},{"user_id":58,"name":"Seskova","steam_id":76561198090207032,"connected_time":3164000000000,"state":"active","ping":116},{"user_id":88,"name":"biggamehntr887","steam_id":76561198999431215,"connected_time":928000000000,"state":"active","ping":74},{"user_id":86,"name":"Mikael_01","steam_id":76561199080253129,"connected_time":1135000000000,"state":"active","ping":180},{"user_id":98,"name":"Weegee","steam_id":76561198043900040,"connected_time":154000000000,"state":"active","ping":87},{"user_id":51,"name":"S1r Gibby","steam_id":76561198107152354,"connected_time":3327000000000,"state":"active","ping":65},{"user_id":54,"name":"yesod","steam_id":76561198212866289,"connected_time":3245000000000,"state":"active","ping":82},{"user_id":70,"name":"Zesty Zucchini Ziti","steam_id":76561198092494136,"connected_time":2107000000000,"state":"active","ping":46},{"user_id":100,"name":"wangi","steam_id":76561198165049815,"connected_time":140000000000,"state":"active","ping":88},{"user_id":69,"name":"Cursed Frog","steam_id":76561198090419068,"connected_time":2132000000000,"state":"active","ping":137},{"user_id":68,"name":"Mr. Dickâ„¢","steam_id":76561198047309044,"connected_time":2263000000000,"state":"active","ping":61},{"user_id":102,"name":"SomeRandomCat","steam_id":76561199107044061,"connected_time":113000000000,"state":"active","ping":51}]},{"server_id":108,"name":"Uncletopia | Dallas | 2 | All Maps","name_short":"dal-2","host":"dal-1.us.uncletopia.com","port":27025,"enabled":true,"region":"us-central","cc":"us","latitude":32.779167,"longitude":-96.80889,"reserved":0,"last_update":"0001-01-01T00:00:00Z","name_a2s":"Uncletopia | Dallas | 2 | All Maps","protocol":17,"map":"cp_snakewater_final1","folder":"tf","game":"Team Fortress","app_id":440,"player_count":24,"max_players":24,"Bots":0,"server_type":"Dedicated","server_os":"Linux","password":true,"vac":true,"version":"7961495","steam_id":85568392924469988,"keywords":["cp","nocrits","nodmgspread","uncletopia"],"game_id":440,"stv_port":27026,"stv_name":"Uncletopia | Dallas | 2 | All Maps | STV","players":[{"user_id":254,"name":"Necrow","steam_id":76561198829927596,"connected_time":2768000000000,"state":"active","ping":71},{"user_id":189,"name":"Rob","steam_id":76561199187786660,"connected_time":7793000000000,"state":"active","ping":53},{"user_id":246,"name":"Chuck Sneed","steam_id":76561197993840611,"connected_time":3124000000000,"state":"active","ping":135},{"user_id":230,"name":"Smug","steam_id":76561198448205229,"connected_time":4306000000000,"state":"active","ping":69},{"user_id":219,"name":"ufo","steam_id":76561198018514993,"connected_time":4859000000000,"state":"active","ping":44},{"user_id":261,"name":"stateside","steam_id":76561198171671839,"connected_time":2059000000000,"state":"active","ping":91},{"user_id":194,"name":"Your Dadâ„¢","steam_id":76561198254739340,"connected_time":7127000000000,"state":"active","ping":90},{"user_id":198,"name":"Gary Busey","steam_id":76561197970096950,"connected_time":6800000000000,"state":"active","ping":40},{"user_id":252,"name":"Genki","steam_id":76561198044854333,"connected_time":3020000000000,"state":"active","ping":98},{"user_id":244,"name":"17 eyelid hornets","steam_id":76561198052431073,"connected_time":3217000000000,"state":"active","ping":45},{"user_id":253,"name":"mkl","steam_id":76561197986401685,"connected_time":2803000000000,"state":"active","ping":57},{"user_id":233,"name":"Glaceon","steam_id":76561198177715869,"connected_time":4035000000000,"state":"active","ping":65},{"user_id":265,"name":"CipherlockYT","steam_id":76561198075994493,"connected_time":1550000000000,"state":"active","ping":75},{"user_id":276,"name":"tube sock","steam_id":76561198073576350,"connected_time":31000000000,"state":"active","ping":177},{"user_id":236,"name":"_Nyar__","steam_id":76561198048511146,"connected_time":3910000000000,"state":"active","ping":72},{"user_id":273,"name":"NormanVillage","steam_id":76561198330337371,"connected_time":754000000000,"state":"active","ping":100},{"user_id":255,"name":"PoneD","steam_id":76561198110953001,"connected_time":2668000000000,"state":"active","ping":60},{"user_id":272,"name":"Ellestrogen","steam_id":76561198072191023,"connected_time":1356000000000,"state":"active","ping":60},{"user_id":275,"name":"hog cranker","steam_id":76561198073587145,"connected_time":219000000000,"state":"active","ping":102},{"user_id":269,"name":"bobbymcbobington","steam_id":76561199089411172,"connected_time":1470000000000,"state":"active","ping":123},{"user_id":190,"name":"mterbay","steam_id":76561198023473264,"connected_time":7593000000000,"state":"active","ping":69},{"user_id":270,"name":"DMM","steam_id":76561198065426171,"connected_time":1468000000000,"state":"active","ping":58},{"user_id":250,"name":"Zaid","steam_id":76561199142840666,"connected_time":3073000000000,"state":"active","ping":150},{"user_id":251,"name":"Scoter1009","steam_id":76561198315464837,"connected_time":3069000000000,"state":"active","ping":93}]},{"server_id":404,"name":"Uncletopia | Dallas | 3 | All Maps","name_short":"dal-3","host":"dal-1.us.uncletopia.com","port":27035,"enabled":true,"region":"us-central","cc":"us","latitude":32.779167,"longitude":-96.80889,"reserved":0,"last_update":"0001-01-01T00:00:00Z","name_a2s":"Uncletopia | Dallas | 3 | All Maps","protocol":17,"map":"pl_pier","folder":"tf","game":"Team Fortress","app_id":440,"player_count":0,"max_players":24,"Bots":0,"server_type":"Dedicated","server_os":"Linux","password":true,"vac":true,"version":"7961495","steam_id":85568392924515219,"keywords":["nocrits","nodmgspread","payload","uncletopia"],"game_id":440,"stv_port":27036,"stv_name":"Uncletopia | Dallas | 3 | All Maps | STV","players":null},{"server_id":405,"name":"Uncletopia | Dallas | 4 | Community","name_short":"dal-4","host":"dal-1.us.uncletopia.com","port":27045,"enabled":true,"region":"us-central","cc":"us","latitude":32.779167,"longitude":-96.80889,"reserved":0,"last_update":"0001-01-01T00:00:00Z","name_a2s":"Uncletopia | Dallas | 4 | Community","protocol":17,"map":"pl_pier","folder":"tf","game":"Team Fortress","app_id":440,"player_count":2,"max_players":24,"Bots":0,"server_type":"Dedicated","server_os":"Linux","password":true,"vac":true,"version":"7961495","steam_id":85568392924515220,"keywords":["nocrits","nodmgspread","payload","uncletopia"],"game_id":440,"stv_port":27046,"stv_name":"Uncletopia | Dallas | 4 | Community | STV","players":[{"user_id":3,"name":"Egg Guzzler","steam_id":76561199109194893,"connected_time":313000000000,"state":"active","ping":91},{"user_id":4,"name":"KO_Dragon","steam_id":76561198978592266,"connected_time":302000000000,"state":"active","ping":80}]},{"server_id":5,"name":"Uncletopia | Frankfurt | 1 | All Maps","name_short":"frk-1","host":"frk-1.de.uncletopia.com","port":27015,"enabled":true,"region":"eu","cc":"de","latitude":50.110924,"longitude":8.682127,"reserved":0,"last_update":"0001-01-01T00:00:00Z","name_a2s":"Uncletopia | Frankfurt | 1 | All Maps","protocol":17,"map":"pl_badwater","folder":"tf","game":"Team Fortress","app_id":440,"player_count":24,"max_players":24,"Bots":0,"server_type":"Dedicated","server_os":"Linux","password":true,"vac":true,"version":"7961495","steam_id":85568392924469989,"keywords":["nocrits","nodmgspread","payload","uncletopia"],"game_id":440,"stv_port":27016,"stv_name":"Uncletopia | Frankfurt | 1 | All Maps | STV","players":[{"user_id":247,"name":"\u003e\u003c\u003e","steam_id":76561198152392309,"connected_time":2290000000000,"state":"active","ping":43},{"user_id":266,"name":"mohemmedmokhter2005","steam_id":76561199197650506,"connected_time":991000000000,"state":"active","ping":100},{"user_id":203,"name":"hey tutorial heads","steam_id":76561197993777553,"connected_time":7574000000000,"state":"active","ping":59},{"user_id":250,"name":"generic alias","steam_id":76561198271607226,"connected_time":1927000000000,"state":"active","ping":100},{"user_id":261,"name":"Xtis","steam_id":76561198043837480,"connected_time":1089000000000,"state":"active","ping":66},{"user_id":251,"name":"Call me Joe","steam_id":76561198988511380,"connected_time":1885000000000,"state":"active","ping":67},{"user_id":177,"name":"Vershal Smershal","steam_id":76561198116223995,"connected_time":9535000000000,"state":"active","ping":61},{"user_id":192,"name":"Bobirulez","steam_id":76561198009125458,"connected_time":8374000000000,"state":"active","ping":74},{"user_id":269,"name":"Mr_Joergen","steam_id":76561198364713702,"connected_time":86000000000,"state":"active","ping":67},{"user_id":249,"name":"Axxion","steam_id":76561198083142916,"connected_time":1976000000000,"state":"active","ping":58},{"user_id":260,"name":"â¸¸auraâ¸¸","steam_id":76561198066258544,"connected_time":1126000000000,"state":"active","ping":46},{"user_id":267,"name":"Joo â™¦","steam_id":76561197987609203,"connected_time":841000000000,"state":"active","ping":73},{"user_id":268,"name":"Elsuedi","steam_id":76561198074722832,"connected_time":704000000000,"state":"active","ping":50},{"user_id":232,"name":"Fat Pigeon","steam_id":76561198817940142,"connected_time":3657000000000,"state":"active","ping":49},{"user_id":254,"name":"Lorenzo Lovers","steam_id":76561198073973581,"connected_time":1540000000000,"state":"active","ping":74},{"user_id":244,"name":"hananamanna","steam_id":76561198006570285,"connected_time":2877000000000,"state":"active","ping":100},{"user_id":263,"name":"Kahvi","steam_id":76561198723244199,"connected_time":1065000000000,"state":"active","ping":83},{"user_id":217,"name":"Just Navlis (on the scoreboard)","steam_id":76561198090479609,"connected_time":5658000000000,"state":"active","ping":45},{"user_id":264,"name":"Kentucky Fried Crab","steam_id":76561198035586715,"connected_time":1060000000000,"state":"active","ping":112},{"user_id":265,"name":"Lowbird","steam_id":76561198137424821,"connected_time":1055000000000,"state":"active","ping":55},{"user_id":252,"name":"Jucatron","steam_id":76561198044259577,"connected_time":1870000000000,"state":"active","ping":93},{"user_id":242,"name":"Fish 'n' Chips","steam_id":76561198033476886,"connected_time":2947000000000,"state":"active","ping":50},{"user_id":270,"name":"yardy","steam_id":76561198079410772,"connected_time":28000000000,"state":"active","ping":89},{"user_id":253,"name":"Marxeline","steam_id":76561198315098896,"connected_time":1703000000000,"state":"active","ping":44}]},{"server_id":110,"name":"Uncletopia | Frankfurt | 2 | All Maps","name_short":"frk-2","host":"frk-1.de.uncletopia.com","port":27025,"enabled":true,"region":"eu","cc":"de","latitude":50.110924,"longitude":8.682127,"reserved":0,"last_update":"0001-01-01T00:00:00Z","name_a2s":"Uncletopia | Frankfurt | 2 | All Maps","protocol":17,"map":"pl_swiftwater_final1","folder":"tf","game":"Team Fortress","app_id":440,"player_count":24,"max_players":24,"Bots":0,"server_type":"Dedicated","server_os":"Linux","password":true,"vac":true,"version":"7961495","steam_id":85568392924469990,"keywords":["nocrits","nodmgspread","payload","uncletopia"],"game_id":440,"stv_port":27026,"stv_name":"Uncletopia | Frankfurt | 2 | All Maps | STV","players":[{"user_id":386,"name":"golfmastr","steam_id":76561198993144124,"connected_time":2936000000000,"state":"active","ping":75},{"user_id":402,"name":"lillunya â™¡","steam_id":76561198330418866,"connected_time":1864000000000,"state":"active","ping":60},{"user_id":398,"name":"Vitun vittu","steam_id":76561198110679463,"connected_time":2239000000000,"state":"active","ping":72},{"user_id":416,"name":"TreatFly","steam_id":76561198069707362,"connected_time":459000000000,"state":"active","ping":70},{"user_id":400,"name":"eLBeeN","steam_id":76561198103975666,"connected_time":2139000000000,"state":"active","ping":77},{"user_id":418,"name":"humble genius","steam_id":76561198243808680,"connected_time":372000000000,"state":"active","ping":57},{"user_id":421,"name":"Khrinde","steam_id":76561198036744526,"connected_time":94000000000,"state":"active","ping":101},{"user_id":389,"name":"MeleeMeta","steam_id":76561198237963558,"connected_time":2631000000000,"state":"active","ping":60},{"user_id":422,"name":"Vince","steam_id":76561199103000131,"connected_time":65000000000,"state":"active","ping":58},{"user_id":408,"name":"FPFP","steam_id":76561198026073059,"connected_time":1176000000000,"state":"active","ping":77},{"user_id":412,"name":"HazelForest","steam_id":76561198171827033,"connected_time":730000000000,"state":"active","ping":70},{"user_id":413,"name":"Pats","steam_id":76561198418538887,"connected_time":628000000000,"state":"active","ping":98},{"user_id":391,"name":"taste Fanta through your balls","steam_id":76561198823497252,"connected_time":2620000000000,"state":"active","ping":47},{"user_id":415,"name":"Eujekas","steam_id":76561198010527145,"connected_time":594000000000,"state":"active","ping":87},{"user_id":411,"name":"tl.rybar","steam_id":76561197960377282,"connected_time":854000000000,"state":"active","ping":85},{"user_id":420,"name":"Janfors","steam_id":76561198874152503,"connected_time":281000000000,"state":"active","ping":79},{"user_id":329,"name":"Durin sein Vater","steam_id":76561198021246713,"connected_time":7275000000000,"state":"active","ping":41},{"user_id":404,"name":"nyanezt","steam_id":76561198253734265,"connected_time":1688000000000,"state":"active","ping":107},{"user_id":375,"name":"zazuza","steam_id":76561198049820905,"connected_time":4444000000000,"state":"active","ping":66},{"user_id":419,"name":"j","steam_id":76561198299474630,"connected_time":319000000000,"state":"active","ping":45},{"user_id":380,"name":"Nittugai","steam_id":76561198067366462,"connected_time":3720000000000,"state":"active","ping":60},{"user_id":374,"name":"Vonacht","steam_id":76561198016033944,"connected_time":4451000000000,"state":"active","ping":70},{"user_id":396,"name":"s a i","steam_id":76561197970379754,"connected_time":2522000000000,"state":"active","ping":50},{"user_id":423,"name":"Ab0nis","steam_id":76561197977179613,"connected_time":58000000000,"state":"active","ping":146}]},{"server_id":308,"name":"Uncletopia | Frankfurt | 3 | All Maps","name_short":"frk-3","host":"frk-1.de.uncletopia.com","port":27035,"enabled":true,"region":"eu","cc":"de","latitude":50.110924,"longitude":8.682127,"reserved":0,"last_update":"0001-01-01T00:00:00Z","name_a2s":"Uncletopia | Frankfurt | 3 | All Maps","protocol":17,"map":"cp_process_final","folder":"tf","game":"Team Fortress","app_id":440,"player_count":17,"max_players":24,"Bots":0,"server_type":"Dedicated","server_os":"Linux","password":true,"vac":true,"version":"7961495","steam_id":85568392924504274,"keywords":["cp","nocrits","nodmgspread","uncletopia"],"game_id":440,"stv_port":27036,"stv_name":"Uncletopia | Frankfurt | 3 | All Maps | STV","players":[{"user_id":462,"name":"MrMethor","steam_id":76561198155992717,"connected_time":5128000000000,"state":"active","ping":62},{"user_id":587,"name":"Cap","steam_id":76561198258586329,"connected_time":170000000000,"state":"active","ping":58},{"user_id":588,"name":"Avarus","steam_id":76561198040324008,"connected_time":46000000000,"state":"active","ping":57},{"user_id":559,"name":"PxE","steam_id":76561198038034899,"connected_time":1225000000000,"state":"active","ping":63},{"user_id":583,"name":"Mollycule","steam_id":76561198065335119,"connected_time":493000000000,"state":"active","ping":81},{"user_id":582,"name":"Ziltoid","steam_id":76561198020753675,"connected_time":543000000000,"state":"active","ping":69},{"user_id":586,"name":"Tonne","steam_id":76561197970856766,"connected_time":181000000000,"state":"active","ping":53},{"user_id":497,"name":"bart simpson weed","steam_id":76561198014858762,"connected_time":2701000000000,"state":"active","ping":67},{"user_id":589,"name":"SpineJuice","steam_id":76561199084272069,"connected_time":12000000000,"state":"spawning","ping":55},{"user_id":560,"name":"my mom","steam_id":76561199225201569,"connected_time":1218000000000,"state":"active","ping":131},{"user_id":576,"name":"Mussolini","steam_id":76561198218384865,"connected_time":870000000000,"state":"active","ping":94},{"user_id":570,"name":"scramble","steam_id":76561197980736364,"connected_time":1007000000000,"state":"active","ping":70},{"user_id":572,"name":"Dingle Shlorp","steam_id":76561198182133618,"connected_time":936000000000,"state":"active","ping":91},{"user_id":492,"name":"goldenmoon101","steam_id":76561198051043759,"connected_time":3609000000000,"state":"active","ping":130},{"user_id":546,"name":"Lanky Hank","steam_id":76561198124243120,"connected_time":1571000000000,"state":"active","ping":54},{"user_id":536,"name":"Haschgott 2.0","steam_id":76561198049820307,"connected_time":1866000000000,"state":"active","ping":54},{"user_id":564,"name":"Pitipit","steam_id":76561198343333412,"connected_time":1120000000000,"state":"active","ping":101}]},{"server_id":309,"name":"Uncletopia | Frankfurt | 4 | All Maps","name_short":"frk-4","host":"frk-1.de.uncletopia.com","port":27045,"enabled":true,"region":"eu","cc":"de","latitude":50.110924,"longitude":8.682127,"reserved":0,"last_update":"0001-01-01T00:00:00Z","name_a2s":"Uncletopia | Frankfurt | 4 | All Maps","protocol":17,"map":"pl_pier","folder":"tf","game":"Team Fortress","app_id":440,"player_count":24,"max_players":24,"Bots":0,"server_type":"Dedicated","server_os":"Linux","password":true,"vac":true,"version":"7961495","steam_id":85568392924504275,"keywords":["nocrits","nodmgspread","payload","uncletopia"],"game_id":440,"stv_port":27046,"stv_name":"Uncletopia | Frankfurt | 4 | All Maps | STV","players":[{"user_id":256,"name":"xiiski","steam_id":76561198152387747,"connected_time":926000000000,"state":"active","ping":93},{"user_id":247,"name":"I have no duck and I must quack","steam_id":76561198061920656,"connected_time":1338000000000,"state":"active","ping":79},{"user_id":243,"name":"Mana","steam_id":76561199165581401,"connected_time":1387000000000,"state":"active","ping":98},{"user_id":244,"name":"Heinrich","steam_id":76561198063897745,"connected_time":1385000000000,"state":"active","ping":74},{"user_id":271,"name":"MackPack","steam_id":76561198104243355,"connected_time":158000000000,"state":"active","ping":56},{"user_id":257,"name":"Sheen (Khang)","steam_id":76561198371062974,"connected_time":914000000000,"state":"active","ping":81},{"user_id":253,"name":"Piteras","steam_id":76561198858532207,"connected_time":1164000000000,"state":"active","ping":71},{"user_id":273,"name":"Haha?","steam_id":76561198056882245,"connected_time":127000000000,"state":"active","ping":50},{"user_id":266,"name":"Intruder","steam_id":76561198156128173,"connected_time":328000000000,"state":"active","ping":89},{"user_id":238,"name":"Lucky Strike","steam_id":76561198355128010,"connected_time":1835000000000,"state":"active","ping":71},{"user_id":263,"name":"cupcakedealer69402","steam_id":76561199122061900,"connected_time":407000000000,"state":"active","ping":157},{"user_id":226,"name":"SpiGo","steam_id":76561198051069962,"connected_time":2823000000000,"state":"active","ping":63},{"user_id":242,"name":"Zanryiel","steam_id":76561198120723872,"connected_time":1491000000000,"state":"active","ping":68},{"user_id":264,"name":"Ignatz","steam_id":76561198051886678,"connected_time":401000000000,"state":"active","ping":70},{"user_id":267,"name":"F4.exe","steam_id":76561198278822807,"connected_time":326000000000,"state":"active","ping":60},{"user_id":274,"name":"Mike","steam_id":76561198228455736,"connected_time":118000000000,"state":"active","ping":64},{"user_id":268,"name":"Cosmetic brain","steam_id":76561198055936410,"connected_time":313000000000,"state":"active","ping":90},{"user_id":222,"name":"Carrotcracker","steam_id":76561198034862396,"connected_time":3464000000000,"state":"active","ping":81},{"user_id":131,"name":"average manicotti enjoyer","steam_id":76561198059535856,"connected_time":9463000000000,"state":"active","ping":166},{"user_id":269,"name":"Fidacha","steam_id":76561198003060881,"connected_time":300000000000,"state":"active","ping":60},{"user_id":270,"name":"pinguwno","steam_id":76561199152690401,"connected_time":287000000000,"state":"active","ping":92},{"user_id":224,"name":"smell_my_cheese","steam_id":76561198008517427,"connected_time":3459000000000,"state":"active","ping":70},{"user_id":272,"name":"Tornado","steam_id":76561198025684320,"connected_time":152000000000,"state":"active","ping":60},{"user_id":236,"name":"Waazard","steam_id":76561198383923159,"connected_time":1898000000000,"state":"active","ping":76}]},{"server_id":310,"name":"Uncletopia | Frankfurt | 5 | All Maps","name_short":"frk-5","host":"frk-1.de.uncletopia.com","port":27055,"enabled":true,"region":"eu","cc":"de","latitude":50.110924,"longitude":8.682127,"reserved":0,"last_update":"0001-01-01T00:00:00Z","name_a2s":"Uncletopia | Frankfurt | 5 | All Maps","protocol":17,"map":"cp_mountainlab","folder":"tf","game":"Team Fortress","app_id":440,"player_count":0,"max_players":24,"Bots":0,"server_type":"Dedicated","server_os":"Linux","password":true,"vac":true,"version":"7961495","steam_id":85568392924504277,"keywords":["cp","nocrits","nodmgspread","uncletopia"],"game_id":440,"stv_port":27056,"stv_name":"Uncletopia | Frankfurt | 5 | All Maps | STV","players":null},{"server_id":311,"name":"Uncletopia | Frankfurt | 6 | All Maps","name_short":"frk-6","host":"frk-1.de.uncletopia.com","port":27065,"enabled":true,"region":"eu","cc":"de","latitude":50.110924,"longitude":8.682127,"reserved":0,"last_update":"0001-01-01T00:00:00Z","name_a2s":"Uncletopia | Frankfurt | 6 | All Maps","protocol":17,"map":"pl_pier","folder":"tf","game":"Team Fortress","app_id":440,"player_count":24,"max_players":24,"Bots":0,"server_type":"Dedicated","server_os":"Linux","password":true,"vac":true,"version":"7961495","steam_id":85568392924504278,"keywords":["nocrits","nodmgspread","payload","uncletopia"],"game_id":440,"stv_port":27066,"stv_name":"Uncletopia | Frankfurt | 6 | All Maps | STV","players":[{"user_id":302,"name":"Mr_Touchyou","steam_id":76561198452524697,"connected_time":1016000000000,"state":"active","ping":105},{"user_id":297,"name":"Waffles","steam_id":76561199086942763,"connected_time":1331000000000,"state":"active","ping":82},{"user_id":303,"name":"[NG]SeaHome","steam_id":76561198082963371,"connected_time":831000000000,"state":"active","ping":90},{"user_id":320,"name":"â†¯","steam_id":76561198055389492,"connected_time":95000000000,"state":"active","ping":58},{"user_id":305,"name":"MichaÅ‚","steam_id":76561198320346362,"connected_time":776000000000,"state":"active","ping":59},{"user_id":290,"name":"â™ Anti_BOIâ™ ","steam_id":76561198274593231,"connected_time":2280000000000,"state":"active","ping":64},{"user_id":306,"name":"â™¥ Cirno â™¥","steam_id":76561198834982738,"connected_time":775000000000,"state":"active","ping":70},{"user_id":255,"name":"daanvanliempt05","steam_id":76561198355398948,"connected_time":4012000000000,"state":"active","ping":51},{"user_id":321,"name":"_420_StopItDudeCmon","steam_id":76561197997146481,"connected_time":76000000000,"state":"active","ping":59},{"user_id":278,"name":"[P-roc] BadJacKS","steam_id":76561197972666377,"connected_time":2863000000000,"state":"active","ping":55},{"user_id":301,"name":"Lag","steam_id":76561198159360376,"connected_time":1087000000000,"state":"active","ping":63},{"user_id":300,"name":"TrashBoat","steam_id":76561199089671432,"connected_time":1096000000000,"state":"active","ping":167},{"user_id":308,"name":"yeet","steam_id":76561198087175881,"connected_time":687000000000,"state":"active","ping":83},{"user_id":309,"name":"Pegasirâ„¢","steam_id":76561198041376808,"connected_time":672000000000,"state":"active","ping":61},{"user_id":310,"name":"pretty dick peso","steam_id":76561198798177799,"connected_time":637000000000,"state":"active","ping":70},{"user_id":311,"name":"FrÃ¶gg-KÃ¤t","steam_id":76561198263561004,"connected_time":619000000000,"state":"active","ping":60},{"user_id":313,"name":"makarov","steam_id":76561198363892870,"connected_time":544000000000,"state":"active","ping":65},{"user_id":314,"name":"cuddles","steam_id":76561198805181599,"connected_time":524000000000,"state":"active","ping":70},{"user_id":315,"name":"76561199441196540","steam_id":76561199441196540,"connected_time":498000000000,"state":"active","ping":63},{"user_id":322,"name":"Cirox","steam_id":76561198383142404,"connected_time":58000000000,"state":"active","ping":106},{"user_id":277,"name":"Relic","steam_id":76561199499093258,"connected_time":3027000000000,"state":"active","ping":44},{"user_id":318,"name":"Commander Pasta","steam_id":76561198045773077,"connected_time":380000000000,"state":"active","ping":45},{"user_id":222,"name":"Zor","steam_id":76561198009851383,"connected_time":7283000000000,"state":"active","ping":70},{"user_id":319,"name":"Cursehat","steam_id":76561198071867237,"connected_time":379000000000,"state":"active","ping":90}]},{"server_id":23,"name":"Uncletopia | Frankfurt | 7 | Stopwatch","name_short":"frk-7","host":"frk-1.de.uncletopia.com","port":27075,"enabled":true,"region":"eu","cc":"de","latitude":50.110924,"longitude":8.682127,"reserved":0,"last_update":"0001-01-01T00:00:00Z","name_a2s":"Uncletopia | Frankfurt | 7 | Stopwatch","protocol":17,"map":"workshop/koth_clearcut_b15.ugc2107050255","folder":"tf","game":"Team Fortress","app_id":440,"player_count":0,"max_players":24,"Bots":0,"server_type":"Dedicated","server_os":"Linux","password":true,"vac":true,"version":"7961495","steam_id":85568392924742827,"keywords":["cp","nocrits","nodmgspread","uncletopia"],"game_id":440,"stv_port":27076,"stv_name":"Uncletopia | Frankfurt | 7 | Stopwatch | STV","players":null},{"server_id":24,"name":"Uncletopia | Frankfurt | 8 | Community","name_short":"frk-8","host":"frk-1.de.uncletopia.com","port":27085,"enabled":true,"region":"eu","cc":"de","latitude":50.110924,"longitude":8.682127,"reserved":0,"last_update":"0001-01-01T00:00:00Z","name_a2s":"Uncletopia | Frankfurt | 8 | Community","protocol":17,"map":"workshop/koth_bagel_rc6.ugc2514036946","folder":"tf","game":"Team Fortress","app_id":440,"player_count":2,"max_players":24,"Bots":0,"server_type":"Dedicated","server_os":"Linux","password":true,"vac":true,"version":"7961495","steam_id":85568392924742828,"keywords":["cp","nocrits","nodmgspread","uncletopia"],"game_id":440,"stv_port":27086,"stv_name":"Uncletopia | Frankfurt | 8 | Community | STV","players":[{"user_id":369,"name":"The_Dark_Night","steam_id":76561198884257698,"connected_time":1851000000000,"state":"active","ping":79},{"user_id":370,"name":"Mr.Beans","steam_id":76561199062611417,"connected_time":1841000000000,"state":"active","ping":75}]},{"server_id":202,"name":"Uncletopia | Hong Kong | 1 | All Maps","name_short":"hgk-1","host":"hgk-1.hk.uncletopia.com","port":27015,"enabled":true,"region":"asia","cc":"hk","latitude":22.302711,"longitude":114.177216,"reserved":0,"last_update":"0001-01-01T00:00:00Z","name_a2s":"Uncletopia | Hong Kong | 1 | All Maps","protocol":17,"map":"koth_cascade","folder":"tf","game":"Team Fortress","app_id":440,"player_count":0,"max_players":24,"Bots":0,"server_type":"Dedicated","server_os":"Linux","password":true,"vac":true,"version":"7961495","steam_id":85568392924494504,"keywords":["cp","nocrits","nodmgspread","uncletopia"],"game_id":440,"stv_port":27016,"stv_name":"Uncletopia | Hong Kong | 1 | All Maps | STV","players":null},{"server_id":1,"name":"Uncletopia | Los Angeles | 1 | All Maps","name_short":"lax-1","host":"lax-1.us.uncletopia.com","port":27015,"enabled":true,"region":"us-west","cc":"us","latitude":33.94279,"longitude":-118.41004,"reserved":0,"last_update":"0001-01-01T00:00:00Z","name_a2s":"Uncletopia | Los Angeles | 1 | All Maps","protocol":17,"map":"pl_swiftwater_final1","folder":"tf","game":"Team Fortress","app_id":440,"player_count":0,"max_players":24,"Bots":0,"server_type":"Dedicated","server_os":"Linux","password":true,"vac":true,"version":"7961495","steam_id":85568392924469991,"keywords":["nocrits","nodmgspread","payload","uncletopia"],"game_id":440,"stv_port":27016,"stv_name":"Uncletopia | Los Angeles | 1 | All Maps | STV","players":null},{"server_id":112,"name":"Uncletopia | Los Angeles | 2 | All Maps","name_short":"lax-2","host":"lax-1.us.uncletopia.com","port":27025,"enabled":true,"region":"us-west","cc":"us","latitude":33.94279,"longitude":-118.41004,"reserved":0,"last_update":"0001-01-01T00:00:00Z","name_a2s":"Uncletopia | Los Angeles | 2 | All Maps","protocol":17,"map":"koth_cascade","folder":"tf","game":"Team Fortress","app_id":440,"player_count":0,"max_players":24,"Bots":0,"server_type":"Dedicated","server_os":"Linux","password":true,"vac":true,"version":"7961495","steam_id":85568392924469992,"keywords":["cp","nocrits","nodmgspread","uncletopia"],"game_id":440,"stv_port":27026,"stv_name":"Uncletopia | Los Angeles | 2 | All Maps | STV","players":null},{"server_id":324,"name":"Uncletopia | Los Angeles | 3 | All Maps","name_short":"lax-3","host":"lax-1.us.uncletopia.com","port":27035,"enabled":true,"region":"us-west","cc":"us","latitude":33.94279,"longitude":-118.41004,"reserved":0,"last_update":"0001-01-01T00:00:00Z","name_a2s":"Uncletopia | Los Angeles | 3 | All Maps","protocol":17,"map":"pl_pier","folder":"tf","game":"Team Fortress","app_id":440,"player_count":0,"max_players":24,"Bots":0,"server_type":"Dedicated","server_os":"Linux","password":true,"vac":true,"version":"7961495","steam_id":85568392924510198,"keywords":["nocrits","nodmgspread","payload","uncletopia"],"game_id":440,"stv_port":27036,"stv_name":"Uncletopia | Los Angeles | 3 | All Maps | STV","players":null},{"server_id":25,"name":"Uncletopia | Los Angeles | 4 | Stopwatch","name_short":"lax-4","host":"lax-1.us.uncletopia.com","port":27045,"enabled":true,"region":"us-west","cc":"us","latitude":33.94279,"longitude":-118.41004,"reserved":0,"last_update":"0001-01-01T00:00:00Z","name_a2s":"Uncletopia | Los Angeles | 4 | Stopwatch","protocol":17,"map":"pl_barnblitz","folder":"tf","game":"Team Fortress","app_id":440,"player_count":0,"max_players":24,"Bots":0,"server_type":"Dedicated","server_os":"Linux","password":true,"vac":true,"version":"7961495","steam_id":85568392924510199,"keywords":["nocrits","nodmgspread","payload","uncletopia"],"game_id":440,"stv_port":27046,"stv_name":"Uncletopia | Los Angeles | 4 | Stopwatch | STV","players":null},{"server_id":11,"name":"Uncletopia | London | 1 | All Maps","name_short":"lon-1","host":"lon-1.uk.uncletopia.com","port":27015,"enabled":true,"region":"eu","cc":"gb","latitude":51.509865,"longitude":-0.118092,"reserved":0,"last_update":"0001-01-01T00:00:00Z","name_a2s":"Uncletopia | London | 1 | All Maps","protocol":17,"map":"pl_swiftwater_final1","folder":"tf","game":"Team Fortress","app_id":440,"player_count":24,"max_players":24,"Bots":0,"server_type":"Dedicated","server_os":"Linux","password":true,"vac":true,"version":"7961495","steam_id":85568392924367362,"keywords":["nocrits","nodmgspread","payload","uncletopia"],"game_id":440,"stv_port":27016,"stv_name":"Uncletopia | London | 1 | All Maps | STV","players":[{"user_id":485,"name":"Sza","steam_id":76561198022132105,"connected_time":5748000000000,"state":"active","ping":66},{"user_id":555,"name":"A simple berry picker","steam_id":76561198091969871,"connected_time":1145000000000,"state":"active","ping":76},{"user_id":559,"name":"SadBambino","steam_id":76561198101989931,"connected_time":203000000000,"state":"active","ping":53},{"user_id":541,"name":"Eric Catman","steam_id":76561198802117294,"connected_time":1920000000000,"state":"active","ping":72},{"user_id":558,"name":"Doctor Marijuana","steam_id":76561198288289879,"connected_time":244000000000,"state":"active","ping":46},{"user_id":556,"name":"TheEventGuy","steam_id":76561197972797744,"connected_time":789000000000,"state":"active","ping":71},{"user_id":557,"name":"god's eepiest girl","steam_id":76561198128327529,"connected_time":682000000000,"state":"active","ping":46},{"user_id":537,"name":"Klaus","steam_id":76561198150394201,"connected_time":1974000000000,"state":"active","ping":95},{"user_id":545,"name":"_Starlight_","steam_id":76561197993885738,"connected_time":1810000000000,"state":"active","ping":82},{"user_id":560,"name":"Griffin","steam_id":76561198118247689,"connected_time":199000000000,"state":"active","ping":61},{"user_id":562,"name":"zeppa114","steam_id":76561198065192734,"connected_time":174000000000,"state":"active","ping":54},{"user_id":507,"name":"[UwU] Blackblood909","steam_id":76561198079427660,"connected_time":3461000000000,"state":"active","ping":88},{"user_id":435,"name":"UltimateSlayer","steam_id":76561198384109309,"connected_time":10019000000000,"state":"active","ping":59},{"user_id":563,"name":"James","steam_id":76561198138558005,"connected_time":111000000000,"state":"active","ping":53},{"user_id":519,"name":"flave","steam_id":76561198056372101,"connected_time":2703000000000,"state":"active","ping":82},{"user_id":551,"name":"BeefHammer","steam_id":76561198078426223,"connected_time":1550000000000,"state":"active","ping":85},{"user_id":564,"name":"Janneke Maan","steam_id":76561198069290924,"connected_time":94000000000,"state":"active","ping":65},{"user_id":543,"name":"Doomsday","steam_id":76561198210559757,"connected_time":1909000000000,"state":"active","ping":50},{"user_id":565,"name":"Cpt_frost","steam_id":76561198218034817,"connected_time":81000000000,"state":"active","ping":36},{"user_id":484,"name":"ROX","steam_id":76561198272289320,"connected_time":5932000000000,"state":"active","ping":67},{"user_id":566,"name":"What2eat","steam_id":76561198017985829,"connected_time":79000000000,"state":"active","ping":45},{"user_id":518,"name":"Milk","steam_id":76561198125876588,"connected_time":2984000000000,"state":"active","ping":45},{"user_id":567,"name":"woodenpcwarlord","steam_id":76561198037938833,"connected_time":64000000000,"state":"active","ping":49},{"user_id":524,"name":"mercenarypit","steam_id":76561198161935108,"connected_time":2369000000000,"state":"active","ping":60}]},{"server_id":114,"name":"Uncletopia | London | 2 | All Maps","name_short":"lon-2","host":"lon-1.uk.uncletopia.com","port":27025,"enabled":true,"region":"eu","cc":"gb","latitude":51.509865,"longitude":-0.118092,"reserved":0,"last_update":"0001-01-01T00:00:00Z","name_a2s":"Uncletopia | London | 2 | All Maps","protocol":17,"map":"pl_swiftwater_final1","folder":"tf","game":"Team Fortress","app_id":440,"player_count":24,"max_players":24,"Bots":0,"server_type":"Dedicated","server_os":"Linux","password":true,"vac":true,"version":"7961495","steam_id":85568392924470941,"keywords":["nocrits","nodmgspread","payload","uncletopia"],"game_id":440,"stv_port":27026,"stv_name":"Uncletopia | London | 2 | All Maps | STV","players":[{"user_id":434,"name":"Sabour","steam_id":76561197963965445,"connected_time":3861000000000,"state":"active","ping":71},{"user_id":436,"name":"Silverbolt","steam_id":76561198153165763,"connected_time":3489000000000,"state":"active","ping":61},{"user_id":479,"name":"harper","steam_id":76561198188642265,"connected_time":483000000000,"state":"active","ping":57},{"user_id":474,"name":"Arty","steam_id":76561198160100181,"connected_time":1035000000000,"state":"active","ping":56},{"user_id":473,"name":"scarecrowshelper","steam_id":76561198072260553,"connected_time":1058000000000,"state":"active","ping":60},{"user_id":477,"name":"jjkun786","steam_id":76561199438517484,"connected_time":571000000000,"state":"active","ping":39},{"user_id":447,"name":"I jazzed myself","steam_id":76561198203016603,"connected_time":3001000000000,"state":"active","ping":57},{"user_id":440,"name":"Nikt WaÅ¼ny (F2P)","steam_id":76561199273293257,"connected_time":3396000000000,"state":"active","ping":113},{"user_id":471,"name":"Frampoid","steam_id":76561197997137121,"connected_time":1373000000000,"state":"active","ping":63},{"user_id":432,"name":"Dommy","steam_id":76561197990864747,"connected_time":4213000000000,"state":"active","ping":59},{"user_id":457,"name":"fish slapper","steam_id":76561199493845695,"connected_time":2126000000000,"state":"active","ping":61},{"user_id":399,"name":"MiLLje9iaâ˜­","steam_id":76561198353537034,"connected_time":5461000000000,"state":"active","ping":44},{"user_id":400,"name":"whatsapp man","steam_id":76561198802028634,"connected_time":5459000000000,"state":"active","ping":55},{"user_id":460,"name":"HannÃ¼","steam_id":76561197969886128,"connected_time":1670000000000,"state":"active","ping":56},{"user_id":475,"name":"cult","steam_id":76561198188647690,"connected_time":727000000000,"state":"active","ping":78},{"user_id":467,"name":"PixelVader","steam_id":76561198034195553,"connected_time":1418000000000,"state":"active","ping":58},{"user_id":472,"name":"gay furry sex","steam_id":76561198880042335,"connected_time":1320000000000,"state":"active","ping":98},{"user_id":407,"name":"The Bread Bringer","steam_id":76561198264079743,"connected_time":5295000000000,"state":"active","ping":50},{"user_id":409,"name":"dotdotdot","steam_id":76561198057628751,"connected_time":5280000000000,"state":"active","ping":61},{"user_id":451,"name":"Voodoo D Child","steam_id":76561198094569373,"connected_time":2507000000000,"state":"active","ping":180},{"user_id":453,"name":"tornister kminisz?","steam_id":76561198149996975,"connected_time":2468000000000,"state":"active","ping":96},{"user_id":462,"name":"kpf1337","steam_id":76561198267907985,"connected_time":1461000000000,"state":"active","ping":46},{"user_id":418,"name":"flamingosaurus","steam_id":76561198051455397,"connected_time":5010000000000,"state":"active","ping":44},{"user_id":444,"name":"SuntanPikachu","steam_id":76561198121242476,"connected_time":3334000000000,"state":"active","ping":96}]},{"server_id":320,"name":"Uncletopia | London | 3 | All Maps","name_short":"lon-3","host":"lon-1.uk.uncletopia.com","port":27035,"enabled":true,"region":"eu","cc":"gb","latitude":51.509865,"longitude":-0.118092,"reserved":0,"last_update":"0001-01-01T00:00:00Z","name_a2s":"Uncletopia | London | 3 | All Maps","protocol":17,"map":"koth_viaduct","folder":"tf","game":"Team Fortress","app_id":440,"player_count":23,"max_players":24,"Bots":0,"server_type":"Dedicated","server_os":"Linux","password":true,"vac":true,"version":"7961495","steam_id":85568392924510192,"keywords":["cp","nocrits","nodmgspread","uncletopia"],"game_id":440,"stv_port":27036,"stv_name":"Uncletopia | London | 3 | All Maps | STV","players":[{"user_id":753,"name":"GueN","steam_id":76561198384689388,"connected_time":407000000000,"state":"active","ping":34},{"user_id":692,"name":"Mr_Pulse_","steam_id":76561198095001602,"connected_time":4166000000000,"state":"active","ping":101},{"user_id":752,"name":"xxx`_`xxx","steam_id":76561198382749493,"connected_time":433000000000,"state":"active","ping":91},{"user_id":739,"name":"cisgender clown","steam_id":76561199469909295,"connected_time":1137000000000,"state":"active","ping":62},{"user_id":754,"name":"krayy (blÃ¥haj enjoyer)","steam_id":76561198035037830,"connected_time":389000000000,"state":"active","ping":55},{"user_id":700,"name":"grimeborny","steam_id":76561199101823097,"connected_time":3369000000000,"state":"active","ping":66},{"user_id":737,"name":"Hazo","steam_id":76561198137686270,"connected_time":1352000000000,"state":"active","ping":68},{"user_id":755,"name":"pepper","steam_id":76561198852650589,"connected_time":385000000000,"state":"active","ping":74},{"user_id":724,"name":"dash.","steam_id":76561198084796149,"connected_time":1858000000000,"state":"active","ping":46},{"user_id":710,"name":"FoOzTV","steam_id":76561197998636728,"connected_time":3079000000000,"state":"active","ping":69},{"user_id":756,"name":"T4S3","steam_id":76561199105565603,"connected_time":322000000000,"state":"active","ping":90},{"user_id":741,"name":"ufomaster1111111","steam_id":76561198837347666,"connected_time":1113000000000,"state":"active","ping":48},{"user_id":749,"name":"DaiDaiMu :3","steam_id":76561198052794823,"connected_time":614000000000,"state":"active","ping":73},{"user_id":751,"name":"mastercoms","steam_id":76561198046110893,"connected_time":569000000000,"state":"active","ping":122},{"user_id":757,"name":"Superiumentarius","steam_id":76561198081642249,"connected_time":318000000000,"state":"active","ping":60},{"user_id":647,"name":"Mister","steam_id":76561199049647854,"connected_time":7471000000000,"state":"active","ping":49},{"user_id":744,"name":"Schmack","steam_id":76561198026535437,"connected_time":1035000000000,"state":"active","ping":60},{"user_id":758,"name":"Gibus enjoyer","steam_id":76561198843396821,"connected_time":294000000000,"state":"active","ping":86},{"user_id":734,"name":"Dan","steam_id":76561198289353288,"connected_time":1541000000000,"state":"active","ping":50},{"user_id":759,"name":"Patatata","steam_id":76561198152188319,"connected_time":236000000000,"state":"active","ping":75},{"user_id":760,"name":"Foreskin Gamer","steam_id":76561198283106341,"connected_time":227000000000,"state":"active","ping":56},{"user_id":746,"name":"IndigoJones","steam_id":76561198050284262,"connected_time":1027000000000,"state":"active","ping":49},{"user_id":747,"name":"mat_phong 0","steam_id":76561198155671067,"connected_time":843000000000,"state":"active","ping":47}]},{"server_id":321,"name":"Uncletopia | London | 4 | All Maps","name_short":"lon-4","host":"lon-1.uk.uncletopia.com","port":27045,"enabled":true,"region":"eu","cc":"gb","latitude":51.509865,"longitude":-0.118092,"reserved":0,"last_update":"0001-01-01T00:00:00Z","name_a2s":"Uncletopia | London | 4 | All Maps","protocol":17,"map":"cp_egypt_final","folder":"tf","game":"Team Fortress","app_id":440,"player_count":0,"max_players":24,"Bots":0,"server_type":"Dedicated","server_os":"Linux","password":true,"vac":true,"version":"7961495","steam_id":85568392924510193,"keywords":["cp","nocrits","nodmgspread","uncletopia"],"game_id":440,"stv_port":27046,"stv_name":"Uncletopia | London | 4 | All Maps | STV","players":null},{"server_id":21,"name":"Uncletopia | London | 5 | All Maps","name_short":"lon-5","host":"lon-1.uk.uncletopia.com","port":27055,"enabled":true,"region":"eu","cc":"gb","latitude":51.509865,"longitude":-0.118092,"reserved":0,"last_update":"0001-01-01T00:00:00Z","name_a2s":"Uncletopia | London | 5 | All Maps","protocol":17,"map":"koth_lakeside_final","folder":"tf","game":"Team Fortress","app_id":440,"player_count":3,"max_players":24,"Bots":0,"server_type":"Dedicated","server_os":"Linux","password":true,"vac":true,"version":"7961495","steam_id":85568392924742829,"keywords":["cp","nocrits","nodmgspread","uncletopia"],"game_id":440,"stv_port":27056,"stv_name":"Uncletopia | London | 5 | All Maps | STV","players":[{"user_id":121,"name":"lipaul777","steam_id":76561199090751367,"connected_time":652000000000,"state":"active","ping":70},{"user_id":122,"name":"Mr_JM","steam_id":76561199192298358,"connected_time":402000000000,"state":"active","ping":192},{"user_id":123,"name":"Mamizou Futatsuiwa","steam_id":76561198799303596,"connected_time":51000000000,"state":"active","ping":113}]},{"server_id":22,"name":"Uncletopia | London | 6 | All Maps","name_short":"lon-6","host":"lon-1.uk.uncletopia.com","port":27065,"enabled":true,"region":"eu","cc":"gb","latitude":51.509865,"longitude":-0.118092,"reserved":0,"last_update":"0001-01-01T00:00:00Z","name_a2s":"Uncletopia | London | 6 | All Maps","protocol":17,"map":"koth_viaduct","folder":"tf","game":"Team Fortress","app_id":440,"player_count":18,"max_players":24,"Bots":0,"server_type":"Dedicated","server_os":"Linux","password":true,"vac":true,"version":"7961495","steam_id":85568392924742830,"keywords":["cp","nocrits","nodmgspread","uncletopia"],"game_id":440,"stv_port":27066,"stv_name":"Uncletopia | London | 6 | All Maps | STV","players":[{"user_id":772,"name":"hectic","steam_id":76561198873307646,"connected_time":785000000000,"state":"active","ping":88},{"user_id":767,"name":"Ross from F.R.I.E.N.D.S.","steam_id":76561198008511665,"connected_time":1290000000000,"state":"active","ping":56},{"user_id":727,"name":"Severeburrito16","steam_id":76561198353155991,"connected_time":4038000000000,"state":"active","ping":123},{"user_id":720,"name":"Jeffrey Harpen","steam_id":76561199073314677,"connected_time":4522000000000,"state":"active","ping":79},{"user_id":777,"name":"anderGL7","steam_id":76561198042529664,"connected_time":120000000000,"state":"active","ping":82},{"user_id":748,"name":"Solar","steam_id":76561199121361391,"connected_time":2593000000000,"state":"active","ping":70},{"user_id":778,"name":"I-I","steam_id":76561198267969436,"connected_time":60000000000,"state":"active","ping":63},{"user_id":726,"name":"Luis prime","steam_id":76561198161402859,"connected_time":4046000000000,"state":"active","ping":87},{"user_id":766,"name":"Mongoose88","steam_id":76561197961442445,"connected_time":1299000000000,"state":"active","ping":144},{"user_id":705,"name":"The Lady","steam_id":76561198029895809,"connected_time":5256000000000,"state":"active","ping":84},{"user_id":701,"name":"MANOLO PRIME","steam_id":76561198149152939,"connected_time":5735000000000,"state":"active","ping":77},{"user_id":779,"name":"Mancomb Seepgood","steam_id":76561197974116369,"connected_time":44000000000,"state":"active","ping":40},{"user_id":780,"name":"Chucky.","steam_id":76561197969361063,"connected_time":29000000000,"state":"active","ping":70},{"user_id":747,"name":"Morkus","steam_id":76561199134560302,"connected_time":2780000000000,"state":"active","ping":76},{"user_id":713,"name":"Collie","steam_id":76561198149072785,"connected_time":5134000000000,"state":"active","ping":66},{"user_id":746,"name":"Snokie Boi","steam_id":76561198081126247,"connected_time":2943000000000,"state":"active","ping":45},{"user_id":739,"name":"gr3821","steam_id":76561198091531010,"connected_time":3643000000000,"state":"active","ping":42},{"user_id":774,"name":"cez","steam_id":76561198361380956,"connected_time":613000000000,"state":"active","ping":44}]},{"server_id":40,"name":"Uncletopia | London | 7 | Stopwatch","name_short":"lon-7","host":"lon-1.uk.uncletopia.com","port":27075,"enabled":true,"region":"eu","cc":"gb","latitude":51.509865,"longitude":-0.118092,"reserved":0,"last_update":"0001-01-01T00:00:00Z","name_a2s":"Uncletopia | London | 7 | Stopwatch","protocol":17,"map":"pl_upward","folder":"tf","game":"Team Fortress","app_id":440,"player_count":0,"max_players":24,"Bots":0,"server_type":"Dedicated","server_os":"Linux","password":true,"vac":true,"version":"7961495","steam_id":85568392924964314,"keywords":["nocrits","nodmgspread","payload","uncletopia"],"game_id":440,"stv_port":27076,"stv_name":"Uncletopia | London | 7 | Stopwatch | STV","players":null},{"server_id":41,"name":"Uncletopia | London | 8 | Community","name_short":"lon-8","host":"lon-1.uk.uncletopia.com","port":27085,"enabled":true,"region":"eu","cc":"gb","latitude":51.509865,"longitude":-0.118092,"reserved":0,"last_update":"0001-01-01T00:00:00Z","name_a2s":"Uncletopia | London | 8 | Community","protocol":17,"map":"workshop/koth_bagel_rc6.ugc2514036946","folder":"tf","game":"Team Fortress","app_id":440,"player_count":0,"max_players":24,"Bots":0,"server_type":"Dedicated","server_os":"Linux","password":true,"vac":true,"version":"7961495","steam_id":85568392924964315,"keywords":["cp","nocrits","nodmgspread","uncletopia"],"game_id":440,"stv_port":27086,"stv_name":"Uncletopia | London | 8 | Community | STV","players":null},{"server_id":300,"name":"Uncletopia | MontrÃ©al | 1 | One Thousand Uncles","name_short":"mtl-1","host":"mtl-1.ca.uncletopia.com","port":27015,"enabled":true,"region":"us-east","cc":"ca","latitude":45.50889,"longitude":-73.56167,"reserved":0,"last_update":"0001-01-01T00:00:00Z","name_a2s":"","protocol":0,"map":"","folder":"","game":"","app_id":0,"player_count":10,"max_players":0,"Bots":0,"server_type":"","server_os":"","password":false,"vac":false,"version":"","steam_id":0,"keywords":null,"game_id":0,"stv_port":0,"stv_name":"","players":[{"user_id":148,"name":"Birdcage","steam_id":76561198206673021,"connected_time":2845000000000,"state":"active","ping":78},{"user_id":177,"name":"Kibeka the Weird","steam_id":76561198116534133,"connected_time":1427000000000,"state":"active","ping":60},{"user_id":171,"name":"oopsboom24","steam_id":76561199105248648,"connected_time":2101000000000,"state":"active","ping":87},{"user_id":205,"name":"Pyroids","steam_id":76561199178575029,"connected_time":234000000000,"state":"active","ping":91},{"user_id":144,"name":"Jimmy Pubetron","steam_id":76561198077634776,"connected_time":4085000000000,"state":"active","ping":44},{"user_id":145,"name":"The Fragrance of Dark Coffee","steam_id":76561198013111370,"connected_time":4074000000000,"state":"active","ping":60},{"user_id":206,"name":"pepiniyo29","steam_id":76561198365974225,"connected_time":151000000000,"state":"active","ping":207},{"user_id":149,"name":"cá»™ng Ä‘á»“ng káº» thÃ¹ ghÃ©t","steam_id":76561199084680369,"connected_time":2416000000000,"state":"active","ping":147},{"user_id":152,"name":"Chaos","steam_id":76561197967401532,"connected_time":2302000000000,"state":"active","ping":90},{"user_id":173,"name":"sheep","steam_id":76561198172943006,"connected_time":2030000000000,"state":"active","ping":60}]},{"server_id":301,"name":"Uncletopia | MontrÃ©al | 2 | One Thousand Uncles","name_short":"mtl-2","host":"mtl-1.ca.uncletopia.com","port":27025,"enabled":true,"region":"us-east","cc":"ca","latitude":45.50889,"longitude":-73.56167,"reserved":0,"last_update":"0001-01-01T00:00:00Z","name_a2s":"","protocol":0,"map":"","folder":"","game":"","app_id":0,"player_count":0,"max_players":0,"Bots":0,"server_type":"","server_os":"","password":false,"vac":false,"version":"","steam_id":0,"keywords":null,"game_id":0,"stv_port":0,"stv_name":"","players":null},{"server_id":302,"name":"Uncletopia | MontrÃ©al | 3 | One Thousand Uncles","name_short":"mtl-3","host":"mtl-1.ca.uncletopia.com","port":27035,"enabled":true,"region":"us-east","cc":"ca","latitude":45.50889,"longitude":-73.56167,"reserved":0,"last_update":"0001-01-01T00:00:00Z","name_a2s":"","protocol":0,"map":"","folder":"","game":"","app_id":0,"player_count":0,"max_players":0,"Bots":0,"server_type":"","server_os":"","password":false,"vac":false,"version":"","steam_id":0,"keywords":null,"game_id":0,"stv_port":0,"stv_name":"","players":null},{"server_id":13,"name":"Uncletopia | New York City | 1 | All Maps","name_short":"nyc-1","host":"nyc-1.us.uncletopia.com","port":27015,"enabled":true,"region":"us-east","cc":"us","latitude":40.73061,"longitude":-73.93524,"reserved":0,"last_update":"0001-01-01T00:00:00Z","name_a2s":"Uncletopia | New York City | 1 | All Maps","protocol":17,"map":"ctf_2fort","folder":"tf","game":"Team Fortress","app_id":440,"player_count":24,"max_players":24,"Bots":0,"server_type":"Dedicated","server_os":"Linux","password":true,"vac":true,"version":"7961495","steam_id":85568392924469993,"keywords":["ctf","nocrits","nodmgspread","uncletopia"],"game_id":440,"stv_port":27016,"stv_name":"Uncletopia | New York City | 1 | All Maps | STV","players":[{"user_id":129,"name":"kit","steam_id":76561198047403448,"connected_time":4509000000000,"state":"active","ping":45},{"user_id":201,"name":"prospike","steam_id":76561199491903111,"connected_time":395000000000,"state":"active","ping":68},{"user_id":195,"name":"paige","steam_id":76561199122891367,"connected_time":735000000000,"state":"active","ping":98},{"user_id":142,"name":"Smooth Jazz Radio","steam_id":76561198025938411,"connected_time":3781000000000,"state":"active","ping":48},{"user_id":150,"name":"Hebe","steam_id":76561198000777479,"connected_time":3256000000000,"state":"active","ping":133},{"user_id":176,"name":"Funke Monke","steam_id":76561198079440976,"connected_time":1165000000000,"state":"active","ping":68},{"user_id":178,"name":"Kamin","steam_id":76561198255299559,"connected_time":1056000000000,"state":"active","ping":105},{"user_id":136,"name":"4","steam_id":76561198105374054,"connected_time":4328000000000,"state":"active","ping":132},{"user_id":173,"name":"King Glouton","steam_id":76561197998979392,"connected_time":1435000000000,"state":"active","ping":68},{"user_id":203,"name":"Shoot Me First","steam_id":76561199216188679,"connected_time":258000000000,"state":"active","ping":105},{"user_id":189,"name":"Fiesta Factory","steam_id":76561199210382055,"connected_time":924000000000,"state":"active","ping":146},{"user_id":160,"name":"fish","steam_id":76561198303575607,"connected_time":2610000000000,"state":"active","ping":78},{"user_id":198,"name":"Hunt0rb","steam_id":76561198120527608,"connected_time":643000000000,"state":"active","ping":80},{"user_id":169,"name":"The Power","steam_id":76561198060566884,"connected_time":1715000000000,"state":"active","ping":111},{"user_id":202,"name":"Hemiphix","steam_id":76561198329316429,"connected_time":354000000000,"state":"active","ping":55},{"user_id":196,"name":"Chezaus","steam_id":76561198317397837,"connected_time":733000000000,"state":"active","ping":75},{"user_id":200,"name":"GummybearKillr","steam_id":76561198031235750,"connected_time":586000000000,"state":"active","ping":55},{"user_id":197,"name":"John Fortnite","steam_id":76561198076608253,"connected_time":723000000000,"state":"active","ping":53},{"user_id":174,"name":"Griffin","steam_id":76561198159339442,"connected_time":1425000000000,"state":"active","ping":73},{"user_id":98,"name":"The Cavalry Is Almost Here","steam_id":76561198044856349,"connected_time":7246000000000,"state":"active","ping":68},{"user_id":153,"name":"munkee","steam_id":76561199139073814,"connected_time":3190000000000,"state":"active","ping":85},{"user_id":111,"name":"4Lukaska","steam_id":76561198083515060,"connected_time":6202000000000,"state":"active","ping":31},{"user_id":199,"name":"CPUnit","steam_id":76561198162881878,"connected_time":639000000000,"state":"active","ping":65},{"user_id":183,"name":"Gary Budussy","steam_id":76561197969793969,"connected_time":977000000000,"state":"active","ping":85}]},{"server_id":14,"name":"Uncletopia | New York City | 2 | All Maps","name_short":"nyc-2","host":"nyc-1.us.uncletopia.com","port":27025,"enabled":true,"region":"us-east","cc":"us","latitude":40.73061,"longitude":-73.93524,"reserved":0,"last_update":"0001-01-01T00:00:00Z","name_a2s":"Uncletopia | New York City | 2 | All Maps","protocol":17,"map":"koth_king","folder":"tf","game":"Team Fortress","app_id":440,"player_count":23,"max_players":24,"Bots":0,"server_type":"Dedicated","server_os":"Linux","password":true,"vac":true,"version":"7961495","steam_id":85568392924469994,"keywords":["cp","nocrits","nodmgspread","uncletopia"],"game_id":440,"stv_port":27026,"stv_name":"Uncletopia | New York City | 2 | All Maps | STV","players":[{"user_id":77,"name":"Vapor Man","steam_id":76561198210173112,"connected_time":1699000000000,"state":"active","ping":116},{"user_id":72,"name":"ndvr","steam_id":76561199379200102,"connected_time":2052000000000,"state":"active","ping":54},{"user_id":78,"name":"The Chosen One","steam_id":76561199046984627,"connected_time":1673000000000,"state":"active","ping":89},{"user_id":94,"name":"andyrams","steam_id":76561198110826418,"connected_time":791000000000,"state":"active","ping":62},{"user_id":95,"name":"A_dude","steam_id":76561199261495418,"connected_time":791000000000,"state":"active","ping":67},{"user_id":89,"name":"Abe","steam_id":76561198028438723,"connected_time":1080000000000,"state":"active","ping":75},{"user_id":87,"name":"Top Quacker","steam_id":76561198261316128,"connected_time":1103000000000,"state":"active","ping":51},{"user_id":98,"name":"caberknight tf2  (f2p-ish)","steam_id":76561199273882768,"connected_time":695000000000,"state":"active","ping":63},{"user_id":96,"name":"mojosacks","steam_id":76561198122613455,"connected_time":752000000000,"state":"active","ping":59},{"user_id":92,"name":"Colin102004","steam_id":76561198202384334,"connected_time":1002000000000,"state":"active","ping":40},{"user_id":97,"name":"CORGI.EXE","steam_id":76561198077093432,"connected_time":708000000000,"state":"active","ping":55},{"user_id":61,"name":"themythtruth","steam_id":76561199484810745,"connected_time":3132000000000,"state":"active","ping":126},{"user_id":74,"name":"Bee_Pirate","steam_id":76561199000599111,"connected_time":1890000000000,"state":"active","ping":61},{"user_id":60,"name":"guh","steam_id":76561197972342286,"connected_time":3360000000000,"state":"active","ping":59},{"user_id":99,"name":"RedBaron","steam_id":76561198972426107,"connected_time":656000000000,"state":"active","ping":46},{"user_id":82,"name":"sock_vendor","steam_id":76561198059103865,"connected_time":1561000000000,"state":"active","ping":53},{"user_id":33,"name":"Sickduck Mcgee","steam_id":76561198028577159,"connected_time":5212000000000,"state":"active","ping":62},{"user_id":102,"name":"spudpickle","steam_id":76561198113923066,"connected_time":445000000000,"state":"active","ping":90},{"user_id":79,"name":"Just Chuck","steam_id":76561198121697504,"connected_time":1673000000000,"state":"active","ping":75},{"user_id":46,"name":"Menachem","steam_id":76561198041226420,"connected_time":4694000000000,"state":"active","ping":68},{"user_id":100,"name":"Scrux","steam_id":76561198129763115,"connected_time":610000000000,"state":"active","ping":131},{"user_id":101,"name":"PissMaster^5","steam_id":76561198959576385,"connected_time":598000000000,"state":"active","ping":88},{"user_id":70,"name":"TheSnowGhost","steam_id":76561198271967286,"connected_time":2197000000000,"state":"active","ping":63}]},{"server_id":15,"name":"Uncletopia | New York City | 3 | Stopwatch","name_short":"nyc-3","host":"nyc-1.us.uncletopia.com","port":27035,"enabled":true,"region":"us-east","cc":"us","latitude":40.73061,"longitude":-73.93524,"reserved":0,"last_update":"0001-01-01T00:00:00Z","name_a2s":"Uncletopia | New York City | 3 | Stopwatch","protocol":17,"map":"koth_lakeside_final","folder":"tf","game":"Team Fortress","app_id":440,"player_count":0,"max_players":24,"Bots":0,"server_type":"Dedicated","server_os":"Linux","password":true,"vac":true,"version":"7961495","steam_id":85568392924742820,"keywords":["cp","nocrits","nodmgspread","uncletopia"],"game_id":440,"stv_port":27036,"stv_name":"Uncletopia | New York City | 3 | Stopwatch | STV","players":null},{"server_id":16,"name":"Uncletopia | New York City | 4 | Community","name_short":"nyc-4","host":"nyc-1.us.uncletopia.com","port":27045,"enabled":true,"region":"us-east","cc":"us","latitude":40.73061,"longitude":-73.93524,"reserved":0,"last_update":"0001-01-01T00:00:00Z","name_a2s":"Uncletopia | New York City | 4 | Community","protocol":17,"map":"workshop/koth_trenchfoot_b1a.ugc731436616","folder":"tf","game":"Team Fortress","app_id":440,"player_count":0,"max_players":24,"Bots":0,"server_type":"Dedicated","server_os":"Linux","password":true,"vac":true,"version":"7961495","steam_id":85568392924742821,"keywords":["cp","nocrits","nodmgspread","uncletopia"],"game_id":440,"stv_port":27046,"stv_name":"Uncletopia | New York City | 4 | Community | STV","players":null},{"server_id":142,"name":"Uncletopia | SÃ£o Paulo | 1 | All Maps","name_short":"sao-1","host":"sao-1.br.uncletopia.com","port":27015,"enabled":true,"region":"sa","cc":"br","latitude":-23.533773,"longitude":-46.62529,"reserved":0,"last_update":"0001-01-01T00:00:00Z","name_a2s":"Uncletopia | SÃ£o Paulo | 1 | All Maps","protocol":17,"map":"cp_dustbowl","folder":"tf","game":"Team Fortress","app_id":440,"player_count":0,"max_players":24,"Bots":0,"server_type":"Dedicated","server_os":"Linux","password":true,"vac":true,"version":"7961495","steam_id":85568392924469996,"keywords":["cp","nocrits","nodmgspread","uncletopia"],"game_id":440,"stv_port":27016,"stv_name":"Uncletopia | SÃ£o Paulo | 1 | All Maps | STV","players":null},{"server_id":143,"name":"Uncletopia | SÃ£o Paulo | 2 | Community","name_short":"sao-2","host":"sao-2.br.uncletopia.com","port":27015,"enabled":true,"region":"sa","cc":"br","latitude":-23.533773,"longitude":-46.62529,"reserved":0,"last_update":"0001-01-01T00:00:00Z","name_a2s":"Uncletopia | SÃ£o Paulo | 2 | Community","protocol":17,"map":"pl_badwater","folder":"tf","game":"Team Fortress","app_id":440,"player_count":0,"max_players":24,"Bots":0,"server_type":"Dedicated","server_os":"Linux","password":true,"vac":true,"version":"7961495","steam_id":85568392924485349,"keywords":["nocrits","nodmgspread","payload","uncletopia"],"game_id":440,"stv_port":27016,"stv_name":"Uncletopia | SÃ£o Paulo | 2 | Community | STV","players":null},{"server_id":7,"name":"Uncletopia | Seattle | 1 | All Maps","name_short":"sea-1","host":"sea-1.us.uncletopia.com","port":27015,"enabled":true,"region":"us-west","cc":"us","latitude":47.608013,"longitude":-122.33517,"reserved":0,"last_update":"0001-01-01T00:00:00Z","name_a2s":"Uncletopia | Seattle | 1 | All Maps","protocol":17,"map":"pl_frontier_final","folder":"tf","game":"Team Fortress","app_id":440,"player_count":24,"max_players":24,"Bots":0,"server_type":"Dedicated","server_os":"Linux","password":true,"vac":true,"version":"7961495","steam_id":85568392924469997,"keywords":["nocrits","nodmgspread","payload","uncletopia"],"game_id":440,"stv_port":27016,"stv_name":"Uncletopia | Seattle | 1 | All Maps | STV","players":[{"user_id":288,"name":"Hoovy","steam_id":76561198409907417,"connected_time":6883000000000,"state":"active","ping":90},{"user_id":258,"name":"you just got dyked on","steam_id":76561198018977723,"connected_time":9621000000000,"state":"active","ping":49},{"user_id":350,"name":"mega","steam_id":76561198089520959,"connected_time":1748000000000,"state":"active","ping":93},{"user_id":339,"name":"pepe warlord","steam_id":76561198080819197,"connected_time":2668000000000,"state":"active","ping":75},{"user_id":345,"name":"â™¥Charaå–œç”Ÿå­â™¥","steam_id":76561198080500920,"connected_time":2210000000000,"state":"active","ping":76},{"user_id":361,"name":"Kazoo","steam_id":76561199229748300,"connected_time":546000000000,"state":"active","ping":75},{"user_id":340,"name":"Xain35","steam_id":76561198121834307,"connected_time":2649000000000,"state":"active","ping":50},{"user_id":362,"name":"Elfy","steam_id":76561199166448617,"connected_time":514000000000,"state":"active","ping":42},{"user_id":335,"name":"Karg","steam_id":76561198091387866,"connected_time":3060000000000,"state":"active","ping":66},{"user_id":346,"name":"Shadow5421","steam_id":76561198044306668,"connected_time":2021000000000,"state":"active","ping":86},{"user_id":313,"name":"spacetoven","steam_id":76561198115821131,"connected_time":4814000000000,"state":"active","ping":61},{"user_id":351,"name":"digitaldisorder","steam_id":76561198041841128,"connected_time":1711000000000,"state":"active","ping":76},{"user_id":352,"name":"The Assistant Regional Manager","steam_id":76561199221484936,"connected_time":1677000000000,"state":"active","ping":108},{"user_id":331,"name":"ArjayTheWeenie","steam_id":76561198275999294,"connected_time":3924000000000,"state":"active","ping":45},{"user_id":359,"name":"Shark Sandwich","steam_id":76561198025007938,"connected_time":727000000000,"state":"active","ping":45},{"user_id":360,"name":"the beast","steam_id":76561198088131563,"connected_time":706000000000,"state":"active","ping":90},{"user_id":342,"name":"Daz","steam_id":76561198041431938,"connected_time":2332000000000,"state":"active","ping":52},{"user_id":343,"name":"Crabohydrate","steam_id":76561198157019155,"connected_time":2232000000000,"state":"active","ping":56},{"user_id":354,"name":"Megatron G","steam_id":76561198168864083,"connected_time":1609000000000,"state":"active","ping":45},{"user_id":341,"name":"Noah1k","steam_id":76561199428633514,"connected_time":2495000000000,"state":"active","ping":57},{"user_id":349,"name":"SkobeBeef","steam_id":76561198078638948,"connected_time":1767000000000,"state":"active","ping":59},{"user_id":357,"name":"MegumiTame","steam_id":76561198450280686,"connected_time":1008000000000,"state":"active","ping":56},{"user_id":284,"name":"Mr8bittripper","steam_id":76561198133894229,"connected_time":7363000000000,"state":"active","ping":45},{"user_id":294,"name":"Lili","steam_id":76561199488457138,"connected_time":6150000000000,"state":"active","ping":55}]},{"server_id":119,"name":"Uncletopia | Seattle | 2 | All Maps","name_short":"sea-2","host":"sea-1.us.uncletopia.com","port":27025,"enabled":true,"region":"us-west","cc":"us","latitude":47.608013,"longitude":-122.33517,"reserved":0,"last_update":"0001-01-01T00:00:00Z","name_a2s":"Uncletopia | Seattle | 2 | All Maps","protocol":17,"map":"koth_cascade","folder":"tf","game":"Team Fortress","app_id":440,"player_count":12,"max_players":24,"Bots":0,"server_type":"Dedicated","server_os":"Linux","password":true,"vac":true,"version":"7961495","steam_id":85568392924469998,"keywords":["cp","nocrits","nodmgspread","uncletopia"],"game_id":440,"stv_port":27026,"stv_name":"Uncletopia | Seattle | 2 | All Maps | STV","players":[{"user_id":17,"name":"here2he1p","steam_id":76561199216977630,"connected_time":1520000000000,"state":"active","ping":44},{"user_id":22,"name":"Bomby24","steam_id":76561199224779013,"connected_time":614000000000,"state":"active","ping":76},{"user_id":15,"name":"your girlâ™€","steam_id":76561199050118111,"connected_time":1831000000000,"state":"active","ping":50},{"user_id":16,"name":"mush","steam_id":76561198310089797,"connected_time":1815000000000,"state":"active","ping":82},{"user_id":19,"name":"HooHay","steam_id":76561199350870177,"connected_time":986000000000,"state":"active","ping":109},{"user_id":20,"name":"Papes","steam_id":76561198174593497,"connected_time":936000000000,"state":"active","ping":60},{"user_id":21,"name":"Vv","steam_id":76561199052196750,"connected_time":819000000000,"state":"active","ping":88},{"user_id":26,"name":"thammy","steam_id":76561198141794830,"connected_time":34000000000,"state":"spawning","ping":85},{"user_id":24,"name":"Plimki","steam_id":76561199019877748,"connected_time":197000000000,"state":"active","ping":106},{"user_id":25,"name":"asm_ghost","steam_id":76561199205363547,"connected_time":139000000000,"state":"active","ping":76},{"user_id":27,"name":"DC","steam_id":76561198260552205,"connected_time":8000000000,"state":"spawning","ping":106},{"user_id":28,"name":"lord_dracoft12","steam_id":76561199243262243,"connected_time":3000000000,"state":"spawning","ping":194}]},{"server_id":406,"name":"Uncletopia | Seattle | 3 | Stopwatch","name_short":"sea-3","host":"sea-1.us.uncletopia.com","port":27035,"enabled":true,"region":"us-west","cc":"us","latitude":47.608013,"longitude":-122.33517,"reserved":0,"last_update":"0001-01-01T00:00:00Z","name_a2s":"Uncletopia | Seattle | 3 | Stopwatch","protocol":17,"map":"pl_pier","folder":"tf","game":"Team Fortress","app_id":440,"player_count":0,"max_players":24,"Bots":0,"server_type":"Dedicated","server_os":"Linux","password":true,"vac":true,"version":"7961495","steam_id":85568392924515217,"keywords":["nocrits","nodmgspread","payload","uncletopia"],"game_id":440,"stv_port":27036,"stv_name":"Uncletopia | Seattle | 3 | Stopwatch | STV","players":null},{"server_id":17,"name":"Uncletopia | San Francisco | 1 | All Maps","name_short":"sfo-1","host":"sfo-1.us.uncletopia.com","port":27015,"enabled":true,"region":"us-west","cc":"us","latitude":37.77397,"longitude":-122.4313,"reserved":0,"last_update":"0001-01-01T00:00:00Z","name_a2s":"Uncletopia | San Francisco | 1 | All Maps","protocol":17,"map":"koth_cascade","folder":"tf","game":"Team Fortress","app_id":440,"player_count":0,"max_players":24,"Bots":0,"server_type":"Dedicated","server_os":"Linux","password":true,"vac":true,"version":"7961495","steam_id":85568392924469999,"keywords":["cp","nocrits","nodmgspread","uncletopia"],"game_id":440,"stv_port":27016,"stv_name":"Uncletopia | San Francisco | 1 | All Maps | STV","players":null},{"server_id":18,"name":"Uncletopia | San Francisco | 2 | All Maps","name_short":"sfo-2","host":"sfo-1.us.uncletopia.com","port":27025,"enabled":true,"region":"us-west","cc":"us","latitude":37.77397,"longitude":-122.4313,"reserved":0,"last_update":"0001-01-01T00:00:00Z","name_a2s":"Uncletopia | San Francisco | 2 | All Maps","protocol":17,"map":"pl_frontier_final","folder":"tf","game":"Team Fortress","app_id":440,"player_count":0,"max_players":24,"Bots":0,"server_type":"Dedicated","server_os":"Linux","password":true,"vac":true,"version":"7961495","steam_id":85568392924470000,"keywords":["nocrits","nodmgspread","payload","uncletopia"],"game_id":440,"stv_port":27026,"stv_name":"Uncletopia | San Francisco | 2 | All Maps | STV","players":null},{"server_id":19,"name":"Uncletopia | San Francisco | 3 | Stopwatch","name_short":"sfo-3","host":"sfo-1.us.uncletopia.com","port":27035,"enabled":true,"region":"us-west","cc":"us","latitude":37.77397,"longitude":-122.4313,"reserved":0,"last_update":"0001-01-01T00:00:00Z","name_a2s":"Uncletopia | San Francisco | 3 | Stopwatch","protocol":17,"map":"pl_pier","folder":"tf","game":"Team Fortress","app_id":440,"player_count":0,"max_players":24,"Bots":0,"server_type":"Dedicated","server_os":"Linux","password":true,"vac":true,"version":"7961495","steam_id":85568392924742824,"keywords":["nocrits","nodmgspread","payload","uncletopia"],"game_id":440,"stv_port":27036,"stv_name":"Uncletopia | San Francisco | 3 | Stopwatch | STV","players":null},{"server_id":20,"name":"Uncletopia | San Francisco | 4 | Community","name_short":"sfo-4","host":"sfo-1.us.uncletopia.com","port":27045,"enabled":true,"region":"us-west","cc":"us","latitude":37.77397,"longitude":-122.4313,"reserved":0,"last_update":"0001-01-01T00:00:00Z","name_a2s":"Uncletopia | San Francisco | 4 | Community","protocol":17,"map":"workshop/koth_product_final.ugc454272353","folder":"tf","game":"Team Fortress","app_id":440,"player_count":0,"max_players":24,"Bots":0,"server_type":"Dedicated","server_os":"Linux","password":true,"vac":true,"version":"7961495","steam_id":85568392924742826,"keywords":["cp","nocrits","nodmgspread","uncletopia"],"game_id":440,"stv_port":27046,"stv_name":"Uncletopia | San Francisco | 4 | Community | STV","players":null},{"server_id":141,"name":"Uncletopia | Sydney | 1 | All Maps","name_short":"syd-1","host":"syd-1.au.uncletopia.com","port":27015,"enabled":true,"region":"au","cc":"au","latitude":-33.865143,"longitude":151.2099,"reserved":0,"last_update":"0001-01-01T00:00:00Z","name_a2s":"Uncletopia | Sydney | 1 | All Maps","protocol":17,"map":"koth_viaduct","folder":"tf","game":"Team Fortress","app_id":440,"player_count":0,"max_players":24,"Bots":0,"server_type":"Dedicated","server_os":"Linux","password":true,"vac":true,"version":"7961495","steam_id":85568392924470001,"keywords":["cp","nocrits","nodmgspread","uncletopia"],"game_id":440,"stv_port":27016,"stv_name":"Uncletopia | Sydney | 1 | All Maps | STV","players":null},{"server_id":123,"name":"Uncletopia | Sydney | 2 | All Maps","name_short":"syd-2","host":"syd-1.au.uncletopia.com","port":27025,"enabled":true,"region":"au","cc":"au","latitude":-33.865143,"longitude":151.2099,"reserved":0,"last_update":"0001-01-01T00:00:00Z","name_a2s":"Uncletopia | Sydney | 2 | All Maps","protocol":17,"map":"koth_lakeside_final","folder":"tf","game":"Team Fortress","app_id":440,"player_count":0,"max_players":24,"Bots":0,"server_type":"Dedicated","server_os":"Linux","password":true,"vac":true,"version":"7961495","steam_id":85568392924470002,"keywords":["cp","nocrits","nodmgspread","uncletopia"],"game_id":440,"stv_port":27026,"stv_name":"Uncletopia | Sydney | 2 | All Maps | STV","players":null},{"server_id":395,"name":"Uncletopia | Sydney | 3 | All Maps","name_short":"syd-3","host":"syd-1.au.uncletopia.com","port":27035,"enabled":true,"region":"au","cc":"au","latitude":-33.865143,"longitude":151.2099,"reserved":0,"last_update":"0001-01-01T00:00:00Z","name_a2s":"Uncletopia | Sydney | 3 | All Maps","protocol":17,"map":"pl_frontier_final","folder":"tf","game":"Team Fortress","app_id":440,"player_count":0,"max_players":24,"Bots":0,"server_type":"Dedicated","server_os":"Linux","password":true,"vac":true,"version":"7961495","steam_id":85568392925194467,"keywords":["nocrits","nodmgspread","payload","uncletopia"],"game_id":440,"stv_port":27036,"stv_name":"Uncletopia | Sydney | 3 | All Maps | STV","players":null},{"server_id":396,"name":"Uncletopia | Sydney | 4 | All Maps","name_short":"syd-4","host":"syd-1.au.uncletopia.com","port":27045,"enabled":true,"region":"au","cc":"au","latitude":-33.865143,"longitude":151.2099,"reserved":0,"last_update":"0001-01-01T00:00:00Z","name_a2s":"Uncletopia | Sydney | 4 | All Maps","protocol":17,"map":"cp_process_final","folder":"tf","game":"Team Fortress","app_id":440,"player_count":0,"max_players":24,"Bots":0,"server_type":"Dedicated","server_os":"Linux","password":true,"vac":true,"version":"7961495","steam_id":85568392925397958,"keywords":["cp","nocrits","nodmgspread","uncletopia"],"game_id":440,"stv_port":27046,"stv_name":"Uncletopia | Sydney | 4 | All Maps | STV","players":null},{"server_id":58,"name":"Uncletopia | Sydney | 5 | Stopwatch","name_short":"syd-5","host":"syd-1.au.uncletopia.com","port":27055,"enabled":true,"region":"au","cc":"au","latitude":-33.865143,"longitude":151.2099,"reserved":0,"last_update":"0001-01-01T00:00:00Z","name_a2s":"Uncletopia | Sydney | 5 | Stopwatch","protocol":17,"map":"pl_frontier_final","folder":"tf","game":"Team Fortress","app_id":440,"player_count":0,"max_players":24,"Bots":0,"server_type":"Dedicated","server_os":"Linux","password":true,"vac":true,"version":"7961495","steam_id":85568392925397959,"keywords":["nocrits","nodmgspread","payload","uncletopia"],"game_id":440,"stv_port":27056,"stv_name":"Uncletopia | Sydney | 5 | Stopwatch | STV","players":null},{"server_id":59,"name":"Uncletopia | Sydney | 6 | Community","name_short":"syd-6","host":"syd-1.au.uncletopia.com","port":27065,"enabled":true,"region":"au","cc":"au","latitude":-33.865143,"longitude":151.2099,"reserved":0,"last_update":"0001-01-01T00:00:00Z","name_a2s":"Uncletopia | Sydney | 6 | Community","protocol":17,"map":"workshop/cp_reckoner_rc6.ugc674719999","folder":"tf","game":"Team Fortress","app_id":440,"player_count":1,"max_players":24,"Bots":0,"server_type":"Dedicated","server_os":"Linux","password":true,"vac":true,"version":"7961495","steam_id":85568392925397960,"keywords":["cp","nocrits","nodmgspread","uncletopia"],"game_id":440,"stv_port":27066,"stv_name":"Uncletopia | Sydney | 6 | Community | STV","players":[{"user_id":3,"name":"Â¿eTheRealMe?","steam_id":76561198033297147,"connected_time":315000000000,"state":"active","ping":93}]},{"server_id":49,"name":"Uncletopia | Warsaw | 1 | One Thousand Uncles","name_short":"waw-1","host":"waw-1.pl.uncletopia.com","port":27015,"enabled":true,"region":"eu","cc":"pl","latitude":52.2297,"longitude":21.017532,"reserved":0,"last_update":"0001-01-01T00:00:00Z","name_a2s":"Uncletopia | Warsaw | 1 | One Thousand Uncles","protocol":17,"map":"pl_snowycoast","folder":"tf","game":"Team Fortress","app_id":440,"player_count":21,"max_players":32,"Bots":16,"server_type":"Dedicated","server_os":"Linux","password":true,"vac":true,"version":"7961495","steam_id":85568392925397850,"keywords":["alltalk","bots","danepve","increased_maxplayers","nocrits","norespawntime","payload","uncletopia"],"game_id":440,"stv_port":0,"stv_name":"","players":[{"user_id":192,"name":"Voks_","steam_id":76561198159687785,"connected_time":1244000000000,"state":"active","ping":67},{"user_id":193,"name":"Rodak","steam_id":76561199135986344,"connected_time":917000000000,"state":"active","ping":60},{"user_id":187,"name":"Loo32","steam_id":76561199094568704,"connected_time":2364000000000,"state":"active","ping":65},{"user_id":160,"name":"Ramzus","steam_id":76561198012385070,"connected_time":3704000000000,"state":"active","ping":93},{"user_id":161,"name":"CheapMeds","steam_id":76561197990309210,"connected_time":3698000000000,"state":"active","ping":90}]},{"server_id":50,"name":"Uncletopia | Warsaw | 2 | One Thousand Uncles","name_short":"waw-2","host":"waw-1.pl.uncletopia.com","port":27025,"enabled":true,"region":"eu","cc":"pl","latitude":52.2297,"longitude":21.017532,"reserved":0,"last_update":"0001-01-01T00:00:00Z","name_a2s":"Uncletopia | Warsaw | 2 | One Thousand Uncles","protocol":17,"map":"pl_upward","folder":"tf","game":"Team Fortress","app_id":440,"player_count":28,"max_players":32,"Bots":16,"server_type":"Dedicated","server_os":"Linux","password":true,"vac":true,"version":"7961495","steam_id":85568392925397851,"keywords":["alltalk","bots","danepve","increased_maxplayers","nocrits","norespawntime","payload","uncletopia"],"game_id":440,"stv_port":0,"stv_name":"","players":[{"user_id":289,"name":"SMG Main","steam_id":76561199438078915,"connected_time":518000000000,"state":"active","ping":59},{"user_id":278,"name":"NeverPG_","steam_id":76561199008194240,"connected_time":1446000000000,"state":"active","ping":82},{"user_id":287,"name":"trobin120","steam_id":76561199122420273,"connected_time":598000000000,"state":"active","ping":144},{"user_id":138,"name":"Lukas","steam_id":76561198009118452,"connected_time":9911000000000,"state":"active","ping":64},{"user_id":285,"name":"piping hot","steam_id":76561198011692496,"connected_time":1030000000000,"state":"active","ping":75},{"user_id":290,"name":"GeraldyJones65","steam_id":76561199122297098,"connected_time":443000000000,"state":"active","ping":150},{"user_id":279,"name":"Max Power","steam_id":76561198019269089,"connected_time":1419000000000,"state":"active","ping":63},{"user_id":291,"name":"butt","steam_id":76561198156906497,"connected_time":319000000000,"state":"active","ping":89},{"user_id":292,"name":"bum","steam_id":76561198396168679,"connected_time":293000000000,"state":"active","ping":201},{"user_id":246,"name":"NEZ","steam_id":76561198320935413,"connected_time":3016000000000,"state":"active","ping":125},{"user_id":281,"name":"JeÄmen","steam_id":76561198051617968,"connected_time":1355000000000,"state":"active","ping":60},{"user_id":249,"name":"failed poet","steam_id":76561198987041283,"connected_time":2726000000000,"state":"active","ping":74}]},{"server_id":51,"name":"Uncletopia | Warsaw | 3 | All Maps","name_short":"waw-3","host":"waw-1.pl.uncletopia.com","port":27035,"enabled":true,"region":"eu","cc":"pl","latitude":52.2297,"longitude":21.017532,"reserved":0,"last_update":"0001-01-01T00:00:00Z","name_a2s":"Uncletopia | Warsaw | 3 | All Maps","protocol":17,"map":"koth_viaduct","folder":"tf","game":"Team Fortress","app_id":440,"player_count":0,"max_players":24,"Bots":0,"server_type":"Dedicated","server_os":"Linux","password":true,"vac":true,"version":"7961495","steam_id":85568392925397852,"keywords":["cp","nocrits","nodmgspread","uncletopia"],"game_id":440,"stv_port":27036,"stv_name":"Uncletopia | Warsaw | 3 | All Maps | STV","players":null},{"server_id":52,"name":"Uncletopia | Warsaw | 4 | All Maps","name_short":"waw-4","host":"waw-1.pl.uncletopia.com","port":27045,"enabled":true,"region":"eu","cc":"pl","latitude":52.2297,"longitude":21.017532,"reserved":0,"last_update":"0001-01-01T00:00:00Z","name_a2s":"Uncletopia | Warsaw | 4 | All Maps","protocol":17,"map":"koth_highpass","folder":"tf","game":"Team Fortress","app_id":440,"player_count":0,"max_players":24,"Bots":0,"server_type":"Dedicated","server_os":"Linux","password":true,"vac":true,"version":"7961495","steam_id":85568392925397853,"keywords":["cp","nocrits","nodmgspread","uncletopia"],"game_id":440,"stv_port":27046,"stv_name":"Uncletopia | Warsaw | 4 | All Maps | STV","players":null},{"server_id":53,"name":"Uncletopia | Warsaw | 5 | Stopwatch","name_short":"waw-5","host":"waw-1.pl.uncletopia.com","port":27055,"enabled":true,"region":"eu","cc":"pl","latitude":52.2297,"longitude":21.017532,"reserved":0,"last_update":"0001-01-01T00:00:00Z","name_a2s":"Uncletopia | Warsaw | 5 | Stopwatch","protocol":17,"map":"koth_highpass","folder":"tf","game":"Team Fortress","app_id":440,"player_count":0,"max_players":24,"Bots":0,"server_type":"Dedicated","server_os":"Linux","password":true,"vac":true,"version":"7961495","steam_id":85568392925397854,"keywords":["cp","nocrits","nodmgspread","uncletopia"],"game_id":440,"stv_port":27056,"stv_name":"Uncletopia | Warsaw | 5 | Stopwatch | STV","players":null},{"server_id":54,"name":"Uncletopia | Warsaw | 6 | Community","name_short":"waw-6","host":"waw-1.pl.uncletopia.com","port":27065,"enabled":true,"region":"eu","cc":"pl","latitude":52.2297,"longitude":21.017532,"reserved":0,"last_update":"0001-01-01T00:00:00Z","name_a2s":"Uncletopia | Warsaw | 6 | Community","protocol":17,"map":"workshop/koth_synthetic_rc6a.ugc1549817316","folder":"tf","game":"Team Fortress","app_id":440,"player_count":0,"max_players":24,"Bots":0,"server_type":"Dedicated","server_os":"Linux","password":true,"vac":true,"version":"7961495","steam_id":85568392925397856,"keywords":["cp","nocrits","nodmgspread","uncletopia"],"game_id":440,"stv_port":27066,"stv_name":"Uncletopia | Warsaw | 6 | Community | STV","players":null}]}