{"status":true,"message":"","result":[{"server_id":9,"name":"Uncletopia | Atlanta | 1 | All Maps","name_short":"atl-1","host":"atl-1.us.uncletopia.com","port":27015,"enabled":true,"region":"us-east","cc":"us","latitude":33.753746,"longitude":-84.38633,"reserved":0,"last_update":"0001-01-01T00:00:00Z","name_a2s":"Uncletopia | Atlanta | 1 | All Maps","protocol":17,"map":"pl_pier","folder":"tf","game":"Team Fortress","app_id":440,"player_count":24,"max_players":24,"Bots":0,"server_type":"Dedicated","server_os":"Linux","password":true,"vac":true,"version":"7961495","steam_id":85568392924469982,"keywords":["nocrits","nodmgspread","payload","uncletopia"],"game_id":440,"stv_port":27016,"stv_name":"Uncletopia | Atlanta | 1 | All Maps | STV","players":[{"user_id":218,"name":"Shank","steam_id":76561198039110658,"connected_time":282000000000,"state":"active","ping":69},{"user_id":200,"name":"ash","steam_id":76561198127890645,"connected_time":1783000000000,"state":"active","ping":71},{"user_id":219,"name":"Zeelidox","steam_id":76561198110613375,"connected_time":275000000000,"state":"active","ping":63},{"user_id":212,"name":"DuckMann","steam_id":76561198197058638,"connected_time":576000000000,"state":"active","ping":46},{"user_id":195,"name":"Intro Bonito","steam_id":76561198119478838,"connected_time":2064000000000,"state":"active","ping":45},{"user_id":137,"name":"lil hog","steam_id":76561199230929836,"connected_time":5597000000000,"state":"active","ping":87},{"user_id":190,"name":"Wingm4n","steam_id":76561198064127012,"connected_time":2543000000000,"state":"active","ping":46},{"user_id":136,"name":"lynt","steam_id":76561198988333976,"connected_time":5600000000000,"state":"active","ping":39},{"user_id":196,"name":"AaronLayneTV","steam_id":76561199380209400,"connected_time":1865000000000,"state":"active","ping":58},{"user_id":205,"name":"My Tummy Hurts :(","steam_id":76561198168976029,"connected_time":978000000000,"state":"active","ping":77},{"user_id":177,"name":"RoJ","steam_id":76561198063959574,"connected_time":3244000000000,"state":"active","ping":81},{"user_id":193,"name":"Ashes!","steam_id":76561197998475441,"connected_time":2397000000000,"state":"active","ping":77},{"user_id":184,"name":"Poo","steam_id":76561198265144507,"connected_time":2861000000000,"state":"active","ping":73},{"user_id":172,"name":"Oxygen User","steam_id":76561199111975528,"connected_time":3511000000000,"state":"active","ping":74},{"user_id":51,"name":"squaggles!","steam_id":76561197994995011,"connected_time":8065000000000,"state":"active","ping":43},{"user_id":213,"name":"lurid","steam_id":76561199134999203,"connected_time":475000000000,"state":"active","ping":60},{"user_id":132,"name":"marguerite","steam_id":76561198170873495,"connected_time":5629000000000,"state":"active","ping":52},{"user_id":216,"name":"kite","steam_id":76561198346516392,"connected_time":321000000000,"state":"active","ping":87},{"user_id":220,"name":"El Dorito","steam_id":76561198044544789,"connected_time":189000000000,"state":"active","ping":54},{"user_id":160,"name":"FIJI","steam_id":76561198126087725,"connected_time":4575000000000,"state":"active","ping":71},{"user_id":138,"name":"Thotimus Begonimus","steam_id":76561197970275938,"connected_time":5595000000000,"state":"active","ping":46},{"user_id":194,"name":"BIG HOG","steam_id":76561198079923652,"connected_time":2137000000000,"state":"active","ping":67},{"user_id":199,"name":"krabby","steam_id":76561199072773402,"connected_time":1834000000000,"state":"active","ping":66},{"user_id":207,"name":"Phorty Teaux","steam_id":76561197986045724,"connected_time":947000000000,"state":"active","ping":113}]},{"server_id":104,"name":"Uncletopia | Atlanta | 2 | All Maps","name_short":"atl-2","host":"atl-1.us.uncletopia.com","port":27025,"enabled":true,"region":"us-east","cc":"us","latitude":33.753746,"longitude":-84.38633,"reserved":0,"last_update":"0001-01-01T00:00:00Z","name_a2s":"Uncletopia | Atlanta | 2 | All Maps","protocol":17,"map":"pl_upward","folder":"tf","game":"Team Fortress","app_id":440,"player_count":0,"max_players":24,"Bots":0,"server_type":"Dedicated","server_os":"Linux","password":true,"vac":true,"version":"7961495","steam_id":85568392924469983,"keywords":["nocrits","nodmgspread","payload","uncletopia"],"game_id":440,"stv_port":27026,"stv_name":"Uncletopia | Atlanta | 2 | All Maps | STV","players":null},{"server_id":400,"name":"Uncletopia | Atlanta | 3 | Stopwatch","name_short":"atl-3","host":"atl-1.us.uncletopia.com","port":27035,"enabled":true,"region":"us-east","cc":"us","latitude":33.753746,"longitude":-84.38633,"reserved":0,"last_update":"0001-01-01T00:00:00Z","name_a2s":"Uncletopia | Atlanta | 3 | Stopwatch","protocol":17,"map":"workshop/pl_summercoast_rc8e.ugc1761528829","folder":"tf","game":"Team Fortress","app_id":440,"player_count":11,"max_players":24,"Bots":0,"server_type":"Dedicated","server_os":"Linux","password":true,"vac":true,"version":"7961495","steam_id":85568392924515187,"keywords":["nocrits","nodmgspread","payload","uncletopia"],"game_id":440,"stv_port":27036,"stv_name":"Uncletopia | Atlanta | 3 | Stopwatch | STV","players":[{"user_id":88,"name":"Eugene Porter","steam_id":76561198834556559,"connected_time":709000000000,"state":"active","ping":83},{"user_id":89,"name":"kilany","steam_id":76561198322366556,"connected_time":643000000000,"state":"active","ping":196},{"user_id":74,"name":"Ôº•ÔΩéÔΩÑÔΩÖÔΩíÔºÆÔΩÖÔΩÉÔΩíÔΩè","steam_id":76561198044304293,"connected_time":1350000000000,"state":"active","ping":161},{"user_id":69,"name":"CabezaGrande","steam_id":76561197972555502,"connected_time":1702000000000,"state":"active","ping":88},{"user_id":96,"name":"TheLonliestThelonius","steam_id":76561198097657243,"connected_time":320000000000,"state":"active","ping":78},{"user_id":98,"name":"red isnt ready","steam_id":76561199229918142,"connected_time":4000000000,"state":"spawning","ping":63},{"user_id":97,"name":"Mr. Chicken nipples","steam_id":76561198040907706,"connected_time":132000000000,"state":"active","ping":87},{"user_id":80,"name":"Man On Night Mode","steam_id":76561198012469076,"connected_time":1149000000000,"state":"active","ping":98},{"user_id":72,"name":"Amy Roxwell","steam_id":76561198303391830,"connected_time":1580000000000,"state":"active","ping":112},{"user_id":94,"name":"TwitchyEyes","steam_id":76561199087750592,"connected_time":457000000000,"state":"active","ping":74},{"user_id":70,"name":"Invictus","steam_id":76561198079517075,"connected_time":1697000000000,"state":"active","ping":80}]},{"server_id":401,"name":"Uncletopia | Atlanta | 4 | Community","name_short":"atl-4","host":"atl-1.us.uncletopia.com","port":27045,"enabled":true,"region":"us-east","cc":"us","latitude":33.753746,"longitude":-84.38633,"reserved":0,"last_update":"0001-01-01T00:00:00Z","name_a2s":"Uncletopia | Atlanta | 4 | Community","protocol":17,"map":"workshop/pl_phoenix_b4a.ugc2969509359","folder":"tf","game":"Team Fortress","app_id":440,"player_count":0,"max_players":24,"Bots":0,"server_type":"Dedicated","server_os":"Linux","password":true,"vac":true,"version":"7961495","steam_id":85568392924515188,"keywords":["nocrits","nodmgspread","payload","uncletopia"],"game_id":440,"stv_port":27046,"stv_name":"Uncletopia | Atlanta | 4 | Community | STV","players":null},{"server_id":2,"name":"Uncletopia | Chicago | 1 | All Maps","name_short":"chi-1","host":"chi-1.us.uncletopia.com","port":27015,"enabled":true,"region":"us-central","cc":"us","latitude":41.881832,"longitude":-87.62318,"reserved":0,"last_update":"0001-01-01T00:00:00Z","name_a2s":"Uncletopia | Chicago | 1 | All Maps","protocol":17,"map":"cp_dustbowl","folder":"tf","game":"Team Fortress","app_id":440,"player_count":20,"max_players":24,"Bots":0,"server_type":"Dedicated","server_os":"Linux","password":true,"vac":true,"version":"7961495","steam_id":85568392924469984,"keywords":["cp","nocrits","nodmgspread","uncletopia"],"game_id":440,"stv_port":27016,"stv_name":"Uncletopia | Chicago | 1 | All Maps | STV","players":[{"user_id":69,"name":"sheep","steam_id":76561199220109827,"connected_time":334000000000,"state":"active","ping":154},{"user_id":68,"name":"Wooden E","steam_id":76561198020308956,"connected_time":513000000000,"state":"active","ping":59},{"user_id":75,"name":"BCB","steam_id":76561197973032452,"connected_time":90000000000,"state":"active","ping":77},{"user_id":70,"name":"autism","steam_id":76561199433791353,"connected_time":259000000000,"state":"active","ping":103},{"user_id":71,"name":"Cole","steam_id":76561198343817300,"connected_time":258000000000,"state":"active","ping":104},{"user_id":19,"name":"Petrivus","steam_id":76561198202152453,"connected_time":3549000000000,"state":"active","ping":107},{"user_id":72,"name":"Headshots Se7en","steam_id":76561198020464802,"connected_time":232000000000,"state":"active","ping":55},{"user_id":36,"name":"MackDaddy69","steam_id":76561198060121935,"connected_time":2628000000000,"state":"active","ping":60},{"user_id":73,"name":"Seagull","steam_id":76561199201235759,"connected_time":154000000000,"state":"active","ping":45},{"user_id":61,"name":"Dubbs","steam_id":76561197960945604,"connected_time":1578000000000,"state":"active","ping":45},{"user_id":76,"name":"Klipmeister","steam_id":76561198021830328,"connected_time":61000000000,"state":"active","ping":311},{"user_id":74,"name":"Poetic Pillager","steam_id":76561198964913885,"connected_time":143000000000,"state":"active","ping":49},{"user_id":77,"name":"Rukks","steam_id":76561197993918954,"connected_time":49000000000,"state":"active","ping":82},{"user_id":67,"name":"Pep Seeman","steam_id":76561198038393007,"connected_time":650000000000,"state":"active","ping":81},{"user_id":78,"name":"Chas.","steam_id":76561198025555352,"connected_time":24000000000,"state":"spawning","ping":75},{"user_id":53,"name":"GoldtoothFour","steam_id":76561198055529332,"connected_time":2355000000000,"state":"active","ping":53},{"user_id":45,"name":"Maffy","steam_id":76561198014673082,"connected_time":2474000000000,"state":"active","ping":98},{"user_id":56,"name":"Jazzy","steam_id":76561198012786647,"connected_time":2239000000000,"state":"active","ping":78},{"user_id":49,"name":"Spring Beans","steam_id":76561197978546259,"connected_time":2448000000000,"state":"active","ping":59},{"user_id":66,"name":"flagman21","steam_id":76561198036788143,"connected_time":933000000000,"state":"active","ping":80}]},{"server_id":106,"name":"Uncletopia | Chicago | 2 | All Maps","name_short":"chi-2","host":"chi-1.us.uncletopia.com","port":27025,"enabled":true,"region":"us-central","cc":"us","latitude":41.881832,"longitude":-87.62318,"reserved":0,"last_update":"0001-01-01T00:00:00Z","name_a2s":"Uncletopia | Chicago | 2 | All Maps","protocol":17,"map":"pl_snowycoast","folder":"tf","game":"Team Fortress","app_id":440,"player_count":23,"max_players":24,"Bots":0,"server_type":"Dedicated","server_os":"Linux","password":true,"vac":true,"version":"7961495","steam_id":85568392924469985,"keywords":["nocrits","nodmgspread","payload","uncletopia"],"game_id":440,"stv_port":27026,"stv_name":"Uncletopia | Chicago | 2 | All Maps | STV","players":[{"user_id":67,"name":"dreaminginsane ‚òÅ","steam_id":76561198093147415,"connected_time":4539000000000,"state":"active","ping":101},{"user_id":92,"name":"Ursus Ludius","steam_id":76561198025470722,"connected_time":2023000000000,"state":"active","ping":67},{"user_id":103,"name":"Spooki boi","steam_id":76561198076090567,"connected_time":889000000000,"state":"active","ping":75},{"user_id":112,"name":"Ninetees","steam_id":76561198119483989,"connected_time":134000000000,"state":"active","ping":89},{"user_id":88,"name":"the meat beater","steam_id":76561199008960175,"connected_time":2498000000000,"state":"active","ping":63},{"user_id":94,"name":"Ginsai","steam_id":76561198107797443,"connected_time":1680000000000,"state":"active","ping":81},{"user_id":83,"name":"stultus3","steam_id":76561198099104939,"connected_time":2735000000000,"state":"active","ping":64},{"user_id":109,"name":"Fitts1099","steam_id":76561198044986906,"connected_time":432000000000,"state":"active","ping":49},{"user_id":104,"name":"GRONT","steam_id":76561198040464533,"connected_time":884000000000,"state":"active","ping":79},{"user_id":105,"name":"The Notorious C.H.E.F","steam_id":76561198310658990,"connected_time":861000000000,"state":"active","ping":90},{"user_id":80,"name":"Rornir","steam_id":76561198081829615,"connected_time":3012000000000,"state":"active","ping":41},{"user_id":102,"name":"Toasterduds","steam_id":76561198163477584,"connected_time":1034000000000,"state":"active","ping":108},{"user_id":108,"name":"Mr.Clean(All Purpose Cleaner)","steam_id":76561198208014257,"connected_time":701000000000,"state":"active","ping":84},{"user_id":29,"name":"InchMan","steam_id":76561198272658825,"connected_time":6817000000000,"state":"active","ping":101},{"user_id":76,"name":"Tobo","steam_id":76561198085846393,"connected_time":3530000000000,"state":"active","ping":85},{"user_id":110,"name":"Thiccen Nugget","steam_id":76561198213667009,"connected_time":425000000000,"state":"active","ping":76},{"user_id":111,"name":"DaveSTER","steam_id":76561197986043270,"connected_time":181000000000,"state":"active","ping":62},{"user_id":100,"name":"hideyochest","steam_id":76561198090366059,"connected_time":1247000000000,"state":"active","ping":63},{"user_id":85,"name":"help","steam_id":76561199056338917,"connected_time":2713000000000,"state":"active","ping":69},{"user_id":95,"name":"jeromk611","steam_id":76561198864666859,"connected_time":1664000000000,"state":"active","ping":93},{"user_id":74,"name":"Anyar","steam_id":76561198160174097,"connected_time":4485000000000,"state":"active","ping":80},{"user_id":107,"name":"HolyLambSauce","steam_id":76561198880465313,"connected_time":824000000000,"state":"active","ping":71},{"user_id":54,"name":"Whoops!","steam_id":76561198151315898,"connected_time":5554000000000,"state":"active","ping":73}]},{"server_id":402,"name":"Uncletopia | Chicago | 3 | All Maps","name_short":"chi-3","host":"chi-1.us.uncletopia.com","port":27035,"enabled":true,"region":"us-central","cc":"us","latitude":41.881832,"longitude":-87.62318,"reserved":0,"last_update":"0001-01-01T00:00:00Z","name_a2s":"Uncletopia | Chicago | 3 | All Maps","protocol":17,"map":"koth_cascade","folder":"tf","game":"Team Fortress","app_id":440,"player_count":0,"max_players":24,"Bots":0,"server_type":"Dedicated","server_os":"Linux","password":true,"vac":true,"version":"7961495","steam_id":85568392924515191,"keywords":["cp","nocrits","nodmgspread","uncletopia"],"game_id":440,"stv_port":27036,"stv_name":"Uncletopia | Chicago | 3 | All Maps | STV","players":null},{"server_id":403,"name":"Uncletopia | Chicago | 4 | All Maps","name_short":"chi-4","host":"chi-1.us.uncletopia.com","port":27045,"enabled":true,"region":"us-central","cc":"us","latitude":41.881832,"longitude":-87.62318,"reserved":0,"last_update":"0001-01-01T00:00:00Z","name_a2s":"Uncletopia | Chicago | 4 | All Maps","protocol":17,"map":"pl_frontier_final","folder":"tf","game":"Team Fortress","app_id":440,"player_count":24,"max_players":24,"Bots":0,"server_type":"Dedicated","server_os":"Linux","password":true,"vac":true,"version":"7961495","steam_id":85568392924515193,"keywords":["nocrits","nodmgspread","payload","uncletopia"],"game_id":440,"stv_port":27046,"stv_name":"Uncletopia | Chicago | 4 | All Maps | STV","players":[{"user_id":154,"name":"cfamadas","steam_id":76561199055881965,"connected_time":3607000000000,"state":"active","ping":82},{"user_id":146,"name":"Fillibuster_","steam_id":76561198047843618,"connected_time":4429000000000,"state":"active","ping":59},{"user_id":194,"name":"Xavibite","steam_id":76561198209380493,"connected_time":1621000000000,"state":"active","ping":61},{"user_id":209,"name":"Pasta","steam_id":76561199498088524,"connected_time":313000000000,"state":"active","ping":113},{"user_id":145,"name":"HealDaddy (SMOKE)","steam_id":76561198017631728,"connected_time":4595000000000,"state":"active","ping":62},{"user_id":184,"name":"Captain Demytri","steam_id":76561198097998607,"connected_time":2108000000000,"state":"active","ping":89},{"user_id":201,"name":"OdysseyTen","steam_id":76561198133082665,"connected_time":756000000000,"state":"active","ping":64},{"user_id":185,"name":"D(b) Hell","steam_id":76561198067869016,"connected_time":1965000000000,"state":"active","ping":44},{"user_id":195,"name":"‚ô• Tomboy ‚ô•","steam_id":76561198069881436,"connected_time":1579000000000,"state":"active","ping":74},{"user_id":198,"name":"Jango","steam_id":76561198084589742,"connected_time":1241000000000,"state":"active","ping":76},{"user_id":197,"name":"Bobby Ray","steam_id":76561198044131188,"connected_time":1282000000000,"state":"active","ping":81},{"user_id":168,"name":"EnderAsteroid","steam_id":76561198176724091,"connected_time":3075000000000,"state":"active","ping":55},{"user_id":140,"name":"6 million bees","steam_id":76561198400438007,"connected_time":4867000000000,"state":"active","ping":42},{"user_id":200,"name":"Cheesecurd","steam_id":76561199198254897,"connected_time":1151000000000,"state":"active","ping":76},{"user_id":177,"name":"yourlocalforecast","steam_id":76561198042243083,"connected_time":2706000000000,"state":"active","ping":72},{"user_id":75,"name":"pete","steam_id":76561198203443358,"connected_time":11257000000000,"state":"active","ping":63},{"user_id":203,"name":"JohhnyFromCali :7","steam_id":76561198044015725,"connected_time":678000000000,"state":"active","ping":76},{"user_id":165,"name":"World Famous Skater Sean Pablo","steam_id":76561197999261387,"connected_time":3220000000000,"state":"active","ping":82},{"user_id":207,"name":"Your Local Subway Employee","steam_id":76561198811130843,"connected_time":484000000000,"state":"active","ping":75},{"user_id":210,"name":"Prsm","steam_id":76561198053344995,"connected_time":242000000000,"state":"active","ping":56},{"user_id":202,"name":"ThatGamingKiwi","steam_id":76561199170522237,"connected_time":725000000000,"state":"active","ping":80},{"user_id":205,"name":"DivineBanana","steam_id":76561198026529731,"connected_time":670000000000,"state":"active","ping":91},{"user_id":206,"name":"Crunchy","steam_id":76561198060342804,"connected_time":565000000000,"state":"active","ping":75},{"user_id":91,"name":"richard clock","steam_id":76561198048455671,"connected_time":9608000000000,"state":"active","ping":61}]},{"server_id":36,"name":"Uncletopia | Chicago | 5 | All Maps","name_short":"chi-5","host":"chi-2.us.uncletopia.com","port":27015,"enabled":true,"region":"us-central","cc":"us","latitude":41.881832,"longitude":-87.62318,"reserved":0,"last_update":"0001-01-01T00:00:00Z","name_a2s":"Uncletopia | Chicago | 5 | All Maps","protocol":17,"map":"cp_altitude","folder":"tf","game":"Team Fortress","app_id":440,"player_count":0,"max_players":24,"Bots":0,"server_type":"Dedicated","server_os":"Linux","password":true,"vac":true,"version":"7961495","steam_id":85568392924866362,"keywords":["cp","nocrits","nodmgspread","uncletopia"],"game_id":440,"stv_port":27016,"stv_name":"Uncletopia | Chicago | 5 | All Maps | STV","players":null},{"server_id":37,"name":"Uncletopia | Chicago | 6 | All Maps","name_short":"chi-6","host":"chi-2.us.uncletopia.com","port":27025,"enabled":true,"region":"us-central","cc":"us","latitude":41.881832,"longitude":-87.62318,"reserved":0,"last_update":"0001-01-01T00:00:00Z","name_a2s":"Uncletopia | Chicago | 6 | All Maps","protocol":17,"map":"pl_thundermountain","folder":"tf","game":"Team Fortress","app_id":440,"player_count":24,"max_players":24,"Bots":0,"server_type":"Dedicated","server_os":"Linux","password":true,"vac":true,"version":"7961495","steam_id":85568392924866363,"keywords":["nocrits","nodmgspread","payload","uncletopia"],"game_id":440,"stv_port":27026,"stv_name":"Uncletopia | Chicago | 6 | All Maps | STV","players":[{"user_id":295,"name":"minecraft_2.0","steam_id":76561198391819120,"connected_time":1539000000000,"state":"active","ping":94},{"user_id":273,"name":"[DD] | Serial Designation N","steam_id":76561198445739792,"connected_time":3447000000000,"state":"active","ping":70},{"user_id":245,"name":"Barry","steam_id":76561198371953939,"connected_time":5280000000000,"state":"active","ping":76},{"user_id":274,"name":"Vayribu","steam_id":76561198104353730,"connected_time":3430000000000,"state":"active","ping":77},{"user_id":294,"name":"Grunt420","steam_id":76561199407313140,"connected_time":1632000000000,"state":"active","ping":166},{"user_id":296,"name":"Femboy Dracula","steam_id":76561198090606686,"connected_time":1524000000000,"state":"active","ping":72},{"user_id":304,"name":"Scarecrow","steam_id":76561198045870511,"connected_time":564000000000,"state":"active","ping":53},{"user_id":307,"name":"√∂¬ør√∂  √π œÄ (NG√Ø‚óã√° x 21","steam_id":76561198069589278,"connected_time":281000000000,"state":"active","ping":145},{"user_id":309,"name":"Pinky","steam_id":76561199019483777,"connected_time":246000000000,"state":"active","ping":83},{"user_id":290,"name":"‚úß.*Remzy‚úß.*","steam_id":76561199239412094,"connected_time":2280000000000,"state":"active","ping":150},{"user_id":276,"name":"WillieMakit","steam_id":76561197985391684,"connected_time":3412000000000,"state":"active","ping":118},{"user_id":301,"name":"Firedust19","steam_id":76561198153238631,"connected_time":901000000000,"state":"active","ping":112},{"user_id":292,"name":"toucan","steam_id":76561198016562343,"connected_time":1777000000000,"state":"active","ping":62},{"user_id":300,"name":"Minion Bob","steam_id":76561198023938170,"connected_time":1208000000000,"state":"active","ping":81},{"user_id":306,"name":"Entar","steam_id":76561197968661166,"connected_time":287000000000,"state":"active","ping":49},{"user_id":299,"name":"‚ù§Breadshot (She)‚ù§","steam_id":76561199005756738,"connected_time":1372000000000,"state":"active","ping":47},{"user_id":265,"name":"Shady Businessman","steam_id":76561198143855968,"connected_time":3900000000000,"state":"active","ping":91},{"user_id":302,"name":"Docthenotable","steam_id":76561199389114520,"connected_time":897000000000,"state":"active","ping":69},{"user_id":308,"name":"The World's Softest Sandwich","steam_id":76561198015577707,"connected_time":276000000000,"state":"active","ping":84},{"user_id":280,"name":"UnReLinked","steam_id":76561199366044663,"connected_time":3104000000000,"state":"active","ping":97},{"user_id":271,"name":"Lennu","steam_id":76561198060730154,"connected_time":3504000000000,"state":"active","ping":77},{"user_id":305,"name":"magickxanadu","steam_id":76561199117360103,"connected_time":327000000000,"state":"active","ping":72},{"user_id":310,"name":"snorg","steam_id":76561199103766971,"connected_time":238000000000,"state":"active","ping":70},{"user_id":303,"name":"WM1 PYRO","steam_id":76561198045893896,"connected_time":829000000000,"state":"active","ping":78}]},{"server_id":38,"name":"Uncletopia | Chicago | 7 | Stopwatch","name_short":"chi-7","host":"chi-2.us.uncletopia.com","port":27035,"enabled":true,"region":"us-central","cc":"us","latitude":41.881832,"longitude":-87.62318,"reserved":0,"last_update":"0001-01-01T00:00:00Z","name_a2s":"Uncletopia | Chicago | 7 | Stopwatch","protocol":17,"map":"cp_granary","folder":"tf","game":"Team Fortress","app_id":440,"player_count":0,"max_players":24,"Bots":0,"server_type":"Dedicated","server_os":"Linux","password":true,"vac":true,"version":"7961495","steam_id":85568392924866364,"keywords":["cp","nocrits","nodmgspread","uncletopia"],"game_id":440,"stv_port":27036,"stv_name":"Uncletopia | Chicago | 7 | Stopwatch | STV","players":null},{"server_id":39,"name":"Uncletopia | Chicago | 8 | Community","name_short":"chi-8","host":"chi-2.us.uncletopia.com","port":27045,"enabled":true,"region":"us-central","cc":"us","latitude":41.881832,"longitude":-87.62318,"reserved":0,"last_update":"0001-01-01T00:00:00Z","name_a2s":"Uncletopia | Chicago | 8 | Community","protocol":17,"map":"workshop/cp_caldera_rc3.ugc2834196889","folder":"tf","game":"Team Fortress","app_id":440,"player_count":0,"max_players":24,"Bots":0,"server_type":"Dedicated","server_os":"Linux","password":true,"vac":true,"version":"7961495","steam_id":85568392924866365,"keywords":["cp","nocrits","nodmgspread","uncletopia"],"game_id":440,"stv_port":27046,"stv_name":"Uncletopia | Chicago | 8 | Community | STV","players":null},{"server_id":8,"name":"Uncletopia | Dallas | 1 | All Maps","name_short":"dal-1","host":"dal-1.us.uncletopia.com","port":27015,"enabled":true,"region":"us-central","cc":"us","latitude":32.779167,"longitude":-96.80889,"reserved":0,"last_update":"0001-01-01T00:00:00Z","name_a2s":"Uncletopia | Dallas | 1 | All Maps","protocol":17,"map":"koth_highpass","folder":"tf","game":"Team Fortress","app_id":440,"player_count":0,"max_players":24,"Bots":0,"server_type":"Dedicated","server_os":"Linux","password":true,"vac":true,"version":"7961495","steam_id":85568392924469986,"keywords":["cp","nocrits","nodmgspread","uncletopia"],"game_id":440,"stv_port":27016,"stv_name":"Uncletopia | Dallas | 1 | All Maps | STV","players":null},{"server_id":108,"name":"Uncletopia | Dallas | 2 | All Maps","name_short":"dal-2","host":"dal-1.us.uncletopia.com","port":27025,"enabled":true,"region":"us-central","cc":"us","latitude":32.779167,"longitude":-96.80889,"reserved":0,"last_update":"0001-01-01T00:00:00Z","name_a2s":"Uncletopia | Dallas | 2 | All Maps","protocol":17,"map":"pl_badwater","folder":"tf","game":"Team Fortress","app_id":440,"player_count":24,"max_players":24,"Bots":0,"server_type":"Dedicated","server_os":"Linux","password":true,"vac":true,"version":"7961495","steam_id":85568392924469988,"keywords":["nocrits","nodmgspread","payload","uncletopia"],"game_id":440,"stv_port":27026,"stv_name":"Uncletopia | Dallas | 2 | All Maps | STV","players":[{"user_id":14,"name":"Wooperisboss","steam_id":76561199386100211,"connected_time":1104000000000,"state":"active","ping":100},{"user_id":12,"name":"ttv/daws__","steam_id":76561198283322034,"connected_time":1124000000000,"state":"active","ping":85},{"user_id":13,"name":"‚ù§üíúNovaüíú‚ù§","steam_id":76561199039321828,"connected_time":1117000000000,"state":"active","ping":84},{"user_id":28,"name":"SCaELS [TF2 BLENDER ART COMMS]","steam_id":76561199111725372,"connected_time":639000000000,"state":"active","ping":183},{"user_id":16,"name":"SmorzGamez","steam_id":76561199165493751,"connected_time":1086000000000,"state":"active","ping":90},{"user_id":17,"name":"Baconator","steam_id":76561198941700660,"connected_time":1075000000000,"state":"active","ping":108},{"user_id":18,"name":"FreddysFoods","steam_id":76561199387245099,"connected_time":1059000000000,"state":"active","ping":89},{"user_id":19,"name":"TOTALLY HARDCORE","steam_id":76561198842311643,"connected_time":1024000000000,"state":"active","ping":45},{"user_id":20,"name":"Kuyumiester","steam_id":76561198126835302,"connected_time":1015000000000,"state":"active","ping":61},{"user_id":40,"name":"Raz","steam_id":76561198002426150,"connected_time":142000000000,"state":"active","ping":45},{"user_id":22,"name":"lil_blu_elephant","steam_id":76561198272955552,"connected_time":943000000000,"state":"active","ping":124},{"user_id":23,"name":"Danny","steam_id":76561198094512583,"connected_time":882000000000,"state":"active","ping":102},{"user_id":24,"name":"Aztea","steam_id":76561198982089893,"connected_time":725000000000,"state":"active","ping":79},{"user_id":41,"name":"Speedy","steam_id":76561198873086850,"connected_time":119000000000,"state":"active","ping":93},{"user_id":33,"name":"HanakoToast","steam_id":76561198045233131,"connected_time":570000000000,"state":"active","ping":78},{"user_id":27,"name":"SOGGY DOGGY","steam_id":76561199158847498,"connected_time":693000000000,"state":"active","ping":89},{"user_id":29,"name":"kn0n","steam_id":76561198249172818,"connected_time":626000000000,"state":"active","ping":78},{"user_id":30,"name":"shadow6","steam_id":76561197979807910,"connected_time":603000000000,"state":"active","ping":100},{"user_id":31,"name":"mkl","steam_id":76561197986401685,"connected_time":589000000000,"state":"active","ping":51},{"user_id":32,"name":"‚ú® Rarity ‚ú®","steam_id":76561199172206856,"connected_time":586000000000,"state":"active","ping":61},{"user_id":38,"name":"Your Local Jester","steam_id":76561199120223717,"connected_time":324000000000,"state":"active","ping":92},{"user_id":35,"name":"bdkaine1","steam_id":76561198133545467,"connected_time":523000000000,"state":"active","ping":69},{"user_id":42,"name":"locked cathode tube","steam_id":76561198085044565,"connected_time":95000000000,"state":"active","ping":121},{"user_id":43,"name":"TB2438","steam_id":76561199220105335,"connected_time":88000000000,"state":"active","ping":66}]},{"server_id":404,"name":"Uncletopia | Dallas | 3 | All Maps","name_short":"dal-3","host":"dal-1.us.uncletopia.com","port":27035,"enabled":true,"region":"us-central","cc":"us","latitude":32.779167,"longitude":-96.80889,"reserved":0,"last_update":"0001-01-01T00:00:00Z","name_a2s":"Uncletopia | Dallas | 3 | All Maps","protocol":17,"map":"cp_yukon_final","folder":"tf","game":"Team Fortress","app_id":440,"player_count":0,"max_players":24,"Bots":0,"server_type":"Dedicated","server_os":"Linux","password":true,"vac":true,"version":"7961495","steam_id":85568392924515219,"keywords":["cp","nocrits","nodmgspread","uncletopia"],"game_id":440,"stv_port":27036,"stv_name":"Uncletopia | Dallas | 3 | All Maps | STV","players":null},{"server_id":405,"name":"Uncletopia | Dallas | 4 | Community","name_short":"dal-4","host":"dal-1.us.uncletopia.com","port":27045,"enabled":true,"region":"us-central","cc":"us","latitude":32.779167,"longitude":-96.80889,"reserved":0,"last_update":"0001-01-01T00:00:00Z","name_a2s":"Uncletopia | Dallas | 4 | Community","protocol":17,"map":"workshop/cp_croissant_final.ugc458840209","folder":"tf","game":"Team Fortress","app_id":440,"player_count":0,"max_players":24,"Bots":0,"server_type":"Dedicated","server_os":"Linux","password":true,"vac":true,"version":"7961495","steam_id":85568392924515220,"keywords":["cp","nocrits","nodmgspread","uncletopia"],"game_id":440,"stv_port":27046,"stv_name":"Uncletopia | Dallas | 4 | Community | STV","players":null},{"server_id":5,"name":"Uncletopia | Frankfurt | 1 | All Maps","name_short":"frk-1","host":"frk-1.de.uncletopia.com","port":27015,"enabled":true,"region":"eu","cc":"de","latitude":50.110924,"longitude":8.682127,"reserved":0,"last_update":"0001-01-01T00:00:00Z","name_a2s":"Uncletopia | Frankfurt | 1 | All Maps","protocol":17,"map":"cp_sunshine","folder":"tf","game":"Team Fortress","app_id":440,"player_count":24,"max_players":24,"Bots":0,"server_type":"Dedicated","server_os":"Linux","password":true,"vac":true,"version":"7961495","steam_id":85568392924469989,"keywords":["cp","nocrits","nodmgspread","uncletopia"],"game_id":440,"stv_port":27016,"stv_name":"Uncletopia | Frankfurt | 1 | All Maps | STV","players":[{"user_id":475,"name":"whatever","steam_id":76561198095943461,"connected_time":3202000000000,"state":"active","ping":72},{"user_id":511,"name":"P","steam_id":76561198399390201,"connected_time":1285000000000,"state":"active","ping":86},{"user_id":516,"name":"KGiorgios_Bully","steam_id":76561198825392728,"connected_time":1129000000000,"state":"active","ping":103},{"user_id":507,"name":"jeff","steam_id":76561198272815746,"connected_time":1608000000000,"state":"active","ping":50},{"user_id":499,"name":"Ivo Salamander","steam_id":76561199026771040,"connected_time":2018000000000,"state":"active","ping":90},{"user_id":517,"name":"Michael","steam_id":76561198003146906,"connected_time":1086000000000,"state":"active","ping":60},{"user_id":508,"name":"Dicartal","steam_id":76561198295793592,"connected_time":1472000000000,"state":"active","ping":129},{"user_id":524,"name":"superx","steam_id":76561198044976613,"connected_time":617000000000,"state":"active","ping":143},{"user_id":476,"name":"Hollownick","steam_id":76561198449261973,"connected_time":3197000000000,"state":"active","ping":69},{"user_id":513,"name":"swg","steam_id":76561198147246166,"connected_time":1222000000000,"state":"active","ping":75},{"user_id":522,"name":"Samuel L. Jackson","steam_id":76561198130427881,"connected_time":743000000000,"state":"active","ping":163},{"user_id":528,"name":"antihuman","steam_id":76561198116027948,"connected_time":306000000000,"state":"active","ping":76},{"user_id":529,"name":"Chappi","steam_id":76561198075512843,"connected_time":199000000000,"state":"active","ping":77},{"user_id":525,"name":"matto","steam_id":76561198204488876,"connected_time":493000000000,"state":"active","ping":66},{"user_id":485,"name":"Burak","steam_id":76561198441622971,"connected_time":2457000000000,"state":"active","ping":89},{"user_id":509,"name":"Lustadinnye (HUN)","steam_id":76561198280206427,"connected_time":1463000000000,"state":"active","ping":90},{"user_id":527,"name":"purpul bastard","steam_id":76561198214429607,"connected_time":340000000000,"state":"active","ping":80},{"user_id":481,"name":"Jill üíô","steam_id":76561198030620256,"connected_time":2961000000000,"state":"active","ping":76},{"user_id":501,"name":"DarkMelody","steam_id":76561198063225937,"connected_time":1991000000000,"state":"active","ping":105},{"user_id":519,"name":"r3t1k0","steam_id":76561198426700865,"connected_time":1071000000000,"state":"active","ping":57},{"user_id":514,"name":"FWDTRKR","steam_id":76561198060369427,"connected_time":1221000000000,"state":"active","ping":181},{"user_id":494,"name":"HazelForest","steam_id":76561198171827033,"connected_time":2139000000000,"state":"active","ping":68},{"user_id":530,"name":"naleksi","steam_id":76561198018391055,"connected_time":82000000000,"state":"active","ping":102},{"user_id":502,"name":"Yonio","steam_id":76561198408428132,"connected_time":1918000000000,"state":"active","ping":73}]},{"server_id":110,"name":"Uncletopia | Frankfurt | 2 | All Maps","name_short":"frk-2","host":"frk-1.de.uncletopia.com","port":27025,"enabled":true,"region":"eu","cc":"de","latitude":50.110924,"longitude":8.682127,"reserved":0,"last_update":"0001-01-01T00:00:00Z","name_a2s":"Uncletopia | Frankfurt | 2 | All Maps","protocol":17,"map":"cp_process_final","folder":"tf","game":"Team Fortress","app_id":440,"player_count":24,"max_players":24,"Bots":0,"server_type":"Dedicated","server_os":"Linux","password":true,"vac":true,"version":"7961495","steam_id":85568392924469990,"keywords":["cp","nocrits","nodmgspread","uncletopia"],"game_id":440,"stv_port":27026,"stv_name":"Uncletopia | Frankfurt | 2 | All Maps | STV","players":[{"user_id":427,"name":"Script","steam_id":76561198993958551,"connected_time":379000000000,"state":"active","ping":72},{"user_id":423,"name":"Steen","steam_id":76561198122992510,"connected_time":707000000000,"state":"active","ping":58},{"user_id":409,"name":"Mr.killer","steam_id":76561198290584189,"connected_time":1829000000000,"state":"active","ping":91},{"user_id":432,"name":"5UP3R TH30 B4G","steam_id":76561198852348375,"connected_time":129000000000,"state":"active","ping":55},{"user_id":389,"name":"fire","steam_id":76561198063674613,"connected_time":3583000000000,"state":"active","ping":45},{"user_id":433,"name":"Frito","steam_id":76561198373177622,"connected_time":58000000000,"state":"active","ping":78},{"user_id":411,"name":"0","steam_id":76561199293036742,"connected_time":1703000000000,"state":"active","ping":56},{"user_id":368,"name":"static","steam_id":76561198836825741,"connected_time":4666000000000,"state":"active","ping":55},{"user_id":323,"name":"Bajas","steam_id":76561198179339326,"connected_time":8416000000000,"state":"active","ping":79},{"user_id":419,"name":"ber.","steam_id":76561197993892057,"connected_time":1320000000000,"state":"active","ping":90},{"user_id":398,"name":"tealoverr.190","steam_id":76561199028497703,"connected_time":2865000000000,"state":"active","ping":106},{"user_id":412,"name":"Rodia","steam_id":76561197968293161,"connected_time":1682000000000,"state":"active","ping":61},{"user_id":351,"name":"Edsuedi","steam_id":76561198074722832,"connected_time":6577000000000,"state":"active","ping":50},{"user_id":428,"name":"astra","steam_id":76561198042980579,"connected_time":347000000000,"state":"active","ping":58},{"user_id":407,"name":"Bobirulez","steam_id":76561198009125458,"connected_time":1930000000000,"state":"active","ping":72},{"user_id":372,"name":"Fat Pigeon","steam_id":76561198817940142,"connected_time":4434000000000,"state":"active","ping":51},{"user_id":365,"name":"C√∂ffee","steam_id":76561198115131952,"connected_time":5525000000000,"state":"active","ping":103},{"user_id":392,"name":"sareena","steam_id":76561198810194062,"connected_time":3467000000000,"state":"active","ping":75},{"user_id":393,"name":"Fish","steam_id":76561198306177608,"connected_time":3438000000000,"state":"active","ping":70},{"user_id":429,"name":"despikee","steam_id":76561198029805750,"connected_time":335000000000,"state":"active","ping":76},{"user_id":394,"name":"Javier dorsaless","steam_id":76561198179324075,"connected_time":3436000000000,"state":"active","ping":72},{"user_id":379,"name":"idk","steam_id":76561198071440081,"connected_time":4015000000000,"state":"active","ping":106},{"user_id":430,"name":"VW Golf MK2 GTI","steam_id":76561199250808808,"connected_time":330000000000,"state":"active","ping":76},{"user_id":431,"name":"Gen","steam_id":76561198021775885,"connected_time":315000000000,"state":"active","ping":57}]},{"server_id":308,"name":"Uncletopia | Frankfurt | 3 | All Maps","name_short":"frk-3","host":"frk-1.de.uncletopia.com","port":27035,"enabled":true,"region":"eu","cc":"de","latitude":50.110924,"longitude":8.682127,"reserved":0,"last_update":"0001-01-01T00:00:00Z","name_a2s":"Uncletopia | Frankfurt | 3 | All Maps","protocol":17,"map":"pl_pier","folder":"tf","game":"Team Fortress","app_id":440,"player_count":24,"max_players":24,"Bots":0,"server_type":"Dedicated","server_os":"Linux","password":true,"vac":true,"version":"7961495","steam_id":85568392924504274,"keywords":["nocrits","nodmgspread","payload","uncletopia"],"game_id":440,"stv_port":27036,"stv_name":"Uncletopia | Frankfurt | 3 | All Maps | STV","players":[{"user_id":212,"name":"LOBZIK","steam_id":76561198114830120,"connected_time":509000000000,"state":"active","ping":76},{"user_id":211,"name":"Vidrox","steam_id":76561199217854983,"connected_time":612000000000,"state":"active","ping":97},{"user_id":200,"name":"FilipeLuk","steam_id":76561198150675438,"connected_time":900000000000,"state":"active","ping":68},{"user_id":192,"name":"donatofina","steam_id":76561198353497885,"connected_time":1086000000000,"state":"active","ping":85},{"user_id":213,"name":"Zulik92","steam_id":76561198152442373,"connected_time":480000000000,"state":"active","ping":60},{"user_id":145,"name":"KaasKrans","steam_id":76561198240451972,"connected_time":3471000000000,"state":"active","ping":60},{"user_id":194,"name":"moss","steam_id":76561198970737500,"connected_time":1021000000000,"state":"active","ping":71},{"user_id":184,"name":"EVRY0N1","steam_id":76561199507783621,"connected_time":1602000000000,"state":"active","ping":73},{"user_id":178,"name":"luckyastroman","steam_id":76561199027500574,"connected_time":1882000000000,"state":"active","ping":66},{"user_id":205,"name":"Professional PP Rater","steam_id":76561198393134915,"connected_time":712000000000,"state":"active","ping":62},{"user_id":202,"name":"DemonBolt","steam_id":76561198190409861,"connected_time":803000000000,"state":"active","ping":77},{"user_id":206,"name":"Sicronici","steam_id":76561199054534566,"connected_time":706000000000,"state":"active","ping":93},{"user_id":203,"name":"unable","steam_id":76561198069088785,"connected_time":796000000000,"state":"active","ping":45},{"user_id":136,"name":"Truskawka","steam_id":76561198855163602,"connected_time":3865000000000,"state":"active","ping":80},{"user_id":207,"name":"laker brady","steam_id":76561198890409949,"connected_time":681000000000,"state":"active","ping":92},{"user_id":204,"name":"Rukovoditel","steam_id":76561198340896965,"connected_time":795000000000,"state":"active","ping":70},{"user_id":209,"name":"Clueless","steam_id":76561198272180956,"connected_time":675000000000,"state":"active","ping":65},{"user_id":214,"name":"Draugluin","steam_id":76561199219965276,"connected_time":475000000000,"state":"active","ping":63},{"user_id":174,"name":"kilo","steam_id":76561198015641339,"connected_time":2164000000000,"state":"active","ping":69},{"user_id":156,"name":"Bombilla","steam_id":76561198084281798,"connected_time":3364000000000,"state":"active","ping":79},{"user_id":215,"name":"Gearless","steam_id":76561198362367074,"connected_time":427000000000,"state":"active","ping":82},{"user_id":216,"name":"jovi_","steam_id":76561198449280552,"connected_time":419000000000,"state":"active","ping":62},{"user_id":182,"name":"meat","steam_id":76561198093290934,"connected_time":1813000000000,"state":"active","ping":47},{"user_id":219,"name":"Kotlin","steam_id":76561198443331716,"connected_time":79000000000,"state":"active","ping":63}]},{"server_id":309,"name":"Uncletopia | Frankfurt | 4 | All Maps","name_short":"frk-4","host":"frk-1.de.uncletopia.com","port":27045,"enabled":true,"region":"eu","cc":"de","latitude":50.110924,"longitude":8.682127,"reserved":0,"last_update":"0001-01-01T00:00:00Z","name_a2s":"Uncletopia | Frankfurt | 4 | All Maps","protocol":17,"map":"koth_viaduct","folder":"tf","game":"Team Fortress","app_id":440,"player_count":3,"max_players":24,"Bots":0,"server_type":"Dedicated","server_os":"Linux","password":true,"vac":true,"version":"7961495","steam_id":85568392924504275,"keywords":["cp","nocrits","nodmgspread","uncletopia"],"game_id":440,"stv_port":27046,"stv_name":"Uncletopia | Frankfurt | 4 | All Maps | STV","players":[{"user_id":271,"name":"Zoro (Hun)","steam_id":76561199367182571,"connected_time":98000000000,"state":"active","ping":60},{"user_id":263,"name":"Nova","steam_id":76561198108601005,"connected_time":2179000000000,"state":"active","ping":94},{"user_id":264,"name":"krafno-lomac2006","steam_id":76561198808332971,"connected_time":2148000000000,"state":"active","ping":56}]},{"server_id":310,"name":"Uncletopia | Frankfurt | 5 | All Maps","name_short":"frk-5","host":"frk-1.de.uncletopia.com","port":27055,"enabled":true,"region":"eu","cc":"de","latitude":50.110924,"longitude":8.682127,"reserved":0,"last_update":"0001-01-01T00:00:00Z","name_a2s":"Uncletopia | Frankfurt | 5 | All Maps","protocol":17,"map":"cp_gorge","folder":"tf","game":"Team Fortress","app_id":440,"player_count":14,"max_players":24,"Bots":0,"server_type":"Dedicated","server_os":"Linux","password":true,"vac":true,"version":"7961495","steam_id":85568392924504277,"keywords":["cp","nocrits","nodmgspread","uncletopia"],"game_id":440,"stv_port":27056,"stv_name":"Uncletopia | Frankfurt | 5 | All Maps | STV","players":[{"user_id":458,"name":"Shogg","steam_id":76561198056382237,"connected_time":3000000000,"state":"connecting","ping":0},{"user_id":427,"name":"Ciupa Killer","steam_id":76561199409674527,"connected_time":1992000000000,"state":"active","ping":65},{"user_id":372,"name":"Dr Birb","steam_id":76561198133765958,"connected_time":4754000000000,"state":"active","ping":53},{"user_id":436,"name":"Wandering Thyme","steam_id":76561198289245081,"connected_time":1513000000000,"state":"active","ping":58},{"user_id":453,"name":"pepsimus_maximus (pepsi/max)","steam_id":76561198062425104,"connected_time":220000000000,"state":"active","ping":74},{"user_id":422,"name":"[HOL] Solringen","steam_id":76561198003584681,"connected_time":2439000000000,"state":"active","ping":65},{"user_id":439,"name":"Ebling Mis","steam_id":76561198977948250,"connected_time":1398000000000,"state":"active","ping":60},{"user_id":454,"name":"tombouctou","steam_id":76561198065132197,"connected_time":195000000000,"state":"active","ping":112},{"user_id":455,"name":"aolkdi","steam_id":76561198025479415,"connected_time":170000000000,"state":"active","ping":117},{"user_id":444,"name":"Umbro","steam_id":76561198087930438,"connected_time":1267000000000,"state":"active","ping":78},{"user_id":426,"name":"men snus","steam_id":76561198311864757,"connected_time":2049000000000,"state":"active","ping":60},{"user_id":356,"name":"Sigma Gregory","steam_id":76561199040010283,"connected_time":5518000000000,"state":"active","ping":73},{"user_id":449,"name":"yush","steam_id":76561198121688934,"connected_time":731000000000,"state":"active","ping":60},{"user_id":435,"name":"Nymph","steam_id":76561198042801329,"connected_time":1606000000000,"state":"active","ping":53}]},{"server_id":311,"name":"Uncletopia | Frankfurt | 6 | All Maps","name_short":"frk-6","host":"frk-1.de.uncletopia.com","port":27065,"enabled":true,"region":"eu","cc":"de","latitude":50.110924,"longitude":8.682127,"reserved":0,"last_update":"0001-01-01T00:00:00Z","name_a2s":"Uncletopia | Frankfurt | 6 | All Maps","protocol":17,"map":"cp_process_final","folder":"tf","game":"Team Fortress","app_id":440,"player_count":23,"max_players":24,"Bots":0,"server_type":"Dedicated","server_os":"Linux","password":true,"vac":true,"version":"7961495","steam_id":85568392924504278,"keywords":["cp","nocrits","nodmgspread","uncletopia"],"game_id":440,"stv_port":27066,"stv_name":"Uncletopia | Frankfurt | 6 | All Maps | STV","players":[{"user_id":283,"name":"Armitage Shanks","steam_id":76561198129755592,"connected_time":178000000000,"state":"active","ping":47},{"user_id":208,"name":"Alexx","steam_id":76561198107260642,"connected_time":4544000000000,"state":"active","ping":37},{"user_id":288,"name":"Random Bagel","steam_id":76561198047213821,"connected_time":47000000000,"state":"active","ping":64},{"user_id":268,"name":"Andrew Tate","steam_id":76561199023727617,"connected_time":1211000000000,"state":"active","ping":66},{"user_id":277,"name":"siwnares_","steam_id":76561199148711521,"connected_time":638000000000,"state":"active","ping":67},{"user_id":249,"name":"pavel_mkd","steam_id":76561199088118112,"connected_time":2270000000000,"state":"active","ping":79},{"user_id":280,"name":"SAHJA","steam_id":76561198041410950,"connected_time":290000000000,"state":"active","ping":63},{"user_id":281,"name":"BurningJoke","steam_id":76561199014358707,"connected_time":267000000000,"state":"active","ping":49},{"user_id":247,"name":"Gabeyboy321","steam_id":76561199379213615,"connected_time":2311000000000,"state":"active","ping":175},{"user_id":272,"name":"Caliban","steam_id":76561197999696839,"connected_time":1051000000000,"state":"active","ping":98},{"user_id":270,"name":"the grongle","steam_id":76561198989398023,"connected_time":1077000000000,"state":"active","ping":101},{"user_id":219,"name":"JohnTraveltime","steam_id":76561199244281754,"connected_time":4036000000000,"state":"active","ping":55},{"user_id":282,"name":"literallyjasonx","steam_id":76561198835895387,"connected_time":245000000000,"state":"active","ping":76},{"user_id":264,"name":"Siegmeyer","steam_id":76561198328543549,"connected_time":1538000000000,"state":"active","ping":78},{"user_id":287,"name":"Karsta (Feeder)","steam_id":76561198376776616,"connected_time":69000000000,"state":"active","ping":52},{"user_id":229,"name":"Josh","steam_id":76561198274546904,"connected_time":3253000000000,"state":"active","ping":136},{"user_id":284,"name":"ballsack","steam_id":76561198973232202,"connected_time":162000000000,"state":"active","ping":85},{"user_id":241,"name":"iBep","steam_id":76561198090298178,"connected_time":2342000000000,"state":"active","ping":50},{"user_id":242,"name":"Waltism","steam_id":76561199447676489,"connected_time":2336000000000,"state":"active","ping":78},{"user_id":254,"name":"BRICK TOP","steam_id":76561198014366715,"connected_time":1801000000000,"state":"active","ping":56},{"user_id":271,"name":"Viv","steam_id":76561198199110998,"connected_time":1070000000000,"state":"active","ping":63},{"user_id":252,"name":"Planned Parenthood","steam_id":76561198272400963,"connected_time":1899000000000,"state":"active","ping":67},{"user_id":289,"name":"‚òÖpoyo‚òÖ","steam_id":76561198150078959,"connected_time":44000000000,"state":"active","ping":83}]},{"server_id":23,"name":"Uncletopia | Frankfurt | 7 | Stopwatch","name_short":"frk-7","host":"frk-1.de.uncletopia.com","port":27075,"enabled":true,"region":"eu","cc":"de","latitude":50.110924,"longitude":8.682127,"reserved":0,"last_update":"0001-01-01T00:00:00Z","name_a2s":"Uncletopia | Frankfurt | 7 | Stopwatch","protocol":17,"map":"workshop/koth_ashville_final.ugc2130459942","folder":"tf","game":"Team Fortress","app_id":440,"player_count":0,"max_players":24,"Bots":0,"server_type":"Dedicated","server_os":"Linux","password":true,"vac":true,"version":"7961495","steam_id":85568392924742827,"keywords":["cp","nocrits","nodmgspread","uncletopia"],"game_id":440,"stv_port":27076,"stv_name":"Uncletopia | Frankfurt | 7 | Stopwatch | STV","players":null},{"server_id":24,"name":"Uncletopia | Frankfurt | 8 | Community","name_short":"frk-8","host":"frk-1.de.uncletopia.com","port":27085,"enabled":true,"region":"eu","cc":"de","latitude":50.110924,"longitude":8.682127,"reserved":0,"last_update":"0001-01-01T00:00:00Z","name_a2s":"Uncletopia | Frankfurt | 8 | Community","protocol":17,"map":"workshop/cp_glassworks_rc7a.ugc454118349","folder":"tf","game":"Team Fortress","app_id":440,"player_count":0,"max_players":24,"Bots":0,"server_type":"Dedicated","server_os":"Linux","password":true,"vac":true,"version":"7961495","steam_id":85568392924742828,"keywords":["cp","nocrits","nodmgspread","uncletopia"],"game_id":440,"stv_port":27086,"stv_name":"Uncletopia | Frankfurt | 8 | Community | STV","players":null},{"server_id":202,"name":"Uncletopia | Hong Kong | 1 | All Maps","name_short":"hgk-1","host":"hgk-1.hk.uncletopia.com","port":27015,"enabled":true,"region":"asia","cc":"hk","latitude":22.302711,"longitude":114.177216,"reserved":0,"last_update":"0001-01-01T00:00:00Z","name_a2s":"Uncletopia | Hong Kong | 1 | All Maps","protocol":17,"map":"koth_viaduct","folder":"tf","game":"Team Fortress","app_id":440,"player_count":0,"max_players":24,"Bots":0,"server_type":"Dedicated","server_os":"Linux","password":true,"vac":true,"version":"7961495","steam_id":85568392924494504,"keywords":["cp","nocrits","nodmgspread","uncletopia"],"game_id":440,"stv_port":27016,"stv_name":"Uncletopia | Hong Kong | 1 | All Maps | STV","players":null},{"server_id":1,"name":"Uncletopia | Los Angeles | 1 | All Maps","name_short":"lax-1","host":"lax-1.us.uncletopia.com","port":27015,"enabled":true,"region":"us-west","cc":"us","latitude":33.94279,"longitude":-118.41004,"reserved":0,"last_update":"0001-01-01T00:00:00Z","name_a2s":"Uncletopia | Los Angeles | 1 | All Maps","protocol":17,"map":"koth_lakeside_final","folder":"tf","game":"Team Fortress","app_id":440,"player_count":0,"max_players":24,"Bots":0,"server_type":"Dedicated","server_os":"Linux","password":true,"vac":true,"version":"7961495","steam_id":85568392924469991,"keywords":["cp","nocrits","nodmgspread","uncletopia"],"game_id":440,"stv_port":27016,"stv_name":"Uncletopia | Los Angeles | 1 | All Maps | STV","players":null},{"server_id":112,"name":"Uncletopia | Los Angeles | 2 | All Maps","name_short":"lax-2","host":"lax-1.us.uncletopia.com","port":27025,"enabled":true,"region":"us-west","cc":"us","latitude":33.94279,"longitude":-118.41004,"reserved":0,"last_update":"0001-01-01T00:00:00Z","name_a2s":"Uncletopia | Los Angeles | 2 | All Maps","protocol":17,"map":"koth_lazarus","folder":"tf","game":"Team Fortress","app_id":440,"player_count":0,"max_players":24,"Bots":0,"server_type":"Dedicated","server_os":"Linux","password":true,"vac":true,"version":"7961495","steam_id":85568392924469992,"keywords":["cp","nocrits","nodmgspread","uncletopia"],"game_id":440,"stv_port":27026,"stv_name":"Uncletopia | Los Angeles | 2 | All Maps | STV","players":null},{"server_id":324,"name":"Uncletopia | Los Angeles | 3 | All Maps","name_short":"lax-3","host":"lax-1.us.uncletopia.com","port":27035,"enabled":true,"region":"us-west","cc":"us","latitude":33.94279,"longitude":-118.41004,"reserved":0,"last_update":"0001-01-01T00:00:00Z","name_a2s":"Uncletopia | Los Angeles | 3 | All Maps","protocol":17,"map":"pl_frontier_final","folder":"tf","game":"Team Fortress","app_id":440,"player_count":2,"max_players":24,"Bots":0,"server_type":"Dedicated","server_os":"Linux","password":true,"vac":true,"version":"7961495","steam_id":85568392924510198,"keywords":["nocrits","nodmgspread","payload","uncletopia"],"game_id":440,"stv_port":27036,"stv_name":"Uncletopia | Los Angeles | 3 | All Maps | STV","players":[{"user_id":3,"name":"CheezusOfNazareth","steam_id":76561199093893813,"connected_time":237000000000,"state":"active","ping":182},{"user_id":4,"name":"Dragonknight","steam_id":76561198080527208,"connected_time":228000000000,"state":"active","ping":183}]},{"server_id":25,"name":"Uncletopia | Los Angeles | 4 | Stopwatch","name_short":"lax-4","host":"lax-1.us.uncletopia.com","port":27045,"enabled":true,"region":"us-west","cc":"us","latitude":33.94279,"longitude":-118.41004,"reserved":0,"last_update":"0001-01-01T00:00:00Z","name_a2s":"Uncletopia | Los Angeles | 4 | Stopwatch","protocol":17,"map":"pl_upward","folder":"tf","game":"Team Fortress","app_id":440,"player_count":0,"max_players":24,"Bots":0,"server_type":"Dedicated","server_os":"Linux","password":true,"vac":true,"version":"7961495","steam_id":85568392924510199,"keywords":["nocrits","nodmgspread","payload","uncletopia"],"game_id":440,"stv_port":27046,"stv_name":"Uncletopia | Los Angeles | 4 | Stopwatch | STV","players":null},{"server_id":11,"name":"Uncletopia | London | 1 | All Maps","name_short":"lon-1","host":"lon-1.uk.uncletopia.com","port":27015,"enabled":true,"region":"eu","cc":"gb","latitude":51.509865,"longitude":-0.118092,"reserved":0,"last_update":"0001-01-01T00:00:00Z","name_a2s":"Uncletopia | London | 1 | All Maps","protocol":17,"map":"koth_harvest_final","folder":"tf","game":"Team Fortress","app_id":440,"player_count":24,"max_players":24,"Bots":0,"server_type":"Dedicated","server_os":"Linux","password":true,"vac":true,"version":"7961495","steam_id":85568392924367362,"keywords":["cp","nocrits","nodmgspread","uncletopia"],"game_id":440,"stv_port":27016,"stv_name":"Uncletopia | London | 1 | All Maps | STV","players":[{"user_id":571,"name":"hide","steam_id":76561198918282467,"connected_time":1861000000000,"state":"active","ping":42},{"user_id":589,"name":"Healix","steam_id":76561198130270161,"connected_time":820000000000,"state":"active","ping":59},{"user_id":586,"name":"Hardlight","steam_id":76561198128064834,"connected_time":916000000000,"state":"active","ping":70},{"user_id":587,"name":"Johnson","steam_id":76561199382978934,"connected_time":846000000000,"state":"active","ping":77},{"user_id":569,"name":"Levis Saltator","steam_id":76561198035945247,"connected_time":1895000000000,"state":"active","ping":67},{"user_id":578,"name":"nudjura","steam_id":76561198281986139,"connected_time":1629000000000,"state":"active","ping":41},{"user_id":570,"name":"Counter Strike 2","steam_id":76561198088339200,"connected_time":1892000000000,"state":"active","ping":49},{"user_id":595,"name":"bolsonaro","steam_id":76561198074917015,"connected_time":282000000000,"state":"active","ping":76},{"user_id":561,"name":"Sang","steam_id":76561198008510868,"connected_time":2443000000000,"state":"active","ping":73},{"user_id":576,"name":"billions must braaap","steam_id":76561198190583242,"connected_time":1670000000000,"state":"active","ping":70},{"user_id":594,"name":"Archer","steam_id":76561197994239444,"connected_time":331000000000,"state":"active","ping":114},{"user_id":583,"name":"jmp","steam_id":76561198168283286,"connected_time":1217000000000,"state":"active","ping":80},{"user_id":597,"name":"ÎùºÎãà","steam_id":76561198399201495,"connected_time":73000000000,"state":"active","ping":158},{"user_id":596,"name":"Woman (Real)","steam_id":76561199151823932,"connected_time":93000000000,"state":"active","ping":84},{"user_id":588,"name":"Jughead","steam_id":76561198000355410,"connected_time":845000000000,"state":"active","ping":42},{"user_id":574,"name":"Pats (Gifted items Collector)","steam_id":76561198418538887,"connected_time":1778000000000,"state":"active","ping":82},{"user_id":558,"name":"Snake-chan","steam_id":76561199044755854,"connected_time":2534000000000,"state":"active","ping":84},{"user_id":534,"name":"Hermitcrack","steam_id":76561198149216441,"connected_time":4962000000000,"state":"active","ping":74},{"user_id":560,"name":"Lyra","steam_id":76561198043601838,"connected_time":2489000000000,"state":"active","ping":59},{"user_id":565,"name":"wk ohw","steam_id":76561198106049954,"connected_time":2153000000000,"state":"active","ping":78},{"user_id":549,"name":"chiyonii.","steam_id":76561198021854431,"connected_time":3525000000000,"state":"active","ping":56},{"user_id":452,"name":"clunk","steam_id":76561198836460767,"connected_time":10773000000000,"state":"active","ping":68},{"user_id":568,"name":"Charlie Brown","steam_id":76561199378865926,"connected_time":1998000000000,"state":"active","ping":77},{"user_id":516,"name":"Jam","steam_id":76561198090409013,"connected_time":6076000000000,"state":"active","ping":80}]},{"server_id":114,"name":"Uncletopia | London | 2 | All Maps","name_short":"lon-2","host":"lon-1.uk.uncletopia.com","port":27025,"enabled":true,"region":"eu","cc":"gb","latitude":51.509865,"longitude":-0.118092,"reserved":0,"last_update":"0001-01-01T00:00:00Z","name_a2s":"Uncletopia | London | 2 | All Maps","protocol":17,"map":"cp_snakewater_final1","folder":"tf","game":"Team Fortress","app_id":440,"player_count":0,"max_players":24,"Bots":0,"server_type":"Dedicated","server_os":"Linux","password":true,"vac":true,"version":"7961495","steam_id":85568392924470941,"keywords":["cp","nocrits","nodmgspread","uncletopia"],"game_id":440,"stv_port":27026,"stv_name":"Uncletopia | London | 2 | All Maps | STV","players":null},{"server_id":320,"name":"Uncletopia | London | 3 | All Maps","name_short":"lon-3","host":"lon-1.uk.uncletopia.com","port":27035,"enabled":true,"region":"eu","cc":"gb","latitude":51.509865,"longitude":-0.118092,"reserved":0,"last_update":"0001-01-01T00:00:00Z","name_a2s":"Uncletopia | London | 3 | All Maps","protocol":17,"map":"pl_badwater","folder":"tf","game":"Team Fortress","app_id":440,"player_count":24,"max_players":24,"Bots":0,"server_type":"Dedicated","server_os":"Linux","password":true,"vac":true,"version":"7961495","steam_id":85568392924510192,"keywords":["nocrits","nodmgspread","payload","uncletopia"],"game_id":440,"stv_port":27036,"stv_name":"Uncletopia | London | 3 | All Maps | STV","players":[{"user_id":81,"name":"ÊúàË™≠","steam_id":76561198154020827,"connected_time":1053000000000,"state":"active","ping":93},{"user_id":110,"name":"Akira","steam_id":76561198323636432,"connected_time":264000000000,"state":"active","ping":69},{"user_id":77,"name":"B‚àûp | ‚ù§Fasto‚ù§","steam_id":76561198118298527,"connected_time":1118000000000,"state":"active","ping":50},{"user_id":51,"name":"Dr. Jackson Han","steam_id":76561199121983196,"connected_time":2184000000000,"state":"active","ping":49},{"user_id":25,"name":"Tankedup_","steam_id":76561198168659251,"connected_time":4112000000000,"state":"active","ping":45},{"user_id":28,"name":"woople","steam_id":76561198076625889,"connected_time":3561000000000,"state":"active","ping":75},{"user_id":27,"name":"Goro Majima","steam_id":76561198003040222,"connected_time":3844000000000,"state":"active","ping":43},{"user_id":107,"name":"KonG.- nedos—Çaje≈°.","steam_id":76561198039099650,"connected_time":350000000000,"state":"active","ping":68},{"user_id":30,"name":"mtwking","steam_id":76561198906681069,"connected_time":3421000000000,"state":"active","ping":49},{"user_id":31,"name":"Squeeblem","steam_id":76561198394233058,"connected_time":3375000000000,"state":"active","ping":55},{"user_id":32,"name":"[UiF] BafTac r/f*ckcars","steam_id":76561198060547050,"connected_time":3365000000000,"state":"active","ping":60},{"user_id":111,"name":"pakku","steam_id":76561198121260981,"connected_time":241000000000,"state":"active","ping":42},{"user_id":34,"name":"alex mandal","steam_id":76561198116166791,"connected_time":3307000000000,"state":"active","ping":93},{"user_id":47,"name":"Windows Vista Cruiser","steam_id":76561198064102233,"connected_time":2410000000000,"state":"active","ping":51},{"user_id":36,"name":"Chairforce","steam_id":76561198020208899,"connected_time":3266000000000,"state":"active","ping":90},{"user_id":108,"name":"Big Mean Muther Hubbard","steam_id":76561199223016965,"connected_time":319000000000,"state":"active","ping":50},{"user_id":53,"name":"RawAirFreshener","steam_id":76561198361196143,"connected_time":2126000000000,"state":"active","ping":49},{"user_id":39,"name":"dr,shaun murphy","steam_id":76561199122004242,"connected_time":2870000000000,"state":"active","ping":50},{"user_id":88,"name":"Aku+","steam_id":76561198813782795,"connected_time":852000000000,"state":"active","ping":61},{"user_id":42,"name":"Eggcracker","steam_id":76561199274850641,"connected_time":2774000000000,"state":"active","ping":71},{"user_id":73,"name":"Swiss_Nostalgia","steam_id":76561199159896259,"connected_time":1384000000000,"state":"active","ping":64},{"user_id":74,"name":"The legendery balls","steam_id":76561199139344747,"connected_time":1361000000000,"state":"active","ping":101},{"user_id":98,"name":"dfcv rftgvb ghtb","steam_id":76561198397764042,"connected_time":670000000000,"state":"active","ping":89},{"user_id":63,"name":"FiuffyDaisy!","steam_id":76561198241732704,"connected_time":1707000000000,"state":"active","ping":51}]},{"server_id":321,"name":"Uncletopia | London | 4 | All Maps","name_short":"lon-4","host":"lon-1.uk.uncletopia.com","port":27045,"enabled":true,"region":"eu","cc":"gb","latitude":51.509865,"longitude":-0.118092,"reserved":0,"last_update":"0001-01-01T00:00:00Z","name_a2s":"Uncletopia | London | 4 | All Maps","protocol":17,"map":"cp_mountainlab","folder":"tf","game":"Team Fortress","app_id":440,"player_count":17,"max_players":24,"Bots":0,"server_type":"Dedicated","server_os":"Linux","password":true,"vac":true,"version":"7961495","steam_id":85568392924510193,"keywords":["cp","nocrits","nodmgspread","uncletopia"],"game_id":440,"stv_port":27046,"stv_name":"Uncletopia | London | 4 | All Maps | STV","players":[{"user_id":136,"name":"[dopijus]","steam_id":76561198943009513,"connected_time":2261000000000,"state":"active","ping":102},{"user_id":154,"name":"METhOphetamine","steam_id":76561198068216224,"connected_time":19000000000,"state":"active","ping":58},{"user_id":151,"name":"Scotaborg","steam_id":76561198080764719,"connected_time":163000000000,"state":"active","ping":63},{"user_id":132,"name":"TA Assassin","steam_id":76561198042432118,"connected_time":2474000000000,"state":"active","ping":46},{"user_id":148,"name":"‚ò© Knightz ‚ò©","steam_id":76561198040936414,"connected_time":233000000000,"state":"active","ping":101},{"user_id":144,"name":"Man O' Steel","steam_id":76561198108612758,"connected_time":878000000000,"state":"active","ping":63},{"user_id":149,"name":"joachym (vc muted)","steam_id":76561198428579761,"connected_time":214000000000,"state":"active","ping":66},{"user_id":153,"name":"sting","steam_id":76561199475023166,"connected_time":123000000000,"state":"active","ping":236},{"user_id":134,"name":"Your honor Freebird was playing","steam_id":76561198017513012,"connected_time":2349000000000,"state":"active","ping":53},{"user_id":141,"name":"hbag","steam_id":76561198047393376,"connected_time":1229000000000,"state":"active","ping":77},{"user_id":142,"name":"Sir Cauterize","steam_id":76561198047079422,"connected_time":1153000000000,"state":"active","ping":47},{"user_id":123,"name":"spy among us","steam_id":76561197972287320,"connected_time":3311000000000,"state":"active","ping":75},{"user_id":152,"name":"System","steam_id":76561199442503973,"connected_time":162000000000,"state":"active","ping":60},{"user_id":38,"name":"NayrMcDrd","steam_id":76561199013184576,"connected_time":6942000000000,"state":"active","ping":74},{"user_id":122,"name":"Miss Asstickles","steam_id":76561198030286622,"connected_time":3377000000000,"state":"active","ping":56},{"user_id":143,"name":"sv_MrGibbs","steam_id":76561198114071972,"connected_time":1142000000000,"state":"active","ping":45},{"user_id":126,"name":"Caelestis","steam_id":76561198170017997,"connected_time":3168000000000,"state":"active","ping":70}]},{"server_id":21,"name":"Uncletopia | London | 5 | All Maps","name_short":"lon-5","host":"lon-1.uk.uncletopia.com","port":27055,"enabled":true,"region":"eu","cc":"gb","latitude":51.509865,"longitude":-0.118092,"reserved":0,"last_update":"0001-01-01T00:00:00Z","name_a2s":"Uncletopia | London | 5 | All Maps","protocol":17,"map":"pl_badwater","folder":"tf","game":"Team Fortress","app_id":440,"player_count":24,"max_players":24,"Bots":0,"server_type":"Dedicated","server_os":"Linux","password":true,"vac":true,"version":"7961495","steam_id":85568392924742829,"keywords":["nocrits","nodmgspread","payload","uncletopia"],"game_id":440,"stv_port":27056,"stv_name":"Uncletopia | London | 5 | All Maps | STV","players":[{"user_id":496,"name":"Daykayn","steam_id":76561199138533622,"connected_time":141000000000,"state":"active","ping":161},{"user_id":501,"name":"Brian","steam_id":76561198077756206,"connected_time":0,"state":"spawning","ping":20},{"user_id":485,"name":"I jazzed myself","steam_id":76561198203016603,"connected_time":461000000000,"state":"active","ping":52},{"user_id":463,"name":"t.tv/soarfps","steam_id":76561198010662796,"connected_time":1741000000000,"state":"active","ping":54},{"user_id":471,"name":"LeonCactus","steam_id":76561198102360825,"connected_time":1405000000000,"state":"active","ping":57},{"user_id":479,"name":"Miku.Hatsune.2007","steam_id":76561198199687607,"connected_time":720000000000,"state":"active","ping":67},{"user_id":459,"name":"Homosapien","steam_id":76561197972035953,"connected_time":2119000000000,"state":"active","ping":60},{"user_id":497,"name":"Kurt Beyber","steam_id":76561198047207247,"connected_time":106000000000,"state":"active","ping":66},{"user_id":412,"name":"NiveK","steam_id":76561197988636096,"connected_time":5470000000000,"state":"active","ping":75},{"user_id":426,"name":"Vibr√°tor (418 122 locomotive)","steam_id":76561198097789669,"connected_time":4311000000000,"state":"active","ping":69},{"user_id":458,"name":"Dakeyras","steam_id":76561198057069564,"connected_time":2300000000000,"state":"active","ping":97},{"user_id":480,"name":"Neco Arc","steam_id":76561198296729800,"connected_time":689000000000,"state":"active","ping":61},{"user_id":450,"name":"eXa","steam_id":76561197988349233,"connected_time":2987000000000,"state":"active","ping":49},{"user_id":454,"name":"Indomitable Truck-sama","steam_id":76561198826861582,"connected_time":2578000000000,"state":"active","ping":59},{"user_id":484,"name":"Five Finger Discount","steam_id":76561197994556857,"connected_time":507000000000,"state":"active","ping":64},{"user_id":487,"name":"DiscoTraveler","steam_id":76561199240168088,"connected_time":420000000000,"state":"active","ping":117},{"user_id":498,"name":"baobab","steam_id":76561199141037141,"connected_time":59000000000,"state":"active","ping":258},{"user_id":451,"name":"abra-kablam","steam_id":76561198195857751,"connected_time":2938000000000,"state":"active","ping":63},{"user_id":499,"name":"Hej soko≈Çy!","steam_id":76561198406300604,"connected_time":36000000000,"state":"active","ping":226},{"user_id":473,"name":"Reimu","steam_id":76561198101532240,"connected_time":1329000000000,"state":"active","ping":60},{"user_id":404,"name":"s a i","steam_id":76561197970379754,"connected_time":5669000000000,"state":"active","ping":60},{"user_id":490,"name":"Dave The Sloth","steam_id":76561199135831355,"connected_time":399000000000,"state":"active","ping":60},{"user_id":491,"name":"haha","steam_id":76561199039212537,"connected_time":398000000000,"state":"active","ping":99},{"user_id":500,"name":"Akis—è–Ω","steam_id":76561198078706435,"connected_time":34000000000,"state":"active","ping":82}]},{"server_id":22,"name":"Uncletopia | London | 6 | All Maps","name_short":"lon-6","host":"lon-1.uk.uncletopia.com","port":27065,"enabled":true,"region":"eu","cc":"gb","latitude":51.509865,"longitude":-0.118092,"reserved":0,"last_update":"0001-01-01T00:00:00Z","name_a2s":"Uncletopia | London | 6 | All Maps","protocol":17,"map":"pl_badwater","folder":"tf","game":"Team Fortress","app_id":440,"player_count":23,"max_players":24,"Bots":0,"server_type":"Dedicated","server_os":"Linux","password":true,"vac":true,"version":"7961495","steam_id":85568392924742830,"keywords":["nocrits","nodmgspread","payload","uncletopia"],"game_id":440,"stv_port":27066,"stv_name":"Uncletopia | London | 6 | All Maps | STV","players":[{"user_id":162,"name":"Cooki","steam_id":76561198051705314,"connected_time":427000000000,"state":"active","ping":144},{"user_id":132,"name":"Spycrab Gaming","steam_id":76561199128973607,"connected_time":3136000000000,"state":"active","ping":63},{"user_id":165,"name":"wee bit depresso","steam_id":76561198097507847,"connected_time":267000000000,"state":"active","ping":76},{"user_id":164,"name":"magnets, how do they work","steam_id":76561198170609049,"connected_time":306000000000,"state":"active","ping":62},{"user_id":163,"name":"Tomo","steam_id":76561199015097595,"connected_time":360000000000,"state":"active","ping":45},{"user_id":166,"name":"NEZ","steam_id":76561198320935413,"connected_time":225000000000,"state":"active","ping":114},{"user_id":167,"name":"please do not the cat","steam_id":76561198089003514,"connected_time":206000000000,"state":"active","ping":45},{"user_id":168,"name":"Garfailed The Dumbass","steam_id":76561198979140645,"connected_time":116000000000,"state":"active","ping":53},{"user_id":91,"name":"wavelength","steam_id":76561198154677956,"connected_time":5265000000000,"state":"active","ping":82},{"user_id":144,"name":"ANGHENFILOD","steam_id":76561199492622823,"connected_time":2250000000000,"state":"active","ping":37},{"user_id":169,"name":"Cheshireycat","steam_id":76561198067204908,"connected_time":115000000000,"state":"active","ping":58},{"user_id":136,"name":"mesŒª","steam_id":76561198324582918,"connected_time":3044000000000,"state":"active","ping":93},{"user_id":170,"name":"That hamster has been dead for ","steam_id":76561198346638308,"connected_time":104000000000,"state":"active","ping":46},{"user_id":122,"name":"theVad333","steam_id":76561199273469746,"connected_time":3675000000000,"state":"active","ping":68},{"user_id":172,"name":"tired","steam_id":76561198046838168,"connected_time":53000000000,"state":"active","ping":60},{"user_id":173,"name":"lugi","steam_id":76561198026903673,"connected_time":40000000000,"state":"active","ping":68},{"user_id":174,"name":"Gramma!","steam_id":76561198340989175,"connected_time":36000000000,"state":"active","ping":211},{"user_id":152,"name":"sethlington14","steam_id":76561199438357690,"connected_time":1528000000000,"state":"active","ping":62},{"user_id":108,"name":"–†–µ–î–∞–ù–æ–í–µ–¶ ^_^","steam_id":76561199032612973,"connected_time":4613000000000,"state":"active","ping":76},{"user_id":149,"name":"Kinglyghost","steam_id":76561199231342179,"connected_time":1699000000000,"state":"active","ping":68},{"user_id":175,"name":"Skelet","steam_id":76561198051685232,"connected_time":35000000000,"state":"active","ping":45},{"user_id":146,"name":"Ross from F.R.I.E.N.D.S.","steam_id":76561198008511665,"connected_time":2079000000000,"state":"active","ping":57},{"user_id":147,"name":"Anti-Capitalist Weapon","steam_id":76561198143526071,"connected_time":2065000000000,"state":"active","ping":53}]},{"server_id":40,"name":"Uncletopia | London | 7 | Stopwatch","name_short":"lon-7","host":"lon-1.uk.uncletopia.com","port":27075,"enabled":true,"region":"eu","cc":"gb","latitude":51.509865,"longitude":-0.118092,"reserved":0,"last_update":"0001-01-01T00:00:00Z","name_a2s":"Uncletopia | London | 7 | Stopwatch","protocol":17,"map":"workshop/koth_clearcut_b15.ugc2107050255","folder":"tf","game":"Team Fortress","app_id":440,"player_count":0,"max_players":24,"Bots":0,"server_type":"Dedicated","server_os":"Linux","password":true,"vac":true,"version":"7961495","steam_id":85568392924964314,"keywords":["cp","nocrits","nodmgspread","uncletopia"],"game_id":440,"stv_port":27076,"stv_name":"Uncletopia | London | 7 | Stopwatch | STV","players":null},{"server_id":41,"name":"Uncletopia | London | 8 | Community","name_short":"lon-8","host":"lon-1.uk.uncletopia.com","port":27085,"enabled":true,"region":"eu","cc":"gb","latitude":51.509865,"longitude":-0.118092,"reserved":0,"last_update":"0001-01-01T00:00:00Z","name_a2s":"Uncletopia | London | 8 | Community","protocol":17,"map":"workshop/koth_kemptown_rc1.ugc767410655","folder":"tf","game":"Team Fortress","app_id":440,"player_count":0,"max_players":24,"Bots":0,"server_type":"Dedicated","server_os":"Linux","password":true,"vac":true,"version":"7961495","steam_id":85568392924964315,"keywords":["cp","nocrits","nodmgspread","uncletopia"],"game_id":440,"stv_port":27086,"stv_name":"Uncletopia | London | 8 | Community | STV","players":null},{"server_id":300,"name":"Uncletopia | Montr√©al | 1 | One Thousand Uncles","name_short":"mtl-1","host":"mtl-1.ca.uncletopia.com","port":27015,"enabled":true,"region":"us-east","cc":"ca","latitude":45.50889,"longitude":-73.56167,"reserved":0,"last_update":"0001-01-01T00:00:00Z","name_a2s":"Uncletopia | Montr√©al | 1 | One Thousand Uncles","protocol":17,"map":"pl_hoodoo_final","folder":"tf","game":"Team Fortress","app_id":440,"player_count":21,"max_players":32,"Bots":20,"server_type":"Dedicated","server_os":"Linux","password":true,"vac":true,"version":"7961495","steam_id":85568392924500087,"keywords":["alltalk","bots","danepve","increased_maxplayers","norespawntime","payload","uncletopia"],"game_id":440,"stv_port":0,"stv_name":"","players":[{"user_id":43,"name":"St. Arnold of Soissons","steam_id":76561197974133892,"connected_time":1053000000000,"state":"active","ping":67}]},{"server_id":301,"name":"Uncletopia | Montr√©al | 2 | One Thousand Uncles","name_short":"mtl-2","host":"mtl-1.ca.uncletopia.com","port":27025,"enabled":true,"region":"us-east","cc":"ca","latitude":45.50889,"longitude":-73.56167,"reserved":0,"last_update":"0001-01-01T00:00:00Z","name_a2s":"Uncletopia | Montr√©al | 2 | One Thousand Uncles","protocol":17,"map":"cp_mossrock","folder":"tf","game":"Team Fortress","app_id":440,"player_count":0,"max_players":32,"Bots":0,"server_type":"Dedicated","server_os":"Linux","password":true,"vac":true,"version":"7961495","steam_id":85568392924500088,"keywords":["alltalk","cp","danepve","increased_maxplayers","norespawntime","uncletopia"],"game_id":440,"stv_port":0,"stv_name":"","players":null},{"server_id":302,"name":"Uncletopia | Montr√©al | 3 | One Thousand Uncles","name_short":"mtl-3","host":"mtl-1.ca.uncletopia.com","port":27035,"enabled":true,"region":"us-east","cc":"ca","latitude":45.50889,"longitude":-73.56167,"reserved":0,"last_update":"0001-01-01T00:00:00Z","name_a2s":"Uncletopia | Montr√©al | 3 | One Thousand Uncles","protocol":17,"map":"pl_swiftwater_final1","folder":"tf","game":"Team Fortress","app_id":440,"player_count":0,"max_players":32,"Bots":0,"server_type":"Dedicated","server_os":"Linux","password":true,"vac":true,"version":"7961495","steam_id":85568392924500089,"keywords":["alltalk","danepve","increased_maxplayers","norespawntime","payload","uncletopia"],"game_id":440,"stv_port":0,"stv_name":"","players":null},{"server_id":13,"name":"Uncletopia | New York City | 1 | All Maps","name_short":"nyc-1","host":"nyc-1.us.uncletopia.com","port":27015,"enabled":true,"region":"us-east","cc":"us","latitude":40.73061,"longitude":-73.93524,"reserved":0,"last_update":"0001-01-01T00:00:00Z","name_a2s":"Uncletopia | New York City | 1 | All Maps","protocol":17,"map":"pl_pier","folder":"tf","game":"Team Fortress","app_id":440,"player_count":24,"max_players":24,"Bots":0,"server_type":"Dedicated","server_os":"Linux","password":true,"vac":true,"version":"7961495","steam_id":85568392924469993,"keywords":["nocrits","nodmgspread","payload","uncletopia"],"game_id":440,"stv_port":27016,"stv_name":"Uncletopia | New York City | 1 | All Maps | STV","players":[{"user_id":181,"name":"Samuel Adams Miller Lite","steam_id":76561198112188509,"connected_time":2834000000000,"state":"active","ping":75},{"user_id":149,"name":"Cellus","steam_id":76561198067204847,"connected_time":4544000000000,"state":"active","ping":57},{"user_id":203,"name":"Mr. Worcestershire","steam_id":76561198982347922,"connected_time":1493000000000,"state":"active","ping":45},{"user_id":211,"name":"floppy muppet","steam_id":76561198003076261,"connected_time":680000000000,"state":"active","ping":47},{"user_id":208,"name":"PadrePockets","steam_id":76561197993251606,"connected_time":985000000000,"state":"active","ping":54},{"user_id":144,"name":"morning glory","steam_id":76561198105081948,"connected_time":5040000000000,"state":"active","ping":44},{"user_id":202,"name":"‚ô©Karmism‚ô©","steam_id":76561199453410299,"connected_time":1516000000000,"state":"active","ping":77},{"user_id":222,"name":"Crazy Insane Proboscis Monkey","steam_id":76561198061011176,"connected_time":79000000000,"state":"active","ping":83},{"user_id":207,"name":"GummybearKillr","steam_id":76561198031235750,"connected_time":1091000000000,"state":"active","ping":53},{"user_id":176,"name":"Ramblet","steam_id":76561199026783260,"connected_time":3020000000000,"state":"active","ping":55},{"user_id":213,"name":"Vince Offer","steam_id":76561198991008825,"connected_time":625000000000,"state":"active","ping":65},{"user_id":210,"name":"Propaniac Gaming ‚òë","steam_id":76561198133963270,"connected_time":872000000000,"state":"active","ping":59},{"user_id":204,"name":"CrustyCapybara","steam_id":76561199450398030,"connected_time":1490000000000,"state":"active","ping":60},{"user_id":206,"name":"imng","steam_id":76561198014988031,"connected_time":1372000000000,"state":"active","ping":74},{"user_id":192,"name":"Menace to Sobriety","steam_id":76561198245103000,"connected_time":2268000000000,"state":"active","ping":47},{"user_id":218,"name":"NALA","steam_id":76561198039806469,"connected_time":384000000000,"state":"active","ping":142},{"user_id":186,"name":"Jack","steam_id":76561198079575891,"connected_time":2596000000000,"state":"active","ping":120},{"user_id":117,"name":"CDBeans","steam_id":76561198046990367,"connected_time":7210000000000,"state":"active","ping":82},{"user_id":187,"name":"DO NOT call me BART SIMPSON!!","steam_id":76561198069113375,"connected_time":2553000000000,"state":"active","ping":64},{"user_id":201,"name":"Lost CS2 player","steam_id":76561198892387723,"connected_time":1552000000000,"state":"active","ping":68},{"user_id":209,"name":"FUSION","steam_id":76561197972659738,"connected_time":911000000000,"state":"active","ping":45},{"user_id":205,"name":"Nixon Me, Dixon Me","steam_id":76561198126519537,"connected_time":1414000000000,"state":"active","ping":65},{"user_id":223,"name":"Sloppy Hoes","steam_id":76561198114922735,"connected_time":64000000000,"state":"spawning","ping":46},{"user_id":224,"name":"chrisd149","steam_id":76561198018710480,"connected_time":29000000000,"state":"spawning","ping":86}]},{"server_id":14,"name":"Uncletopia | New York City | 2 | All Maps","name_short":"nyc-2","host":"nyc-1.us.uncletopia.com","port":27025,"enabled":true,"region":"us-east","cc":"us","latitude":40.73061,"longitude":-73.93524,"reserved":0,"last_update":"0001-01-01T00:00:00Z","name_a2s":"Uncletopia | New York City | 2 | All Maps","protocol":17,"map":"pl_upward","folder":"tf","game":"Team Fortress","app_id":440,"player_count":24,"max_players":24,"Bots":0,"server_type":"Dedicated","server_os":"Linux","password":true,"vac":true,"version":"7961495","steam_id":85568392924469994,"keywords":["nocrits","nodmgspread","payload","uncletopia"],"game_id":440,"stv_port":27026,"stv_name":"Uncletopia | New York City | 2 | All Maps | STV","players":[{"user_id":260,"name":"O'brien","steam_id":76561198289339403,"connected_time":1222000000000,"state":"active","ping":76},{"user_id":288,"name":"non_ai","steam_id":76561198270951938,"connected_time":587000000000,"state":"active","ping":46},{"user_id":83,"name":"pea ttv/peabeanz","steam_id":76561198119551968,"connected_time":14920000000000,"state":"active","ping":57},{"user_id":274,"name":"SPYCHECK ME","steam_id":76561198980994364,"connected_time":908000000000,"state":"active","ping":78},{"user_id":18,"name":"Seasoned Shrimp","steam_id":76561198405863627,"connected_time":19119000000000,"state":"active","ping":105},{"user_id":236,"name":"Meh","steam_id":76561198078187920,"connected_time":2536000000000,"state":"active","ping":82},{"user_id":254,"name":"Legit_Jaxer","steam_id":76561198172234053,"connected_time":1401000000000,"state":"active","ping":117},{"user_id":242,"name":"Eric4bz","steam_id":76561198054439606,"connected_time":2117000000000,"state":"active","ping":140},{"user_id":185,"name":"Young Sheldon Tik-Tok Clip","steam_id":76561198253927199,"connected_time":7122000000000,"state":"active","ping":168},{"user_id":251,"name":"Serenity","steam_id":76561198170355609,"connected_time":1989000000000,"state":"active","ping":127},{"user_id":307,"name":"[MOM] Preening Champion","steam_id":76561198055855534,"connected_time":113000000000,"state":"active","ping":54},{"user_id":276,"name":"Nice21","steam_id":76561199427548141,"connected_time":807000000000,"state":"active","ping":77},{"user_id":303,"name":"Novu","steam_id":76561198886997024,"connected_time":290000000000,"state":"active","ping":87},{"user_id":213,"name":"your very own pocket medic","steam_id":76561199489320369,"connected_time":4378000000000,"state":"active","ping":62},{"user_id":255,"name":"Baron von Whoopsie","steam_id":76561197996691013,"connected_time":1298000000000,"state":"active","ping":52},{"user_id":306,"name":"Robert","steam_id":76561198133200895,"connected_time":168000000000,"state":"active","ping":74},{"user_id":308,"name":"Spy x Scout Erotica Enjoyer ;)","steam_id":76561198862821072,"connected_time":98000000000,"state":"active","ping":54},{"user_id":245,"name":"Transbian mommy GF","steam_id":76561198153233822,"connected_time":2088000000000,"state":"active","ping":83},{"user_id":262,"name":"bakkhertz","steam_id":76561198046745579,"connected_time":1172000000000,"state":"active","ping":78},{"user_id":286,"name":"reis","steam_id":76561199232952016,"connected_time":664000000000,"state":"active","ping":173},{"user_id":229,"name":"bomba","steam_id":76561198301585642,"connected_time":3051000000000,"state":"active","ping":49},{"user_id":263,"name":"Jousty","steam_id":76561199162677853,"connected_time":1171000000000,"state":"active","ping":111},{"user_id":221,"name":"goombinus","steam_id":76561198136164826,"connected_time":3694000000000,"state":"active","ping":74},{"user_id":268,"name":"Ahhhhhhhh Hot","steam_id":76561199072987753,"connected_time":1106000000000,"state":"active","ping":91}]},{"server_id":15,"name":"Uncletopia | New York City | 3 | Stopwatch","name_short":"nyc-3","host":"nyc-1.us.uncletopia.com","port":27035,"enabled":true,"region":"us-east","cc":"us","latitude":40.73061,"longitude":-73.93524,"reserved":0,"last_update":"0001-01-01T00:00:00Z","name_a2s":"Uncletopia | New York City | 3 | Stopwatch","protocol":17,"map":"pl_swiftwater_final1","folder":"tf","game":"Team Fortress","app_id":440,"player_count":21,"max_players":24,"Bots":0,"server_type":"Dedicated","server_os":"Linux","password":true,"vac":true,"version":"7961495","steam_id":85568392924742820,"keywords":["nocrits","nodmgspread","payload","uncletopia"],"game_id":440,"stv_port":27036,"stv_name":"Uncletopia | New York City | 3 | Stopwatch | STV","players":[{"user_id":64,"name":"hayes","steam_id":76561198057101042,"connected_time":1331000000000,"state":"active","ping":77},{"user_id":51,"name":"insanely aggressive alcoholic","steam_id":76561198992873877,"connected_time":1995000000000,"state":"active","ping":71},{"user_id":74,"name":"Lovedaddy","steam_id":76561198006569710,"connected_time":777000000000,"state":"active","ping":79},{"user_id":83,"name":"mildew enjoyer","steam_id":76561198271940943,"connected_time":337000000000,"state":"active","ping":80},{"user_id":72,"name":"patronshito","steam_id":76561198266063209,"connected_time":817000000000,"state":"active","ping":115},{"user_id":59,"name":"Herman Bavinck","steam_id":76561197993190216,"connected_time":1524000000000,"state":"active","ping":53},{"user_id":75,"name":"CEO of Booty Movement","steam_id":76561198064981004,"connected_time":735000000000,"state":"active","ping":62},{"user_id":77,"name":"Anomet","steam_id":76561198060246255,"connected_time":721000000000,"state":"active","ping":74},{"user_id":84,"name":"bill buckner","steam_id":76561199510233017,"connected_time":79000000000,"state":"active","ping":30},{"user_id":73,"name":"Sylvain","steam_id":76561198113385271,"connected_time":816000000000,"state":"active","ping":67},{"user_id":76,"name":"KIKI CURBSTOMP","steam_id":76561198262064871,"connected_time":730000000000,"state":"active","ping":32},{"user_id":85,"name":"meth ape","steam_id":76561199110579692,"connected_time":18000000000,"state":"spawning","ping":59},{"user_id":70,"name":"forsen","steam_id":76561198274112032,"connected_time":931000000000,"state":"active","ping":102},{"user_id":86,"name":"Sussin'","steam_id":76561198059813696,"connected_time":15000000000,"state":"active","ping":47},{"user_id":41,"name":"Artemis","steam_id":76561198973786805,"connected_time":2468000000000,"state":"active","ping":71},{"user_id":61,"name":"gerge","steam_id":76561198092238353,"connected_time":1508000000000,"state":"active","ping":81},{"user_id":79,"name":"The Who's Who Perk Machine","steam_id":76561198271910335,"connected_time":508000000000,"state":"active","ping":93},{"user_id":82,"name":"quirkyturkey32","steam_id":76561198062295677,"connected_time":417000000000,"state":"active","ping":118},{"user_id":69,"name":"uncle 'ardboss","steam_id":76561198055490732,"connected_time":1084000000000,"state":"active","ping":146},{"user_id":49,"name":"He Come Down","steam_id":76561198232500756,"connected_time":2240000000000,"state":"active","ping":96},{"user_id":67,"name":"Highlight321","steam_id":76561198278524572,"connected_time":1160000000000,"state":"active","ping":115}]},{"server_id":16,"name":"Uncletopia | New York City | 4 | Community","name_short":"nyc-4","host":"nyc-1.us.uncletopia.com","port":27045,"enabled":true,"region":"us-east","cc":"us","latitude":40.73061,"longitude":-73.93524,"reserved":0,"last_update":"0001-01-01T00:00:00Z","name_a2s":"Uncletopia | New York City | 4 | Community","protocol":17,"map":"workshop/cp_reckoner_rc6.ugc674719999","folder":"tf","game":"Team Fortress","app_id":440,"player_count":0,"max_players":24,"Bots":0,"server_type":"Dedicated","server_os":"Linux","password":true,"vac":true,"version":"7961495","steam_id":85568392924742821,"keywords":["cp","nocrits","nodmgspread","uncletopia"],"game_id":440,"stv_port":27046,"stv_name":"Uncletopia | New York City | 4 | Community | STV","players":null},{"server_id":142,"name":"Uncletopia | S√£o Paulo | 1 | All Maps","name_short":"sao-1","host":"sao-1.br.uncletopia.com","port":27015,"enabled":true,"region":"sa","cc":"br","latitude":-23.533773,"longitude":-46.62529,"reserved":0,"last_update":"0001-01-01T00:00:00Z","name_a2s":"Uncletopia | S√£o Paulo | 1 | All Maps","protocol":17,"map":"pl_borneo","folder":"tf","game":"Team Fortress","app_id":440,"player_count":0,"max_players":24,"Bots":0,"server_type":"Dedicated","server_os":"Linux","password":true,"vac":true,"version":"7961495","steam_id":85568392924469996,"keywords":["nocrits","nodmgspread","payload","uncletopia"],"game_id":440,"stv_port":27016,"stv_name":"Uncletopia | S√£o Paulo | 1 | All Maps | STV","players":null},{"server_id":143,"name":"Uncletopia | S√£o Paulo | 2 | Community","name_short":"sao-2","host":"sao-2.br.uncletopia.com","port":27015,"enabled":true,"region":"sa","cc":"br","latitude":-23.533773,"longitude":-46.62529,"reserved":0,"last_update":"0001-01-01T00:00:00Z","name_a2s":"Uncletopia | S√£o Paulo | 2 | Community","protocol":17,"map":"workshop/koth_slaughter_rc1.ugc1712845210","folder":"tf","game":"Team Fortress","app_id":440,"player_count":0,"max_players":24,"Bots":0,"server_type":"Dedicated","server_os":"Linux","password":true,"vac":true,"version":"7961495","steam_id":85568392924485349,"keywords":["cp","nocrits","nodmgspread","uncletopia"],"game_id":440,"stv_port":27016,"stv_name":"Uncletopia | S√£o Paulo | 2 | Community | STV","players":null},{"server_id":7,"name":"Uncletopia | Seattle | 1 | All Maps","name_short":"sea-1","host":"sea-1.us.uncletopia.com","port":27015,"enabled":true,"region":"us-west","cc":"us","latitude":47.608013,"longitude":-122.33517,"reserved":0,"last_update":"0001-01-01T00:00:00Z","name_a2s":"Uncletopia | Seattle | 1 | All Maps","protocol":17,"map":"pl_frontier_final","folder":"tf","game":"Team Fortress","app_id":440,"player_count":21,"max_players":24,"Bots":0,"server_type":"Dedicated","server_os":"Linux","password":true,"vac":true,"version":"7961495","steam_id":85568392924469997,"keywords":["nocrits","nodmgspread","payload","uncletopia"],"game_id":440,"stv_port":27016,"stv_name":"Uncletopia | Seattle | 1 | All Maps | STV","players":[{"user_id":76,"name":"mew","steam_id":76561198118644686,"connected_time":3489000000000,"state":"connecting","ping":105},{"user_id":65,"name":"kindofsmart","steam_id":76561199088819266,"connected_time":4719000000000,"state":"connecting","ping":73},{"user_id":18,"name":"‚òÖCaseyGlows‚òÖ","steam_id":76561198113616168,"connected_time":7377000000000,"state":"connecting","ping":87},{"user_id":105,"name":"fried water","steam_id":76561198360311110,"connected_time":1161000000000,"state":"connecting","ping":61},{"user_id":109,"name":"Yackaboi","steam_id":76561199444911765,"connected_time":738000000000,"state":"connecting","ping":151},{"user_id":91,"name":"Harvey J. Figglemeister (real)","steam_id":76561198441916331,"connected_time":2523000000000,"state":"connecting","ping":54},{"user_id":70,"name":"dust | it/she [no mic]","steam_id":76561198045218909,"connected_time":3996000000000,"state":"connecting","ping":53},{"user_id":107,"name":"oo","steam_id":76561198119626492,"connected_time":974000000000,"state":"connecting","ping":89},{"user_id":92,"name":"YOU WHAT?!","steam_id":76561198418679471,"connected_time":2513000000000,"state":"connecting","ping":141},{"user_id":113,"name":"coco","steam_id":76561199488457138,"connected_time":66000000000,"state":"connecting","ping":64},{"user_id":112,"name":"zinnk","steam_id":76561198092081825,"connected_time":235000000000,"state":"connecting","ping":75},{"user_id":97,"name":"Attrition","steam_id":76561197969881916,"connected_time":1800000000000,"state":"connecting","ping":75},{"user_id":45,"name":"keffers","steam_id":76561198202338796,"connected_time":6110000000000,"state":"connecting","ping":120},{"user_id":39,"name":"Ridley","steam_id":76561198014857463,"connected_time":6438000000000,"state":"connecting","ping":142},{"user_id":101,"name":"waggyaggy (it/she)","steam_id":76561197998241407,"connected_time":1207000000000,"state":"connecting","ping":95},{"user_id":110,"name":"soda","steam_id":76561198105924953,"connected_time":539000000000,"state":"connecting","ping":75},{"user_id":102,"name":"Tibetan Pop Star","steam_id":76561198844903984,"connected_time":1205000000000,"state":"connecting","ping":170},{"user_id":96,"name":"Preston","steam_id":76561198255721392,"connected_time":2276000000000,"state":"connecting","ping":152},{"user_id":103,"name":"Barack Obama Gaming","steam_id":76561198129242016,"connected_time":1205000000000,"state":"connecting","ping":61}]},{"server_id":119,"name":"Uncletopia | Seattle | 2 | All Maps","name_short":"sea-2","host":"sea-1.us.uncletopia.com","port":27025,"enabled":true,"region":"us-west","cc":"us","latitude":47.608013,"longitude":-122.33517,"reserved":0,"last_update":"0001-01-01T00:00:00Z","name_a2s":"Uncletopia | Seattle | 2 | All Maps","protocol":17,"map":"cp_mountainlab","folder":"tf","game":"Team Fortress","app_id":440,"player_count":0,"max_players":24,"Bots":0,"server_type":"Dedicated","server_os":"Linux","password":true,"vac":true,"version":"7961495","steam_id":85568392924469998,"keywords":["cp","nocrits","nodmgspread","uncletopia"],"game_id":440,"stv_port":27026,"stv_name":"Uncletopia | Seattle | 2 | All Maps | STV","players":null},{"server_id":406,"name":"Uncletopia | Seattle | 3 | Stopwatch","name_short":"sea-3","host":"sea-1.us.uncletopia.com","port":27035,"enabled":true,"region":"us-west","cc":"us","latitude":47.608013,"longitude":-122.33517,"reserved":0,"last_update":"0001-01-01T00:00:00Z","name_a2s":"Uncletopia | Seattle | 3 | Stopwatch","protocol":17,"map":"cp_gullywash_final1","folder":"tf","game":"Team Fortress","app_id":440,"player_count":0,"max_players":24,"Bots":0,"server_type":"Dedicated","server_os":"Linux","password":true,"vac":true,"version":"7961495","steam_id":85568392924515217,"keywords":["cp","nocrits","nodmgspread","uncletopia"],"game_id":440,"stv_port":27036,"stv_name":"Uncletopia | Seattle | 3 | Stopwatch | STV","players":null},{"server_id":17,"name":"Uncletopia | San Francisco | 1 | All Maps","name_short":"sfo-1","host":"sfo-1.us.uncletopia.com","port":27015,"enabled":true,"region":"us-west","cc":"us","latitude":37.77397,"longitude":-122.4313,"reserved":0,"last_update":"0001-01-01T00:00:00Z","name_a2s":"Uncletopia | San Francisco | 1 | All Maps","protocol":17,"map":"cp_gorge","folder":"tf","game":"Team Fortress","app_id":440,"player_count":0,"max_players":24,"Bots":0,"server_type":"Dedicated","server_os":"Linux","password":true,"vac":true,"version":"7961495","steam_id":85568392924469999,"keywords":["cp","nocrits","nodmgspread","uncletopia"],"game_id":440,"stv_port":27016,"stv_name":"Uncletopia | San Francisco | 1 | All Maps | STV","players":null},{"server_id":18,"name":"Uncletopia | San Francisco | 2 | All Maps","name_short":"sfo-2","host":"sfo-1.us.uncletopia.com","port":27025,"enabled":true,"region":"us-west","cc":"us","latitude":37.77397,"longitude":-122.4313,"reserved":0,"last_update":"0001-01-01T00:00:00Z","name_a2s":"Uncletopia | San Francisco | 2 | All Maps","protocol":17,"map":"pl_hoodoo_final","folder":"tf","game":"Team Fortress","app_id":440,"player_count":0,"max_players":24,"Bots":0,"server_type":"Dedicated","server_os":"Linux","password":true,"vac":true,"version":"7961495","steam_id":85568392924470000,"keywords":["nocrits","nodmgspread","payload","uncletopia"],"game_id":440,"stv_port":27026,"stv_name":"Uncletopia | San Francisco | 2 | All Maps | STV","players":null},{"server_id":19,"name":"Uncletopia | San Francisco | 3 | Stopwatch","name_short":"sfo-3","host":"sfo-1.us.uncletopia.com","port":27035,"enabled":true,"region":"us-west","cc":"us","latitude":37.77397,"longitude":-122.4313,"reserved":0,"last_update":"0001-01-01T00:00:00Z","name_a2s":"Uncletopia | San Francisco | 3 | Stopwatch","protocol":17,"map":"workshop/koth_clearcut_b15.ugc2107050255","folder":"tf","game":"Team Fortress","app_id":440,"player_count":0,"max_players":24,"Bots":0,"server_type":"Dedicated","server_os":"Linux","password":true,"vac":true,"version":"7961495","steam_id":85568392924742824,"keywords":["cp","nocrits","nodmgspread","uncletopia"],"game_id":440,"stv_port":27036,"stv_name":"Uncletopia | San Francisco | 3 | Stopwatch | STV","players":null},{"server_id":20,"name":"Uncletopia | San Francisco | 4 | Community","name_short":"sfo-4","host":"sfo-1.us.uncletopia.com","port":27045,"enabled":true,"region":"us-west","cc":"us","latitude":37.77397,"longitude":-122.4313,"reserved":0,"last_update":"0001-01-01T00:00:00Z","name_a2s":"Uncletopia | San Francisco | 4 | Community","protocol":17,"map":"workshop/cp_reckoner_rc6.ugc674719999","folder":"tf","game":"Team Fortress","app_id":440,"player_count":0,"max_players":24,"Bots":0,"server_type":"Dedicated","server_os":"Linux","password":true,"vac":true,"version":"7961495","steam_id":85568392924742826,"keywords":["cp","nocrits","nodmgspread","uncletopia"],"game_id":440,"stv_port":27046,"stv_name":"Uncletopia | San Francisco | 4 | Community | STV","players":null},{"server_id":141,"name":"Uncletopia | Sydney | 1 | All Maps","name_short":"syd-1","host":"syd-1.au.uncletopia.com","port":27015,"enabled":true,"region":"au","cc":"au","latitude":-33.865143,"longitude":151.2099,"reserved":0,"last_update":"0001-01-01T00:00:00Z","name_a2s":"Uncletopia | Sydney | 1 | All Maps","protocol":17,"map":"cp_process_final","folder":"tf","game":"Team Fortress","app_id":440,"player_count":0,"max_players":24,"Bots":0,"server_type":"Dedicated","server_os":"Linux","password":true,"vac":true,"version":"7961495","steam_id":85568392924470001,"keywords":["cp","nocrits","nodmgspread","uncletopia"],"game_id":440,"stv_port":27016,"stv_name":"Uncletopia | Sydney | 1 | All Maps | STV","players":null},{"server_id":123,"name":"Uncletopia | Sydney | 2 | All Maps","name_short":"syd-2","host":"syd-1.au.uncletopia.com","port":27025,"enabled":true,"region":"au","cc":"au","latitude":-33.865143,"longitude":151.2099,"reserved":0,"last_update":"0001-01-01T00:00:00Z","name_a2s":"Uncletopia | Sydney | 2 | All Maps","protocol":17,"map":"koth_viaduct","folder":"tf","game":"Team Fortress","app_id":440,"player_count":0,"max_players":24,"Bots":0,"server_type":"Dedicated","server_os":"Linux","password":true,"vac":true,"version":"7961495","steam_id":85568392924470002,"keywords":["cp","nocrits","nodmgspread","uncletopia"],"game_id":440,"stv_port":27026,"stv_name":"Uncletopia | Sydney | 2 | All Maps | STV","players":null},{"server_id":395,"name":"Uncletopia | Sydney | 3 | All Maps","name_short":"syd-3","host":"syd-1.au.uncletopia.com","port":27035,"enabled":true,"region":"au","cc":"au","latitude":-33.865143,"longitude":151.2099,"reserved":0,"last_update":"0001-01-01T00:00:00Z","name_a2s":"Uncletopia | Sydney | 3 | All Maps","protocol":17,"map":"koth_lakeside_final","folder":"tf","game":"Team Fortress","app_id":440,"player_count":0,"max_players":24,"Bots":0,"server_type":"Dedicated","server_os":"Linux","password":true,"vac":true,"version":"7961495","steam_id":85568392925194467,"keywords":["cp","nocrits","nodmgspread","uncletopia"],"game_id":440,"stv_port":27036,"stv_name":"Uncletopia | Sydney | 3 | All Maps | STV","players":null},{"server_id":396,"name":"Uncletopia | Sydney | 4 | All Maps","name_short":"syd-4","host":"syd-1.au.uncletopia.com","port":27045,"enabled":true,"region":"au","cc":"au","latitude":-33.865143,"longitude":151.2099,"reserved":0,"last_update":"0001-01-01T00:00:00Z","name_a2s":"Uncletopia | Sydney | 4 | All Maps","protocol":17,"map":"cp_snakewater_final1","folder":"tf","game":"Team Fortress","app_id":440,"player_count":0,"max_players":24,"Bots":0,"server_type":"Dedicated","server_os":"Linux","password":true,"vac":true,"version":"7961495","steam_id":85568392925397958,"keywords":["cp","nocrits","nodmgspread","uncletopia"],"game_id":440,"stv_port":27046,"stv_name":"Uncletopia | Sydney | 4 | All Maps | STV","players":null},{"server_id":58,"name":"Uncletopia | Sydney | 5 | Stopwatch","name_short":"syd-5","host":"syd-1.au.uncletopia.com","port":27055,"enabled":true,"region":"au","cc":"au","latitude":-33.865143,"longitude":151.2099,"reserved":0,"last_update":"0001-01-01T00:00:00Z","name_a2s":"Uncletopia | Sydney | 5 | Stopwatch","protocol":17,"map":"workshop/pl_summercoast_rc8e.ugc1761528829","folder":"tf","game":"Team Fortress","app_id":440,"player_count":0,"max_players":24,"Bots":0,"server_type":"Dedicated","server_os":"Linux","password":true,"vac":true,"version":"7961495","steam_id":85568392925397959,"keywords":["nocrits","nodmgspread","payload","uncletopia"],"game_id":440,"stv_port":27056,"stv_name":"Uncletopia | Sydney | 5 | Stopwatch | STV","players":null},{"server_id":59,"name":"Uncletopia | Sydney | 6 | Community","name_short":"syd-6","host":"syd-1.au.uncletopia.com","port":27065,"enabled":true,"region":"au","cc":"au","latitude":-33.865143,"longitude":151.2099,"reserved":0,"last_update":"0001-01-01T00:00:00Z","name_a2s":"Uncletopia | Sydney | 6 | Community","protocol":17,"map":"workshop/koth_soot_final1.ugc2969540689","folder":"tf","game":"Team Fortress","app_id":440,"player_count":0,"max_players":24,"Bots":0,"server_type":"Dedicated","server_os":"Linux","password":true,"vac":true,"version":"7961495","steam_id":85568392925397960,"keywords":["cp","nocrits","nodmgspread","uncletopia"],"game_id":440,"stv_port":27066,"stv_name":"Uncletopia | Sydney | 6 | Community | STV","players":null},{"server_id":49,"name":"Uncletopia | Warsaw | 1 | One Thousand Uncles","name_short":"waw-1","host":"waw-1.pl.uncletopia.com","port":27015,"enabled":true,"region":"eu","cc":"pl","latitude":52.2297,"longitude":21.017532,"reserved":0,"last_update":"0001-01-01T00:00:00Z","name_a2s":"Uncletopia | Warsaw | 1 | One Thousand Uncles","protocol":17,"map":"cp_egypt_final","folder":"tf","game":"Team Fortress","app_id":440,"player_count":21,"max_players":32,"Bots":20,"server_type":"Dedicated","server_os":"Linux","password":true,"vac":true,"version":"7961495","steam_id":85568392925397850,"keywords":["alltalk","bots","cp","danepve","increased_maxplayers","norespawntime","uncletopia"],"game_id":440,"stv_port":0,"stv_name":"","players":[{"user_id":39,"name":"PuPuruPuruPumPu","steam_id":76561198391950490,"connected_time":1045000000000,"state":"active","ping":103}]},{"server_id":50,"name":"Uncletopia | Warsaw | 2 | One Thousand Uncles","name_short":"waw-2","host":"waw-1.pl.uncletopia.com","port":27025,"enabled":true,"region":"eu","cc":"pl","latitude":52.2297,"longitude":21.017532,"reserved":0,"last_update":"0001-01-01T00:00:00Z","name_a2s":"Uncletopia | Warsaw | 2 | One Thousand Uncles","protocol":17,"map":"cp_dustbowl","folder":"tf","game":"Team Fortress","app_id":440,"player_count":28,"max_players":32,"Bots":20,"server_type":"Dedicated","server_os":"Linux","password":true,"vac":true,"version":"7961495","steam_id":85568392925397851,"keywords":["alltalk","bots","cp","danepve","increased_maxplayers","norespawntime","uncletopia"],"game_id":440,"stv_port":0,"stv_name":"","players":[{"user_id":428,"name":"Quackerzz","steam_id":76561199365851074,"connected_time":1055000000000,"state":"active","ping":90},{"user_id":449,"name":"PATRIK","steam_id":76561199403204322,"connected_time":1023000000000,"state":"active","ping":125},{"user_id":450,"name":"BFG 8=====–≠","steam_id":76561198019254889,"connected_time":956000000000,"state":"active","ping":58},{"user_id":452,"name":"UF_BOB_UNCLE","steam_id":76561199371396566,"connected_time":820000000000,"state":"active","ping":112},{"user_id":454,"name":"judasz","steam_id":76561198057378108,"connected_time":424000000000,"state":"active","ping":139},{"user_id":455,"name":"Spxndrej","steam_id":76561199426583978,"connected_time":401000000000,"state":"active","ping":62},{"user_id":456,"name":"Kotlet schabowy","steam_id":76561198048983509,"connected_time":96000000000,"state":"active","ping":54},{"user_id":457,"name":"lemon","steam_id":76561199366478146,"connected_time":56000000000,"state":"spawning","ping":127}]},{"server_id":51,"name":"Uncletopia | Warsaw | 3 | All Maps","name_short":"waw-3","host":"waw-1.pl.uncletopia.com","port":27035,"enabled":true,"region":"eu","cc":"pl","latitude":52.2297,"longitude":21.017532,"reserved":0,"last_update":"0001-01-01T00:00:00Z","name_a2s":"Uncletopia | Warsaw | 3 | All Maps","protocol":17,"map":"pl_swiftwater_final1","folder":"tf","game":"Team Fortress","app_id":440,"player_count":0,"max_players":24,"Bots":0,"server_type":"Dedicated","server_os":"Linux","password":true,"vac":true,"version":"7961495","steam_id":85568392925397852,"keywords":["nocrits","nodmgspread","payload","uncletopia"],"game_id":440,"stv_port":27036,"stv_name":"Uncletopia | Warsaw | 3 | All Maps | STV","players":null},{"server_id":52,"name":"Uncletopia | Warsaw | 4 | All Maps","name_short":"waw-4","host":"waw-1.pl.uncletopia.com","port":27045,"enabled":true,"region":"eu","cc":"pl","latitude":52.2297,"longitude":21.017532,"reserved":0,"last_update":"0001-01-01T00:00:00Z","name_a2s":"Uncletopia | Warsaw | 4 | All Maps","protocol":17,"map":"ctf_turbine","folder":"tf","game":"Team Fortress","app_id":440,"player_count":0,"max_players":24,"Bots":0,"server_type":"Dedicated","server_os":"Linux","password":true,"vac":true,"version":"7961495","steam_id":85568392925397853,"keywords":["ctf","nocrits","nodmgspread","uncletopia"],"game_id":440,"stv_port":27046,"stv_name":"Uncletopia | Warsaw | 4 | All Maps | STV","players":null},{"server_id":53,"name":"Uncletopia | Warsaw | 5 | Stopwatch","name_short":"waw-5","host":"waw-1.pl.uncletopia.com","port":27055,"enabled":true,"region":"eu","cc":"pl","latitude":52.2297,"longitude":21.017532,"reserved":0,"last_update":"0001-01-01T00:00:00Z","name_a2s":"Uncletopia | Warsaw | 5 | Stopwatch","protocol":17,"map":"workshop/koth_clearcut_b15.ugc2107050255","folder":"tf","game":"Team Fortress","app_id":440,"player_count":0,"max_players":24,"Bots":0,"server_type":"Dedicated","server_os":"Linux","password":true,"vac":true,"version":"7961495","steam_id":85568392925397854,"keywords":["cp","nocrits","nodmgspread","uncletopia"],"game_id":440,"stv_port":27056,"stv_name":"Uncletopia | Warsaw | 5 | Stopwatch | STV","players":null},{"server_id":54,"name":"Uncletopia | Warsaw | 6 | Community","name_short":"waw-6","host":"waw-1.pl.uncletopia.com","port":27065,"enabled":true,"region":"eu","cc":"pl","latitude":52.2297,"longitude":21.017532,"reserved":0,"last_update":"0001-01-01T00:00:00Z","name_a2s":"Uncletopia | Warsaw | 6 | Community","protocol":17,"map":"workshop/pl_highwood_b19.ugc1769496557","folder":"tf","game":"Team Fortress","app_id":440,"player_count":0,"max_players":24,"Bots":0,"server_type":"Dedicated","server_os":"Linux","password":true,"vac":true,"version":"7961495","steam_id":85568392925397856,"keywords":["nocrits","nodmgspread","payload","uncletopia"],"game_id":440,"stv_port":27066,"stv_name":"Uncletopia | Warsaw | 6 | Community | STV","players":null}]}