{"status":true,"message":"","result":[{"server_id":9,"name":"Uncletopia | Atlanta | 1 | All Maps","name_short":"atl-1","host":"atl-1.us.uncletopia.com","port":27015,"enabled":true,"region":"us-east","cc":"us","latitude":33.753746,"longitude":-84.38633,"reserved":0,"last_update":"0001-01-01T00:00:00Z","name_a2s":"Uncletopia | Atlanta | 1 | All Maps","protocol":17,"map":"pl_goldrush","folder":"tf","game":"Team Fortress","app_id":440,"player_count":24,"max_players":24,"Bots":0,"server_type":"Dedicated","server_os":"Linux","password":true,"vac":true,"version":"7961495","steam_id":85568392924469982,"keywords":["nocrits","nodmgspread","payload","uncletopia"],"game_id":440,"stv_port":27016,"stv_name":"Uncletopia | Atlanta | 1 | All Maps | STV","players":[{"user_id":495,"name":"Tue","steam_id":76561198181668501,"connected_time":128000000000,"state":"active","ping":54},{"user_id":474,"name":"Chernov","steam_id":76561198014463424,"connected_time":1512000000000,"state":"active","ping":61},{"user_id":446,"name":"eat salad","steam_id":76561198960183175,"connected_time":3847000000000,"state":"active","ping":95},{"user_id":432,"name":"trianamarco780","steam_id":76561199084319677,"connected_time":4086000000000,"state":"active","ping":105},{"user_id":487,"name":"Cyril Warhawk","steam_id":76561198025169657,"connected_time":461000000000,"state":"active","ping":94},{"user_id":449,"name":"abbo","steam_id":76561198079440621,"connected_time":3803000000000,"state":"active","ping":70},{"user_id":493,"name":"Old_Reluctant","steam_id":76561198018185967,"connected_time":341000000000,"state":"active","ping":60},{"user_id":481,"name":"indi","steam_id":76561198045917538,"connected_time":721000000000,"state":"active","ping":72},{"user_id":440,"name":"Dr.Inkmix(femboy)","steam_id":76561198854070384,"connected_time":4062000000000,"state":"active","ping":114},{"user_id":480,"name":"BlueMew","steam_id":76561198060454348,"connected_time":993000000000,"state":"active","ping":65},{"user_id":460,"name":"ATL1 | cola","steam_id":76561198374390458,"connected_time":3577000000000,"state":"active","ping":67},{"user_id":364,"name":"Heathcliff","steam_id":76561198044288534,"connected_time":12148000000000,"state":"active","ping":70},{"user_id":473,"name":"Sinta","steam_id":76561198098398841,"connected_time":1856000000000,"state":"active","ping":63},{"user_id":419,"name":"Sythoo","steam_id":76561198220893788,"connected_time":5778000000000,"state":"active","ping":74},{"user_id":490,"name":"(TPT) Ghost","steam_id":76561198123262873,"connected_time":370000000000,"state":"active","ping":118},{"user_id":494,"name":"The One True Luke","steam_id":76561198180891187,"connected_time":319000000000,"state":"active","ping":81},{"user_id":477,"name":"LH1 T-Girl named Lavie","steam_id":76561198825997674,"connected_time":1396000000000,"state":"active","ping":61},{"user_id":412,"name":"Sucsubot","steam_id":76561198106456128,"connected_time":7589000000000,"state":"active","ping":63},{"user_id":498,"name":"Notsocreative","steam_id":76561198236372202,"connected_time":64000000000,"state":"active","ping":81},{"user_id":489,"name":"ATL1 | to4st","steam_id":76561198981009008,"connected_time":372000000000,"state":"active","ping":76},{"user_id":491,"name":"El Duderino","steam_id":76561198084404539,"connected_time":364000000000,"state":"active","ping":79},{"user_id":484,"name":"Dukino","steam_id":76561198008455368,"connected_time":665000000000,"state":"active","ping":50},{"user_id":380,"name":"Punchy","steam_id":76561198200000641,"connected_time":11074000000000,"state":"active","ping":68},{"user_id":492,"name":"atigdng","steam_id":76561199342154280,"connected_time":362000000000,"state":"active","ping":60}]},{"server_id":104,"name":"Uncletopia | Atlanta | 2 | All Maps","name_short":"atl-2","host":"atl-1.us.uncletopia.com","port":27025,"enabled":true,"region":"us-east","cc":"us","latitude":33.753746,"longitude":-84.38633,"reserved":0,"last_update":"0001-01-01T00:00:00Z","name_a2s":"Uncletopia | Atlanta | 2 | All Maps","protocol":17,"map":"pl_enclosure_final","folder":"tf","game":"Team Fortress","app_id":440,"player_count":24,"max_players":24,"Bots":0,"server_type":"Dedicated","server_os":"Linux","password":true,"vac":true,"version":"7961495","steam_id":85568392924469983,"keywords":["nocrits","nodmgspread","payload","uncletopia"],"game_id":440,"stv_port":27026,"stv_name":"Uncletopia | Atlanta | 2 | All Maps | STV","players":[{"user_id":179,"name":"Talented","steam_id":76561198800259660,"connected_time":12081000000000,"state":"active","ping":52},{"user_id":317,"name":"Monkey Mode","steam_id":76561197961267543,"connected_time":2708000000000,"state":"active","ping":56},{"user_id":307,"name":"TOOT","steam_id":76561198037077783,"connected_time":4026000000000,"state":"active","ping":57},{"user_id":328,"name":"Festive Syntax Error","steam_id":76561198101567629,"connected_time":1208000000000,"state":"active","ping":60},{"user_id":337,"name":"Papyrus Undertale","steam_id":76561199202517286,"connected_time":820000000000,"state":"active","ping":35},{"user_id":305,"name":"Zedifo","steam_id":76561198044032070,"connected_time":4229000000000,"state":"active","ping":132},{"user_id":320,"name":"CheetoSmoke7","steam_id":76561198095217273,"connected_time":2498000000000,"state":"active","ping":56},{"user_id":341,"name":"Cake","steam_id":76561198318604761,"connected_time":733000000000,"state":"active","ping":92},{"user_id":347,"name":"Frawg","steam_id":76561198951162196,"connected_time":139000000000,"state":"active","ping":62},{"user_id":308,"name":"MidSobbes08","steam_id":76561199013101925,"connected_time":4020000000000,"state":"active","ping":109},{"user_id":322,"name":"Ghost","steam_id":76561198110914180,"connected_time":2045000000000,"state":"active","ping":182},{"user_id":300,"name":"oxogenpod69","steam_id":76561199427026752,"connected_time":4579000000000,"state":"active","ping":78},{"user_id":331,"name":"Bad Medic Buddy","steam_id":76561198093222632,"connected_time":1046000000000,"state":"active","ping":75},{"user_id":196,"name":"Oxygen User","steam_id":76561199111975528,"connected_time":11055000000000,"state":"active","ping":52},{"user_id":279,"name":"Festive Conch Shell","steam_id":76561198042072993,"connected_time":6197000000000,"state":"active","ping":69},{"user_id":326,"name":"TheBrocklobster","steam_id":76561198039682984,"connected_time":1884000000000,"state":"active","ping":100},{"user_id":342,"name":"MemoxJota (F2P)","steam_id":76561198862661338,"connected_time":474000000000,"state":"active","ping":120},{"user_id":343,"name":"weiner","steam_id":76561198030423567,"connected_time":370000000000,"state":"active","ping":82},{"user_id":344,"name":"Mr. Squirt","steam_id":76561198174755679,"connected_time":239000000000,"state":"active","ping":58},{"user_id":340,"name":"chrisd149","steam_id":76561198018710480,"connected_time":743000000000,"state":"active","ping":55},{"user_id":345,"name":"Cervi","steam_id":76561198178198097,"connected_time":189000000000,"state":"active","ping":106},{"user_id":346,"name":"Chaspen","steam_id":76561198098269939,"connected_time":185000000000,"state":"active","ping":58},{"user_id":336,"name":"fazaness","steam_id":76561198851525394,"connected_time":905000000000,"state":"active","ping":75}]},{"server_id":400,"name":"Uncletopia | Atlanta | 3 | Stopwatch","name_short":"atl-3","host":"atl-1.us.uncletopia.com","port":27035,"enabled":true,"region":"us-east","cc":"us","latitude":33.753746,"longitude":-84.38633,"reserved":0,"last_update":"0001-01-01T00:00:00Z","name_a2s":"Uncletopia | Atlanta | 3 | Stopwatch","protocol":17,"map":"workshop/pl_summercoast_rc8e.ugc1761528829","folder":"tf","game":"Team Fortress","app_id":440,"player_count":6,"max_players":24,"Bots":0,"server_type":"Dedicated","server_os":"Linux","password":true,"vac":true,"version":"7961495","steam_id":85568392924515187,"keywords":["nocrits","nodmgspread","payload","uncletopia"],"game_id":440,"stv_port":27036,"stv_name":"Uncletopia | Atlanta | 3 | Stopwatch | STV","players":[{"user_id":19,"name":"the milk man","steam_id":76561199247476314,"connected_time":4677000000000,"state":"active","ping":64},{"user_id":96,"name":"Propaniac Gaming ‚òë","steam_id":76561198133963270,"connected_time":934000000000,"state":"active","ping":45},{"user_id":73,"name":"Lepo","steam_id":76561198383509659,"connected_time":1918000000000,"state":"active","ping":77},{"user_id":86,"name":"zquidy","steam_id":76561198247637970,"connected_time":1393000000000,"state":"active","ping":90},{"user_id":34,"name":"Cannon Fodder 668","steam_id":76561199242093570,"connected_time":3710000000000,"state":"active","ping":65},{"user_id":67,"name":"CroutonCriminal","steam_id":76561198252145166,"connected_time":2907000000000,"state":"active","ping":65}]},{"server_id":401,"name":"Uncletopia | Atlanta | 4 | Community","name_short":"atl-4","host":"atl-1.us.uncletopia.com","port":27045,"enabled":true,"region":"us-east","cc":"us","latitude":33.753746,"longitude":-84.38633,"reserved":0,"last_update":"0001-01-01T00:00:00Z","name_a2s":"Uncletopia | Atlanta | 4 | Community","protocol":17,"map":"workshop/koth_slaughter_rc1.ugc1712845210","folder":"tf","game":"Team Fortress","app_id":440,"player_count":4,"max_players":24,"Bots":0,"server_type":"Dedicated","server_os":"Linux","password":true,"vac":true,"version":"7961495","steam_id":85568392924515188,"keywords":["cp","nocrits","nodmgspread","uncletopia"],"game_id":440,"stv_port":27046,"stv_name":"Uncletopia | Atlanta | 4 | Community | STV","players":[{"user_id":17,"name":"GibbusGod","steam_id":76561199232436690,"connected_time":1603000000000,"state":"active","ping":45},{"user_id":22,"name":"Feralchef","steam_id":76561197964012041,"connected_time":531000000000,"state":"active","ping":61},{"user_id":19,"name":"JNGthree","steam_id":76561198166002579,"connected_time":890000000000,"state":"active","ping":67},{"user_id":21,"name":"Trash","steam_id":76561199104349445,"connected_time":859000000000,"state":"active","ping":62}]},{"server_id":2,"name":"Uncletopia | Chicago | 1 | All Maps","name_short":"chi-1","host":"chi-1.us.uncletopia.com","port":27015,"enabled":true,"region":"us-central","cc":"us","latitude":41.881832,"longitude":-87.62318,"reserved":0,"last_update":"0001-01-01T00:00:00Z","name_a2s":"Uncletopia | Chicago | 1 | All Maps","protocol":17,"map":"pl_swiftwater_final1","folder":"tf","game":"Team Fortress","app_id":440,"player_count":24,"max_players":24,"Bots":0,"server_type":"Dedicated","server_os":"Linux","password":true,"vac":true,"version":"7961495","steam_id":85568392924469984,"keywords":["nocrits","nodmgspread","payload","uncletopia"],"game_id":440,"stv_port":27016,"stv_name":"Uncletopia | Chicago | 1 | All Maps | STV","players":[{"user_id":447,"name":"Titan Exodos","steam_id":76561198063852935,"connected_time":545000000000,"state":"active","ping":90},{"user_id":461,"name":"Prsm","steam_id":76561198053344995,"connected_time":130000000000,"state":"active","ping":58},{"user_id":430,"name":"Traceback","steam_id":76561197993212340,"connected_time":1175000000000,"state":"active","ping":67},{"user_id":458,"name":"CrŒªf227","steam_id":76561198196211121,"connected_time":249000000000,"state":"active","ping":90},{"user_id":361,"name":"pineApple Zoo","steam_id":76561198013732450,"connected_time":5176000000000,"state":"active","ping":46},{"user_id":396,"name":"Ozwald","steam_id":76561198125241562,"connected_time":2530000000000,"state":"active","ping":47},{"user_id":358,"name":"jolo","steam_id":76561198042831480,"connected_time":5343000000000,"state":"active","ping":62},{"user_id":416,"name":"beep","steam_id":76561199096448766,"connected_time":1560000000000,"state":"active","ping":60},{"user_id":394,"name":"milkshake","steam_id":76561197997469207,"connected_time":2763000000000,"state":"active","ping":84},{"user_id":436,"name":"Dr. Dick","steam_id":76561198138011922,"connected_time":1000000000000,"state":"active","ping":60},{"user_id":448,"name":"self sufficient kitten ‚ô•","steam_id":76561197960592612,"connected_time":543000000000,"state":"active","ping":90},{"user_id":429,"name":"Neppuneppu","steam_id":76561198816026415,"connected_time":1188000000000,"state":"active","ping":98},{"user_id":455,"name":"Scorpie Doodle","steam_id":76561198021845763,"connected_time":469000000000,"state":"active","ping":53},{"user_id":351,"name":"Mingephreaker","steam_id":76561198215825893,"connected_time":5549000000000,"state":"active","ping":76},{"user_id":445,"name":"‚ù§ Ashleyyy ‚ù§","steam_id":76561198056428303,"connected_time":570000000000,"state":"active","ping":101},{"user_id":449,"name":"silvanae324","steam_id":76561199150642573,"connected_time":538000000000,"state":"active","ping":91},{"user_id":452,"name":"Tibalt Nyahuma","steam_id":76561198034779431,"connected_time":506000000000,"state":"active","ping":65},{"user_id":426,"name":"StudioMania (#SAVETF2)","steam_id":76561198211315795,"connected_time":1312000000000,"state":"active","ping":56},{"user_id":462,"name":"Reaver","steam_id":76561198182383834,"connected_time":82000000000,"state":"active","ping":57},{"user_id":453,"name":"LilDreamer","steam_id":76561198804054102,"connected_time":500000000000,"state":"active","ping":33},{"user_id":432,"name":"Stoopnagle","steam_id":76561198011942560,"connected_time":1165000000000,"state":"active","ping":102},{"user_id":454,"name":"Rusty","steam_id":76561198178868626,"connected_time":485000000000,"state":"active","ping":99},{"user_id":371,"name":"2.5 Oz of Paprika","steam_id":76561198174647666,"connected_time":4317000000000,"state":"active","ping":90},{"user_id":456,"name":"Shuu","steam_id":76561199199180558,"connected_time":469000000000,"state":"active","ping":63}]},{"server_id":106,"name":"Uncletopia | Chicago | 2 | All Maps","name_short":"chi-2","host":"chi-1.us.uncletopia.com","port":27025,"enabled":true,"region":"us-central","cc":"us","latitude":41.881832,"longitude":-87.62318,"reserved":0,"last_update":"0001-01-01T00:00:00Z","name_a2s":"Uncletopia | Chicago | 2 | All Maps","protocol":17,"map":"pl_frontier_final","folder":"tf","game":"Team Fortress","app_id":440,"player_count":24,"max_players":24,"Bots":0,"server_type":"Dedicated","server_os":"Linux","password":true,"vac":true,"version":"7961495","steam_id":85568392924469985,"keywords":["nocrits","nodmgspread","payload","uncletopia"],"game_id":440,"stv_port":27026,"stv_name":"Uncletopia | Chicago | 2 | All Maps | STV","players":[{"user_id":712,"name":"Grundle Thunder","steam_id":76561197960790338,"connected_time":659000000000,"state":"active","ping":75},{"user_id":684,"name":"demomanfan2008","steam_id":76561198077030486,"connected_time":2647000000000,"state":"active","ping":99},{"user_id":674,"name":"Raving Rousseau","steam_id":76561198088831971,"connected_time":2876000000000,"state":"active","ping":86},{"user_id":629,"name":"runescape legend","steam_id":76561198077791373,"connected_time":6982000000000,"state":"active","ping":48},{"user_id":678,"name":"Fatpoob","steam_id":76561198056730096,"connected_time":2868000000000,"state":"active","ping":57},{"user_id":691,"name":"Sneebis","steam_id":76561198101185353,"connected_time":2232000000000,"state":"active","ping":62},{"user_id":686,"name":"Swist","steam_id":76561198110343996,"connected_time":2453000000000,"state":"active","ping":89},{"user_id":698,"name":"SpongedSocks","steam_id":76561198374009086,"connected_time":1479000000000,"state":"active","ping":56},{"user_id":688,"name":"Yotes","steam_id":76561198071893750,"connected_time":2397000000000,"state":"active","ping":72},{"user_id":661,"name":"Ganondorf","steam_id":76561198010421059,"connected_time":5081000000000,"state":"active","ping":54},{"user_id":699,"name":"Sturmwolken [1312]","steam_id":76561198260905784,"connected_time":1410000000000,"state":"active","ping":60},{"user_id":675,"name":"The Final Terminus","steam_id":76561197964985183,"connected_time":2875000000000,"state":"active","ping":58},{"user_id":717,"name":"what","steam_id":76561198082336619,"connected_time":155000000000,"state":"active","ping":64},{"user_id":676,"name":"ÿ¨ÿ±Ÿà","steam_id":76561198016562343,"connected_time":2875000000000,"state":"active","ping":63},{"user_id":718,"name":"ÂèñÂêçÂè´ÂÅöÂøç","steam_id":76561198278282836,"connected_time":110000000000,"state":"active","ping":47},{"user_id":694,"name":"CHAI","steam_id":76561198119556082,"connected_time":1896000000000,"state":"active","ping":53},{"user_id":701,"name":"mhm","steam_id":76561198378775945,"connected_time":1389000000000,"state":"active","ping":62},{"user_id":702,"name":"Cosmic_Screech","steam_id":76561198092551523,"connected_time":1322000000000,"state":"active","ping":80},{"user_id":704,"name":"EliteSpartan","steam_id":76561198174023582,"connected_time":1313000000000,"state":"active","ping":45},{"user_id":716,"name":"sasharudzik","steam_id":76561199126617781,"connected_time":174000000000,"state":"active","ping":60},{"user_id":693,"name":"Badingo","steam_id":76561199003883494,"connected_time":1954000000000,"state":"active","ping":91},{"user_id":705,"name":"dpfquick","steam_id":76561199145167569,"connected_time":1299000000000,"state":"active","ping":152},{"user_id":708,"name":"Bohagrius","steam_id":76561198003554034,"connected_time":1171000000000,"state":"active","ping":80},{"user_id":713,"name":"Erm... Krill Issue?","steam_id":76561198859118263,"connected_time":589000000000,"state":"active","ping":52}]},{"server_id":402,"name":"Uncletopia | Chicago | 3 | All Maps","name_short":"chi-3","host":"chi-1.us.uncletopia.com","port":27035,"enabled":true,"region":"us-central","cc":"us","latitude":41.881832,"longitude":-87.62318,"reserved":0,"last_update":"0001-01-01T00:00:00Z","name_a2s":"Uncletopia | Chicago | 3 | All Maps","protocol":17,"map":"koth_highpass","folder":"tf","game":"Team Fortress","app_id":440,"player_count":24,"max_players":24,"Bots":0,"server_type":"Dedicated","server_os":"Linux","password":true,"vac":true,"version":"7961495","steam_id":85568392924515191,"keywords":["cp","nocrits","nodmgspread","uncletopia"],"game_id":440,"stv_port":27036,"stv_name":"Uncletopia | Chicago | 3 | All Maps | STV","players":[{"user_id":494,"name":"Foolish","steam_id":76561198086947899,"connected_time":298000000000,"state":"active","ping":54},{"user_id":427,"name":"Zoramine Fae","steam_id":76561198346753422,"connected_time":5800000000000,"state":"active","ping":42},{"user_id":478,"name":"Hazeyboi","steam_id":76561198130687838,"connected_time":2166000000000,"state":"active","ping":78},{"user_id":468,"name":"I'm Only 4 Inches","steam_id":76561198055542546,"connected_time":2775000000000,"state":"active","ping":41},{"user_id":500,"name":"Little Skull Boi","steam_id":76561198093595888,"connected_time":116000000000,"state":"active","ping":100},{"user_id":487,"name":"losing","steam_id":76561198003206947,"connected_time":457000000000,"state":"active","ping":64},{"user_id":491,"name":"Profile Name","steam_id":76561198404517128,"connected_time":340000000000,"state":"active","ping":90},{"user_id":489,"name":"Chanter","steam_id":76561198246701796,"connected_time":408000000000,"state":"active","ping":67},{"user_id":484,"name":"Derpynate","steam_id":76561198111528473,"connected_time":1108000000000,"state":"active","ping":43},{"user_id":482,"name":"Maximum Flame","steam_id":76561198073682529,"connected_time":1353000000000,"state":"active","ping":45},{"user_id":481,"name":"snail2646","steam_id":76561198061411251,"connected_time":1835000000000,"state":"active","ping":44},{"user_id":483,"name":"Child Incinerator","steam_id":76561198115707039,"connected_time":1352000000000,"state":"active","ping":49},{"user_id":488,"name":"The Outlaw","steam_id":76561198041622040,"connected_time":451000000000,"state":"active","ping":66},{"user_id":471,"name":"Lennu","steam_id":76561198060730154,"connected_time":2735000000000,"state":"active","ping":72},{"user_id":492,"name":"Cthulhu's Malewife","steam_id":76561198085888959,"connected_time":336000000000,"state":"active","ping":67},{"user_id":502,"name":"Dr Oshawott","steam_id":76561198042021629,"connected_time":27000000000,"state":"spawning","ping":53},{"user_id":480,"name":"Low Gumption Gamer","steam_id":76561198100249037,"connected_time":1893000000000,"state":"active","ping":47},{"user_id":425,"name":"hearthian","steam_id":76561198113235260,"connected_time":6308000000000,"state":"active","ping":89},{"user_id":496,"name":"eryn üó∫","steam_id":76561198004433070,"connected_time":263000000000,"state":"active","ping":86},{"user_id":475,"name":"spencil","steam_id":76561198053727976,"connected_time":2329000000000,"state":"active","ping":73},{"user_id":497,"name":"Classic","steam_id":76561198215293509,"connected_time":263000000000,"state":"active","ping":69},{"user_id":499,"name":"Gaminglast","steam_id":76561198362927765,"connected_time":237000000000,"state":"active","ping":148},{"user_id":404,"name":"Mega_Man23","steam_id":76561198138341391,"connected_time":7238000000000,"state":"active","ping":62},{"user_id":476,"name":"Soda","steam_id":76561198219209367,"connected_time":2329000000000,"state":"active","ping":67}]},{"server_id":403,"name":"Uncletopia | Chicago | 4 | All Maps","name_short":"chi-4","host":"chi-1.us.uncletopia.com","port":27045,"enabled":true,"region":"us-central","cc":"us","latitude":41.881832,"longitude":-87.62318,"reserved":0,"last_update":"0001-01-01T00:00:00Z","name_a2s":"Uncletopia | Chicago | 4 | All Maps","protocol":17,"map":"pl_swiftwater_final1","folder":"tf","game":"Team Fortress","app_id":440,"player_count":12,"max_players":24,"Bots":0,"server_type":"Dedicated","server_os":"Linux","password":true,"vac":true,"version":"7961495","steam_id":85568392924515193,"keywords":["cp","nocrits","nodmgspread","uncletopia"],"game_id":440,"stv_port":27046,"stv_name":"Uncletopia | Chicago | 4 | All Maps | STV","players":[{"user_id":216,"name":"Terraimn","steam_id":76561198167795557,"connected_time":1934000000000,"state":"connecting","ping":116},{"user_id":241,"name":"BlueZombieBlood","steam_id":76561198123590661,"connected_time":220000000000,"state":"connecting","ping":75},{"user_id":239,"name":"mister slippery","steam_id":76561198057076267,"connected_time":413000000000,"state":"connecting","ping":102},{"user_id":249,"name":"mm","steam_id":76561198841559088,"connected_time":34000000000,"state":"connecting","ping":94},{"user_id":146,"name":"Ghost Kaisar","steam_id":76561198103629357,"connected_time":5016000000000,"state":"connecting","ping":75},{"user_id":235,"name":"Nobu","steam_id":76561198090271815,"connected_time":468000000000,"state":"connecting","ping":153},{"user_id":236,"name":"Fuyutake","steam_id":76561199123206779,"connected_time":453000000000,"state":"connecting","ping":85},{"user_id":245,"name":"hunnid boners","steam_id":76561198120917731,"connected_time":129000000000,"state":"connecting","ping":75},{"user_id":247,"name":"LAter","steam_id":76561199204251336,"connected_time":96000000000,"state":"connecting","ping":47},{"user_id":248,"name":"C‚ÇÑH‚ÇàCl‚ÇÇSGamez","steam_id":76561198250471340,"connected_time":91000000000,"state":"connecting","ping":77},{"user_id":232,"name":"Casual","steam_id":76561199498553459,"connected_time":853000000000,"state":"connecting","ping":72},{"user_id":211,"name":"tomandjerry085","steam_id":76561198800789071,"connected_time":2025000000000,"state":"connecting","ping":124}]},{"server_id":36,"name":"Uncletopia | Chicago | 5 | All Maps","name_short":"chi-5","host":"chi-2.us.uncletopia.com","port":27015,"enabled":true,"region":"us-central","cc":"us","latitude":41.881832,"longitude":-87.62318,"reserved":0,"last_update":"0001-01-01T00:00:00Z","name_a2s":"Uncletopia | Chicago | 5 | All Maps","protocol":17,"map":"cp_process_final","folder":"tf","game":"Team Fortress","app_id":440,"player_count":24,"max_players":24,"Bots":0,"server_type":"Dedicated","server_os":"Linux","password":true,"vac":true,"version":"7961495","steam_id":85568392924866362,"keywords":["cp","nocrits","nodmgspread","uncletopia"],"game_id":440,"stv_port":27016,"stv_name":"Uncletopia | Chicago | 5 | All Maps | STV","players":[{"user_id":745,"name":"toastman","steam_id":76561198207073088,"connected_time":246000000000,"state":"active","ping":69},{"user_id":708,"name":"‚ô•Bunny‚ô•Slut‚ô•","steam_id":76561198206376851,"connected_time":4490000000000,"state":"active","ping":79},{"user_id":687,"name":"qory","steam_id":76561198152064890,"connected_time":6582000000000,"state":"active","ping":51},{"user_id":706,"name":"TehOneZoot","steam_id":76561198121944243,"connected_time":4677000000000,"state":"active","ping":74},{"user_id":720,"name":"Swash","steam_id":76561197969421355,"connected_time":2866000000000,"state":"active","ping":54},{"user_id":716,"name":"Owl Pacino","steam_id":76561197979970666,"connected_time":3781000000000,"state":"active","ping":55},{"user_id":707,"name":"hej","steam_id":76561197996366940,"connected_time":4501000000000,"state":"active","ping":60},{"user_id":733,"name":"DrMania82","steam_id":76561198113086878,"connected_time":1008000000000,"state":"active","ping":99},{"user_id":577,"name":"Bap","steam_id":76561198056717319,"connected_time":12917000000000,"state":"active","ping":46},{"user_id":662,"name":"Kerpal","steam_id":76561198153340350,"connected_time":8242000000000,"state":"active","ping":103},{"user_id":734,"name":"Kitt(eh)  ‚àë:3","steam_id":76561198110858518,"connected_time":995000000000,"state":"active","ping":60},{"user_id":728,"name":"Gunkzilla","steam_id":76561198068228415,"connected_time":1739000000000,"state":"active","ping":58},{"user_id":715,"name":"MedRed‚Ñ¢ #IATAH","steam_id":76561198002962970,"connected_time":3908000000000,"state":"active","ping":102},{"user_id":744,"name":"Seething Swine","steam_id":76561198079147566,"connected_time":423000000000,"state":"active","ping":60},{"user_id":718,"name":"Meskoozy","steam_id":76561198102394479,"connected_time":3182000000000,"state":"active","ping":63},{"user_id":678,"name":"CCdukes","steam_id":76561199200448760,"connected_time":7191000000000,"state":"active","ping":70},{"user_id":727,"name":"SecondCarpet","steam_id":76561199008323078,"connected_time":2321000000000,"state":"active","ping":69},{"user_id":735,"name":"Krissy","steam_id":76561197960848174,"connected_time":986000000000,"state":"active","ping":73},{"user_id":736,"name":"Der Krieger105","steam_id":76561197978384609,"connected_time":965000000000,"state":"active","ping":75},{"user_id":742,"name":"roma","steam_id":76561198028811916,"connected_time":558000000000,"state":"active","ping":62},{"user_id":738,"name":"Ikalpo","steam_id":76561198044686915,"connected_time":912000000000,"state":"active","ping":98},{"user_id":682,"name":"daffodil","steam_id":76561198049480053,"connected_time":7018000000000,"state":"active","ping":60},{"user_id":712,"name":"Anthid","steam_id":76561198074493797,"connected_time":4294000000000,"state":"active","ping":68},{"user_id":668,"name":"If i talk I get yelled at","steam_id":76561198151569597,"connected_time":7690000000000,"state":"active","ping":143}]},{"server_id":37,"name":"Uncletopia | Chicago | 6 | All Maps","name_short":"chi-6","host":"chi-2.us.uncletopia.com","port":27025,"enabled":true,"region":"us-central","cc":"us","latitude":41.881832,"longitude":-87.62318,"reserved":0,"last_update":"0001-01-01T00:00:00Z","name_a2s":"Uncletopia | Chicago | 6 | All Maps","protocol":17,"map":"cp_gorge","folder":"tf","game":"Team Fortress","app_id":440,"player_count":15,"max_players":24,"Bots":0,"server_type":"Dedicated","server_os":"Linux","password":true,"vac":true,"version":"7961495","steam_id":85568392924866363,"keywords":["cp","nocrits","nodmgspread","uncletopia"],"game_id":440,"stv_port":27026,"stv_name":"Uncletopia | Chicago | 6 | All Maps | STV","players":[{"user_id":219,"name":"Lord Scrubling","steam_id":76561198263744445,"connected_time":28000000000,"state":"active","ping":74},{"user_id":188,"name":"Maxpowi","steam_id":76561198095558036,"connected_time":2362000000000,"state":"active","ping":45},{"user_id":220,"name":"Hiro","steam_id":76561198103601761,"connected_time":26000000000,"state":"spawning","ping":147},{"user_id":212,"name":"Waaagh!","steam_id":76561197995317887,"connected_time":527000000000,"state":"active","ping":47},{"user_id":204,"name":"Universe Man","steam_id":76561197997710655,"connected_time":1208000000000,"state":"active","ping":75},{"user_id":183,"name":"FlareD","steam_id":76561198209415300,"connected_time":2670000000000,"state":"active","ping":100},{"user_id":184,"name":"inshallah","steam_id":76561198165212575,"connected_time":2660000000000,"state":"active","ping":62},{"user_id":216,"name":"Harpua","steam_id":76561197988020228,"connected_time":126000000000,"state":"active","ping":61},{"user_id":214,"name":"Noid","steam_id":76561197980496241,"connected_time":447000000000,"state":"active","ping":73},{"user_id":197,"name":"RusticCarp42989","steam_id":76561198361151865,"connected_time":1761000000000,"state":"active","ping":122},{"user_id":117,"name":"bakkhertz","steam_id":76561198046745579,"connected_time":7343000000000,"state":"active","ping":66},{"user_id":143,"name":"HOMIE","steam_id":76561198057325155,"connected_time":5470000000000,"state":"active","ping":48},{"user_id":182,"name":"Zoom","steam_id":76561198079215612,"connected_time":2710000000000,"state":"active","ping":30},{"user_id":202,"name":"OldCheese","steam_id":76561199208623418,"connected_time":1297000000000,"state":"active","ping":106},{"user_id":208,"name":"Beefboy19","steam_id":76561198056162061,"connected_time":987000000000,"state":"active","ping":51}]},{"server_id":38,"name":"Uncletopia | Chicago | 7 | Stopwatch","name_short":"chi-7","host":"chi-2.us.uncletopia.com","port":27035,"enabled":true,"region":"us-central","cc":"us","latitude":41.881832,"longitude":-87.62318,"reserved":0,"last_update":"0001-01-01T00:00:00Z","name_a2s":"Uncletopia | Chicago | 7 | Stopwatch","protocol":17,"map":"pl_upward","folder":"tf","game":"Team Fortress","app_id":440,"player_count":4,"max_players":24,"Bots":0,"server_type":"Dedicated","server_os":"Linux","password":true,"vac":true,"version":"7961495","steam_id":85568392924866364,"keywords":["nocrits","nodmgspread","payload","uncletopia"],"game_id":440,"stv_port":27036,"stv_name":"Uncletopia | Chicago | 7 | Stopwatch | STV","players":[{"user_id":66,"name":"markiplier","steam_id":76561198285140503,"connected_time":1706000000000,"state":"active","ping":38},{"user_id":71,"name":"hellish cat warrior","steam_id":76561199243506555,"connected_time":722000000000,"state":"active","ping":71},{"user_id":69,"name":"Slapperpow","steam_id":76561198089895100,"connected_time":1286000000000,"state":"active","ping":48},{"user_id":73,"name":"Shou Pan","steam_id":76561198025799590,"connected_time":566000000000,"state":"active","ping":86}]},{"server_id":39,"name":"Uncletopia | Chicago | 8 | Community","name_short":"chi-8","host":"chi-2.us.uncletopia.com","port":27045,"enabled":true,"region":"us-central","cc":"us","latitude":41.881832,"longitude":-87.62318,"reserved":0,"last_update":"0001-01-01T00:00:00Z","name_a2s":"Uncletopia | Chicago | 8 | Community","protocol":17,"map":"workshop/koth_bagel_rc6.ugc2514036946","folder":"tf","game":"Team Fortress","app_id":440,"player_count":24,"max_players":24,"Bots":0,"server_type":"Dedicated","server_os":"Linux","password":true,"vac":true,"version":"7961495","steam_id":85568392924866365,"keywords":["cp","nocrits","nodmgspread","uncletopia"],"game_id":440,"stv_port":27046,"stv_name":"Uncletopia | Chicago | 8 | Community | STV","players":[{"user_id":428,"name":"Preston","steam_id":76561198335444084,"connected_time":1265000000000,"state":"active","ping":91},{"user_id":424,"name":"yuumi...! ‚ô°","steam_id":76561198084708100,"connected_time":1629000000000,"state":"active","ping":89},{"user_id":450,"name":"Johnny Lawrence #JohnnyMaxxing","steam_id":76561199367141671,"connected_time":393000000000,"state":"active","ping":74},{"user_id":419,"name":"Kattnesta","steam_id":76561198210927551,"connected_time":2092000000000,"state":"active","ping":58},{"user_id":425,"name":"Natsuki the Scunt","steam_id":76561199175922684,"connected_time":1628000000000,"state":"active","ping":106},{"user_id":445,"name":"Super Ghostbusters (Full Album)","steam_id":76561198057415490,"connected_time":497000000000,"state":"active","ping":37},{"user_id":457,"name":"Ninjoth","steam_id":76561198038611753,"connected_time":76000000000,"state":"active","ping":74},{"user_id":416,"name":"[TF2Apples] Intense Green Apple","steam_id":76561198803561622,"connected_time":2159000000000,"state":"active","ping":77},{"user_id":451,"name":"lacoulaswwwe","steam_id":76561198966352385,"connected_time":389000000000,"state":"active","ping":75},{"user_id":423,"name":"Meo","steam_id":76561198406809330,"connected_time":1783000000000,"state":"active","ping":95},{"user_id":429,"name":"Koipetal","steam_id":76561198445464412,"connected_time":1256000000000,"state":"active","ping":74},{"user_id":448,"name":"The Nikocado Enjoyer","steam_id":76561198263154374,"connected_time":440000000000,"state":"active","ping":66},{"user_id":449,"name":"garten of banban jumbo hjosh","steam_id":76561198833241668,"connected_time":433000000000,"state":"active","ping":61},{"user_id":455,"name":"ccowherd","steam_id":76561198065489439,"connected_time":187000000000,"state":"active","ping":67},{"user_id":418,"name":"Gef","steam_id":76561197995500204,"connected_time":2152000000000,"state":"active","ping":79},{"user_id":431,"name":"(TTV) The_Astrum_Guardian","steam_id":76561198130134103,"connected_time":1176000000000,"state":"active","ping":67},{"user_id":433,"name":"The Guy","steam_id":76561198163067571,"connected_time":1033000000000,"state":"active","ping":102},{"user_id":434,"name":"GoGo is a Drunk Slut","steam_id":76561198023080645,"connected_time":928000000000,"state":"active","ping":76},{"user_id":452,"name":"Lord jellyfish","steam_id":76561198099255487,"connected_time":302000000000,"state":"active","ping":57},{"user_id":438,"name":"yaldabaoth","steam_id":76561198084606869,"connected_time":814000000000,"state":"active","ping":50},{"user_id":456,"name":"ez$ airballer","steam_id":76561198165899125,"connected_time":182000000000,"state":"active","ping":70},{"user_id":439,"name":"gulch","steam_id":76561199227946025,"connected_time":802000000000,"state":"active","ping":64},{"user_id":444,"name":"Muffin","steam_id":76561198111403028,"connected_time":548000000000,"state":"active","ping":56},{"user_id":454,"name":"DivineBanana","steam_id":76561198026529731,"connected_time":297000000000,"state":"active","ping":86}]},{"server_id":8,"name":"Uncletopia | Dallas | 1 | All Maps","name_short":"dal-1","host":"dal-1.us.uncletopia.com","port":27015,"enabled":true,"region":"us-central","cc":"us","latitude":32.779167,"longitude":-96.80889,"reserved":0,"last_update":"0001-01-01T00:00:00Z","name_a2s":"Uncletopia | Dallas | 1 | All Maps","protocol":17,"map":"pl_upward","folder":"tf","game":"Team Fortress","app_id":440,"player_count":24,"max_players":24,"Bots":0,"server_type":"Dedicated","server_os":"Linux","password":true,"vac":true,"version":"7961495","steam_id":85568392924469986,"keywords":["nocrits","nodmgspread","payload","uncletopia"],"game_id":440,"stv_port":27016,"stv_name":"Uncletopia | Dallas | 1 | All Maps | STV","players":[{"user_id":280,"name":"ChimpusGaming","steam_id":76561198060954715,"connected_time":829000000000,"state":"active","ping":60},{"user_id":278,"name":"S    P    I    C    Y","steam_id":76561198054756954,"connected_time":956000000000,"state":"active","ping":79},{"user_id":274,"name":"ZENSANITY","steam_id":76561198112430870,"connected_time":1032000000000,"state":"active","ping":46},{"user_id":268,"name":"techdeck","steam_id":76561199022751661,"connected_time":1588000000000,"state":"active","ping":53},{"user_id":284,"name":"Serenue","steam_id":76561199040361250,"connected_time":432000000000,"state":"active","ping":103},{"user_id":240,"name":"SAGE(‡§∏‡§ó‡•á*)","steam_id":76561198811114074,"connected_time":4354000000000,"state":"active","ping":65},{"user_id":271,"name":"ZestyTrev","steam_id":76561198253391039,"connected_time":1067000000000,"state":"active","ping":60},{"user_id":272,"name":"M√°quina de Fuego","steam_id":76561198119445407,"connected_time":1064000000000,"state":"active","ping":61},{"user_id":261,"name":"sebjzy ‚ô•","steam_id":76561198009959034,"connected_time":2162000000000,"state":"active","ping":55},{"user_id":282,"name":"Wulvaryne","steam_id":76561199501209338,"connected_time":737000000000,"state":"active","ping":63},{"user_id":230,"name":"Michael Jordan of Drunk Driving","steam_id":76561198079758323,"connected_time":4507000000000,"state":"active","ping":76},{"user_id":260,"name":"Kat-Chan","steam_id":76561198815823728,"connected_time":2288000000000,"state":"active","ping":106},{"user_id":223,"name":"Rob","steam_id":76561199187786660,"connected_time":4974000000000,"state":"active","ping":44},{"user_id":269,"name":"errant","steam_id":76561197961758410,"connected_time":1382000000000,"state":"active","ping":45},{"user_id":275,"name":"kris736","steam_id":76561198038208255,"connected_time":1027000000000,"state":"active","ping":88},{"user_id":242,"name":"OwningTundra2","steam_id":76561198936893224,"connected_time":4196000000000,"state":"active","ping":43},{"user_id":286,"name":"Fizzle","steam_id":76561199466859396,"connected_time":257000000000,"state":"active","ping":51},{"user_id":285,"name":"YoteDab McFapDab.jpg","steam_id":76561197984870380,"connected_time":410000000000,"state":"active","ping":98},{"user_id":276,"name":"SubZeroDestruction","steam_id":76561198145082209,"connected_time":1018000000000,"state":"active","ping":81},{"user_id":283,"name":"Frontier Psychiatrist","steam_id":76561198038689088,"connected_time":729000000000,"state":"active","ping":79},{"user_id":277,"name":"Bookmark","steam_id":76561198210918443,"connected_time":1011000000000,"state":"active","ping":82},{"user_id":252,"name":"Draco6257","steam_id":76561199147322448,"connected_time":3266000000000,"state":"active","ping":73},{"user_id":258,"name":"TimeForHype","steam_id":76561197996714494,"connected_time":2601000000000,"state":"active","ping":93},{"user_id":281,"name":"Stupid? Probably :(","steam_id":76561198298310744,"connected_time":754000000000,"state":"active","ping":89}]},{"server_id":108,"name":"Uncletopia | Dallas | 2 | All Maps","name_short":"dal-2","host":"dal-1.us.uncletopia.com","port":27025,"enabled":true,"region":"us-central","cc":"us","latitude":32.779167,"longitude":-96.80889,"reserved":0,"last_update":"0001-01-01T00:00:00Z","name_a2s":"Uncletopia | Dallas | 2 | All Maps","protocol":17,"map":"pl_barnblitz","folder":"tf","game":"Team Fortress","app_id":440,"player_count":23,"max_players":24,"Bots":0,"server_type":"Dedicated","server_os":"Linux","password":true,"vac":true,"version":"7961495","steam_id":85568392924469988,"keywords":["nocrits","nodmgspread","payload","uncletopia"],"game_id":440,"stv_port":27026,"stv_name":"Uncletopia | Dallas | 2 | All Maps | STV","players":[{"user_id":257,"name":"nick","steam_id":76561198041362771,"connected_time":4198000000000,"state":"active","ping":77},{"user_id":330,"name":"Gungus Dingaling","steam_id":76561198018270898,"connected_time":524000000000,"state":"active","ping":47},{"user_id":323,"name":"TacoMan4Life","steam_id":76561198832562728,"connected_time":980000000000,"state":"active","ping":75},{"user_id":321,"name":"A mild inconvenience","steam_id":76561198033455618,"connected_time":1130000000000,"state":"active","ping":55},{"user_id":313,"name":"Jovyel","steam_id":76561198118777065,"connected_time":1846000000000,"state":"active","ping":58},{"user_id":324,"name":"S H ‚óé K A","steam_id":76561198068084541,"connected_time":936000000000,"state":"active","ping":60},{"user_id":337,"name":"MeMyBongusAndTheGreatOutdoors","steam_id":76561198097708978,"connected_time":111000000000,"state":"active","ping":57},{"user_id":332,"name":"Madgabadaba","steam_id":76561198041435754,"connected_time":466000000000,"state":"active","ping":75},{"user_id":336,"name":"ATL1 | LOFILE","steam_id":76561198083798918,"connected_time":170000000000,"state":"active","ping":81},{"user_id":338,"name":"Tuvok Shakur","steam_id":76561198018875334,"connected_time":103000000000,"state":"active","ping":64},{"user_id":34,"name":"Moonflower ‚ú¶","steam_id":76561198191782483,"connected_time":19228000000000,"state":"active","ping":56},{"user_id":339,"name":"BeautifulDeer","steam_id":76561198119588300,"connected_time":98000000000,"state":"active","ping":49},{"user_id":340,"name":"Limitless","steam_id":76561198057139998,"connected_time":95000000000,"state":"active","ping":57},{"user_id":278,"name":"Tribute","steam_id":76561198081594043,"connected_time":2601000000000,"state":"active","ping":49},{"user_id":329,"name":"(TWoN Adric)","steam_id":76561197999304024,"connected_time":855000000000,"state":"active","ping":48},{"user_id":319,"name":"allahsdroptop (Bag/Chaser)","steam_id":76561198133195238,"connected_time":1291000000000,"state":"active","ping":93},{"user_id":326,"name":"Roken","steam_id":76561198037836282,"connected_time":909000000000,"state":"active","ping":87},{"user_id":286,"name":"nav","steam_id":76561198872608266,"connected_time":2386000000000,"state":"active","ping":86},{"user_id":327,"name":"Never Ovaryacting","steam_id":76561198158691254,"connected_time":905000000000,"state":"active","ping":66},{"user_id":292,"name":"SnareString","steam_id":76561199082119457,"connected_time":2322000000000,"state":"active","ping":102},{"user_id":328,"name":"Gravity Bomb","steam_id":76561198190417719,"connected_time":885000000000,"state":"active","ping":68},{"user_id":331,"name":"Strangelove","steam_id":76561198353773611,"connected_time":487000000000,"state":"active","ping":129},{"user_id":334,"name":"Punished Shitster","steam_id":76561198150452857,"connected_time":429000000000,"state":"active","ping":55}]},{"server_id":404,"name":"Uncletopia | Dallas | 3 | All Maps","name_short":"dal-3","host":"dal-1.us.uncletopia.com","port":27035,"enabled":true,"region":"us-central","cc":"us","latitude":32.779167,"longitude":-96.80889,"reserved":0,"last_update":"0001-01-01T00:00:00Z","name_a2s":"Uncletopia | Dallas | 3 | All Maps","protocol":17,"map":"cp_dustbowl","folder":"tf","game":"Team Fortress","app_id":440,"player_count":24,"max_players":24,"Bots":0,"server_type":"Dedicated","server_os":"Linux","password":true,"vac":true,"version":"7961495","steam_id":85568392924515219,"keywords":["cp","nocrits","nodmgspread","uncletopia"],"game_id":440,"stv_port":27036,"stv_name":"Uncletopia | Dallas | 3 | All Maps | STV","players":[{"user_id":187,"name":"Certified Hood Classic","steam_id":76561199086159354,"connected_time":425000000000,"state":"active","ping":45},{"user_id":165,"name":"CeLeb144","steam_id":76561199089907740,"connected_time":1512000000000,"state":"active","ping":53},{"user_id":177,"name":"Dr. Dick","steam_id":76561198209944361,"connected_time":636000000000,"state":"active","ping":50},{"user_id":175,"name":"scoobert","steam_id":76561199215184828,"connected_time":675000000000,"state":"active","ping":83},{"user_id":178,"name":"YourNeighbourlyComrade","steam_id":76561198163644896,"connected_time":624000000000,"state":"active","ping":86},{"user_id":179,"name":"Point then Click","steam_id":76561198076133259,"connected_time":603000000000,"state":"active","ping":89},{"user_id":183,"name":"emerge","steam_id":76561198186882891,"connected_time":530000000000,"state":"active","ping":77},{"user_id":174,"name":"MoonWolf","steam_id":76561198095735033,"connected_time":796000000000,"state":"active","ping":58},{"user_id":180,"name":"DEADHORSE","steam_id":76561198066342171,"connected_time":585000000000,"state":"active","ping":88},{"user_id":181,"name":"Sammich Slinger","steam_id":76561198007644532,"connected_time":550000000000,"state":"active","ping":51},{"user_id":189,"name":"narrow.xyz","steam_id":76561198984736456,"connected_time":367000000000,"state":"active","ping":133},{"user_id":184,"name":"Young Sheldon Tik-Tok Clip","steam_id":76561198253927199,"connected_time":517000000000,"state":"active","ping":151},{"user_id":185,"name":"Jousty","steam_id":76561199162677853,"connected_time":447000000000,"state":"active","ping":93},{"user_id":193,"name":"raph.","steam_id":76561199074852635,"connected_time":235000000000,"state":"active","ping":87},{"user_id":200,"name":"boo_thefeared","steam_id":76561198127967685,"connected_time":91000000000,"state":"active","ping":150},{"user_id":199,"name":"PiolaCat","steam_id":76561199100535345,"connected_time":130000000000,"state":"active","ping":89},{"user_id":201,"name":"Little Nipples","steam_id":76561198060502578,"connected_time":11000000000,"state":"spawning","ping":76},{"user_id":157,"name":"Lolxdloldx","steam_id":76561198136887125,"connected_time":2070000000000,"state":"active","ping":83},{"user_id":191,"name":"Dax","steam_id":76561198045549713,"connected_time":292000000000,"state":"active","ping":64},{"user_id":134,"name":"Zomb3Red","steam_id":76561198075677894,"connected_time":4318000000000,"state":"active","ping":74},{"user_id":194,"name":"Pika","steam_id":76561198068063436,"connected_time":228000000000,"state":"active","ping":67},{"user_id":135,"name":"stefy","steam_id":76561199227702824,"connected_time":4199000000000,"state":"active","ping":81},{"user_id":196,"name":"I-die-often","steam_id":76561197996780327,"connected_time":204000000000,"state":"active","ping":100},{"user_id":197,"name":"+==[:::::::::::::::::::::::\u003e","steam_id":76561199051212534,"connected_time":202000000000,"state":"active","ping":96}]},{"server_id":405,"name":"Uncletopia | Dallas | 4 | Community","name_short":"dal-4","host":"dal-1.us.uncletopia.com","port":27045,"enabled":true,"region":"us-central","cc":"us","latitude":32.779167,"longitude":-96.80889,"reserved":0,"last_update":"0001-01-01T00:00:00Z","name_a2s":"Uncletopia | Dallas | 4 | Community","protocol":17,"map":"workshop/koth_ashville_final.ugc2130459942","folder":"tf","game":"Team Fortress","app_id":440,"player_count":0,"max_players":24,"Bots":0,"server_type":"Dedicated","server_os":"Linux","password":true,"vac":true,"version":"7961495","steam_id":85568392924515220,"keywords":["cp","nocrits","nodmgspread","uncletopia"],"game_id":440,"stv_port":27046,"stv_name":"Uncletopia | Dallas | 4 | Community | STV","players":null},{"server_id":5,"name":"Uncletopia | Frankfurt | 1 | All Maps","name_short":"frk-1","host":"frk-1.de.uncletopia.com","port":27015,"enabled":true,"region":"eu","cc":"de","latitude":50.110924,"longitude":8.682127,"reserved":0,"last_update":"0001-01-01T00:00:00Z","name_a2s":"Uncletopia | Frankfurt | 1 | All Maps","protocol":17,"map":"pl_pier","folder":"tf","game":"Team Fortress","app_id":440,"player_count":0,"max_players":24,"Bots":0,"server_type":"Dedicated","server_os":"Linux","password":true,"vac":true,"version":"7961495","steam_id":85568392924469989,"keywords":["nocrits","nodmgspread","payload","uncletopia"],"game_id":440,"stv_port":27016,"stv_name":"Uncletopia | Frankfurt | 1 | All Maps | STV","players":null},{"server_id":110,"name":"Uncletopia | Frankfurt | 2 | All Maps","name_short":"frk-2","host":"frk-1.de.uncletopia.com","port":27025,"enabled":true,"region":"eu","cc":"de","latitude":50.110924,"longitude":8.682127,"reserved":0,"last_update":"0001-01-01T00:00:00Z","name_a2s":"Uncletopia | Frankfurt | 2 | All Maps","protocol":17,"map":"pl_frontier_final","folder":"tf","game":"Team Fortress","app_id":440,"player_count":21,"max_players":24,"Bots":0,"server_type":"Dedicated","server_os":"Linux","password":true,"vac":true,"version":"7961495","steam_id":85568392924469990,"keywords":["nocrits","nodmgspread","payload","uncletopia"],"game_id":440,"stv_port":27026,"stv_name":"Uncletopia | Frankfurt | 2 | All Maps | STV","players":[{"user_id":767,"name":"elijah","steam_id":76561198093936708,"connected_time":4100000000000,"state":"active","ping":60},{"user_id":749,"name":"BadFemboy","steam_id":76561198072320671,"connected_time":5946000000000,"state":"active","ping":47},{"user_id":785,"name":"Jeryx","steam_id":76561197995602803,"connected_time":1940000000000,"state":"active","ping":47},{"user_id":803,"name":"Summer ‚ô•","steam_id":76561198047723907,"connected_time":18000000000,"state":"active","ping":51},{"user_id":804,"name":"Bodyshot","steam_id":76561199096264868,"connected_time":2000000000,"state":"spawning","ping":78},{"user_id":782,"name":"George W Bush","steam_id":76561198846784757,"connected_time":2014000000000,"state":"active","ping":56},{"user_id":790,"name":"skelebin","steam_id":76561199480942903,"connected_time":1552000000000,"state":"active","ping":60},{"user_id":766,"name":"southwest florida","steam_id":76561198049639319,"connected_time":4105000000000,"state":"active","ping":72},{"user_id":787,"name":"CumbustiblePunda","steam_id":76561197974274677,"connected_time":1768000000000,"state":"active","ping":48},{"user_id":775,"name":"etc","steam_id":76561197998394797,"connected_time":3183000000000,"state":"active","ping":58},{"user_id":762,"name":"Razef","steam_id":76561198030309484,"connected_time":4655000000000,"state":"active","ping":45},{"user_id":798,"name":"james_bondage","steam_id":76561199476062624,"connected_time":193000000000,"state":"active","ping":148},{"user_id":795,"name":"Fus in Boots","steam_id":76561198053897722,"connected_time":503000000000,"state":"active","ping":50},{"user_id":789,"name":"_inu","steam_id":76561198084507703,"connected_time":1623000000000,"state":"active","ping":48},{"user_id":799,"name":"Et Tu, Bean?","steam_id":76561198207000412,"connected_time":177000000000,"state":"active","ping":47},{"user_id":796,"name":"Nittugai","steam_id":76561198067366462,"connected_time":478000000000,"state":"active","ping":60},{"user_id":745,"name":"Mysterious Dave","steam_id":76561197970114051,"connected_time":6299000000000,"state":"active","ping":54},{"user_id":791,"name":"Bobirulez","steam_id":76561198009125458,"connected_time":1481000000000,"state":"active","ping":74},{"user_id":768,"name":"„É¨„Éü„É≥„Ç∞„Çπ","steam_id":76561198054783240,"connected_time":4097000000000,"state":"active","ping":119},{"user_id":744,"name":"Charon","steam_id":76561198061714753,"connected_time":6316000000000,"state":"active","ping":86},{"user_id":794,"name":"flick","steam_id":76561198083505031,"connected_time":755000000000,"state":"active","ping":51}]},{"server_id":308,"name":"Uncletopia | Frankfurt | 3 | All Maps","name_short":"frk-3","host":"frk-1.de.uncletopia.com","port":27035,"enabled":true,"region":"eu","cc":"de","latitude":50.110924,"longitude":8.682127,"reserved":0,"last_update":"0001-01-01T00:00:00Z","name_a2s":"Uncletopia | Frankfurt | 3 | All Maps","protocol":17,"map":"cp_snakewater_final1","folder":"tf","game":"Team Fortress","app_id":440,"player_count":0,"max_players":24,"Bots":0,"server_type":"Dedicated","server_os":"Linux","password":true,"vac":true,"version":"7961495","steam_id":85568392924504274,"keywords":["cp","nocrits","nodmgspread","uncletopia"],"game_id":440,"stv_port":27036,"stv_name":"Uncletopia | Frankfurt | 3 | All Maps | STV","players":null},{"server_id":309,"name":"Uncletopia | Frankfurt | 4 | All Maps","name_short":"frk-4","host":"frk-1.de.uncletopia.com","port":27045,"enabled":true,"region":"eu","cc":"de","latitude":50.110924,"longitude":8.682127,"reserved":0,"last_update":"0001-01-01T00:00:00Z","name_a2s":"Uncletopia | Frankfurt | 4 | All Maps","protocol":17,"map":"koth_lakeside_final","folder":"tf","game":"Team Fortress","app_id":440,"player_count":0,"max_players":24,"Bots":0,"server_type":"Dedicated","server_os":"Linux","password":true,"vac":true,"version":"7961495","steam_id":85568392924504275,"keywords":["cp","nocrits","nodmgspread","uncletopia"],"game_id":440,"stv_port":27046,"stv_name":"Uncletopia | Frankfurt | 4 | All Maps | STV","players":null},{"server_id":310,"name":"Uncletopia | Frankfurt | 5 | All Maps","name_short":"frk-5","host":"frk-1.de.uncletopia.com","port":27055,"enabled":true,"region":"eu","cc":"de","latitude":50.110924,"longitude":8.682127,"reserved":0,"last_update":"0001-01-01T00:00:00Z","name_a2s":"Uncletopia | Frankfurt | 5 | All Maps","protocol":17,"map":"pl_frontier_final","folder":"tf","game":"Team Fortress","app_id":440,"player_count":0,"max_players":24,"Bots":0,"server_type":"Dedicated","server_os":"Linux","password":true,"vac":true,"version":"7961495","steam_id":85568392924504277,"keywords":["nocrits","nodmgspread","payload","uncletopia"],"game_id":440,"stv_port":27056,"stv_name":"Uncletopia | Frankfurt | 5 | All Maps | STV","players":null},{"server_id":311,"name":"Uncletopia | Frankfurt | 6 | All Maps","name_short":"frk-6","host":"frk-1.de.uncletopia.com","port":27065,"enabled":true,"region":"eu","cc":"de","latitude":50.110924,"longitude":8.682127,"reserved":0,"last_update":"0001-01-01T00:00:00Z","name_a2s":"Uncletopia | Frankfurt | 6 | All Maps","protocol":17,"map":"cp_mountainlab","folder":"tf","game":"Team Fortress","app_id":440,"player_count":0,"max_players":24,"Bots":0,"server_type":"Dedicated","server_os":"Linux","password":true,"vac":true,"version":"7961495","steam_id":85568392924504278,"keywords":["cp","nocrits","nodmgspread","uncletopia"],"game_id":440,"stv_port":27066,"stv_name":"Uncletopia | Frankfurt | 6 | All Maps | STV","players":null},{"server_id":23,"name":"Uncletopia | Frankfurt | 7 | Stopwatch","name_short":"frk-7","host":"frk-1.de.uncletopia.com","port":27075,"enabled":true,"region":"eu","cc":"de","latitude":50.110924,"longitude":8.682127,"reserved":0,"last_update":"0001-01-01T00:00:00Z","name_a2s":"Uncletopia | Frankfurt | 7 | Stopwatch","protocol":17,"map":"workshop/koth_ashville_final.ugc2130459942","folder":"tf","game":"Team Fortress","app_id":440,"player_count":0,"max_players":24,"Bots":0,"server_type":"Dedicated","server_os":"Linux","password":true,"vac":true,"version":"7961495","steam_id":85568392924742827,"keywords":["cp","nocrits","nodmgspread","uncletopia"],"game_id":440,"stv_port":27076,"stv_name":"Uncletopia | Frankfurt | 7 | Stopwatch | STV","players":null},{"server_id":24,"name":"Uncletopia | Frankfurt | 8 | Community","name_short":"frk-8","host":"frk-1.de.uncletopia.com","port":27085,"enabled":true,"region":"eu","cc":"de","latitude":50.110924,"longitude":8.682127,"reserved":0,"last_update":"0001-01-01T00:00:00Z","name_a2s":"Uncletopia | Frankfurt | 8 | Community","protocol":17,"map":"workshop/pl_vigil_rc10.ugc1266210012","folder":"tf","game":"Team Fortress","app_id":440,"player_count":0,"max_players":24,"Bots":0,"server_type":"Dedicated","server_os":"Linux","password":true,"vac":true,"version":"7961495","steam_id":85568392924742828,"keywords":["nocrits","nodmgspread","payload","uncletopia"],"game_id":440,"stv_port":27086,"stv_name":"Uncletopia | Frankfurt | 8 | Community | STV","players":null},{"server_id":202,"name":"Uncletopia | Hong Kong | 1 | All Maps","name_short":"hgk-1","host":"hgk-1.hk.uncletopia.com","port":27015,"enabled":true,"region":"asia","cc":"hk","latitude":22.302711,"longitude":114.177216,"reserved":0,"last_update":"0001-01-01T00:00:00Z","name_a2s":"Uncletopia | Hong Kong | 1 | All Maps","protocol":17,"map":"koth_highpass","folder":"tf","game":"Team Fortress","app_id":440,"player_count":0,"max_players":24,"Bots":0,"server_type":"Dedicated","server_os":"Linux","password":true,"vac":true,"version":"7961495","steam_id":85568392924494504,"keywords":["cp","nocrits","nodmgspread","uncletopia"],"game_id":440,"stv_port":27016,"stv_name":"Uncletopia | Hong Kong | 1 | All Maps | STV","players":null},{"server_id":1,"name":"Uncletopia | Los Angeles | 1 | All Maps","name_short":"lax-1","host":"lax-1.us.uncletopia.com","port":27015,"enabled":true,"region":"us-west","cc":"us","latitude":33.94279,"longitude":-118.41004,"reserved":0,"last_update":"0001-01-01T00:00:00Z","name_a2s":"Uncletopia | Los Angeles | 1 | All Maps","protocol":17,"map":"koth_highpass","folder":"tf","game":"Team Fortress","app_id":440,"player_count":13,"max_players":24,"Bots":0,"server_type":"Dedicated","server_os":"Linux","password":true,"vac":true,"version":"7961495","steam_id":85568392924469991,"keywords":["cp","nocrits","nodmgspread","uncletopia"],"game_id":440,"stv_port":27016,"stv_name":"Uncletopia | Los Angeles | 1 | All Maps | STV","players":[{"user_id":118,"name":"lker","steam_id":76561197976975075,"connected_time":1971000000000,"state":"active","ping":85},{"user_id":141,"name":"TGK","steam_id":76561198163022669,"connected_time":721000000000,"state":"active","ping":104},{"user_id":130,"name":"Captain Underbelly","steam_id":76561198811270935,"connected_time":956000000000,"state":"active","ping":73},{"user_id":63,"name":"KnightOfGames","steam_id":76561198080460659,"connected_time":4637000000000,"state":"active","ping":84},{"user_id":143,"name":"cielael","steam_id":76561198043971956,"connected_time":636000000000,"state":"active","ping":49},{"user_id":147,"name":"Perfume Department","steam_id":76561198128299594,"connected_time":146000000000,"state":"active","ping":57},{"user_id":148,"name":"mafu","steam_id":76561198028028045,"connected_time":63000000000,"state":"active","ping":37},{"user_id":117,"name":"PENIS","steam_id":76561198151531499,"connected_time":2063000000000,"state":"active","ping":77},{"user_id":81,"name":"FunnyGoomba","steam_id":76561198279865229,"connected_time":3618000000000,"state":"active","ping":81},{"user_id":139,"name":"ack.awesome676","steam_id":76561199109415958,"connected_time":763000000000,"state":"active","ping":38},{"user_id":140,"name":"McSpanky Tom","steam_id":76561199106422675,"connected_time":759000000000,"state":"active","ping":93},{"user_id":128,"name":"zoinks","steam_id":76561198127238003,"connected_time":1258000000000,"state":"active","ping":54},{"user_id":123,"name":"sammyboi","steam_id":76561198187133779,"connected_time":1557000000000,"state":"active","ping":44}]},{"server_id":112,"name":"Uncletopia | Los Angeles | 2 | All Maps","name_short":"lax-2","host":"lax-1.us.uncletopia.com","port":27025,"enabled":true,"region":"us-west","cc":"us","latitude":33.94279,"longitude":-118.41004,"reserved":0,"last_update":"0001-01-01T00:00:00Z","name_a2s":"Uncletopia | Los Angeles | 2 | All Maps","protocol":17,"map":"pl_goldrush","folder":"tf","game":"Team Fortress","app_id":440,"player_count":11,"max_players":24,"Bots":0,"server_type":"Dedicated","server_os":"Linux","password":true,"vac":true,"version":"7961495","steam_id":85568392924469992,"keywords":["nocrits","nodmgspread","payload","uncletopia"],"game_id":440,"stv_port":27026,"stv_name":"Uncletopia | Los Angeles | 2 | All Maps | STV","players":[{"user_id":172,"name":"Capitalism 101","steam_id":76561198017214464,"connected_time":65000000000,"state":"active","ping":85},{"user_id":115,"name":"DAWNZY","steam_id":76561198207924905,"connected_time":2744000000000,"state":"active","ping":50},{"user_id":173,"name":"nescoceo","steam_id":76561198040801160,"connected_time":8000000000,"state":"spawning","ping":44},{"user_id":97,"name":"chocky","steam_id":76561198057491296,"connected_time":3313000000000,"state":"active","ping":61},{"user_id":163,"name":"lasky","steam_id":76561198017030029,"connected_time":415000000000,"state":"active","ping":48},{"user_id":168,"name":"Celestial_Hat","steam_id":76561198390436653,"connected_time":277000000000,"state":"active","ping":48},{"user_id":138,"name":"BreadQuest","steam_id":76561198082425960,"connected_time":1145000000000,"state":"active","ping":70},{"user_id":164,"name":"3Phase","steam_id":76561197995053989,"connected_time":385000000000,"state":"active","ping":107},{"user_id":165,"name":"Admiral","steam_id":76561198200288543,"connected_time":380000000000,"state":"active","ping":45},{"user_id":120,"name":"Boss","steam_id":76561197981239654,"connected_time":1754000000000,"state":"active","ping":70},{"user_id":91,"name":"Surfing Garchomp","steam_id":76561199107236884,"connected_time":3798000000000,"state":"active","ping":81}]},{"server_id":324,"name":"Uncletopia | Los Angeles | 3 | All Maps","name_short":"lax-3","host":"lax-1.us.uncletopia.com","port":27035,"enabled":true,"region":"us-west","cc":"us","latitude":33.94279,"longitude":-118.41004,"reserved":0,"last_update":"0001-01-01T00:00:00Z","name_a2s":"Uncletopia | Los Angeles | 3 | All Maps","protocol":17,"map":"cp_gorge","folder":"tf","game":"Team Fortress","app_id":440,"player_count":0,"max_players":24,"Bots":0,"server_type":"Dedicated","server_os":"Linux","password":true,"vac":true,"version":"7961495","steam_id":85568392924510198,"keywords":["cp","nocrits","nodmgspread","uncletopia"],"game_id":440,"stv_port":27036,"stv_name":"Uncletopia | Los Angeles | 3 | All Maps | STV","players":null},{"server_id":25,"name":"Uncletopia | Los Angeles | 4 | Stopwatch","name_short":"lax-4","host":"lax-1.us.uncletopia.com","port":27045,"enabled":true,"region":"us-west","cc":"us","latitude":33.94279,"longitude":-118.41004,"reserved":0,"last_update":"0001-01-01T00:00:00Z","name_a2s":"Uncletopia | Los Angeles | 4 | Stopwatch","protocol":17,"map":"workshop/koth_product_final.ugc454272353","folder":"tf","game":"Team Fortress","app_id":440,"player_count":3,"max_players":24,"Bots":0,"server_type":"Dedicated","server_os":"Linux","password":true,"vac":true,"version":"7961495","steam_id":85568392924510199,"keywords":["cp","nocrits","nodmgspread","uncletopia"],"game_id":440,"stv_port":27046,"stv_name":"Uncletopia | Los Angeles | 4 | Stopwatch | STV","players":[{"user_id":5,"name":"Abomination","steam_id":76561199196994961,"connected_time":2376000000000,"state":"active","ping":55},{"user_id":6,"name":"raquid6","steam_id":76561199185138895,"connected_time":2354000000000,"state":"active","ping":49},{"user_id":10,"name":"kool_gui","steam_id":76561199468416238,"connected_time":610000000000,"state":"active","ping":59}]},{"server_id":11,"name":"Uncletopia | London | 1 | All Maps","name_short":"lon-1","host":"lon-1.uk.uncletopia.com","port":27015,"enabled":true,"region":"eu","cc":"gb","latitude":51.509865,"longitude":-0.118092,"reserved":0,"last_update":"0001-01-01T00:00:00Z","name_a2s":"Uncletopia | London | 1 | All Maps","protocol":17,"map":"pl_snowycoast","folder":"tf","game":"Team Fortress","app_id":440,"player_count":23,"max_players":24,"Bots":0,"server_type":"Dedicated","server_os":"Linux","password":true,"vac":true,"version":"7961495","steam_id":85568392924367362,"keywords":["nocrits","nodmgspread","payload","uncletopia"],"game_id":440,"stv_port":27016,"stv_name":"Uncletopia | London | 1 | All Maps | STV","players":[{"user_id":892,"name":"cool_mike2013","steam_id":76561199062433944,"connected_time":1690000000000,"state":"active","ping":120},{"user_id":839,"name":"sticks","steam_id":76561198127099299,"connected_time":6478000000000,"state":"active","ping":42},{"user_id":900,"name":"CL! Meterora","steam_id":76561198092422131,"connected_time":1059000000000,"state":"active","ping":55},{"user_id":897,"name":"The New Bob","steam_id":76561199122072556,"connected_time":1411000000000,"state":"active","ping":144},{"user_id":901,"name":"Rogue","steam_id":76561199143593182,"connected_time":1006000000000,"state":"active","ping":45},{"user_id":847,"name":"Maneon","steam_id":76561198208386005,"connected_time":4762000000000,"state":"active","ping":42},{"user_id":902,"name":"¬£blz","steam_id":76561198084804183,"connected_time":961000000000,"state":"active","ping":39},{"user_id":699,"name":"Speed-Dial","steam_id":76561198012428315,"connected_time":18412000000000,"state":"active","ping":40},{"user_id":888,"name":"GladosBackpack","steam_id":76561199219020294,"connected_time":2246000000000,"state":"active","ping":113},{"user_id":911,"name":"Ellipsis","steam_id":76561198236630276,"connected_time":96000000000,"state":"active","ping":41},{"user_id":899,"name":"King Bob III","steam_id":76561197995230744,"connected_time":1325000000000,"state":"active","ping":118},{"user_id":903,"name":"Dragon","steam_id":76561198163255365,"connected_time":864000000000,"state":"active","ping":99},{"user_id":891,"name":"Jon","steam_id":76561199380849468,"connected_time":1889000000000,"state":"active","ping":66},{"user_id":896,"name":"max","steam_id":76561198027033926,"connected_time":1419000000000,"state":"active","ping":55},{"user_id":905,"name":"SHiNY","steam_id":76561198163636583,"connected_time":744000000000,"state":"active","ping":58},{"user_id":910,"name":"‚ô¶stupid_shiny_sentry_mario‚ô¶","steam_id":76561199010557593,"connected_time":281000000000,"state":"active","ping":97},{"user_id":895,"name":"Marcel","steam_id":76561198348686648,"connected_time":1445000000000,"state":"active","ping":44},{"user_id":912,"name":"cherrypowder","steam_id":76561199006915718,"connected_time":21000000000,"state":"active","ping":60},{"user_id":908,"name":"RflxCypher","steam_id":76561199015470141,"connected_time":566000000000,"state":"active","ping":38},{"user_id":893,"name":"Sputnik","steam_id":76561198138660241,"connected_time":1663000000000,"state":"active","ping":47},{"user_id":898,"name":"Voodoo Child","steam_id":76561198110788281,"connected_time":1340000000000,"state":"active","ping":75},{"user_id":877,"name":"Reljadin","steam_id":76561198054997553,"connected_time":3161000000000,"state":"active","ping":76},{"user_id":889,"name":"Portal2Player","steam_id":76561198062870114,"connected_time":2245000000000,"state":"active","ping":125}]},{"server_id":114,"name":"Uncletopia | London | 2 | All Maps","name_short":"lon-2","host":"lon-1.uk.uncletopia.com","port":27025,"enabled":true,"region":"eu","cc":"gb","latitude":51.509865,"longitude":-0.118092,"reserved":0,"last_update":"0001-01-01T00:00:00Z","name_a2s":"Uncletopia | London | 2 | All Maps","protocol":17,"map":"cp_mountainlab","folder":"tf","game":"Team Fortress","app_id":440,"player_count":0,"max_players":24,"Bots":0,"server_type":"Dedicated","server_os":"Linux","password":true,"vac":true,"version":"7961495","steam_id":85568392924470941,"keywords":["cp","nocrits","nodmgspread","uncletopia"],"game_id":440,"stv_port":27026,"stv_name":"Uncletopia | London | 2 | All Maps | STV","players":null},{"server_id":320,"name":"Uncletopia | London | 3 | All Maps","name_short":"lon-3","host":"lon-1.uk.uncletopia.com","port":27035,"enabled":true,"region":"eu","cc":"gb","latitude":51.509865,"longitude":-0.118092,"reserved":0,"last_update":"0001-01-01T00:00:00Z","name_a2s":"Uncletopia | London | 3 | All Maps","protocol":17,"map":"cp_sunshine","folder":"tf","game":"Team Fortress","app_id":440,"player_count":0,"max_players":24,"Bots":0,"server_type":"Dedicated","server_os":"Linux","password":true,"vac":true,"version":"7961495","steam_id":85568392924510192,"keywords":["cp","nocrits","nodmgspread","uncletopia"],"game_id":440,"stv_port":27036,"stv_name":"Uncletopia | London | 3 | All Maps | STV","players":null},{"server_id":321,"name":"Uncletopia | London | 4 | All Maps","name_short":"lon-4","host":"lon-1.uk.uncletopia.com","port":27045,"enabled":true,"region":"eu","cc":"gb","latitude":51.509865,"longitude":-0.118092,"reserved":0,"last_update":"0001-01-01T00:00:00Z","name_a2s":"Uncletopia | London | 4 | All Maps","protocol":17,"map":"pl_badwater","folder":"tf","game":"Team Fortress","app_id":440,"player_count":0,"max_players":24,"Bots":0,"server_type":"Dedicated","server_os":"Linux","password":true,"vac":true,"version":"7961495","steam_id":85568392924510193,"keywords":["nocrits","nodmgspread","payload","uncletopia"],"game_id":440,"stv_port":27046,"stv_name":"Uncletopia | London | 4 | All Maps | STV","players":null},{"server_id":21,"name":"Uncletopia | London | 5 | All Maps","name_short":"lon-5","host":"lon-1.uk.uncletopia.com","port":27055,"enabled":true,"region":"eu","cc":"gb","latitude":51.509865,"longitude":-0.118092,"reserved":0,"last_update":"0001-01-01T00:00:00Z","name_a2s":"Uncletopia | London | 5 | All Maps","protocol":17,"map":"pl_badwater","folder":"tf","game":"Team Fortress","app_id":440,"player_count":0,"max_players":24,"Bots":0,"server_type":"Dedicated","server_os":"Linux","password":true,"vac":true,"version":"7961495","steam_id":85568392924742829,"keywords":["nocrits","nodmgspread","payload","uncletopia"],"game_id":440,"stv_port":27056,"stv_name":"Uncletopia | London | 5 | All Maps | STV","players":null},{"server_id":22,"name":"Uncletopia | London | 6 | All Maps","name_short":"lon-6","host":"lon-1.uk.uncletopia.com","port":27065,"enabled":true,"region":"eu","cc":"gb","latitude":51.509865,"longitude":-0.118092,"reserved":0,"last_update":"0001-01-01T00:00:00Z","name_a2s":"Uncletopia | London | 6 | All Maps","protocol":17,"map":"pl_badwater","folder":"tf","game":"Team Fortress","app_id":440,"player_count":0,"max_players":24,"Bots":0,"server_type":"Dedicated","server_os":"Linux","password":true,"vac":true,"version":"7961495","steam_id":85568392924742830,"keywords":["nocrits","nodmgspread","payload","uncletopia"],"game_id":440,"stv_port":27066,"stv_name":"Uncletopia | London | 6 | All Maps | STV","players":null},{"server_id":40,"name":"Uncletopia | London | 7 | Stopwatch","name_short":"lon-7","host":"lon-1.uk.uncletopia.com","port":27075,"enabled":true,"region":"eu","cc":"gb","latitude":51.509865,"longitude":-0.118092,"reserved":0,"last_update":"0001-01-01T00:00:00Z","name_a2s":"Uncletopia | London | 7 | Stopwatch","protocol":17,"map":"koth_lakeside_final","folder":"tf","game":"Team Fortress","app_id":440,"player_count":0,"max_players":24,"Bots":0,"server_type":"Dedicated","server_os":"Linux","password":true,"vac":true,"version":"7961495","steam_id":85568392924964314,"keywords":["cp","nocrits","nodmgspread","uncletopia"],"game_id":440,"stv_port":27076,"stv_name":"Uncletopia | London | 7 | Stopwatch | STV","players":null},{"server_id":41,"name":"Uncletopia | London | 8 | Community","name_short":"lon-8","host":"lon-1.uk.uncletopia.com","port":27085,"enabled":true,"region":"eu","cc":"gb","latitude":51.509865,"longitude":-0.118092,"reserved":0,"last_update":"0001-01-01T00:00:00Z","name_a2s":"Uncletopia | London | 8 | Community","protocol":17,"map":"workshop/pl_corrode_rc2.ugc546577989","folder":"tf","game":"Team Fortress","app_id":440,"player_count":0,"max_players":24,"Bots":0,"server_type":"Dedicated","server_os":"Linux","password":true,"vac":true,"version":"7961495","steam_id":85568392924964315,"keywords":["nocrits","nodmgspread","payload","uncletopia"],"game_id":440,"stv_port":27086,"stv_name":"Uncletopia | London | 8 | Community | STV","players":null},{"server_id":300,"name":"Uncletopia | Montr√©al | 1 | One Thousand Uncles","name_short":"mtl-1","host":"mtl-1.ca.uncletopia.com","port":27015,"enabled":true,"region":"us-east","cc":"ca","latitude":45.50889,"longitude":-73.56167,"reserved":0,"last_update":"0001-01-01T00:00:00Z","name_a2s":"Uncletopia | Montr√©al | 1 | One Thousand Uncles","protocol":17,"map":"pl_snowycoast","folder":"tf","game":"Team Fortress","app_id":440,"player_count":27,"max_players":32,"Bots":16,"server_type":"Dedicated","server_os":"Linux","password":true,"vac":true,"version":"7961495","steam_id":85568392924500087,"keywords":["alltalk","bots","danepve","increased_maxplayers","norespawntime","payload","uncletopia"],"game_id":440,"stv_port":0,"stv_name":"","players":[{"user_id":295,"name":"heavy jumpscare","steam_id":76561198376752965,"connected_time":12485000000000,"state":"active","ping":59},{"user_id":450,"name":"Heartgold","steam_id":76561199062592062,"connected_time":2467000000000,"state":"active","ping":71},{"user_id":451,"name":"NYNÂßêË¥µ","steam_id":76561199485344199,"connected_time":2245000000000,"state":"active","ping":128},{"user_id":476,"name":"Lots0","steam_id":76561198043143145,"connected_time":955000000000,"state":"active","ping":98},{"user_id":311,"name":"Metal Socks","steam_id":76561198049854770,"connected_time":8760000000000,"state":"active","ping":64},{"user_id":473,"name":"GOOB!!!","steam_id":76561198164436657,"connected_time":1442000000000,"state":"active","ping":64},{"user_id":474,"name":"THIRDPIERCE","steam_id":76561198405366314,"connected_time":1426000000000,"state":"active","ping":98},{"user_id":333,"name":"Thurricane","steam_id":76561198410724666,"connected_time":8450000000000,"state":"active","ping":63},{"user_id":477,"name":"The Anomaly TF2","steam_id":76561198834819021,"connected_time":639000000000,"state":"active","ping":39},{"user_id":418,"name":"AquaTsunami","steam_id":76561199085473809,"connected_time":4619000000000,"state":"active","ping":60},{"user_id":478,"name":"[12V] Marv","steam_id":76561198158638384,"connected_time":285000000000,"state":"active","ping":60}]},{"server_id":301,"name":"Uncletopia | Montr√©al | 2 | One Thousand Uncles","name_short":"mtl-2","host":"mtl-1.ca.uncletopia.com","port":27025,"enabled":true,"region":"us-east","cc":"ca","latitude":45.50889,"longitude":-73.56167,"reserved":0,"last_update":"0001-01-01T00:00:00Z","name_a2s":"Uncletopia | Montr√©al | 2 | One Thousand Uncles","protocol":17,"map":"pl_chilly","folder":"tf","game":"Team Fortress","app_id":440,"player_count":0,"max_players":32,"Bots":0,"server_type":"Dedicated","server_os":"Linux","password":true,"vac":true,"version":"7961495","steam_id":85568392924500088,"keywords":["alltalk","danepve","increased_maxplayers","norespawntime","payload","uncletopia"],"game_id":440,"stv_port":0,"stv_name":"","players":null},{"server_id":302,"name":"Uncletopia | Montr√©al | 3 | One Thousand Uncles","name_short":"mtl-3","host":"mtl-1.ca.uncletopia.com","port":27035,"enabled":true,"region":"us-east","cc":"ca","latitude":45.50889,"longitude":-73.56167,"reserved":0,"last_update":"0001-01-01T00:00:00Z","name_a2s":"Uncletopia | Montr√©al | 3 | One Thousand Uncles","protocol":17,"map":"pl_pier","folder":"tf","game":"Team Fortress","app_id":440,"player_count":18,"max_players":32,"Bots":16,"server_type":"Dedicated","server_os":"Linux","password":true,"vac":true,"version":"7961495","steam_id":85568392924500089,"keywords":["alltalk","bots","danepve","increased_maxplayers","norespawntime","payload","uncletopia"],"game_id":440,"stv_port":0,"stv_name":"","players":[{"user_id":267,"name":"tree","steam_id":76561198061189527,"connected_time":3137000000000,"state":"active","ping":72},{"user_id":271,"name":"Why not Zoidberg?","steam_id":76561197982207556,"connected_time":2089000000000,"state":"active","ping":76}]},{"server_id":13,"name":"Uncletopia | New York City | 1 | All Maps","name_short":"nyc-1","host":"nyc-1.us.uncletopia.com","port":27015,"enabled":true,"region":"us-east","cc":"us","latitude":40.73061,"longitude":-73.93524,"reserved":0,"last_update":"0001-01-01T00:00:00Z","name_a2s":"Uncletopia | New York City | 1 | All Maps","protocol":17,"map":"pl_barnblitz","folder":"tf","game":"Team Fortress","app_id":440,"player_count":24,"max_players":24,"Bots":0,"server_type":"Dedicated","server_os":"Linux","password":true,"vac":true,"version":"7961495","steam_id":85568392924469993,"keywords":["nocrits","nodmgspread","payload","uncletopia"],"game_id":440,"stv_port":27016,"stv_name":"Uncletopia | New York City | 1 | All Maps | STV","players":[{"user_id":404,"name":"That Sentry Is A Spy!","steam_id":76561198069395625,"connected_time":809000000000,"state":"active","ping":48},{"user_id":351,"name":"ChiMaTa","steam_id":76561198067166198,"connected_time":4308000000000,"state":"active","ping":70},{"user_id":381,"name":"closer","steam_id":76561198042848500,"connected_time":2254000000000,"state":"active","ping":72},{"user_id":239,"name":"AlecTheNefarious","steam_id":76561198035291230,"connected_time":13118000000000,"state":"active","ping":82},{"user_id":411,"name":"ComputeCore167","steam_id":76561198301250353,"connected_time":609000000000,"state":"active","ping":61},{"user_id":339,"name":"sithreis","steam_id":76561198000564263,"connected_time":5024000000000,"state":"active","ping":73},{"user_id":413,"name":"Skull_King","steam_id":76561198098476154,"connected_time":276000000000,"state":"active","ping":60},{"user_id":407,"name":"Smiles","steam_id":76561198107197973,"connected_time":753000000000,"state":"active","ping":89},{"user_id":409,"name":"Bee","steam_id":76561198074681324,"connected_time":640000000000,"state":"active","ping":56},{"user_id":390,"name":"scrotal recall","steam_id":76561198135945598,"connected_time":1919000000000,"state":"active","ping":76},{"user_id":373,"name":"lanoc","steam_id":76561198055415367,"connected_time":3466000000000,"state":"active","ping":61},{"user_id":367,"name":"Pixeled","steam_id":76561198088917077,"connected_time":3632000000000,"state":"active","ping":78},{"user_id":321,"name":"Bacchus","steam_id":76561198113244990,"connected_time":7168000000000,"state":"active","ping":72},{"user_id":414,"name":"BiggSlorp","steam_id":76561199130776156,"connected_time":275000000000,"state":"active","ping":61},{"user_id":410,"name":"EntityReport","steam_id":76561199004218744,"connected_time":638000000000,"state":"active","ping":55},{"user_id":271,"name":"java","steam_id":76561198030276792,"connected_time":10533000000000,"state":"active","ping":60},{"user_id":354,"name":"Mcfighter2","steam_id":76561198168073956,"connected_time":4254000000000,"state":"active","ping":63},{"user_id":386,"name":"Juan Pablo Gonzalez 2023","steam_id":76561199197961413,"connected_time":2169000000000,"state":"active","ping":40},{"user_id":394,"name":"Cellus","steam_id":76561198067204847,"connected_time":1741000000000,"state":"active","ping":59},{"user_id":415,"name":"Kasane","steam_id":76561198209006780,"connected_time":168000000000,"state":"active","ping":87},{"user_id":412,"name":"Dark Lord","steam_id":76561198044199150,"connected_time":606000000000,"state":"active","ping":59},{"user_id":396,"name":"leumas","steam_id":76561198240408540,"connected_time":1664000000000,"state":"active","ping":76},{"user_id":403,"name":"FaceInCake","steam_id":76561198078212308,"connected_time":970000000000,"state":"active","ping":72},{"user_id":416,"name":"Yuzu","steam_id":76561198417913035,"connected_time":144000000000,"state":"active","ping":60}]},{"server_id":14,"name":"Uncletopia | New York City | 2 | All Maps","name_short":"nyc-2","host":"nyc-1.us.uncletopia.com","port":27025,"enabled":true,"region":"us-east","cc":"us","latitude":40.73061,"longitude":-73.93524,"reserved":0,"last_update":"0001-01-01T00:00:00Z","name_a2s":"Uncletopia | New York City | 2 | All Maps","protocol":17,"map":"pl_thundermountain","folder":"tf","game":"Team Fortress","app_id":440,"player_count":24,"max_players":24,"Bots":0,"server_type":"Dedicated","server_os":"Linux","password":true,"vac":true,"version":"7961495","steam_id":85568392924469994,"keywords":["nocrits","nodmgspread","payload","uncletopia"],"game_id":440,"stv_port":27026,"stv_name":"Uncletopia | New York City | 2 | All Maps | STV","players":[{"user_id":517,"name":"stormfoam","steam_id":76561198936871387,"connected_time":805000000000,"state":"active","ping":74},{"user_id":522,"name":"Kia_the_car","steam_id":76561198882171095,"connected_time":698000000000,"state":"active","ping":119},{"user_id":488,"name":"Bush.exe","steam_id":76561198124385307,"connected_time":3098000000000,"state":"active","ping":76},{"user_id":516,"name":"Da Walrus","steam_id":76561198045190191,"connected_time":882000000000,"state":"active","ping":51},{"user_id":503,"name":"Baron von Whoopsie","steam_id":76561197996691013,"connected_time":1894000000000,"state":"active","ping":46},{"user_id":496,"name":"Fuzzele","steam_id":76561199199532696,"connected_time":2873000000000,"state":"active","ping":75},{"user_id":472,"name":"SuperNovaFox","steam_id":76561198052172564,"connected_time":4450000000000,"state":"active","ping":76},{"user_id":395,"name":"Harry S. Truman","steam_id":76561197993339757,"connected_time":11428000000000,"state":"active","ping":55},{"user_id":505,"name":"Silverstar","steam_id":76561198399525329,"connected_time":1738000000000,"state":"active","ping":57},{"user_id":524,"name":"arrow","steam_id":76561198429949450,"connected_time":137000000000,"state":"active","ping":61},{"user_id":523,"name":"Tokyo_Timeshift_","steam_id":76561198048677523,"connected_time":640000000000,"state":"active","ping":65},{"user_id":424,"name":"Brawns","steam_id":76561198045190199,"connected_time":7658000000000,"state":"active","ping":58},{"user_id":519,"name":"TweetTweet17","steam_id":76561198994956859,"connected_time":774000000000,"state":"active","ping":52},{"user_id":504,"name":"Jeff","steam_id":76561197997564762,"connected_time":1892000000000,"state":"active","ping":89},{"user_id":514,"name":"Sitting Duck","steam_id":76561197980506451,"connected_time":1139000000000,"state":"active","ping":87},{"user_id":413,"name":"Werm","steam_id":76561198149601897,"connected_time":9299000000000,"state":"active","ping":48},{"user_id":470,"name":"Shack","steam_id":76561198035503322,"connected_time":4466000000000,"state":"active","ping":55},{"user_id":510,"name":"CactusJoelle","steam_id":76561199138286233,"connected_time":1587000000000,"state":"active","ping":48},{"user_id":492,"name":"nhbiker","steam_id":76561198081277675,"connected_time":3090000000000,"state":"active","ping":59},{"user_id":508,"name":"Colossal Falafel","steam_id":76561198108086245,"connected_time":1644000000000,"state":"active","ping":66},{"user_id":515,"name":"Joker","steam_id":76561198134905831,"connected_time":1067000000000,"state":"active","ping":45},{"user_id":450,"name":"Krispy","steam_id":76561197994783393,"connected_time":6303000000000,"state":"active","ping":45},{"user_id":511,"name":"Beauts","steam_id":76561198068713855,"connected_time":1575000000000,"state":"active","ping":92},{"user_id":501,"name":"Jason","steam_id":76561198107058140,"connected_time":2507000000000,"state":"active","ping":48}]},{"server_id":15,"name":"Uncletopia | New York City | 3 | Stopwatch","name_short":"nyc-3","host":"nyc-1.us.uncletopia.com","port":27035,"enabled":true,"region":"us-east","cc":"us","latitude":40.73061,"longitude":-73.93524,"reserved":0,"last_update":"0001-01-01T00:00:00Z","name_a2s":"Uncletopia | New York City | 3 | Stopwatch","protocol":17,"map":"koth_highpass","folder":"tf","game":"Team Fortress","app_id":440,"player_count":0,"max_players":24,"Bots":0,"server_type":"Dedicated","server_os":"Linux","password":true,"vac":true,"version":"7961495","steam_id":85568392924742820,"keywords":["cp","nocrits","nodmgspread","uncletopia"],"game_id":440,"stv_port":27036,"stv_name":"Uncletopia | New York City | 3 | Stopwatch | STV","players":null},{"server_id":16,"name":"Uncletopia | New York City | 4 | Community","name_short":"nyc-4","host":"nyc-1.us.uncletopia.com","port":27045,"enabled":true,"region":"us-east","cc":"us","latitude":40.73061,"longitude":-73.93524,"reserved":0,"last_update":"0001-01-01T00:00:00Z","name_a2s":"Uncletopia | New York City | 4 | Community","protocol":17,"map":"workshop/cp_indulge.ugc528106646","folder":"tf","game":"Team Fortress","app_id":440,"player_count":0,"max_players":24,"Bots":0,"server_type":"Dedicated","server_os":"Linux","password":true,"vac":true,"version":"7961495","steam_id":85568392924742821,"keywords":["cp","nocrits","nodmgspread","uncletopia"],"game_id":440,"stv_port":27046,"stv_name":"Uncletopia | New York City | 4 | Community | STV","players":null},{"server_id":142,"name":"Uncletopia | S√£o Paulo | 1 | All Maps","name_short":"sao-1","host":"sao-1.br.uncletopia.com","port":27015,"enabled":true,"region":"sa","cc":"br","latitude":-23.533773,"longitude":-46.62529,"reserved":0,"last_update":"0001-01-01T00:00:00Z","name_a2s":"Uncletopia | S√£o Paulo | 1 | All Maps","protocol":17,"map":"koth_viaduct","folder":"tf","game":"Team Fortress","app_id":440,"player_count":0,"max_players":24,"Bots":0,"server_type":"Dedicated","server_os":"Linux","password":true,"vac":true,"version":"7961495","steam_id":85568392924469996,"keywords":["cp","nocrits","nodmgspread","uncletopia"],"game_id":440,"stv_port":27016,"stv_name":"Uncletopia | S√£o Paulo | 1 | All Maps | STV","players":null},{"server_id":143,"name":"Uncletopia | S√£o Paulo | 2 | Community","name_short":"sao-2","host":"sao-2.br.uncletopia.com","port":27015,"enabled":true,"region":"sa","cc":"br","latitude":-23.533773,"longitude":-46.62529,"reserved":0,"last_update":"0001-01-01T00:00:00Z","name_a2s":"Uncletopia | S√£o Paulo | 2 | Community","protocol":17,"map":"workshop/koth_product_final.ugc454272353","folder":"tf","game":"Team Fortress","app_id":440,"player_count":0,"max_players":24,"Bots":0,"server_type":"Dedicated","server_os":"Linux","password":true,"vac":true,"version":"7961495","steam_id":85568392924485349,"keywords":["cp","nocrits","nodmgspread","uncletopia"],"game_id":440,"stv_port":27016,"stv_name":"Uncletopia | S√£o Paulo | 2 | Community | STV","players":null},{"server_id":7,"name":"Uncletopia | Seattle | 1 | All Maps","name_short":"sea-1","host":"sea-1.us.uncletopia.com","port":27015,"enabled":true,"region":"us-west","cc":"us","latitude":47.608013,"longitude":-122.33517,"reserved":0,"last_update":"0001-01-01T00:00:00Z","name_a2s":"Uncletopia | Seattle | 1 | All Maps","protocol":17,"map":"pl_borneo","folder":"tf","game":"Team Fortress","app_id":440,"player_count":24,"max_players":24,"Bots":0,"server_type":"Dedicated","server_os":"Linux","password":true,"vac":true,"version":"7961495","steam_id":85568392924469997,"keywords":["nocrits","nodmgspread","payload","uncletopia"],"game_id":440,"stv_port":27016,"stv_name":"Uncletopia | Seattle | 1 | All Maps | STV","players":[{"user_id":500,"name":"hatred","steam_id":76561198904209270,"connected_time":4314000000000,"state":"active","ping":50},{"user_id":526,"name":"l u n a r .","steam_id":76561198075773796,"connected_time":1005000000000,"state":"active","ping":62},{"user_id":459,"name":"Lane (She/Her)","steam_id":76561199048555878,"connected_time":7032000000000,"state":"active","ping":45},{"user_id":514,"name":"Mii Guest C, From Wii Sports","steam_id":76561198197964803,"connected_time":1986000000000,"state":"active","ping":45},{"user_id":371,"name":"Nom Skirrett","steam_id":76561198014600788,"connected_time":15107000000000,"state":"active","ping":52},{"user_id":517,"name":"dogwater","steam_id":76561199416942289,"connected_time":1954000000000,"state":"active","ping":69},{"user_id":535,"name":"Cam","steam_id":76561198285054047,"connected_time":409000000000,"state":"active","ping":61},{"user_id":518,"name":"resh","steam_id":76561198239598834,"connected_time":1941000000000,"state":"active","ping":143},{"user_id":522,"name":"AWGER (don't uber)","steam_id":76561198284683624,"connected_time":1545000000000,"state":"active","ping":83},{"user_id":521,"name":"Furry Femboy Hooters CEO","steam_id":76561198097745857,"connected_time":1648000000000,"state":"active","ping":50},{"user_id":531,"name":"TROY","steam_id":76561197983852176,"connected_time":533000000000,"state":"active","ping":76},{"user_id":515,"name":"MrYadaization","steam_id":76561198050770818,"connected_time":1964000000000,"state":"active","ping":52},{"user_id":525,"name":"VicLoL","steam_id":76561198045580784,"connected_time":1157000000000,"state":"active","ping":64},{"user_id":497,"name":"Aardappel","steam_id":76561198030894676,"connected_time":4550000000000,"state":"active","ping":62},{"user_id":523,"name":"Aves!","steam_id":76561198067542929,"connected_time":1339000000000,"state":"active","ping":64},{"user_id":536,"name":"My_Movie.mp4","steam_id":76561198047002366,"connected_time":366000000000,"state":"active","ping":48},{"user_id":519,"name":"Zuriel","steam_id":76561198149673080,"connected_time":1929000000000,"state":"active","ping":60},{"user_id":532,"name":"[DATS‚û°] Sugar Meowth","steam_id":76561197995251793,"connected_time":513000000000,"state":"active","ping":45},{"user_id":533,"name":"jb","steam_id":76561198038607085,"connected_time":493000000000,"state":"active","ping":115},{"user_id":434,"name":"mega","steam_id":76561198089520959,"connected_time":8632000000000,"state":"active","ping":98},{"user_id":506,"name":"ed","steam_id":76561198080475712,"connected_time":3464000000000,"state":"active","ping":68},{"user_id":528,"name":"dimes4crimes9","steam_id":76561199406096217,"connected_time":939000000000,"state":"active","ping":40},{"user_id":486,"name":"Dimple","steam_id":76561198980324190,"connected_time":5455000000000,"state":"active","ping":70},{"user_id":537,"name":"4Real","steam_id":76561199051709367,"connected_time":363000000000,"state":"active","ping":60}]},{"server_id":119,"name":"Uncletopia | Seattle | 2 | All Maps","name_short":"sea-2","host":"sea-1.us.uncletopia.com","port":27025,"enabled":true,"region":"us-west","cc":"us","latitude":47.608013,"longitude":-122.33517,"reserved":0,"last_update":"0001-01-01T00:00:00Z","name_a2s":"Uncletopia | Seattle | 2 | All Maps","protocol":17,"map":"cp_process_final","folder":"tf","game":"Team Fortress","app_id":440,"player_count":0,"max_players":24,"Bots":0,"server_type":"Dedicated","server_os":"Linux","password":true,"vac":true,"version":"7961495","steam_id":85568392924469998,"keywords":["cp","nocrits","nodmgspread","uncletopia"],"game_id":440,"stv_port":27026,"stv_name":"Uncletopia | Seattle | 2 | All Maps | STV","players":null},{"server_id":406,"name":"Uncletopia | Seattle | 3 | Stopwatch","name_short":"sea-3","host":"sea-1.us.uncletopia.com","port":27035,"enabled":true,"region":"us-west","cc":"us","latitude":47.608013,"longitude":-122.33517,"reserved":0,"last_update":"0001-01-01T00:00:00Z","name_a2s":"Uncletopia | Seattle | 3 | Stopwatch","protocol":17,"map":"workshop/pl_summercoast_rc8e.ugc1761528829","folder":"tf","game":"Team Fortress","app_id":440,"player_count":0,"max_players":24,"Bots":0,"server_type":"Dedicated","server_os":"Linux","password":true,"vac":true,"version":"7961495","steam_id":85568392924515217,"keywords":["nocrits","nodmgspread","payload","uncletopia"],"game_id":440,"stv_port":27036,"stv_name":"Uncletopia | Seattle | 3 | Stopwatch | STV","players":null},{"server_id":17,"name":"Uncletopia | San Francisco | 1 | All Maps","name_short":"sfo-1","host":"sfo-1.us.uncletopia.com","port":27015,"enabled":true,"region":"us-west","cc":"us","latitude":37.77397,"longitude":-122.4313,"reserved":0,"last_update":"0001-01-01T00:00:00Z","name_a2s":"Uncletopia | San Francisco | 1 | All Maps","protocol":17,"map":"cp_dustbowl","folder":"tf","game":"Team Fortress","app_id":440,"player_count":23,"max_players":24,"Bots":0,"server_type":"Dedicated","server_os":"Linux","password":true,"vac":true,"version":"7961495","steam_id":85568392924469999,"keywords":["cp","nocrits","nodmgspread","uncletopia"],"game_id":440,"stv_port":27016,"stv_name":"Uncletopia | San Francisco | 1 | All Maps | STV","players":[{"user_id":13,"name":"The Gremlin","steam_id":76561198419066993,"connected_time":4495000000000,"state":"active","ping":61},{"user_id":14,"name":"asm_ghost","steam_id":76561199205363547,"connected_time":4488000000000,"state":"active","ping":58},{"user_id":33,"name":"Petrivus","steam_id":76561198202152453,"connected_time":544000000000,"state":"active","ping":60},{"user_id":16,"name":"Melon","steam_id":76561199202306398,"connected_time":3711000000000,"state":"active","ping":49},{"user_id":23,"name":"Kepa","steam_id":76561198091975728,"connected_time":1427000000000,"state":"active","ping":81},{"user_id":18,"name":"PlasticPepsiCan","steam_id":76561199226783116,"connected_time":2833000000000,"state":"active","ping":58},{"user_id":25,"name":"ZemkJval","steam_id":76561198154464008,"connected_time":1364000000000,"state":"active","ping":76},{"user_id":26,"name":"Trundlini","steam_id":76561198810160534,"connected_time":1329000000000,"state":"active","ping":114},{"user_id":27,"name":"CInnabitch","steam_id":76561198913057497,"connected_time":1217000000000,"state":"active","ping":62},{"user_id":29,"name":"HAT-WEARING‚Ñ¢ Maggot Gamer Cat","steam_id":76561197973992705,"connected_time":794000000000,"state":"active","ping":47},{"user_id":30,"name":"Xx_PercyTheSmallEngineGamer6_xX","steam_id":76561198842297041,"connected_time":749000000000,"state":"active","ping":206},{"user_id":31,"name":"randy from rimworld","steam_id":76561198030846888,"connected_time":728000000000,"state":"active","ping":106},{"user_id":32,"name":"Detective Brawl","steam_id":76561198045681169,"connected_time":704000000000,"state":"active","ping":106},{"user_id":37,"name":"liftin'","steam_id":76561199089515791,"connected_time":534000000000,"state":"active","ping":47},{"user_id":38,"name":"Pictelated","steam_id":76561198099486084,"connected_time":499000000000,"state":"active","ping":47},{"user_id":40,"name":"Mr. Bean","steam_id":76561198146240309,"connected_time":427000000000,"state":"active","ping":54},{"user_id":41,"name":"memphis mafioso","steam_id":76561198223416492,"connected_time":402000000000,"state":"active","ping":59},{"user_id":42,"name":"video games","steam_id":76561198334059206,"connected_time":204000000000,"state":"active","ping":50},{"user_id":43,"name":"Laxoloni","steam_id":76561199197045700,"connected_time":197000000000,"state":"active","ping":60},{"user_id":44,"name":"Hotdoggiest","steam_id":76561198049420141,"connected_time":168000000000,"state":"active","ping":57},{"user_id":45,"name":"Kiilys","steam_id":76561198326068377,"connected_time":100000000000,"state":"active","ping":60},{"user_id":46,"name":"Ethanol Buttchugger","steam_id":76561199127590316,"connected_time":16000000000,"state":"active","ping":62},{"user_id":47,"name":"Goat Violator","steam_id":76561198228675140,"connected_time":8000000000,"state":"spawning","ping":70}]},{"server_id":18,"name":"Uncletopia | San Francisco | 2 | All Maps","name_short":"sfo-2","host":"sfo-1.us.uncletopia.com","port":27025,"enabled":true,"region":"us-west","cc":"us","latitude":37.77397,"longitude":-122.4313,"reserved":0,"last_update":"0001-01-01T00:00:00Z","name_a2s":"Uncletopia | San Francisco | 2 | All Maps","protocol":17,"map":"cp_freight_final1","folder":"tf","game":"Team Fortress","app_id":440,"player_count":0,"max_players":24,"Bots":0,"server_type":"Dedicated","server_os":"Linux","password":true,"vac":true,"version":"7961495","steam_id":85568392924470000,"keywords":["cp","nocrits","nodmgspread","uncletopia"],"game_id":440,"stv_port":27026,"stv_name":"Uncletopia | San Francisco | 2 | All Maps | STV","players":null},{"server_id":19,"name":"Uncletopia | San Francisco | 3 | Stopwatch","name_short":"sfo-3","host":"sfo-1.us.uncletopia.com","port":27035,"enabled":true,"region":"us-west","cc":"us","latitude":37.77397,"longitude":-122.4313,"reserved":0,"last_update":"0001-01-01T00:00:00Z","name_a2s":"Uncletopia | San Francisco | 3 | Stopwatch","protocol":17,"map":"workshop/koth_jamram_rc1a.ugc2964065613","folder":"tf","game":"Team Fortress","app_id":440,"player_count":0,"max_players":24,"Bots":0,"server_type":"Dedicated","server_os":"Linux","password":true,"vac":true,"version":"7961495","steam_id":85568392924742824,"keywords":["cp","nocrits","nodmgspread","uncletopia"],"game_id":440,"stv_port":27036,"stv_name":"Uncletopia | San Francisco | 3 | Stopwatch | STV","players":null},{"server_id":20,"name":"Uncletopia | San Francisco | 4 | Community","name_short":"sfo-4","host":"sfo-1.us.uncletopia.com","port":27045,"enabled":true,"region":"us-west","cc":"us","latitude":37.77397,"longitude":-122.4313,"reserved":0,"last_update":"0001-01-01T00:00:00Z","name_a2s":"Uncletopia | San Francisco | 4 | Community","protocol":17,"map":"workshop/pl_cactuscanyon_redux_final2.ugc2579644293","folder":"tf","game":"Team Fortress","app_id":440,"player_count":0,"max_players":24,"Bots":0,"server_type":"Dedicated","server_os":"Linux","password":true,"vac":true,"version":"7961495","steam_id":85568392924742826,"keywords":["nocrits","nodmgspread","payload","uncletopia"],"game_id":440,"stv_port":27046,"stv_name":"Uncletopia | San Francisco | 4 | Community | STV","players":null},{"server_id":141,"name":"Uncletopia | Sydney | 1 | All Maps","name_short":"syd-1","host":"syd-1.au.uncletopia.com","port":27015,"enabled":true,"region":"au","cc":"au","latitude":-33.865143,"longitude":151.2099,"reserved":0,"last_update":"0001-01-01T00:00:00Z","name_a2s":"Uncletopia | Sydney | 1 | All Maps","protocol":17,"map":"koth_nucleus","folder":"tf","game":"Team Fortress","app_id":440,"player_count":1,"max_players":24,"Bots":0,"server_type":"Dedicated","server_os":"Linux","password":true,"vac":true,"version":"7961495","steam_id":85568392924470001,"keywords":["cp","nocrits","nodmgspread","uncletopia"],"game_id":440,"stv_port":27016,"stv_name":"Uncletopia | Sydney | 1 | All Maps | STV","players":[{"user_id":6,"name":"yack v","steam_id":76561198152329584,"connected_time":170000000000,"state":"active","ping":59}]},{"server_id":123,"name":"Uncletopia | Sydney | 2 | All Maps","name_short":"syd-2","host":"syd-1.au.uncletopia.com","port":27025,"enabled":true,"region":"au","cc":"au","latitude":-33.865143,"longitude":151.2099,"reserved":0,"last_update":"0001-01-01T00:00:00Z","name_a2s":"Uncletopia | Sydney | 2 | All Maps","protocol":17,"map":"cp_fastlane","folder":"tf","game":"Team Fortress","app_id":440,"player_count":0,"max_players":24,"Bots":0,"server_type":"Dedicated","server_os":"Linux","password":true,"vac":true,"version":"7961495","steam_id":85568392924470002,"keywords":["cp","nocrits","nodmgspread","uncletopia"],"game_id":440,"stv_port":27026,"stv_name":"Uncletopia | Sydney | 2 | All Maps | STV","players":null},{"server_id":395,"name":"Uncletopia | Sydney | 3 | All Maps","name_short":"syd-3","host":"syd-1.au.uncletopia.com","port":27035,"enabled":true,"region":"au","cc":"au","latitude":-33.865143,"longitude":151.2099,"reserved":0,"last_update":"0001-01-01T00:00:00Z","name_a2s":"Uncletopia | Sydney | 3 | All Maps","protocol":17,"map":"cp_metalworks","folder":"tf","game":"Team Fortress","app_id":440,"player_count":0,"max_players":24,"Bots":0,"server_type":"Dedicated","server_os":"Linux","password":true,"vac":true,"version":"7961495","steam_id":85568392925194467,"keywords":["cp","nocrits","nodmgspread","uncletopia"],"game_id":440,"stv_port":27036,"stv_name":"Uncletopia | Sydney | 3 | All Maps | STV","players":null},{"server_id":396,"name":"Uncletopia | Sydney | 4 | All Maps","name_short":"syd-4","host":"syd-1.au.uncletopia.com","port":27045,"enabled":true,"region":"au","cc":"au","latitude":-33.865143,"longitude":151.2099,"reserved":0,"last_update":"0001-01-01T00:00:00Z","name_a2s":"Uncletopia | Sydney | 4 | All Maps","protocol":17,"map":"koth_cascade","folder":"tf","game":"Team Fortress","app_id":440,"player_count":0,"max_players":24,"Bots":0,"server_type":"Dedicated","server_os":"Linux","password":true,"vac":true,"version":"7961495","steam_id":85568392925397958,"keywords":["cp","nocrits","nodmgspread","uncletopia"],"game_id":440,"stv_port":27046,"stv_name":"Uncletopia | Sydney | 4 | All Maps | STV","players":null},{"server_id":58,"name":"Uncletopia | Sydney | 5 | Stopwatch","name_short":"syd-5","host":"syd-1.au.uncletopia.com","port":27055,"enabled":true,"region":"au","cc":"au","latitude":-33.865143,"longitude":151.2099,"reserved":0,"last_update":"0001-01-01T00:00:00Z","name_a2s":"Uncletopia | Sydney | 5 | Stopwatch","protocol":17,"map":"workshop/koth_product_final.ugc454272353","folder":"tf","game":"Team Fortress","app_id":440,"player_count":0,"max_players":24,"Bots":0,"server_type":"Dedicated","server_os":"Linux","password":true,"vac":true,"version":"7961495","steam_id":85568392925397959,"keywords":["cp","nocrits","nodmgspread","uncletopia"],"game_id":440,"stv_port":27056,"stv_name":"Uncletopia | Sydney | 5 | Stopwatch | STV","players":null},{"server_id":59,"name":"Uncletopia | Sydney | 6 | Community","name_short":"syd-6","host":"syd-1.au.uncletopia.com","port":27065,"enabled":true,"region":"au","cc":"au","latitude":-33.865143,"longitude":151.2099,"reserved":0,"last_update":"0001-01-01T00:00:00Z","name_a2s":"Uncletopia | Sydney | 6 | Community","protocol":17,"map":"workshop/koth_trenchfoot_ab1.ugc731436616","folder":"tf","game":"Team Fortress","app_id":440,"player_count":0,"max_players":24,"Bots":0,"server_type":"Dedicated","server_os":"Linux","password":true,"vac":true,"version":"7961495","steam_id":85568392925397960,"keywords":["cp","nocrits","nodmgspread","uncletopia"],"game_id":440,"stv_port":27066,"stv_name":"Uncletopia | Sydney | 6 | Community | STV","players":null},{"server_id":49,"name":"Uncletopia | Warsaw | 1 | One Thousand Uncles","name_short":"waw-1","host":"waw-1.pl.uncletopia.com","port":27015,"enabled":true,"region":"eu","cc":"pl","latitude":52.2297,"longitude":21.017532,"reserved":0,"last_update":"0001-01-01T00:00:00Z","name_a2s":"Uncletopia | Warsaw | 1 | One Thousand Uncles","protocol":17,"map":"pl_badwater","folder":"tf","game":"Team Fortress","app_id":440,"player_count":0,"max_players":32,"Bots":0,"server_type":"Dedicated","server_os":"Linux","password":true,"vac":true,"version":"7961495","steam_id":85568392925397850,"keywords":["alltalk","danepve","increased_maxplayers","norespawntime","payload","uncletopia"],"game_id":440,"stv_port":0,"stv_name":"","players":null},{"server_id":50,"name":"Uncletopia | Warsaw | 2 | One Thousand Uncles","name_short":"waw-2","host":"waw-1.pl.uncletopia.com","port":27025,"enabled":true,"region":"eu","cc":"pl","latitude":52.2297,"longitude":21.017532,"reserved":0,"last_update":"0001-01-01T00:00:00Z","name_a2s":"Uncletopia | Warsaw | 2 | One Thousand Uncles","protocol":17,"map":"pl_upward","folder":"tf","game":"Team Fortress","app_id":440,"player_count":0,"max_players":32,"Bots":0,"server_type":"Dedicated","server_os":"Linux","password":true,"vac":true,"version":"7961495","steam_id":85568392925397851,"keywords":["alltalk","danepve","increased_maxplayers","norespawntime","payload","uncletopia"],"game_id":440,"stv_port":0,"stv_name":"","players":null},{"server_id":51,"name":"Uncletopia | Warsaw | 3 | All Maps","name_short":"waw-3","host":"waw-1.pl.uncletopia.com","port":27035,"enabled":true,"region":"eu","cc":"pl","latitude":52.2297,"longitude":21.017532,"reserved":0,"last_update":"0001-01-01T00:00:00Z","name_a2s":"Uncletopia | Warsaw | 3 | All Maps","protocol":17,"map":"cp_sunshine","folder":"tf","game":"Team Fortress","app_id":440,"player_count":0,"max_players":24,"Bots":0,"server_type":"Dedicated","server_os":"Linux","password":true,"vac":true,"version":"7961495","steam_id":85568392925397852,"keywords":["cp","nocrits","nodmgspread","uncletopia"],"game_id":440,"stv_port":27036,"stv_name":"Uncletopia | Warsaw | 3 | All Maps | STV","players":null},{"server_id":52,"name":"Uncletopia | Warsaw | 4 | All Maps","name_short":"waw-4","host":"waw-1.pl.uncletopia.com","port":27045,"enabled":true,"region":"eu","cc":"pl","latitude":52.2297,"longitude":21.017532,"reserved":0,"last_update":"0001-01-01T00:00:00Z","name_a2s":"Uncletopia | Warsaw | 4 | All Maps","protocol":17,"map":"cp_snakewater_final1","folder":"tf","game":"Team Fortress","app_id":440,"player_count":0,"max_players":24,"Bots":0,"server_type":"Dedicated","server_os":"Linux","password":true,"vac":true,"version":"7961495","steam_id":85568392925397853,"keywords":["cp","nocrits","nodmgspread","uncletopia"],"game_id":440,"stv_port":27046,"stv_name":"Uncletopia | Warsaw | 4 | All Maps | STV","players":null},{"server_id":53,"name":"Uncletopia | Warsaw | 5 | Stopwatch","name_short":"waw-5","host":"waw-1.pl.uncletopia.com","port":27055,"enabled":true,"region":"eu","cc":"pl","latitude":52.2297,"longitude":21.017532,"reserved":0,"last_update":"0001-01-01T00:00:00Z","name_a2s":"Uncletopia | Warsaw | 5 | Stopwatch","protocol":17,"map":"workshop/koth_product_final.ugc454272353","folder":"tf","game":"Team Fortress","app_id":440,"player_count":0,"max_players":24,"Bots":0,"server_type":"Dedicated","server_os":"Linux","password":true,"vac":true,"version":"7961495","steam_id":85568392925397854,"keywords":["cp","nocrits","nodmgspread","uncletopia"],"game_id":440,"stv_port":27056,"stv_name":"Uncletopia | Warsaw | 5 | Stopwatch | STV","players":null},{"server_id":54,"name":"Uncletopia | Warsaw | 6 | Community","name_short":"waw-6","host":"waw-1.pl.uncletopia.com","port":27065,"enabled":true,"region":"eu","cc":"pl","latitude":52.2297,"longitude":21.017532,"reserved":0,"last_update":"0001-01-01T00:00:00Z","name_a2s":"Uncletopia | Warsaw | 6 | Community","protocol":17,"map":"workshop/pl_corrode_rc2.ugc546577989","folder":"tf","game":"Team Fortress","app_id":440,"player_count":0,"max_players":24,"Bots":0,"server_type":"Dedicated","server_os":"Linux","password":true,"vac":true,"version":"7961495","steam_id":85568392925397856,"keywords":["nocrits","nodmgspread","payload","uncletopia"],"game_id":440,"stv_port":27066,"stv_name":"Uncletopia | Warsaw | 6 | Community | STV","players":null}]}